~VERSION INFORMATION
 VERS.                2.0:   CWLS LOG ASCII STANDARD - VERSION 2.0
 WRAP.                 NO:   ONE LINE PER DEPTH STEP
~WELL INFORMATION
#MNEM.UNIT      DATA TYPE    INFORMATION
#----------   ------------   ------------------------------
 STRT.F           16.0000:   START DEPTH
 STOP.F         2834.0000:   STOP DEPTH
 STEP.F            0.5000:   STEP LENGTH
 NULL.          -999.2500:   NO VALUE
 COMP.    FENIX & SCISSON:   COMPANY
 WELL. FENIX NPR 3 "AX" #14-21:   WELL
 FLD .              N P R:   FIELD
 LOC .      S21 T39N R78W:   LOCATION
 CNTY.            NATRONA:   COUNTY
 STAT.            WYOMING:   STATE
 CTRY. UNITED STATES OF AMERICA:   COUNTRY
 SRVC.           BIRDWELL:   SERVICE COMPANY
 DATE.        26-JUL-1978:   LOGDATE
 API .     49025106740000:   API NUMBER
~CURVE INFORMATION
#MNEM.UNIT       API CODE    CURVE DESCRIPTION
#----------   ------------   ------------------------------
 DEPT.F                  :   
 GRD .GAPI   45 310 01 00:   GAMMA RAY FROM DENSITY LOG
 CALD.IN     45 280 60 00:   CALIPER FROM DENSITY LOG
 RHOB.G/C3   45 350 01 00:   BULK DENSITY
 CORR.G/C3   45 356 01 00:   DENSITY CORRECTION
 SPR .MV     05 010 01 00:   SPONTANEOUS POTENTIAL
 ILD .OHMM   05 120 46 00:   DEEP INDUCTION RESISTIVITY
 SN  .OHMM   05 040 00 00:   SHORT NORMAL
~PARAMETER INFORMATION
#MNEM.UNIT          VALUE    DESCRIPTION
#----------   ------------   ------------------------------
 EKB .F         4998.0000:   Kelly bushing
 EGL .F         4988.0000:   Ground level
 EDF .F            0.0000:   Drilling floor
 EPD .F            0.0000:   Permanent datum
 TD  .F         2850.0000:   Total depth
 DATE.        26-JUL-1978:   Date logged
 CLNT.            A2DTECH:   Client Code
 SL  . 2640' FNL & 500' FWL:   Surface Location
 PD  .                 GL:   Permanent Datum
 DD  .F              2850:   Depth driller
 DL  .F              2838:   Depth logger
 BLI .F              2832:   Bottom log interval
 CS1 .IN            8.625:   Casing size
 CBD1.      8.625" @ 208':   Casing driller 1
 BS1 .IN            7.875:   Bit size
 DFT .            MUD/GEL:   Type fluid in hole
 DFD .                9.4:   Density
 DFV .                 37:   Viscosity
 DFPH.                 11:   pH
 TCS .HRS               4:   Time Circ. stopped
 LUN .               2958:   Logging unit number
 LUL .               CASP:   Logging unit location
 ENGI.             MILLER:   Recorded By
 WITN.           MCGINLEY:   Witnessed by
 ORIG.           5" PRINT:   Origin of data
 UWI .     49025106740000:   Unique Well ID
 DICO. A2D TECHNOLOGIES, INC.:   Digitizing Company
 DAPD.                 12:   Feet Above Permanent Datum
 BSD1.               3950:   Depth drilled with bit1
 MCSS.               CALC:   Source Rmc.
 TLI .F               230:   Top log interval
~OTHER INFORMATION
~A   DEPT       GRD      CALD       RHOB       CORR        SPR        ILD         SN   
# ...
  698.5000    90.1640    10.0510     2.4930     0.2220   -38.2860     8.8100     9.1250
  699.0000    90.8720    10.0480     2.4910     0.2220   -38.1870     8.8180     9.1250
  699.5000    91.5550    10.0450     2.4880     0.2220   -38.0740     8.8270     9.1250
  700.0000    90.9890    10.0420     2.4870     0.2220   -37.9600     8.8350     9.1250
  700.5000    89.5110    10.0440     2.4860     0.2230   -37.8470     8.8440     9.1250
  701.0000    87.9880    10.0610     2.4840     0.2230   -37.7330     8.8520     9.1250
  701.5000    87.6250    10.0780     2.4780     0.2240   -37.6190     8.8610     9.1250
  702.0000    87.7100    10.0950     2.4720     0.2250   -37.5030     8.8690     9.1250
  702.5000    87.8140    10.1120     2.4650     0.2250   -37.4140     8.8780     9.1250
  703.0000    87.2340    10.1290     2.4610     0.2270   -37.3170     8.8780     9.1250
  703.5000    86.4350    10.1460     2.4520     0.2300   -37.4950     8.8610     9.1250
  704.0000    85.6320    10.1580     2.4400     0.2350   -37.7430     8.8380     9.1250
  704.5000    84.3430    10.1610     2.4230     0.2400   -38.1560     8.8150     9.1250
  705.0000    83.1500    10.1640     2.4220     0.2460   -38.8490     8.7920     9.1250
  705.5000    83.2120    10.1670     2.4110     0.2560   -39.2680     8.7690     9.1250
  706.0000    84.2510    10.1700     2.4000     0.2680   -39.2690     8.7460     9.1260
  706.5000    85.5080    10.1730     2.4050     0.2790   -39.2820     8.7240     9.0770
  707.0000    86.1900    10.1760     2.4120     0.2840   -38.9770     8.7010     9.0310
  707.5000    86.3360    10.1790     2.4180     0.2850   -38.6270     8.6780     8.9850
  708.0000    85.7930    10.1820     2.4150     0.2870   -38.2730     8.6550     8.9590
  708.5000    85.2580    10.1850     2.4100     0.2880   -37.9210     8.6350     8.9540
  709.0000    85.2090    10.1880     2.4050     0.2890   -37.5680     8.6240     8.9490
  709.5000    86.0260    10.1910     2.4040     0.2920   -37.2010     8.6130     8.9440
  710.0000    86.8100    10.1950     2.4030     0.2950   -37.2040     8.6020     8.9390
  710.5000    87.1980    10.1980     2.4020     0.2970   -37.3350     8.5910     8.9340
  711.0000    87.5660    10.2010     2.4030     0.2970   -37.4700     8.5800     8.9300
  711.5000    87.9340    10.2040     2.4100     0.2980   -37.6090     8.5690     8.9250
  712.0000    87.5880    10.2070     2.4150     0.2980   -37.7820     8.5570     8.9200
  712.5000    86.6580    10.2100     2.4230     0.2970   -38.0690     8.5460     8.9150
  713.0000    85.7390    10.2130     2.4320     0.2940   -38.3480     8.5350     8.9100
  713.5000    85.0310    10.2160     2.4400     0.2910   -38.6250     8.5240     8.9060
  714.0000    85.0480    10.2130     2.4440     0.2880   -38.9020     8.5130     8.9010
  714.5000    85.0490    10.2080     2.4470     0.2860   -39.0300     8.5020     8.8960
  715.0000    85.0540    10.2040     2.4440     0.2860   -38.9020     8.4910     8.8910
  715.5000    85.2160    10.2000     2.4410     0.2860   -38.7780     8.4800     8.8870
  716.0000    85.8920    10.1960     2.4380     0.2850   -38.6410     8.4690     8.8820
  716.5000    86.2410    10.1920     2.4350     0.2840   -38.4610     8.4570     8.8610
  717.0000    85.5780    10.1880     2.4430     0.2830   -38.2800     8.4460     8.7840
  717.5000    84.6570    10.1840     2.4470     0.2820   -38.0990     8.4350     8.7080
  718.0000    83.7350    10.1800     2.4450     0.2820   -37.9190     8.4240     8.6310
  718.5000    84.5630    10.1800     2.4510     0.2840   -37.9440     8.4130     8.5600
  719.0000    85.5650    10.1910     2.4500     0.2850   -38.0020     8.4050     8.5550
  719.5000    85.4920    10.2020     2.4520     0.2820   -38.0600     8.4050     8.5510
  720.0000    84.5090    10.2140     2.4740     0.2740   -38.0080     8.4050     8.5460
  720.5000    83.6750    10.2160     2.4870     0.2670   -37.8420     8.4050     8.5420
  721.0000    85.2000    10.2160     2.4830     0.2670   -37.6770     8.4050     8.5380
  721.5000    86.8450    10.2160     2.4850     0.2670   -37.5120     8.4050     8.5330
  722.0000    88.4540    10.2160     2.4860     0.2730   -37.3410     8.4050     8.5290
  722.5000    90.0610    10.2240     2.4740     0.2790   -37.3570     8.4050     8.5250
  723.0000    91.6770    10.2370     2.4750     0.2810   -37.4260     8.4050     8.5200
  723.5000    93.2730    10.2500     2.4770     0.2820   -37.4980     8.4050     8.5160
  724.0000    93.6510    10.2490     2.4760     0.2820   -37.5690     8.3740     8.5110
  724.5000    92.1670    10.2310     2.4730     0.2820   -37.6400     8.3420     8.5070
  725.0000    90.6170    10.2130     2.4710     0.2840   -37.7110     8.3100     8.5030
  725.5000    89.3390    10.1960     2.4710     0.2860   -37.7820     8.2780     8.4980
  726.0000    89.7670    10.1780     2.4800     0.2840   -37.8520     8.2470     8.4940
  726.5000    90.5740    10.1600     2.4920     0.2780   -37.8870     8.2150     8.4900
  727.0000    90.5380    10.1570     2.5010     0.2740   -37.8710     8.1830     8.4850
  727.5000    89.5500    10.1570     2.4870     0.2740   -37.8560     8.1360     8.4760
  728.0000    87.1780    10.1580     2.4720     0.2740   -37.8410     8.0870     8.4510
  728.5000    85.6850    10.1450     2.4640     0.2740   -37.8250     8.0380     8.4250
  729.0000    85.8980    10.1310     2.4780     0.2680   -37.8090     7.9880     8.4000
  729.5000    87.3110    10.1170     2.4900     0.2620   -37.7940     7.9390     8.3750
  730.0000    88.8210    10.1030     2.4940     0.2590   -37.7780     7.8850     8.3500
  730.5000    88.3560    10.0890     2.4890     0.2540   -37.7630     7.8850     8.3250
  731.0000    87.8640    10.0760     2.4840     0.2500   -37.7470     7.8930     8.3000
  731.5000    87.3530    10.0690     2.4800     0.2500   -37.7320     7.9200     8.2750
  732.0000    87.1740    10.0610     2.4780     0.2500   -37.7160     7.9480     8.2420
  732.5000    89.1280    10.0530     2.4760     0.2500   -37.7010     7.9750     8.1670
  733.0000    91.8990    10.0450     2.4790     0.2500   -37.6850     8.0020     8.1040
  733.5000    94.6070    10.0390     2.4850     0.2490   -37.6700     8.0300     8.1060
  734.0000    95.2410    10.0380     2.4910     0.2470   -37.6540     8.0010     8.1130
  734.5000    94.5700    10.0370     2.4930     0.2430   -37.6390     7.9240     8.1200
  735.0000    93.7880    10.0370     2.4870     0.2450   -37.6230     7.8460     8.1270
  735.5000    92.7740    10.0360     2.4810     0.2450   -37.6070     7.7690     8.1350
  736.0000    90.2030    10.0350     2.4820     0.2430   -37.5920     7.6920     8.1420
  736.5000    87.6150    10.0340     2.4880     0.2370   -37.5760     7.6150     8.1490
  737.0000    86.2230    10.0330     2.4910     0.2360   -37.5610     7.6020     8.1560
  737.5000    86.6160    10.0320     2.4840     0.2350   -37.5450     7.6020     8.1630
  738.0000    87.6100    10.0320     2.4840     0.2350   -37.5300     7.6020     8.1700
  738.5000    88.3410    10.0310     2.4810     0.2370   -37.5140     7.6020     8.1770
  739.0000    88.2850    10.0300     2.4770     0.2390   -37.4990     7.6020     8.1840
  739.5000    88.2270    10.0290     2.4770     0.2410   -37.4830     7.6020     8.1920
  740.0000    88.1610    10.0280     2.4770     0.2420   -37.4680     7.6020     8.1990
  740.5000    88.0940    10.0270     2.4780     0.2430   -37.4520     7.6020     8.2060
  741.0000    88.0400    10.0260     2.4770     0.2430   -37.4370     7.6020     8.2130
  741.5000    88.4150    10.0260     2.4730     0.2450   -37.4210     7.6020     8.2200
  742.0000    90.6860    10.0250     2.4710     0.2490   -37.4060     7.6140     8.2270
  742.5000    92.9400    10.0240     2.4740     0.2500   -37.3900     7.6310     8.2340
  743.0000    95.2050    10.0230     2.4760     0.2500   -37.3750     7.6480     8.2410
  743.5000    96.2430    10.0220     2.4820     0.2500   -37.3590     7.6640     8.2480
