~VERSION INFORMATION
 VERS.                2.0:   CWLS LOG ASCII STANDARD - VERSION 2.0
 WRAP.                 NO:   ONE LINE PER DEPTH STEP
~WELL INFORMATION
#MNEM.UNIT      DATA TYPE    INFORMATION
#----------   ------------   ------------------------------
 STRT.F          450.0000:   START DEPTH
 STOP.F         3098.0000:   STOP DEPTH
 STEP.F            0.5000:   STEP LENGTH
 NULL.          -999.2500:   NO VALUE
 COMP. FENIX & SCISSON - U.S NAVY:   COMPANY
 WELL. FENIX NPR 3 "AX" #11-33:   WELL
 FLD .              N P R:   FIELD
 LOC .      S33 T39N R78W:   LOCATION
 CNTY.            NATRONA:   COUNTY
 STAT.            WYOMING:   STATE
 CTRY. UNITED STATES OF AMERICA:   COUNTRY
 SRVC.              WELEX:   SERVICE COMPANY
 DATE.        12-MAR-1977:   LOGDATE
 API .     49025103210000:   API NUMBER
~CURVE INFORMATION
#MNEM.UNIT       API CODE    CURVE DESCRIPTION
#----------   ------------   ------------------------------
 DEPT.F                  :   
 CALD.IN     45 280 60 00:   CALIPER FROM DENSITY LOG
 GRD .GAPI   45 310 01 00:   GAMMA RAY FROM DENSITY LOG
 RHOB.G/C3   45 350 01 00:   BULK DENSITY
 CORR.G/C3   45 356 01 00:   DENSITY CORRECTION
 SPR .MV     07 010 01 00:   SPONTANEOUS POTENTIAL
 SGRD.MV     07 010 01 00:   SHALLOW GUARD RESISTIVITY
 ILD .OHMM   07 120 46 00:   DEEP INDUCTION RESISTIVITY
 ILM .OHMM   07 120 44 00:   INDUCTION LOG MEDIUM RESISTIVITY
~PARAMETER INFORMATION
#MNEM.UNIT          VALUE    DESCRIPTION
#----------   ------------   ------------------------------
 EKB .F         5133.0000:   Kelly bushing
 EGL .F         5122.0000:   Ground level
 TD  .F         3130.0000:   Total depth
 DATE.        12-MAR-1977:   Date logged
 CLNT.            A2DTECH:   Client Code
 SL  . 331' FNL & 430' FWL:   Surface Location
 PD  .                 GL:   Permanent Datum
 DD  .F              3130:   Depth driller
 DL  .F              3102:   Depth logger
 BLI .F              3100:   Bottom log interval
 CS1 .IN            8.625:   Casing size
 CBD1.      8.625" @ 459':   Casing driller 1
 CBL1.F               455:   Casing logger 1
 BS1 .IN            7.875:   Bit size
 DFT .                KCL:   Type fluid in hole
 DFD .                9.3:   Density
 DFV .                 36:   Viscosity
 DFL .               16.2:   Fluid loss
 MSS .           FLOWLINE:   Source of sample
 RMS .OHMM           0.37:   Rm
 MST .F                50:   Rm Meas. temp.
 RMF .OHMM           0.32:   Rmf
 MFST.F                55:   Rmf Meas. temp.
 RMC .OHMM           0.58:   Rmc
 MCST.F                55:   Rmc Meas. temp.
 MFSS.               MEAS:   Source Rmf.
 RMB .OHMM           .168:   Rm. at BHT
 BHT .F               110:   BHT.
 TCS .HRS               4:   Time Circ. stopped
 MRT .F               110:   Maximum recorded temp.
 LUN .               0716:   Logging unit number
 LUL .             VERNAT:   Logging unit location
 ENGI.        E. CALLAHAN:   Recorded By
 WITN.            K. JAPP:   Witnessed by
 ORIG.           5" PRINT:   Origin of data
 UWI .     49025103210000:   Unique Well ID
 DICO. A2D TECHNOLOGIES, INC.:   Digitizing Company
 DAPD.F                11:   Feet Above Permanent Datum
 BSD1.               3950:   Depth drilled with bit1
 MCSS.               CALC:   Source Rmc.
 EPD .F              5122:   Elevation Permanent Datum
 LMF .                 KB:   Log Measured From
 DMF .                 KB:   Drilling Measured From
 TLI .F               455:   Top log interval
~OTHER INFORMATION
~A   DEPT       CALD       GRD        RHOB      CORR       SPR       SGRD        ILD        ILM   
# ...
  976.5000    10.2774   109.6040     2.4803     0.0574   -60.7774     9.8551     7.9040     9.0758
  977.0000    10.2774   106.7837     2.4703     0.0514   -60.7747     9.8549     8.5838     9.3260
  977.5000    10.2774   105.0015     2.4504     0.0475   -60.7720    10.2202     8.9844     9.7604
  978.0000    10.2774   104.0114     2.4624     0.0495   -60.7694    10.9967     9.0636     9.9384
  978.5000    10.2774   104.6054     2.4693     0.0515   -60.7667    11.4044     8.8953    10.0252
  979.0000    10.2972   104.8035     2.4763     0.0475   -60.7640    11.5050     8.9730    10.0210
  979.5000    10.2972   105.7936     2.4793     0.0495   -60.7614    11.3948     9.5662    10.0176
  980.0000    10.2972   105.0015     2.4853     0.0575   -60.7587    11.6016     9.5622    10.0134
  980.5000    10.3170   104.4074     2.5053     0.0675   -60.7560    11.8123     9.8258    10.0092
  981.0000    10.3368   106.7837     2.4814     0.0655   -60.7534    11.9165     9.7316    10.0066
  981.5000    10.3368   107.3777     2.4774     0.0635   -60.7507    11.8023     9.9083    10.0941
  982.0000    10.3566   109.1599     2.4574     0.0535   -60.7480    11.6893     9.9957    10.0890
  982.5000    10.3764   109.7540     2.4355     0.0436   -60.7454    11.6844    10.0839    10.1780
  983.0000    10.3764   109.9520     2.4345     0.0456   -60.7427    11.4663     9.9873    10.1728
  983.5000    10.3764   110.1500     2.4255     0.0476   -60.7400    11.4615    10.0754    10.1694
  984.0000    10.3764   109.9520     2.4564     0.0596   -60.7374    11.4567     9.7960    10.1651
  984.5000    10.3764   109.9520     2.4754     0.0626   -60.7347    11.3469     9.7926    10.1617
  985.0000    10.3962   109.1599     2.4654     0.0676   -60.7320    11.3422     9.6099    10.1565
  985.5000    10.3764   107.1797     2.4515     0.0536   -60.7294    11.2335     9.5178    10.0584
  986.0000    10.3566   105.9916     2.4525     0.0516   -60.7267    11.2287     9.5138    10.0550
  986.5000    10.3368   105.3975     2.4525     0.0476   -60.7240    11.1212     9.5114    10.0507
  987.0000    10.3368   104.4074     2.4575     0.0476   -60.7214    11.1165     9.5066     9.9536
  987.5000    10.3170   104.2094     2.4714     0.0636   -60.7187    11.0099     9.5017     9.9510
  988.0000    10.3566   103.4173     2.4585     0.0576   -60.7160    11.0053     9.4993     9.9452
  988.5000    10.3764   103.2193     2.4575     0.0636   -60.7134    11.2051     9.4937     9.9410
  989.0000    10.3962   104.0114     2.4575     0.0696   -61.2902    11.3040     9.4905     9.9368
  989.5000    10.3962   104.6054     2.4605     0.0736   -61.0974    11.1957     9.4857    10.0244
  990.0000    10.4358   104.6054     2.4705     0.0876   -61.1067    11.3990     9.4817    10.0211
  990.5000    10.4160   104.6054     2.4834     0.0996   -61.1069    11.3942     9.4793    10.0151
  991.0000    10.4160   104.4074     2.4755     0.0936   -61.0858    11.4948     9.4753    10.0118
  991.5000    10.3962   104.8035     2.4625     0.0857   -61.0647    11.4899     9.4721    10.1935
  992.0000    10.3368   105.0015     2.4735     0.0757   -61.0436    11.4851     9.4665    10.3745
  992.5000    10.2774   105.1995     2.4924     0.0677   -61.0224    11.3750     9.4625    10.0876
  993.0000    10.2576   105.0015     2.4725     0.0617   -61.0013    11.4754     9.4585     9.8993
  993.5000    10.2378   105.0015     2.4635     0.0637   -60.9802    11.5767     9.4537    10.1772
  994.0000    10.2378   105.1995     2.4865     0.0717   -60.9591    11.5719     9.4505    10.1721
  994.5000    10.2378   105.5955     2.4935     0.0757   -60.9380    11.4610     9.4465    10.1678
  995.0000    10.2378   105.9916     2.4995     0.0817   -60.9169    11.2471     9.4441    10.1635
  995.5000    10.2576   106.1896     2.5025     0.0917   -60.8958    11.0372     9.3520    10.1592
  996.0000    10.2774   108.1698     2.5094     0.0897   -60.8747    11.1346     9.6091    10.1549
  996.5000    10.2972   109.5559     2.5065     0.0937   -60.8536    11.2329     9.5170    10.1506
  997.0000    10.2972   109.5559     2.5005     0.0958   -60.8325    11.1252     9.7794    10.1480
  997.5000    10.2972   109.3579     2.4955     0.0898   -60.8114    11.1205     9.6857    10.1421
  998.0000    10.2972   108.5658     2.4965     0.0898   -60.7902    11.1159     9.5049    10.1378
  998.5000    10.2972   107.9718     2.5025     0.0898   -60.7691    11.0093     9.1572    10.1352
  999.0000    10.3170   108.9619     2.5045     0.0898   -60.7480    11.0001     9.2388    10.1292
  999.5000    10.3170   109.9520     2.5070     0.0898   -60.7269    10.8947     9.1495    10.0321
 1000.0000    10.3368   110.7441     2.5070     0.0858   -60.7058    10.7903     9.0626     9.9376
 1000.5000    10.3368   109.7569     2.5034     0.0801   -60.6847    10.7857     9.0035    10.1158
 1001.0000    10.3372   109.3617     2.5000     0.0799   -60.6651    10.8841     8.9757    10.3017
 1001.5000    10.3374   109.3643     2.4960     0.0898   -60.6456    10.5831     8.9700    10.1102
 1002.0000    10.3375   110.5542     2.4960     0.0879   -60.6260    10.9765     8.9669     9.6518
 1002.5000    10.3377   107.5857     2.4990     0.0779   -60.6065    10.8773     8.9638     9.5607
 1003.0000    10.3379   108.9746     2.5000     0.0739   -60.5869    10.9734     8.9608     9.3830
 1003.5000    10.3183   109.3729     2.4960     0.0719   -60.5674    11.0711     8.9577     9.3791
 1004.0000    10.3383   110.1668     2.4900     0.0699   -60.5478    10.9658     8.8725     9.3759
 1004.5000    10.3385   111.3587     2.4860     0.0699   -60.5283    10.5656     8.7881     9.3740
 1005.0000    10.3585   111.5581     2.4920     0.0699   -60.5087    10.4658     8.7851     9.6326
 1005.5000    10.3784   112.5506     2.4861     0.0700   -60.4892    10.5525     8.8634     9.7184
 1006.0000    10.3786   113.5432     2.4851     0.0779   -60.4696    10.6487     9.1085     9.8956
 1006.5000    10.3986   111.9604     2.4970     0.0879   -60.4500    10.9424     9.1060     9.9837
 1007.0000    10.3790   110.7745     2.4960     0.0919   -60.4305    11.2497     9.1035     9.8829
 1007.5000    10.3990   110.5786     2.4821     0.0919   -60.4109    11.1428     9.0163     9.7909
 1008.0000    10.4190   110.3827     2.4721     0.0760   -60.3914    10.9364     9.0126     9.5209
 1008.5000    10.3994   110.3849     2.4791     0.0760   -60.3718    10.8316     9.0101     9.3445
 1009.0000    10.3995   110.3871     2.4801     0.0700   -60.3523    10.7294     9.0070     9.4277
 1009.5000    10.4195   110.1912     2.4741     0.0680   -60.3327    10.6266     9.0046     9.2519
 1010.0000    10.4197   109.7980     2.4881     0.0680   -60.3132    10.5256     9.0015     9.3343
 1010.5000    10.4793   109.7993     2.4921     0.0720   -60.4541    10.5220     8.8335     9.4174
 1011.0000    10.5192   109.0090     2.4861     0.0680   -60.4576    10.6156     8.7496     9.4141
 1011.5000    10.5193   107.4262     2.4711     0.0601   -60.4555    10.7109     8.5863    10.2240
 1012.0000    10.5195   107.2302     2.4711     0.0581   -60.4535    10.7072     8.5059    10.1268
 1012.5000    10.5395   107.4304     2.4936     0.0621   -60.4515    10.4111     8.3483     9.3182
 1013.0000    10.5397   108.8195     2.5026     0.0641   -60.4495    10.0312     8.4177     8.8143
 1013.5000    10.5795   108.8216     2.4936     0.0841   -60.4474     9.7545     8.4166     8.8113
 1014.0000    10.5995   108.4275     2.4866     0.0621   -60.4454     9.6617     8.4921     9.0550
 1014.5000    10.6394   108.0329     2.4656     0.0651   -60.4434     9.6591     8.4889     9.3054
 1015.0000    10.6594   108.8280     2.5155     0.0980   -60.4414    10.0173     8.4857     9.1360
 1015.5000    10.6397   109.6228     2.5305     0.1180   -60.4393    10.2951     8.4826     9.1329
 1016.0000    10.6201   110.4171     2.5375     0.1090   -60.4373    10.5798     8.4794     9.1297
 1016.5000    10.5609   110.8147     2.5315     0.1001   -60.4353    10.3832     8.4762     9.1266
