~VERSION INFORMATION
 VERS.                2.0:   CWLS LOG ASCII STANDARD - VERSION 2.0
 WRAP.                 NO:   ONE LINE PER DEPTH STEP
~WELL INFORMATION
#MNEM.UNIT      DATA TYPE    INFORMATION
#----------   ------------   ------------------------------
 STRT.F           46.0000:   START DEPTH
 STOP.F         2736.5000:   STOP DEPTH
 STEP.F            0.5000:   STEP LENGTH
 NULL.          -999.2500:   NO VALUE
 COMP.          INTEX OIL:   COMPANY
 WELL. INTEX NPR 3 "AX" #72-20:   WELL
 FLD .             TEAPOT:   FIELD
 LOC .      S20 T39N R78W:   LOCATION
 CNTY.            NATRONA:   COUNTY
 STAT.            WYOMING:   STATE
 CTRY. UNITED STATES OF AMERICA:   COUNTRY
 SRVC.       SCHLUMBERGER:   SERVICE COMPANY
 DATE.        11-MAY-1966:   LOGDATE
 API .     49025095110000:   API NUMBER
~CURVE INFORMATION
#MNEM.UNIT       API CODE    CURVE DESCRIPTION
#----------   ------------   ------------------------------
 DEPT.F                  :   
 SPR .MV     05 010 01 00:   SPONTANEOUS POTENTIAL FROM RES.
 ILD .OHMM   05 120 46 00:   INDUCTION LOG DEEP
 ASN .OHMM   05 041 16 00:   AMPLIFIED SHORT NORMAL 16"
 CALD.IN     45 280 60 00:   CALIPER FROM DENSITY LOG
 CORR.G/C3   45 356 01 00:   DENSITY CORRECTION
 RHOB.G/C3   45 350 01 00:   BULK DENSITY
 GRD .GAPI   45 310 01 00:   GAMMA RAY FROM DENSITY LOG
~PARAMETER INFORMATION
#MNEM.UNIT          VALUE    DESCRIPTION
#----------   ------------   ------------------------------
 EKB .F         5042.3000:   Kelly bushing
 EGL .F         5032.0000:   Ground level
 EDF .F            0.0000:   Drilling floor
 EPD .F         5032.0000:   Permanent datum
 TD  .F         2740.0000:   Total depth
 DATE.        11-MAY-1966:   Date logged
 CLNT.            A2DTECH:   Client Code
 DAPD.F              10.3:   Feet Above Permanent Datum
 DD  .F              2740:   Depth driller
 DL  .F              2737:   Depth logger
 BLI .F              2736:   Bottom log interval
 TLI .F                88:   Top log interval
 CS1 .IN            10.75:   Casing size
 CBD1.       10.75" @ 24':   Casing driller 1
 BS1 .IN            7.875:   Bit size
 BSD1.F              2740:   Depth drilled with bit1
 DFT .           OIL EMUL:   Type fluid in hole
 DFD .                9.8:   Density
 DFV .                 58:   Viscosity
 MSS .         CIRCULATED:   Source of sample
 RMS .OHMM           3.04:   Rm
 MST .F                54:   Rm Meas. temp.
 RMF .OHMM           1.95:   Rmf
 MFST.F                55:   Rmf Meas. temp.
 MFSS.                 FR:   Source Rmf.
 RMB .OHMM           1.64:   Rm. at BHT
 BHT .F               100:   BHT.
 TCS .HRS               4:   Time Circ. stopped
 MRT .F               100:   Maximum recorded temp.
 LUN .               4507:   Logging unit number
 LUL .               CSPR:   Logging unit location
 ENGI.               HAUG:   Recorded By
 WITN.             TUTTLE:   Witnessed by
 ORIG.        2" 5" PRINT:   Origin of data
 UWI .     49025095110000:   Unique Well ID
 DICO. A2D TECHNOLOGIES, INC.:   Digitizing Company
~OTHER INFORMATION
~A   DEPT      SPR        ILD        ASN       CALD       CORR       RHOB         GRD  
# ...
 1820.5000   -36.1040     4.6920     6.9490     8.9190     0.0220     2.4150   103.6930
 1821.0000   -36.1590     4.7600     7.3260     8.9200     0.0320     2.4180   103.7040
 1821.5000   -36.2180     4.8360     7.2860     8.9210     0.0240     2.4080   105.0080
 1822.0000   -36.2770     4.9060     7.2280     8.9230     0.0080     2.4030   108.5530
 1822.5000   -36.3350     4.9810     7.1620     8.9240     0.0130     2.4100   111.7280
 1823.0000   -36.3940     5.0520     7.1010     8.9250     0.0170     2.4060   111.5580
 1823.5000   -36.4530     5.1260     7.0440     8.9260     0.0130     2.3950   110.0360
 1824.0000   -36.5110     5.2050     7.0590     8.9280     0.0090     2.3940   110.3000
 1824.5000   -36.5700     5.3950     7.2780     8.9290     0.0070     2.3920   112.4910
 1825.0000   -36.6290     5.5880     7.5100     8.9300     0.0120     2.3970   115.7140
 1825.5000   -36.6880     5.7810     7.7640     8.9310     0.0160     2.4070   116.9580
 1826.0000   -36.7460     5.9780     8.2290     8.9330     0.0270     2.4170   115.7460
 1826.5000   -36.8050     6.1680     8.7350     8.9340     0.0290     2.4290   112.6380
 1827.0000   -36.8640     6.3560     9.2170     8.9350     0.0270     2.4450   109.9170
 1827.5000   -36.9220     6.3440     9.6520     8.9360     0.0300     2.4600   107.0100
 1828.0000   -36.9820     6.3190     9.4830     8.9380     0.0370     2.4780   104.2780
 1828.5000   -37.0380     6.2880     9.2180     8.9390     0.0370     2.4850   101.2580
 1829.0000   -37.0990     6.2640     8.9380     8.9400     0.0280     2.4760   100.3890
 1829.5000   -37.1570     6.2340     8.6710     8.9410     0.0250     2.4700   101.7750
 1830.0000   -37.1870     6.2090     8.5810     8.9430     0.0230     2.4570   102.8390
 1830.5000   -37.0230     6.1820     8.6870     8.9440     0.0210     2.4360   100.4690
 1831.0000   -36.8840     6.2340     8.8230     8.9450     0.0190     2.4230    99.1350
 1831.5000   -36.7330     6.2990     8.9570     8.9470     0.0120     2.4190    98.3080
 1832.0000   -36.5880     6.3640     9.0860     8.9480     0.0030     2.4190    97.6080
 1832.5000   -36.4420     6.4280     9.2240     8.9490     0.0050     2.4200    95.7260
 1833.0000   -36.2940     6.4930     9.3520     8.9500     0.0050     2.4220    93.7170
 1833.5000   -36.1470     6.5560     9.4910     8.9520     0.0140     2.4340    93.1820
 1834.0000   -36.0360     6.6220     9.4330     8.9530     0.0310     2.4390    96.4490
 1834.5000   -36.1100     6.6850     9.3270     8.9540     0.0260     2.4400    98.0480
 1835.0000   -36.1760     6.7540     9.4260     8.9550     0.0230     2.4370    99.5300
 1835.5000   -36.2510     6.7590     9.5770     8.9570     0.0330     2.4490   100.1350
 1836.0000   -36.3200     6.6140     9.7160     8.9580     0.0410     2.4580    99.2790
 1836.5000   -36.3920     6.4160     9.8650     8.9590     0.0480     2.4670    97.7810
 1837.0000   -36.4620     6.2230     9.8240     8.9600     0.0440     2.4740    98.4750
 1837.5000   -36.5340     6.0290     9.7220     8.9620     0.0410     2.4790   101.2850
 1838.0000   -36.6040     5.8360     9.2590     8.9630     0.0380     2.4630   104.1890
 1838.5000   -36.6760     5.6410     8.6320     8.9640     0.0540     2.4480   106.5040
 1839.0000   -36.7470     5.4510     8.0340     8.9650     0.0420     2.4240   108.5700
 1839.5000   -36.8030     5.2530     7.4190     8.9670     0.0350     2.4150   110.4310
 1840.0000   -36.7550     5.2100     7.2200     8.9680     0.0300     2.4220   114.9520
 1840.5000   -36.7080     5.2460     7.2520     8.9690     0.0270     2.4240   117.8290
 1841.0000   -36.6570     5.2720     7.2130     8.9710     0.0250     2.4310   119.9630
 1841.5000   -36.6100     5.2990     7.5170     8.9720     0.0280     2.4470   118.4420
 1842.0000   -36.5590     5.3280     8.0720     8.9730     0.0320     2.4520   111.8860
 1842.5000   -36.5130     5.3550     8.1460     8.9740     0.0370     2.4400   107.0200
 1843.0000   -36.4620     5.3820     7.9770     8.9760     0.0310     2.4310   107.3350
 1843.5000   -36.4040     5.4100     7.8450     8.9770     0.0190     2.4200   109.8960
 1844.0000   -36.2090     5.4370     7.7080     8.9780     0.0210     2.4140   115.0430
 1844.5000   -36.0130     5.4650     7.5600     8.9790     0.0300     2.4210   117.5910
 1845.0000   -35.8170     5.4930     7.5190     8.9810     0.0290     2.4150   115.7330
 1845.5000   -35.6470     5.5210     7.5590     8.9820     0.0230     2.4120   115.4520
 1846.0000   -35.7100     5.5470     7.5610     8.9830     0.0170     2.4080   115.4350
 1846.5000   -35.7790     5.5780     7.7730     8.9840     0.0150     2.4030   115.5480
 1847.0000   -35.8570     5.5680     8.1350     8.9860     0.0180     2.4030   117.1130
 1847.5000   -35.9270     5.5240     8.5070     8.9870     0.0210     2.4100   117.6540
 1848.0000   -36.0010     5.4850     8.5460     8.9880     0.0240     2.4180   117.0880
 1848.5000   -36.0740     5.4450     8.2890     8.9900     0.0200     2.4240   116.7650
 1849.0000   -36.1480     5.4050     8.0710     8.9910     0.0190     2.4220   118.1900
 1849.5000   -36.2210     5.3650     7.8430     8.9920     0.0240     2.4260   119.3150
 1850.0000   -36.2940     5.3240     7.6200     8.9930     0.0300     2.4460   119.0010
 1850.5000   -36.3670     5.2840     7.3800     8.9950     0.0320     2.4650   109.7790
 1851.0000   -36.4400     5.2440     7.2830     8.9960     0.0350     2.4770   105.8740
 1851.5000   -36.5150     5.2040     7.3380     8.9970     0.0380     2.4810   107.8310
 1852.0000   -36.5860     5.1640     7.3700     8.9980     0.0390     2.4660   108.8350
 1852.5000   -36.6620     5.1240     7.4140     9.0000     0.0250     2.4480   107.4540
 1853.0000   -36.7320     5.0840     7.4210     9.0010     0.0180     2.4410   106.2770
 1853.5000   -36.7970     5.0430     7.3850     9.0020     0.0130     2.4320   106.8830
 1854.0000   -36.6710     5.0030     7.3560     9.0030     0.0090     2.4230   109.8480
 1854.5000   -36.5320     4.9630     7.3240     9.0050     0.0060     2.4150   111.6570
 1855.0000   -36.3860     4.9230     7.2930     9.0060     0.0060     2.4060   112.6730
 1855.5000   -36.2460     4.8830     7.2440     9.0070     0.0060     2.3970   114.4780
 1856.0000   -36.1030     4.8430     7.1660     9.0080     0.0070     2.3940   122.2080
 1856.5000   -35.9620     4.8020     7.0890     9.0100     0.0120     2.3980   127.3510
 1857.0000   -35.8190     4.7620     7.0100     9.0110     0.0170     2.4080   127.8680
 1857.5000   -35.6790     4.7220     6.9350     9.0110     0.0220     2.4130   129.1410
 1858.0000   -35.5330     4.6820     6.8490     9.0090     0.0260     2.4110   133.1690
 1858.5000   -35.3960     4.6420     6.8110     9.0070     0.0290     2.4090   135.1590
 1859.0000   -35.2540     4.6020     6.8640     9.0050     0.0320     2.4080   134.9110
 1859.5000   -35.3270     4.5620     6.8500     9.0030     0.0340     2.4160   133.2460
 1860.0000   -35.4220     4.5220     6.7370     9.0010     0.0240     2.4120   133.5110
 1860.5000   -35.5230     4.4820     6.6320     8.9990     0.0170     2.3990   134.4200
 1861.0000   -35.6190     4.4400     6.5230     8.9970     0.0230     2.4100   136.5590
 1861.5000   -35.7160     4.4260     6.4110     8.9950     0.0260     2.4300   138.5920
 1862.0000   -35.8170     4.4750     6.3450     8.9930     0.0240     2.4250   140.5100
 1862.5000   -35.9090     4.5220     6.3850     8.9920     0.0220     2.4160   140.3170
 1863.0000   -36.0100     4.5730     6.4210     8.9900     0.0170     2.4220   139.2710
 1863.5000   -35.9260     4.6070     6.4610     8.9880     0.0120     2.4070   139.8370
 1864.0000   -35.8150     4.6100     6.5000     8.9860     0.0060     2.3930   142.0090
 1864.5000   -35.7000     4.6070     6.5400     8.9840     0.0070     2.3860   142.7470
 1865.0000   -35.5930     4.6090     6.5760     8.9820     0.0120     2.3890   143.2290
 1865.5000   -35.4760     4.6270     6.6200     8.9800     0.0160     2.3920   143.1590
