~VERSION INFORMATION
 VERS.                2.0:   CWLS LOG ASCII STANDARD - VERSION 2.0
 WRAP.                 NO:   ONE LINE PER DEPTH STEP
~WELL INFORMATION
#MNEM.UNIT      DATA TYPE    INFORMATION
#----------   ------------   ------------------------------
 STRT.F           89.5000:   START DEPTH
 STOP.F         1300.5000:   STOP DEPTH
 STEP.F            0.5000:   STEP LENGTH
 NULL.          -999.2500:   NO VALUE
 COMP.            US NAVY:   COMPANY
 WELL. US NPR 3 "S" #62-11:   WELL
 FLD .             TEAPOT:   FIELD
 LOC .      S11 T38N R78W:   LOCATION
 CNTY.            NATRONA:   COUNTY
 STAT.            WYOMING:   STATE
 CTRY. UNITED STATES OF AMERICA:   COUNTRY
 SRVC.       SCHLUMBERGER:   SERVICE COMPANY
 DATE.        20-JUL-1964:   LOGDATE
 API .     49025063660000:   API NUMBER
~CURVE INFORMATION
#MNEM.UNIT       API CODE    CURVE DESCRIPTION
#----------   ------------   ------------------------------
 DEPT.F                  :   
 CALS.IN     60 280 50 00:   CALIPER FROM SONIC LOG
 DT  .US/F   60 520 33 00:   DELTA TIME
 SPR .MV     05 010 01 00:   SPONTANEOUS POTENTIAL FROM RES.
 ASN .OHMM   05 041 16 00:   AMPLIFIED SHORT NORMAL 16"
 ILD .OHMM   05 120 46 00:   INDUCTION LOG DEEP
~PARAMETER INFORMATION
#MNEM.UNIT          VALUE    DESCRIPTION
#----------   ------------   ------------------------------
 EKB .F         5223.0000:   Kelly bushing
 EGL .F         5215.0000:   Ground level
 EDF .F            0.0000:   Drilling floor
 TD  .F         1303.0000:   Total depth
 DATE.        20-JUL-1964:   Date logged
 CLNT.            A2DTECH:   Client Code
 PD  .                 GL:   Permanent Datum
 EPD .F              5215:   Elevation Permanent Datum
 LMF .                 KB:   Log Measured From
 DMF .                 KB:   Drilling Measured From
 DAPD.F                 8:   Feet Above Permanent Datum
 DD  .F              1303:   Depth driller
 DL  .F              1300:   Depth logger
 BLI .F              1299:   Bottom log interval
 TLI .F                94:   Top log interval
 CS1 .IN            12.25:   Casing size
 CBD1.       12.25" @ 10':   Casing driller 1
 BS1 .IN               11:   Bit size
 BSD1.F              1303:   Depth drilled with bit1
 DFT .            GEL/OIL:   Type fluid in hole
 DFD .                9.8:   Density
 DFV .                 60:   Viscosity
 DFL .                 10:   Fluid loss
 MSS .           FLOWLINE:   Source of sample
 RMS .OHMM           3.13:   Rm
 MST .F                86:   Rm Meas. temp.
 RMF .OHMM           1.81:   Rmf
 MFST.F                86:   Rmf Meas. temp.
 RMC .OHMM           3.39:   Rmc
 MCST.F                86:   Rmc Meas. temp.
 MFSS.                 FP:   Source Rmf.
 MCSS.                 FP:   Source Rmc.
 TCS .HRS             2.5:   Time Circ. stopped
 LUN .               4507:   Logging unit number
 LUL .               CSPR:   Logging unit location
 ENGI.             DANNER:   Recorded By
 WITN.         JORGENESEN:   Witnessed by
 ORIG.       2", 5" PRINT:   Origin of data
 UWI .     49025063660000:   Unique Well ID
 DICO. A2D TECHNOLOGIES, INC.:   Digitizing Company
~OTHER INFORMATION
~A   DEPT     CALS         DT        SPR        ASN          ILD 
# ...
  577.5000    11.2270    99.1710   -40.5680     9.1050     8.3040
  578.0000    11.2240    98.8270   -40.5670     9.2540     8.4430
  578.5000    11.2170    98.3610   -40.5680     9.4040     8.6050
  579.0000    11.2030    98.0150   -40.5770     9.5520     8.7560
  579.5000    11.2020    97.7320   -40.5930     9.7030     8.9070
  580.0000    11.2050    97.3270   -40.6080     9.8500     9.0750
  580.5000    11.2100    96.8100   -40.6230     9.9730     9.2090
  581.0000    11.2150    96.2630   -40.6390    10.0780     9.3870
  581.5000    11.2200    95.6000   -40.6540    10.1760     9.5670
  582.0000    11.2400    94.9370   -40.6690    10.2870     9.5500
  582.5000    11.2330    94.2740   -40.6850    10.3650     9.5120
  583.0000    11.2260    93.6110   -40.7000    10.3930     9.5680
  583.5000    11.2210    92.9480   -40.7150    10.4190     9.5250
  584.0000    11.2220    91.9920   -40.7300    10.4310     9.4340
  584.5000    11.2260    94.2940   -40.7460    10.4780     9.3720
  585.0000    11.2300    94.0850   -40.7610    10.5580     9.2940
  585.5000    11.2340    93.6150   -40.7770    10.5520     9.2190
  586.0000    11.2380    93.3930   -40.7920    10.4970     9.1470
  586.5000    11.2420    94.1120   -40.8070    10.4360     9.0740
  587.0000    11.2460    94.8680   -40.8230    10.4040     8.9740
  587.5000    11.2500    95.1420   -40.8380    10.4290     8.8850
  588.0000    11.2540    94.5100   -40.8530    10.3800     8.8720
  588.5000    11.2580    94.3970   -40.8690    10.2830     8.8700
  589.0000    11.2620    94.7290   -40.8830    10.2250     8.8450
  589.5000    11.2670    95.0620   -40.9000    10.1380     8.8300
  590.0000    11.2710    94.8850   -40.9140    10.0540     8.8160
  590.5000    11.2750    95.0370   -40.9300    10.0070     8.7930
  591.0000    11.2790    95.4190   -40.9450     9.9530     8.7830
  591.5000    11.2830    95.8020   -40.9330     9.9100     8.8150
  592.0000    11.2870    96.1840   -40.8890     9.8720     8.8630
  592.5000    11.2910    96.4850   -40.8410     9.8310     8.9080
  593.0000    11.2950    96.4200   -40.7970     9.8330     8.9540
  593.5000    11.2970    96.3550   -40.7500     9.8700     8.9980
  594.0000    11.2680    96.2960   -40.7050     9.9260     9.0490
  594.5000    11.2370    95.8580   -40.6590     9.9420     9.0740
  595.0000    11.2060    95.4550   -40.6130     9.8480     9.0830
  595.5000    11.2190    95.0530   -40.5670     9.7430     9.0790
  596.0000    11.2410    95.2090   -40.5210     9.7540     8.9580
  596.5000    11.2410    95.7270   -40.4760     9.8080     8.7610
  597.0000    11.2450    96.3600   -40.4300     9.7670     8.5400
  597.5000    11.2480    97.0500   -40.3840     9.6620     8.2920
  598.0000    11.2520    97.7400   -40.3380     9.5570     8.1790
  598.5000    11.2550    98.0310   -40.2920     9.3810     8.2110
  599.0000    11.2590    98.2030   -40.2460     9.1830     8.2450
  599.5000    11.2590    98.3760   -40.2000     9.0980     8.2850
  600.0000    11.2810    98.5480   -40.1540     9.0670     8.2820
  600.5000    11.2790    98.6590   -40.1100     9.0250     8.1340
  601.0000    11.2790    98.7440   -40.0630     9.0100     7.9110
  601.5000    11.2750    98.8300   -40.0190     8.9750     7.7020
  602.0000    11.2610    98.9540   -39.9730     8.8240     7.4820
  602.5000    11.2760    99.2420   -39.9250     8.5980     7.2640
  603.0000    11.2930    99.5310   -39.8830     8.3770     7.0590
  603.5000    11.3100    99.8000   -39.8320     8.1500     6.8240
  604.0000    11.3270   100.1000   -39.8000     7.9320     6.7080
  604.5000    11.3390   101.2830   -39.8250     7.7430     6.8110
  605.0000    11.3430   102.3680   -39.8550     7.5960     6.9240
  605.5000    11.3480   103.4540   -39.8790     7.5490     6.9870
  606.0000    11.3530   104.0540   -39.9090     7.6410     7.0900
  606.5000    11.3400   104.5050   -39.9270     7.8480     7.1870
  607.0000    11.3060   104.2210   -39.9710     8.0520     7.2660
  607.5000    11.3280   103.3200   -39.9710     8.1750     7.3570
  608.0000    11.3830   102.4200   -39.6810     8.2710     7.4600
  608.5000    11.3660   101.5190   -39.0890     8.3240     7.5530
  609.0000    11.3370   100.6180   -38.6680     8.3440     7.5740
  609.5000    11.3440    99.7170   -38.6720     8.3940     7.5390
  610.0000    11.3510    98.7990   -38.7730     8.4190     7.5030
  610.5000    11.3290    98.2400   -38.8170     8.3780     7.4700
  611.0000    11.2790    97.6710   -38.8770     8.3240     7.4350
  611.5000    11.2880    97.1020   -38.9570     8.2770     7.3990
  612.0000    11.2950    96.7020   -39.0140     8.2250     7.3660
  612.5000    11.3030    96.6970   -38.9380     8.1760     7.3310
  613.0000    11.3100    97.1090   -38.7580     8.1270     7.2930
  613.5000    11.3170    97.7190   -38.5700     8.0750     7.2650
  614.0000    11.3250    98.3290   -38.4600     8.0730     7.2200
  614.5000    11.3320    98.9390   -38.4720     8.1330     7.1980
  615.0000    11.3370    99.2440   -38.5200     8.2020     7.2720
  615.5000    11.3370    98.8090   -38.5600     8.2640     7.3650
  616.0000    11.3360    98.3360   -38.5670     8.3310     7.4410
  616.5000    11.3360    97.9980   -38.6480     8.3960     7.5300
  617.0000    11.3300    98.3970   -38.8070     8.4610     7.6070
  617.5000    11.3160    98.7630   -38.7950     8.5250     7.6980
  618.0000    11.3020    99.0370   -38.7060     8.5920     7.7830
  618.5000    11.2980    99.1450   -38.6790     8.6550     7.7930
  619.0000    11.2980    99.2530   -38.6210     8.7010     7.7690
  619.5000    11.2980    99.3610   -38.5680     8.7030     7.7450
  620.0000    11.2980    99.4480   -38.5260     8.6510     7.7110
  620.5000    11.2980    99.5240   -38.4680     8.5800     7.6810
  621.0000    11.2980    99.6000   -38.4250     8.4830     7.6520
  621.5000    11.2980    99.6760   -38.3700     8.3910     7.6190
  622.0000    11.2980    99.7520   -38.3220     8.3770     7.5920
  622.5000    11.2980    99.7280   -38.2760     8.3880     7.5580
  623.0000    11.2980    99.3230   -38.1730     8.3810     7.5290
  623.5000    11.2980    98.9170   -38.0250     8.3840     7.5000
  624.0000    11.3010    98.5110   -37.8330     8.3840     7.4620
  624.5000    11.3030    98.1060   -37.6910     8.3820     7.4450
  625.0000    11.3050    97.8730   -37.7250     8.3840     7.3950
  625.5000    11.3070    97.7980   -37.8100     8.3620     7.3020
  626.0000    11.3100    97.9660   -37.8610     8.3230     7.2660
  626.5000    11.3120    98.1950   -37.9290     8.2820     7.2590
  627.0000    11.3140    98.4250   -37.9930     8.2430     7.2290
  627.5000    11.3170    98.6550   -38.0550     8.2030     7.2100
  628.0000    11.3170    98.8850   -38.1200     8.1630     7.1900
  628.5000    11.3220    99.0990   -38.1840     8.1250     7.1650
  629.0000    11.3280    98.6680   -38.2550     8.1080     7.1460
  629.5000    11.3350    98.2630   -38.2550     8.1240     7.1220
  630.0000    11.3390    97.8580   -38.1630     8.1220     7.1010
  630.5000    11.3430    97.7800   -38.0570     8.0830     7.1020
  631.0000    11.3470    98.4740   -37.9570     8.0450     7.1150
  631.5000    11.3510    99.4670   -37.8520     8.0090     7.1290
  632.0000    11.3550   100.4600   -37.7480     7.9950     7.1440
  632.5000    11.3600   101.3180   -37.6790     8.0180     7.1560
  633.0000    11.3640   101.7800   -37.6610     8.0410     7.1710
  633.5000    11.3680   102.0640   -37.6540     8.0710     7.1840
  634.0000    11.3720   101.7100   -37.6400     8.0800     7.1590
  634.5000    11.3750   101.1490   -37.6310     8.0250     7.0900
  635.0000    11.3720   100.5880   -37.6200     7.9700     7.0150
  635.5000    11.3660   100.0260   -37.6080     7.9420     6.9510
  636.0000    11.3600    99.6710   -37.5980     7.9060     6.8720
  636.5000    11.3550    99.5430   -37.5860     7.8640     6.8000
  637.0000    11.3490    99.3800   -37.5760     7.8700     6.7900
  637.5000    11.3440    99.1240   -37.5650     7.9370     6.8490
  638.0000    11.3380    98.5910   -37.5540     8.0030     6.9480
