~VERSION INFORMATION
 VERS.                2.0:   CWLS LOG ASCII STANDARD - VERSION 2.0
 WRAP.                 NO:   ONE LINE PER DEPTH STEP
~WELL INFORMATION
#MNEM.UNIT      DATA TYPE    INFORMATION
#----------   ------------   ------------------------------
 STRT.F           72.5000:   START DEPTH
 STOP.F         2820.0000:   STOP DEPTH
 STEP.F            0.5000:   STEP LENGTH
 NULL.          -999.2500:   NO VALUE
 COMP.          INTEX OIL:   COMPANY
 WELL. INTEX OIL AX N. P. R. #51-29:   WELL
 FLD .             TEAPOT:   FIELD
 LOC .      S29 T39N R78W:   LOCATION
 CNTY.            NATRONA:   COUNTY
 STAT.            WYOMING:   STATE
 CTRY. UNITED STATES OF AMERICA:   COUNTRY
 SRVC.       SCHLUMBERGER:   SERVICE COMPANY
 DATE.        01-MAY-1966:   LOGDATE
 API .     49025094920000:   API NUMBER
~CURVE INFORMATION
#MNEM.UNIT       API CODE    CURVE DESCRIPTION
#----------   ------------   ------------------------------
 DEPT.F                  :   
 GRD .GAPI   45 310 01 00:   GAMMA RAY FROM DENSITY LOG
 CALD.IN     45 280 60 00:   CALIPER FROM DENSITY LOG
 RHOB.G/C3   45 350 01 00:   BULK DENSITY
 CORR.G/C3   45 356 01 00:   DENSITY CORRECTION
 SPR .MV     07 010 01 00:   SPONTANEOUS POTENTIAL
 ASN .OHMM   05 041 16 00:   AMPLIFIED SHORT NORMAL 16"
 ILD .OHMM   05 120 46 00:   DEEP INDUCTION RESISTIVITY
 DT  .US/F   60 520 00 00:   DELTA TIME
~PARAMETER INFORMATION
#MNEM.UNIT          VALUE    DESCRIPTION
#----------   ------------   ------------------------------
 EKB .F         5007.3000:   Kelly bushing
 EGL .F         4997.0000:   Ground level
 EDF .F            0.0000:   Drilling floor
 TD  .F         2799.0000:   Total depth
 DATE.        01-MAY-1966:   Date logged
 CLNT.            A2DTECH:   Client Code
 PD  .                 GL:   Permanent Datum
 EPD .F              4997:   Elevation Permanent Datum
 LMF .                 KB:   Log Measured From
 DMF .                 KB:   Drilling Measured From
 DAPD.F              10.3:   Feet Above Permanent Datum
 DD  .F              2798:   Depth driller
 DL  .F              2799:   Depth logger
 BLI .F              2798:   Bottom log interval
 TLI .F                88:   Top log interval
 CS1 .IN            10.75:   Casing size
 CBD1.       10.75" @ 30':   Casing driller 1
 BS1 .IN            7.875:   Bit size
 BSD1.F              2798:   Depth drilled with bit1
 DFT .           CHEM/OIL:   Type fluid in hole
 DFD .                9.5:   Density
 DFV .                 46:   Viscosity
 DFPH.                7.2:   pH
 DFL .                7.0:   Fluid loss
 MSS .         CIRCULATED:   Source of sample
 RMS .OHMM           2.28:   Rm
 MST .F                68:   Rm Meas. temp.
 RMF .OHMM           1.32:   Rmf
 MFST.F                72:   Rmf Meas. temp.
 MFSS.                 FP:   Source Rmf.
 RMB .OHMM           1.52:   Rm. at BHT
 BHT .F               102:   BHT.
 TCS .HRS             1.5:   Time Circ. stopped
 MRT .F               102:   Maximum recorded temp.
 LUN .               4507:   Logging unit number
 LUL .               CSPR:   Logging unit location
 ENGI.               HAUG:   Recorded By
 WITN.      TUTTLE/HUDSON:   Witnessed by
 ORIG.           5" PRINT:   Origin of data
 UWI .     49025094920000:   Unique Well ID
 DICO. A2D TECHNOLOGIES, INC.:   Digitizing Company
~OTHER INFORMATION
~A   DEPT      GRD       CALD       RHOB       CORR        SPR        ASN        ILD         DT   
# ...
 2138.0000   115.1310     9.3890     2.4720     0.0340   -39.6350     5.4060     3.4470    92.4170
 2138.5000   118.9960     9.3860     2.4940     0.0330   -39.4630     4.9620     3.2150    93.0550
 2139.0000   122.9540     9.3820     2.4970     0.0410   -39.3110     4.6650     2.9410    93.4440
 2139.5000   125.4300     9.3790     2.4740     0.0440   -39.2220     4.5300     2.7180    94.5540
 2140.0000   127.5410     9.3760     2.4460     0.0250   -39.2320     4.4610     2.6610    95.4170
 2140.5000   128.1160     9.3730     2.4200    -0.0100   -39.3240     4.4090     2.7620    94.6390
 2141.0000   128.8780     9.3700     2.4450    -0.0050   -39.4380     4.4370     2.9010    93.2080
 2141.5000   128.0230     9.3670     2.4630     0.0010   -39.5280     4.5720     3.0000    91.7760
 2142.0000   126.0170     9.3640     2.4770     0.0070   -39.6030     4.7170     3.0770    91.8890
 2142.5000   123.9600     9.3610     2.4670    -0.0050   -39.6910     4.7610     3.1640    92.4730
 2143.0000   121.6490     9.3580     2.4660     0.0040   -39.7960     4.7180     3.2400    92.7870
 2143.5000   121.0850     9.3540     2.4960     0.0190   -39.8910     4.6810     3.2750    92.0080
 2144.0000   121.7570     9.3590     2.4760     0.0130   -39.9400     4.6950     3.2800    91.5410
 2144.5000   122.1660     9.3680     2.4580    -0.0020   -39.9330     4.7470     3.2860    91.8390
 2145.0000   122.5510     9.3760     2.4500    -0.0100   -39.8920     4.8100     3.3020    91.2430
 2145.5000   123.1660     9.3850     2.4770     0.0020   -39.8500     4.8550     3.3190    92.2200
 2146.0000   123.1960     9.3930     2.4950     0.0170   -39.8190     4.8540     3.3310    93.1310
 2146.5000   123.2050     9.4020     2.4730    -0.0080   -39.7870     4.8050     3.3440    92.8570
 2147.0000   123.1740     9.4100     2.4690    -0.0030   -39.7510     4.7530     3.3570    92.5350
 2147.5000   123.2990     9.4190     2.4710     0.0060   -39.7170     4.7390     3.3680    92.4350
 2148.0000   122.1140     9.4270     2.4640    -0.0040   -39.6860     4.7550     3.3820    93.1100
 2148.5000   118.9710     9.4330     2.4550    -0.0120   -39.6490     4.7720     3.3990    92.6240
 2149.0000   116.2870     9.4320     2.4460    -0.0100   -39.6060     4.7780     3.4130    91.5720
 2149.5000   115.8020     9.4310     2.4410    -0.0120   -39.5780     4.7880     3.4170    91.4150
 2150.0000   115.5420     9.4300     2.4710    -0.0070   -39.5870     4.8110     3.4270    91.6650
 2150.5000   116.5580     9.4290     2.4900     0.0150   -39.6230     4.8370     3.4780    91.7360
 2151.0000   117.4220     9.4280     2.4730     0.0040   -39.6620     4.8580     3.5970    89.3490
 2151.5000   118.9070     9.4270     2.4830     0.0020   -39.6950     4.9020     3.7690    84.3650
 2152.0000   120.6230     9.4250     2.5010    -0.0100   -39.7350     5.0050     3.9310    80.0100
 2152.5000   121.7540     9.4240     2.5050    -0.0170   -39.7810     5.1480     4.0030    80.8960
 2153.0000   122.4430     9.4230     2.4950    -0.0060   -39.8090     5.2730     3.9470    83.0790
 2153.5000   120.9750     9.4220     2.4660    -0.0030   -39.8250     5.3540     3.7970    86.2230
 2154.0000   119.6550     9.4210     2.4710    -0.0070   -39.8740     5.4060     3.6250    88.7570
 2154.5000   117.6320     9.4200     2.4910    -0.0020   -39.9540     5.3850     3.4730    86.2720
 2155.0000   117.4310     9.4180     2.5040    -0.0060   -39.9440     5.1950     3.3270    88.2030
 2155.5000   117.6350     9.4170     2.4890     0.0060   -39.7300     4.8400     3.1630    90.0950
 2156.0000   120.0810     9.4160     2.4680     0.0180   -39.4120     4.4820     2.9990    91.9880
 2156.5000   125.1330     9.4150     2.4440     0.0170   -39.2590     4.2730     2.8830    93.8800
 2157.0000   126.4210     9.4140     2.4490     0.0090   -39.4130     4.1950     2.8380    94.1250
 2157.5000   127.8520     9.4130     2.4620     0.0000   -39.7260     4.1550     2.8470    92.3200
 2158.0000   127.4560     9.4120     2.4760     0.0030   -39.9480     4.1380     2.8690    90.4470
 2158.5000   125.1710     9.4100     2.4600     0.0060   -39.9970     4.1740     2.8680    91.2340
 2159.0000   124.3720     9.4090     2.4490     0.0110   -39.9640     4.2300     2.8400    92.1140
 2159.5000   123.4350     9.4080     2.4370    -0.0060   -39.9260     4.2560     2.8310    92.9940
 2160.0000   123.5600     9.4070     2.4490     0.0000   -39.8660     4.2970     2.9110    93.7420
 2160.5000   124.3580     9.4060     2.4730     0.0100   -39.7470     4.4230     3.0990    92.6960
 2161.0000   125.4020     9.4050     2.4790     0.0110   -39.5740     4.6090     3.3450    91.3420
 2161.5000   126.8460     9.4040     2.4740     0.0090   -39.3870     4.7920     3.5890    91.3420
 2162.0000   125.8000     9.4020     2.4910     0.0170   -39.2510     5.0010     3.8180    90.9330
 2162.5000   124.4980     9.4010     2.5060     0.0220   -39.2280     5.3220     4.0390    89.6700
 2163.0000   121.7760     9.4000     2.5170     0.0100   -39.3250     5.7490     4.2530    88.0240
 2163.5000   118.5770     9.3990     2.5110     0.0010   -39.4820     6.1830     4.4730    86.3780
 2164.0000   113.7740     9.3980     2.5030    -0.0100   -39.6300     6.5470     4.7280    84.7320
 2164.5000   109.4670     9.3970     2.4940    -0.0120   -39.7590     6.8050     4.9870    83.6620
 2165.0000   110.9880     9.3960     2.4850    -0.0050   -39.8770     6.9100     5.1470    84.5110
 2165.5000   112.4890     9.3940     2.4760    -0.0120   -39.9270     6.8240     5.1470    85.7790
 2166.0000   114.3350     9.3930     2.4650    -0.0140   -39.8060     6.6030     5.0570    87.0480
 2166.5000   114.6380     9.3860     2.4630    -0.0040   -39.5200     6.4020     4.9980    88.3160
 2167.0000   113.4860     9.3790     2.4710     0.0240   -39.2670     6.3520     5.0070    89.5840
 2167.5000   111.7230     9.3720     2.4770     0.0180   -39.2760     6.4820     5.0260    90.0500
 2168.0000   110.9420     9.3650     2.4830    -0.0010   -39.5530     6.7360     5.0210    87.6970
 2168.5000   111.5530     9.3570     2.4900    -0.0090   -39.8750     7.0050     5.0180    85.4770
 2169.0000   112.7920     9.3500     2.4960    -0.0080   -40.0440     7.1680     5.0280    85.5770
 2169.5000   114.1050     9.3430     2.5030    -0.0010   -40.0740     7.1600     5.0020    87.6160
 2170.0000   115.1980     9.3360     2.5090     0.0110   -40.0880     7.0520     4.8950    89.1550
 2170.5000   114.4280     9.3280     2.5140     0.0060   -40.1350     7.0110     4.7420    89.1550
 2171.0000   112.3100     9.3210     2.5020    -0.0030   -40.2030     7.0480     4.6070    86.9920
 2171.5000   110.5890     9.3140     2.4920    -0.0040   -40.2900     7.1400     4.4900    86.2720
 2172.0000   111.9560     9.3130     2.5050     0.0060   -40.3570     7.0300     4.3390    87.0100
 2172.5000   113.9390     9.3130     2.4950     0.0020   -40.2740     6.5820     4.1610    88.0960
 2173.0000   116.5560     9.3130     2.4710     0.0030   -39.9530     6.1340     4.0580    90.3370
 2173.5000   119.0990     9.3100     2.4540     0.0110   -39.5210     6.0100     4.1130    92.4350
 2174.0000   120.7570     9.3060     2.4450     0.0010   -39.2350     6.1220     4.2950    92.7340
 2174.5000   121.2910     9.3010     2.4660    -0.0140   -39.2200     6.4560     4.5160    90.1190
 2175.0000   119.5380     9.2970     2.5020    -0.0060   -39.3640     7.1560     4.7560    87.1400
 2175.5000   116.7770     9.2930     2.5330     0.0100   -39.4990     7.9030     5.0600    84.5110
 2176.0000   114.2960     9.2890     2.5450    -0.0070   -39.5880     8.1830     5.4220    84.6760
 2176.5000   113.1310     9.2850     2.5400    -0.0050   -39.6900     8.1260     5.7550    85.6400
 2177.0000   112.2620     9.2800     2.5310    -0.0060   -39.8230     8.2010     5.9760    86.2380
 2177.5000   111.0240     9.2760     2.5280    -0.0050   -39.9350     8.4240     6.0900    85.8350
 2178.0000   111.7030     9.2720     2.5090    -0.0100   -39.9770     8.5700     6.1490    84.8850
