~VERSION INFORMATION
 VERS.                2.0:   CWLS LOG ASCII STANDARD - VERSION 2.0
 WRAP.                 NO:   ONE LINE PER DEPTH STEP
~WELL INFORMATION
#MNEM.UNIT      DATA TYPE    INFORMATION
#----------   ------------   ------------------------------
 STRT.F         2185.0000:   START DEPTH
 STOP.F         5688.0000:   STOP DEPTH
 STEP.F            0.5000:   STEP LENGTH
 NULL.          -999.2500:   NO VALUE
 COMP.       FLUOR DANIEL:   COMPANY
 WELL.   FLUOR "X" #53-10:   WELL
 FLD .           N.P.R #3:   FIELD
 LOC .      S10 T38N R78W:   LOCATION
 CNTY.            NATRONA:   COUNTY
 STAT.            WYOMING:   STATE
 CTRY. UNITED STATES OF AMERICA:   COUNTRY
 SRVC.      WESTERN ATLAS:   SERVICE COMPANY
 DATE.        23-MAR-1997:   LOGDATE
 API .     49025228470000:   API NUMBER
~CURVE INFORMATION
#MNEM.UNIT       API CODE    CURVE DESCRIPTION
#----------   ------------   ------------------------------
 DEPT.F                  :   
 CNC .DEC    42 890 03 00:   NEUTRON POROSITY SANDSTONE
 TEND.LBS    45 635 01 00:   TENSION FORM DENSITY LOG
 GRD .GAPI   45 310 01 00:   GAMMA RAY FROM DENSITY LOG
 CALD.IN     45 280 60 00:   CALIPER FROM DENSITY LOG
 ZDEN.G/C3   45 350 01 00:   BULK DENSITY
 ZCOR.G/C3   45 356 01 00:   DENSITY CORRECTION
 PE  .B/E    45 358 01 00:   PHOTOELECTRIC FACTOR
 R4SL.OHMM   07 000 00 00:   RESISTIVITY DEL 4
 R2SL.OHMM   07 000 00 00:   RESISTIVITY DEL 2
~PARAMETER INFORMATION
#MNEM.UNIT          VALUE    DESCRIPTION
#----------   ------------   ------------------------------
 EKB .F         5182.0000:   Kelly bushing
 EGL .F         5172.0000:   Ground level
 EDF .F         5181.0000:   Drilling floor
 EPD .F         5172.0000:   Permanent datum
 TD  .F         5690.0000:   Total depth
 CLNT.            A2DTECH:   Client Code
 SL  . 1183' FNL & 2118' FEL:   Surface Location
 PD  .                 GL:   Permanent Datum
 LMF .                 KB:   Log Measured From
 DMF .                 KB:   Drilling Measured From
 DAPD.F                10:   Feet Above Permanent Datum
 DATE.        23-MAR-1997:   Date Logged [DD-MMM-YYYY]
 DD  .F              5690:   Depth driller
 DL  .F              5688:   Depth logger
 BLI .F              5648:   Bottom log interval
 TLI .F              2200:   Top log interval
 CS1 .IN            9.625:   Casing size
 CBD1.      9.625" @ 446':   Casing driller 1
 CBL1.F               452:   Casing logger 1
 BS1 .IN             8.75:   Bit size
 BSD1.F              5690:   Depth drilled with bit1
 DFT .           GEL CHEM:   Type fluid in hole
 DFD .                9.8:   Density
 DFV .                 66:   Viscosity
 DFPH.                8.5:   pH
 DFL .                8.4:   Fluid loss
 MSS .              CIRC.:   Source of sample
 RMS .OHMM            1.1:   Rm
 MST .F                73:   Rm Meas. temp.
 RMF .OHMM           0.87:   Rmf
 MFST.F                73:   Rmf Meas. temp.
 MFSS.               CALC:   Source Rmf.
 RMC .OHMM           1.35:   Rmc
 MCST.F                73:   Rmc Meas. temp.
 MCSS.               CALC:   Source Rmc.
 RMB .OHMM           0.46:   Rm. at BHT
 BHT .F               174:   BHT.
 TCS .HRS               5:   Time Circ. stopped
 MRT .F               174:   Maximum recorded temp.
 LUN .            HL 6530:   Logging unit number
 LUL .          CASPER WY:   Logging unit location
 ENGI.           BROWNLOW:   Recorded By
 WITN.              HARDY:   Witnessed by
 ORIG.     2.5", 5" PRINT:   Origin of data
 UWI .     49025228470000:   Unique Well ID
 DICO. A2D TECHNOLOGIES, INC.:   Digitizing Company
~OTHER INFORMATION
~A  DEPTH      CNC       TEND        GRD       CALD       ZDEN       ZCOR         PE       R4SL       R2SL
# ...
 4229.0000     0.1515    -5.7645    62.2057     9.0769     2.5839     0.0399     2.8722  -999.2500  -999.2500
 4229.5000     0.1527   -13.1871    63.7311     9.0166     2.5839     0.0586     2.8573  -999.2500  -999.2500
 4230.0000     0.1515   -20.6098    64.6526     9.0015     2.5884     0.0676     2.8411  -999.2500  -999.2500
 4230.5000     0.1455   -20.5362    65.5740     8.9864     2.5899     0.0600     2.8251  -999.2500  -999.2500
 4231.0000     0.1395   -38.7592    65.8942     8.9864     2.5884     0.0419     2.8241  -999.2500  -999.2500
 4231.5000     0.1371   -50.3748    66.2111     9.0015     2.5921     0.0239     2.8081  -999.2500  -999.2500
 4232.0000     0.1365   -65.2928    65.0175     9.0166     2.5981     0.0208     2.8071  -999.2500  -999.2500
 4232.5000     0.1380   -41.9552    63.8239     9.0166     2.5966     0.0238     2.8213  -999.2500  -999.2500
 4233.0000     0.1404   -26.3523    62.3281     9.0166     2.5898     0.0267     2.8350  -999.2500  -999.2500
 4233.5000     0.1442   -20.0761    61.4329     9.0166     2.5891     0.0282     2.8490  -999.2500  -999.2500
 4234.0000     0.1485   -20.0024    63.5662     9.0166     2.5868     0.0311     2.8479  -999.2500  -999.2500
 4234.5000     0.1545   -27.4435    66.3001     9.0166     2.5816     0.0310     2.8619  -999.2500  -999.2500
 4235.0000     0.1618   -34.8662    70.5446     9.0317     2.5778     0.0295     2.8758  -999.2500  -999.2500
 4235.5000     0.1714   -34.7741    73.2784     9.0468     2.5779     0.0309     2.8745  -999.2500  -999.2500
 4236.0000     0.1741   -34.7005    74.5017     9.0468     2.5861     0.0429     2.8737  -999.2500  -999.2500
 4236.5000     0.1747   -34.6269    74.2085     9.0468     2.5906     0.0518     2.8877  -999.2500  -999.2500
 4237.0000     0.1756   -34.5533    73.3229     9.0618     2.5905     0.0502     2.9014  -999.2500  -999.2500
 4237.5000     0.1794   -34.4797    74.5964     9.0618     2.5808     0.0487     2.9303  -999.2500  -999.2500
 4238.0000     0.1867   -34.4061    76.9817     9.0618     2.5688     0.0501     2.9742  -999.2500  -999.2500
 4238.5000     0.1828   -26.8362    79.4134     9.0618     2.5718     0.0561     3.0330  -999.2500  -999.2500
 4239.0000     0.1750   -26.7616    79.4283     9.0572     2.5778     0.0650     3.0769  -999.2500  -999.2500
 4239.5000     0.1576   -26.6867    73.4008     9.0468     2.5830     0.0589     3.0603  -999.2500  -999.2500
 4240.0000     0.1434   -41.5895    67.0712     9.0468     2.5845     0.0514     3.0449  -999.2500  -999.2500
 4240.5000     0.1413   -56.5083    58.0226     9.0468     2.5740     0.0452     3.0137  -999.2500  -999.2500
 4241.0000     0.1395   -41.4423    53.2036     9.0468     2.5545     0.0438     2.9977  -999.2500  -999.2500
 4241.5000     0.1362   -26.3762    50.1973     9.0468     2.5493     0.0527     2.9967  -999.2500  -999.2500
 4242.0000     0.1332   -26.3025    48.0973     9.0379     2.5485     0.0511     2.9508  -999.2500  -999.2500
 4242.5000     0.1302   -26.2289    46.6016     9.0317     2.5477     0.0496     2.9048  -999.2500  -999.2500
 4243.0000     0.1263   -26.1553    45.4079     9.0468     2.5350     0.0405     2.8888  -999.2500  -999.2500
 4243.5000     0.1233   -33.5963    44.5033     9.0468     2.5238     0.0315     2.9477  -999.2500  -999.2500
 4244.0000     0.1188   -33.5043    43.2510     9.0618     2.5186     0.0224     3.0365  -999.2500  -999.2500
 4244.5000     0.1155   -25.9345    42.4313     9.0618     2.5275     0.0164     3.1552  -999.2500  -999.2500
 4245.0000     0.1130   -18.3646    43.0504     9.0618     2.5418     0.0193     3.2759  -999.2500  -999.2500
 4245.5000     0.1107   -18.2909    40.9541     9.0618     2.5507     0.0283     3.3825  -999.2500  -999.2500
 4246.0000     0.1101   -33.2099    39.4584     9.0468     2.5590     0.0327     3.5112  -999.2500  -999.2500
 4246.5000     0.1223   -40.6325    39.7753     9.0468     2.5657     0.0325     3.6150  -999.2500  -999.2500
 4247.0000     0.1354   -25.3336    42.5092     9.0468     2.5717     0.0311     3.6591  -999.2500  -999.2500
 4247.5000     0.1576   -17.9329    51.5875     9.0468     2.5784     0.0400     3.4931  -999.2500  -999.2500
 4248.0000     0.1672   -18.0244    63.6869     9.0317     2.5844     0.0374     3.2676  -999.2500  -999.2500
 4248.5000     0.1690   -18.0976    67.6292     9.0317     2.5867     0.0435     3.0270  -999.2500  -999.2500
 4249.0000     0.1708   -18.1707    68.8525     9.0317     2.5867     0.0465     2.9062  -999.2500  -999.2500
 4249.5000     0.1747   -10.7517    69.4716     9.0166     2.5859     0.0510     2.9039  -999.2500  -999.2500
 4250.0000     0.1762   -10.8432    68.8822     9.0317     2.5896     0.0511     2.9940  -999.2500  -999.2500
 4250.5000     0.1696    -3.4425    67.9476     9.0320     2.5979     0.0496     2.9338  -999.2500  -999.2500
 4251.0000     0.1630    -3.5156    65.1534     9.0411     2.6076     0.0526     2.8736  -999.2500  -999.2500
 4251.5000     0.1564    -3.5888    61.6796     9.0477     2.6166     0.0556     2.8884  -999.2500  -999.2500
 4252.0000     0.1576   -11.1360    59.5797     9.0480     2.6241     0.0512     2.9329  -999.2500  -999.2500
 4252.5000     0.1612   -11.2108    59.2887     9.0634     2.6308     0.0467     3.0075  -999.2500  -999.2500
 4253.0000     0.1799   -11.3004    59.6093     9.0940     2.6368     0.0467     3.1269  -999.2500  -999.2500
 4253.5000     0.2031   -11.3735    62.9474     9.1138     2.6360     0.0498     3.2015  -999.2500  -999.2500
 4254.0000     0.2311   -11.4467    69.3067     9.1397     2.6278     0.0543     3.2012  -999.2500  -999.2500
 4254.5000     0.2604   -18.9937    79.8955     9.1551     2.6255     0.0468     3.2009  -999.2500  -999.2500
 4255.0000     0.2664   -26.5407    87.4632     9.1554     2.6323     0.0423     3.1856  -999.2500  -999.2500
 4255.5000     0.2640   -34.0877    88.3844     9.1557     2.6345     0.0379     3.2153  -999.2500  -999.2500
 4256.0000     0.2958   -41.6347    87.7950     9.1671     2.6353     0.0598     3.2449  -999.2500  -999.2500
 4256.5000     0.2916   -41.7078    87.2054     9.1563     2.6075     0.0935     3.2746  -999.2500  -999.2500
 4257.0000     0.2955   -34.3049    87.2289     9.1415     2.5918     0.1055     3.3041  -999.2500  -999.2500
 4257.5000     0.3130   -19.4320    89.1083     9.1418     2.5903     0.0996     3.3232  -999.2500  -999.2500
 4258.0000     0.3091   -12.0319    91.9407     9.1421     2.5918     0.0575     3.3485  -999.2500  -999.2500
 4258.5000     0.3211   -12.1076    95.7279     9.1575     2.5724     0.0516     3.3482  -999.2500  -999.2500
 4259.0000     0.3520   -12.1965    99.3681     9.1426     2.5146     0.1162     3.3479  -999.2500  -999.2500
 4259.5000     0.3641   -12.2696   101.7998     9.1279     2.4554     0.1672     3.3476  -999.2500  -999.2500
 4260.0000     0.3527   -12.3428   103.3252     9.0981     2.4682     0.1853     3.3623  -999.2500  -999.2500
 4260.5000     0.3388   -12.4159   104.2464     9.0380     2.5139     0.1778     3.3919  -999.2500  -999.2500
 4261.0000     0.3265    -4.9970   102.1464     9.0082     2.5595     0.0952     3.4365  -999.2500  -999.2500
 4261.5000     0.3211    -5.0884    99.4423     8.9884     2.5715     0.0157     3.5117  -999.2500  -999.2500
 4262.0000     0.3280     2.3305    97.6444     8.9635     2.5753     0.0368     3.6333  -999.2500  -999.2500
 4262.5000     0.3473    -5.2347    98.5656     8.9487     2.5573     0.0578     3.7201  -999.2500  -999.2500
 4263.0000     0.3491    -5.3079    99.1846     8.9339     2.5484     0.0518     3.7646  -999.2500  -999.2500
 4263.5000     0.3473   -12.8550    99.1995     8.9510     2.5522     0.0459     3.7643  -999.2500  -999.2500
 4264.0000     0.3479   -12.9298   102.2860     8.9647     2.5447     0.0624     3.6892  -999.2500  -999.2500
 4264.5000     0.3560   -13.0045   105.9912     8.9650     2.5102     0.0895     3.5392  -999.2500  -999.2500
 4265.0000     0.3584   -13.0927   108.0090     8.9653     2.4967     0.1300     3.3592  -999.2500  -999.2500
