~VERSION INFORMATION
 VERS.                2.0:   CWLS LOG ASCII STANDARD - VERSION 2.0
 WRAP.                 NO:   ONE LINE PER DEPTH STEP
~WELL INFORMATION
#MNEM.UNIT      DATA TYPE    INFORMATION
#----------   ------------   ------------------------------
 STRT.F          197.0000:   START DEPTH
 STOP.F         3074.5000:   STOP DEPTH
 STEP.F            0.5000:   STEP LENGTH
 NULL.          -999.2500:   NO VALUE
 COMP.    FENIX & SCISSON:   COMPANY
 WELL.   FENIX "A" #36-21:   WELL
 FLD .             NPR #3:   FIELD
 LOC .      S21 T39N R78W:   LOCATION
 CNTY.            NATRONA:   COUNTY
 STAT.            WYOMING:   STATE
 CTRY. UNITED STATES OF AMERICA:   COUNTRY
 SRVC.              WELEX:   SERVICE COMPANY
 DATE.        06-JUL-1977:   LOGDATE
 API .     49025103920000:   API NUMBER
~CURVE INFORMATION
#MNEM.UNIT       API CODE    CURVE DESCRIPTION
#----------   ------------   ------------------------------
 DEPT.F                  :   
 CALD.IN     45 280 60 00:   CALIPER FROM DENSITY LOG
 GRD .GAPI   45 310 01 00:   GAMMA RAY FROM DENSITY LOG
 CORR.G/C3   45 356 01 00:   DENSITY CORRECTION
 RHOB.G/C3   45 350 01 00:   BULK DENSITY
 SPR .MV     11 010 01 00:   SPONTANEOUS POTENTIAL FROM RES.
 FORX.OHMM   11 000 00 00:   FORMATION FACTOR
 GURD.OHMM   11 220 05 00:   GUARD LOG RESISTIVITY
 NPHI.DEC    42 890 03 00:   NEUTRON POROSITY SANDSTONE
~PARAMETER INFORMATION
#MNEM.UNIT          VALUE    DESCRIPTION
#----------   ------------   ------------------------------
 EKB .F         4960.0000:   Kelly bushing
 EGL .F         4950.0000:   Ground level
 EDF .F            0.0000:   Drilling floor
 EPD .F         4950.0000:   Permanent datum
 TD  .F         3078.0000:   Total depth
 CLNT.            A2DTECH:   Client Code
 SL  . 1650' FSL & 1650' FWL:   Surface Location
 PD  .                 GL:   Permanent Datum
 DAPD.F                10:   Feet Above Permanent Datum
 DATE.        06-JUL-1977:   Date Logged [DD-MMM-YYYY]
 DD  .F              3066:   Depth driller
 DL  .F              3078:   Depth logger
 BLI .F              3076:   Bottom log interval
 TLI .F               200:   Top log interval
 CS1 .IN            8.625:   Casing size
 BS1 .IN            7.875:   Bit size
 BSD1.F              3066:   Depth drilled with bit1
 DFT .            KCL MUD:   Type fluid in hole
 DFD .                9.2:   Density
 DFV .                 35:   Viscosity
 DFPH.                7.5:   pH
 DFL .                 18:   Fluid loss
 MSS .           FLOWLINE:   Source of sample
 RMS .OHMM            0.9:   Rm
 MST .F                80:   Rm Meas. temp.
 RMF .OHMM           0.81:   Rmf
 MFST.F                80:   Rmf Meas. temp.
 MFSS.               FANN:   Source Rmf.
 RMC .OHMM           1.06:   Rmc
 MCST.F                80:   Rmc Meas. temp.
 MCSS.                KIT:   Source Rmc.
 RMB .OHMM           0.60:   Rm. at BHT
 BHT .F               119:   BHT.
 TCS .HRS               3:   Time Circ. stopped
 MRT .F               119:   Maximum recorded temp.
 LUN .               8611:   Logging unit number
 LUL .             CASPER:   Logging unit location
 ENGI.             C DOAK:   Recorded By
 WITN.         HARRINGTON:   Witnessed by
 ORIG.           5" PRINT:   Origin of data
 UWI .     49025103920000:   Unique Well ID
 DICO. A2D TECHNOLOGIES,INC.:   Digitizing Company
~OTHER INFORMATION
~A   DEPT     CALD         GRD      CORR       RHOB        SPR       FORX       GURD       NPHI   
# ...
  561.5000     8.9459    71.3055     0.0446     2.4478   -69.6339     6.7294     7.6883     0.2975
  562.0000     8.9476    72.8015     0.0432     2.4419   -69.6222     6.6372     7.7436     0.3068
  562.5000     8.9349    72.2198     0.0404     2.4359   -69.6105     6.9175     7.6395     0.3025
  563.0000     8.9362    72.5343     0.0392     2.4291   -69.7486     6.9175     7.4851     0.3007
  563.5000     8.9382    73.8821     0.0379     2.4199   -69.8866     6.8228     7.0359     0.2980
  564.0000     8.9396    75.2300     0.0381     2.4155   -70.0246     6.4124     7.2852     0.2986
  564.5000     8.9376    76.7260     0.0383     2.4282   -70.0100     6.4567     7.5430     0.3009
  565.0000     8.9283    77.7877     0.0370     2.4208   -70.1510     6.6832     7.7561     0.3009
  565.5000     8.9301    78.5550     0.0342     2.4179   -70.1364     7.0136     7.6519     0.3042
  566.0000     8.9317    79.4398     0.0345     2.4232   -70.1247     6.5392     7.5491     0.3032
  566.5000     8.9296    80.3433     0.0348     2.4181   -70.1130     6.1951     7.3461     0.2981
  567.0000     8.9055    79.6170     0.0364     2.4166   -70.1013     6.1103     7.1480     0.2931
  567.5000     8.9072    79.1835     0.0382     2.4264   -70.2394     6.2811     6.9553     0.2883
  568.0000     8.9089    80.0905     0.0398     2.4279   -70.3774     6.3683     6.7209     0.2860
  568.5000     8.9106    81.7347     0.0400     2.4206   -70.5154     6.1103     6.7231     0.2851
  569.0000     8.9122    82.9344     0.0402     2.4155   -70.5008     5.7824     6.6782     0.2871
  569.5000     8.8843    84.1341     0.0404     2.4178   -70.6418     5.3233     6.6346     0.2931
  570.0000     8.8568    84.7412     0.0407     2.4253   -70.7798     5.3208     6.5454     0.2991
  570.5000     8.8437    83.4224     0.0393     2.4298   -70.7652     5.4002     6.2774     0.3078
  571.0000     8.8454    82.3999     0.0380     2.4299   -70.7535     5.5921     6.1547     0.3198
  571.5000     8.8471    82.5630     0.0368     2.4221   -70.5922     5.4721     6.3290     0.3257
  572.0000     8.8487    83.0252     0.0354     2.4071   -70.5808     5.3233     6.6899     0.3314
  572.5000     8.8504    82.0027     0.0312     2.3922   -70.5688     5.3972     6.8317     0.3374
  573.0000     8.8521    80.3876     0.0269     2.3789   -70.5439     5.6251     6.8335     0.3389
  573.5000     8.8538    78.9206     0.0241     2.3678   -70.3928     5.8627     6.7879     0.3394
  574.0000     8.8702    78.1944     0.0213     2.3396   -70.3812     5.4721     6.6967     0.3379
  574.5000     8.8718    78.5052     0.0155     2.3033   -70.5221     5.0376     6.7920     0.3355
  575.0000     8.8736    78.3716     0.0081     2.2915   -70.8069     4.6377     6.8882     0.3324
  575.5000     8.9049    77.9380    -0.0020     2.2960   -71.0947     4.0229     6.7819     0.3282
  576.0000     8.9065    81.5117     0.0222     2.3518   -71.3824     3.1092     3.8078     0.3249
  576.5000     8.9082    83.0077     0.0329     2.3935   -71.3707     3.6686     4.8827     0.3203
  577.0000     8.9247    82.1334     0.0316     2.3966   -71.2093     6.1103     6.1780     0.3155
  577.5000     8.9115    81.3975     0.0303     2.4093   -71.1976     6.1525     6.2196     0.3155
  578.0000     8.9136    80.9772     0.0320     2.4169   -71.0359     6.0266     6.1785     0.3182
  578.5000     8.9301    80.9954     0.0337     2.4035   -70.8720     6.1103     6.0958     0.3240
  579.0000     8.9318    82.0470     0.0354     2.4021   -70.7106     6.4567     6.0139     0.3278
  579.5000     8.9039    83.2467     0.0326     2.4059   -70.8486     6.2811     5.6534     0.3301
  580.0000     8.8612    84.4464     0.0314     2.4112   -70.8370     5.9797     5.6156     0.3345
  580.5000     8.8328    86.2387     0.0300     2.4090   -70.8253     5.7358     5.5785     0.3372
  581.0000     8.8197    84.3273     0.0287     2.4060   -70.8136     5.5481     5.5039     0.3393
  581.5000     8.8070    81.9714     0.0275     2.3980   -70.8019     5.3972     5.4300     0.3380
  582.0000     8.8087    81.2416     0.0262     2.3847   -70.9401     5.2867     5.3202     0.3344
  582.5000     8.7956    85.1116     0.0249     2.3721   -70.9281     5.2504     5.2427     0.3317
  583.0000     8.7824    88.0891     0.0266     2.3774   -70.9162     5.2867     5.0376     0.3283
  583.5000     8.7545    87.5110     0.0283     2.3894   -70.7523     5.3233     5.0389     0.3268
  584.0000     8.7562    87.8380     0.0302     2.4088   -70.7406     5.3233     5.0403     0.3262
  584.5000     8.7283    88.2808     0.0348     2.4237   -70.7290     5.3243     5.1827     0.3316
  585.0000     8.7152    87.4101     0.0380     2.4320   -70.5676     5.3601     5.3291     0.3387
  585.5000     8.7169    87.4246     0.0382     2.4335   -70.7056     5.3972     5.3306     0.3438
  586.0000     8.7190    88.3244     0.0384     2.4328   -70.6939     5.4721     5.3320     0.3459
  586.5000     8.7354    85.5277     0.0370     2.4359   -70.6823     5.6251     5.3704     0.3450
  587.0000     8.7371    82.7274     0.0373     2.4323   -70.6706     5.8224     5.4842     0.3425
  587.5000     8.7388    80.9642     0.0375     2.4301   -70.7576     6.1525     5.6980     0.3395
  588.0000     8.7405    79.9417     0.0392     2.4309   -71.0944     6.4567     6.0858     0.3347
  588.5000     8.7569    79.9562     0.0394     2.4385   -71.2354     6.4567     6.0456     0.3289
  589.0000     8.7734    80.4152     0.0396     2.4401   -71.2208     6.2811     5.9639     0.3256
  589.5000     8.8047    81.3186     0.0398     2.4463   -71.2091     6.1951     5.6847     0.3222
  590.0000     8.8211    82.2419     0.0400     2.4573   -71.0477     6.1951     5.4181     0.3191
  590.5000     8.8376    83.1695     0.0402     2.4685   -71.0359     6.1951     5.2721     0.3097
  591.0000     8.8688    83.5844     0.0405     2.4559   -70.8742     6.1951     5.2012     0.3071
  591.5000     8.8705    82.1210     0.0392     2.4456   -70.7104     6.1951     5.0960     0.3065
  592.0000     8.8870    80.3578     0.0394     2.4323   -70.5490     6.1951     5.0974     0.3086
  592.5000     8.8739    79.4834     0.0381     2.4145   -70.5389     6.1951     5.0988     0.3131
  593.0000     8.8756    79.6461     0.0350     2.4049   -70.3759     6.1951     5.1005     0.3136
  593.5000     8.8799    80.5495     0.0295     2.4161   -70.3643     6.2811     5.1372     0.3145
  594.0000     8.8941    82.6381     0.0298     2.4266   -70.3526     6.3683     5.2100     0.3172
  594.5000     8.8958    84.8748     0.0345     2.4326   -70.3409     6.4124     5.3204     0.3219
  595.0000     8.8822    85.9264     0.0392     2.4483   -70.3292     6.3683     5.3586     0.3273
  595.5000     8.8843    87.2743     0.0424     2.4529   -70.3176     6.2811     5.3601     0.3309
  596.0000     8.8860    88.4860     0.0426     2.4522   -70.4556     6.2811     5.2156     0.3348
  596.5000     8.8877    88.1294     0.0398     2.4463   -70.4410     6.2811     5.1455     0.3369
  597.0000     8.8741    87.6141     0.0370     2.4293   -70.4293     6.2811     5.1825     0.3335
  597.5000     8.8610    89.4101     0.0356     2.4174   -70.4176     6.3246     5.1840     0.3347
  598.0000     8.8631    90.0172     0.0344     2.4222   -70.4060     6.3683     5.1146     0.3335
  598.5000     8.8648    90.3280     0.0346     2.4195   -70.3943     6.3683     5.0805     0.3274
  599.0000     8.8665    90.1944     0.0363     2.4259   -70.3826     6.3683     5.0822     0.3202
  599.5000     8.8681    89.4682     0.0380     2.4289   -70.5207     6.4124     5.0482     0.3189
  600.0000     8.8700    86.8182     0.0353     2.4312   -70.5090     6.4567     5.0499     0.3201
  600.5000     8.8862    85.6534     0.0370     2.4403   -70.4970     6.4627     5.0513     0.3231
  601.0000     8.8733    85.5205     0.0386     2.4485   -70.4827     6.5916     5.1229     0.3262
  601.5000     8.8609    85.6940     0.0388     2.4523   -70.4710     6.6372     5.1597     0.3278
