~VERSION INFORMATION
 VERS.                2.0:   CWLS LOG ASCII STANDARD - VERSION 2.0
 WRAP.                 NO:   ONE LINE PER DEPTH STEP
~WELL INFORMATION
#MNEM.UNIT      DATA TYPE    INFORMATION
#----------   ------------   ------------------------------
 STRT.F            0.0000:   START DEPTH
 STOP.F         2775.5000:   STOP DEPTH
 STEP.F            0.5000:   STEP LENGTH
 NULL.          -999.2500:   NO VALUE
 COMP.          U.S. NAVY:   COMPANY
 WELL.   U.S. "A" #107-29:   WELL
 FLD .        TEAPOT DOME:   FIELD
 LOC .      S29 T39N R78W:   LOCATION
 CNTY.            NATRONA:   COUNTY
 STAT.            WYOMING:   STATE
 CTRY. UNITED STATES OF AMERICA:   COUNTRY
 SRVC.         MCCULLOUGH:   SERVICE COMPANY
 DATE.        07-SEP-1966:   LOGDATE
 API .     49025095920000:   API NUMBER
~CURVE INFORMATION
#MNEM.UNIT       API CODE    CURVE DESCRIPTION
#----------   ------------   ------------------------------
 DEPT.F                  :   
 GR  .GAPI   30 310 01 00:   GAMMA RAY
 CALI.IN     70 280 01 00:   CALIPER
~PARAMETER INFORMATION
#MNEM.UNIT          VALUE    DESCRIPTION
#----------   ------------   ------------------------------
 EKB .F            0.0000:   Kelly bushing
 EGL .F            0.0000:   Ground level
 EDF .F            0.0000:   Drilling floor
 EPD .F            0.0000:   Permanent datum
 TD  .F         2777.5000:   Total depth
 DATE.        07-SEP-1966:   Date logged
 CLNT.            A2DTECH:   Client Code
 PD  .                 GL:   Permanent Datum
 LMF .                 GL:   Log Measured From
 DMF .                 GL:   Drilling Measured From
 DL  .F            2777.5:   Depth logger
 BLI .F              2776:   Bottom log interval
 TLI .F              2200:   Top log interval
 CS1 .IN                5:   Casing size
 CBD1.         5" @ 2722':   Casing driller 1
 DFT .              WATER:   Type fluid in hole
 RMB .OHMM           .053:   Rm. at BHT
 TCS .HRS             1.5:   Time Circ. stopped
 LUN .               1460:   Logging unit number
 ENGI.        FITZSIMMONS:   Recorded By
 WITN.             TUTTLE:   Witnessed by
 ORIG.           5" PRINT:   Origin of data
 UWI .     49025095920000:   Unique Well ID
 DICO. A2D TECHNOLOGIES, INC.:   Digitizing Company
~OTHER INFORMATION
~A    DEPT      GR         CALI 
# ...
 2308.5000    61.1840     6.7000
 2309.0000    61.8940     6.7010
 2309.5000    63.0730     6.7020
 2310.0000    64.6040     6.7030
 2310.5000    64.5640     6.7040
 2311.0000    64.5550     6.7050
 2311.5000    64.5620     6.7060
 2312.0000    64.0520     6.7070
 2312.5000    63.2250     6.7080
 2313.0000    63.0340     6.7090
 2313.5000    63.8730     6.7100
 2314.0000    64.5330     6.7110
 2314.5000    63.8040     6.7120
 2315.0000    62.6790     6.7130
 2315.5000    63.8450     6.7140
 2316.0000    62.4560     6.7150
 2316.5000    61.3730     6.7160
 2317.0000    61.1510     6.7160
 2317.5000    59.8930     6.7160
 2318.0000    58.4830     6.7160
 2318.5000    58.1180     6.7170
 2319.0000    57.8010     6.7170
 2319.5000    58.0920     6.7170
 2320.0000    58.3580     6.7170
 2320.5000    57.7200     6.7180
 2321.0000    57.8540     6.7180
 2321.5000    59.1650     6.7180
 2322.0000    60.7470     6.7180
 2322.5000    61.4280     6.7190
 2323.0000    59.8850     6.7190
 2323.5000    61.4200     6.7190
 2324.0000    63.4680     6.7190
 2324.5000    63.4540     6.7200
 2325.0000    59.3940     6.7200
 2325.5000    59.5670     6.7200
 2326.0000    58.8680     6.7200
 2326.5000    57.5270     6.7210
 2327.0000    57.9740     6.7210
 2327.5000    58.8370     6.7210
 2328.0000    59.7130     6.7210
 2328.5000    61.6120     6.7220
 2329.0000    62.4980     6.7220
 2329.5000    62.0080     6.7220
 2330.0000    60.5200     6.7220
 2330.5000    61.2420     6.7230
 2331.0000    61.3080     6.7230
 2331.5000    62.2170     6.7230
 2332.0000    63.0160     6.7240
 2332.5000    63.2450     6.7240
 2333.0000    62.8280     6.7240
 2333.5000    63.0200     6.7240
 2334.0000    62.1180     6.7250
 2334.5000    60.1060     6.7250
 2335.0000    58.7880     6.7250
 2335.5000    57.8050     6.7250
 2336.0000    55.8720     6.7260
 2336.5000    55.6750     6.7260
 2337.0000    56.2980     6.7260
 2337.5000    55.5430     6.7260
 2338.0000    53.9280     6.7260
 2338.5000    54.2460     6.7260
 2339.0000    54.7320     6.7260
 2339.5000    54.8320     6.7260
 2340.0000    55.7890     6.7260
 2340.5000    56.8770     6.7260
 2341.0000    56.1670     6.7260
 2341.5000    54.1040     6.7260
 2342.0000    53.3470     6.7140
 2342.5000    52.9350     6.6970
 2343.0000    52.1630     6.6970
 2343.5000    51.3090     6.6970
 2344.0000    50.5100     6.6970
 2344.5000    50.6650     6.6970
 2345.0000    51.7810     6.6970
 2345.5000    51.1010     6.6970
 2346.0000    50.4880     6.6960
 2346.5000    50.7120     6.6950
 2347.0000    52.1750     6.6950
 2347.5000    54.8610     6.6940
 2348.0000    57.5760     6.6930
 2348.5000    57.1640     6.6920
 2349.0000    53.3330     6.6910
 2349.5000    50.7410     6.6900
 2350.0000    47.5100     6.6900
 2350.5000    43.5000     6.6890
 2351.0000    39.8330     6.6880
 2351.5000    38.5550     6.6870
 2352.0000    38.4340     6.6860
 2352.5000    39.3320     6.6850
 2353.0000    40.2210     6.6850
 2353.5000    39.6660     6.6840
 2354.0000    39.5970     6.6830
 2354.5000    41.1280     6.6820
 2355.0000    42.0580     6.6810
 2355.5000    41.0490     6.6800
 2356.0000    39.6560     6.6800
 2356.5000    39.3800     6.6790
 2357.0000    38.1930     6.6780
 2357.5000    37.0250     6.6770
 2358.0000    36.0160     6.6740
 2358.5000    37.1060     6.6710
 2359.0000    38.2130     6.6680
 2359.5000    39.3140     6.6640
 2360.0000    40.4080     6.6610
 2360.5000    41.5040     6.6580
 2361.0000    42.1990     6.6620
 2361.5000    42.0030     6.6680
 2362.0000    41.3190     6.6750
 2362.5000    40.6390     6.6810
 2363.0000    39.8990     6.6870
 2363.5000    39.2260     6.6950
 2364.0000    39.0920     6.7040
 2364.5000    40.1140     6.7060
 2365.0000    40.2210     6.7070
 2365.5000    41.0050     6.7070
 2366.0000    41.5870     6.7070
 2366.5000    44.4150     6.7070
 2367.0000    47.1280     6.7070
 2367.5000    48.5460     6.7070
 2368.0000    51.3560     6.7070
 2368.5000    51.7900     6.7070
 2369.0000    52.0380     6.7070
 2369.5000    52.2800     6.7070
 2370.0000    53.7330     6.7070
 2370.5000    56.5510     6.7070
 2371.0000    56.6770     6.7070
 2371.5000    56.1600     6.7070
 2372.0000    56.5220     6.7070
 2372.5000    56.6370     6.7070
 2373.0000    56.3920     6.7070
 2373.5000    56.1560     6.7070
 2374.0000    55.8170     6.7070
 2374.5000    52.7470     6.7070
 2375.0000    48.3790     6.7070
 2375.5000    47.1500     6.7070
 2376.0000    48.2100     6.7070
 2376.5000    50.9260     6.7070
 2377.0000    52.6170     6.7070
 2377.5000    52.9930     6.7070
 2378.0000    53.6470     6.7070
 2378.5000    53.9790     6.7070
 2379.0000    53.7620     6.7070
 2379.5000    53.0640     6.7070
 2380.0000    51.5150     6.7070
 2380.5000    49.9920     6.7070
 2381.0000    48.6660     6.7070
 2381.5000    48.7010     6.7070
 2382.0000    48.7040     6.7070
 2382.5000    48.6990     6.7070
 2383.0000    48.7050     6.7070
 2383.5000    47.9590     6.7070
 2384.0000    46.6670     6.7070
 2384.5000    46.2970     6.7070
 2385.0000    47.7070     6.7070
 2385.5000    49.0550     6.7070
 2386.0000    48.4190     6.7070
 2386.5000    49.3190     6.7070
 2387.0000    51.5270     6.7080
 2387.5000    51.5610     6.7080
 2388.0000    51.0350     6.7090
 2388.5000    50.6540     6.7090
 2389.0000    51.4240     6.7100
 2389.5000    51.1940     6.7100
 2390.0000    51.0890     6.7110
 2390.5000    51.3130     6.7110
 2391.0000    51.5580     6.7120
 2391.5000    50.6690     6.7120
 2392.0000    49.4430     6.7130
 2392.5000    48.1770     6.7130
 2393.0000    48.3440     6.7130
 2393.5000    48.9450     6.7140
 2394.0000    50.0280     6.7140
 2394.5000    52.0980     6.7150
 2395.0000    52.5120     6.7150
 2395.5000    49.9750     6.7160
 2396.0000    47.8260     6.7160
 2396.5000    47.3670     6.7160
 2397.0000    48.1510     6.7160
 2397.5000    48.9300     6.7150
 2398.0000    49.7140     6.7150
 2398.5000    50.8450     6.7140
 2399.0000    52.0060     6.7140
 2399.5000    52.4220     6.7140
 2400.0000    53.3720     6.7130
 2400.5000    51.4800     6.7130
 2401.0000    48.8940     6.7120
 2401.5000    47.7310     6.7120
 2402.0000    47.9860     6.7110
 2402.5000    48.2000     6.7110
 2403.0000    49.9480     6.7110
 2403.5000    51.4600     6.7100
 2404.0000    51.1030     6.7100
 2404.5000    50.1770     6.7090
 2405.0000    49.2370     6.7090
 2405.5000    48.2880     6.7090
 2406.0000    47.3140     6.7080
 2406.5000    47.0710     6.7080
 2407.0000    47.0640     6.7070
 2407.5000    47.0490     6.7070
 2408.0000    46.4150     6.7070
 2408.5000    46.4610     6.7060
 2409.0000    47.7080     6.7060
 2409.5000    49.0950     6.7050
 2410.0000    52.3580     6.7050
 2410.5000    52.6580     6.7050
 2411.0000    52.0380     6.7040
 2411.5000    50.4230     6.7040
 2412.0000    47.7610     6.7040
 2412.5000    48.3150     6.7030
 2413.0000    49.9460     6.7030
 2413.5000    51.3100     6.7020
 2414.0000    50.3350     6.7020
 2414.5000    49.3680     6.7020
 2415.0000    48.5070     6.7010
 2415.5000    48.4950     6.7010
 2416.0000    48.6170     6.7010
 2416.5000    49.5670     6.7000
 2417.0000    49.9370     6.7000
 2417.5000    49.9790     6.7000
 2418.0000    47.6610     6.6990
 2418.5000    46.6320     6.6990
 2419.0000    46.2860     6.6980
 2419.5000    47.9900     6.6980
 2420.0000    48.6680     6.6980
 2420.5000    48.9640     6.6970
 2421.0000    48.9170     6.6970
 2421.5000    48.0300     6.6970
 2422.0000    44.4260     6.7020
 2422.5000    43.4210     6.7090
 2423.0000    44.3630     6.7150
 2423.5000    43.8490     6.7220
 2424.0000    42.8310     6.7260
 2424.5000    41.8090     6.7220
 2425.0000    40.9470     6.7190
 2425.5000    41.8110     6.7160
 2426.0000    42.6150     6.7120
 2426.5000    45.8340     6.7090
 2427.0000    48.3260     6.7060
 2427.5000    49.3620     6.7030
 2428.0000    47.8120     6.6990
 2428.5000    46.6460     6.6960
 2429.0000    45.7070     6.6930
 2429.5000    43.4850     6.6890
