~VERSION INFORMATION
 VERS.                2.0:   CWLS LOG ASCII STANDARD - VERSION 2.0
 WRAP.                 NO:   ONE LINE PER DEPTH STEP
~WELL INFORMATION
#MNEM.UNIT      DATA TYPE    INFORMATION
#----------   ------------   ------------------------------
 STRT.F          492.0000:   START DEPTH
 STOP.F         3008.0000:   STOP DEPTH
 STEP.F            0.5000:   STEP LENGTH
 NULL.          -999.2500:   NO VALUE
 COMP.    FENIX & SCISSON:   COMPANY
 WELL. FENIX & SCISSON AX #24-28:   WELL
 FLD .             TEAPOT:   FIELD
 LOC .      S28 T39N R78W:   LOCATION
 CNTY.            NATRONA:   COUNTY
 STAT.            WYOMING:   STATE
 CTRY. UNITED STATES OF AMERICA:   COUNTRY
 SRVC.              WELEX:   SERVICE COMPANY
 DATE.        03-AUG-1980:   LOGDATE
 API .     49025108490000:   API NUMBER
~CURVE INFORMATION
#MNEM.UNIT       API CODE    CURVE DESCRIPTION
#----------   ------------   ------------------------------
 DEPT.F                  :   
 SPR .MV     07 010 01 00:   SPONTANEOUS POTENTIAL
 ILD .OHMM   07 120 46 00:   DEEP INDUCTION RESISTIVITY
 ILM .OHMM   07 120 44 00:   INDUCTION LOG MEDIUM RESISTIVITY
 SGRD.OHMM   07 220 05 00:   SHALLOW SHORT GUARD RESISTIVITY
 GRD .GAPI   45 310 01 00:   GAMMA RAY FROM DENSITY LOG
 CALD.IN     45 280 60 00:   CALIPER FROM DENSITY LOG
 CORR.G/C3   45 356 01 00:   DENSITY CORRECTION
 RHOB.G/C3   45 350 01 00:   BULK DENSITY
~PARAMETER INFORMATION
#MNEM.UNIT          VALUE    DESCRIPTION
#----------   ------------   ------------------------------
 EKB .F         5061.0000:   Kelly bushing
 EGL .F         5051.0000:   Ground level
 TD  .F         3000.0000:   Total depth
 CLNT.            A2DTECH:   Client Code
 SL  . 2350' FNL & 1000' FWL:   Surface Location
 DATE.         3-AUG-1980:   Date Logged [DD-MMM-YYYY]
 DD  .F              3000:   Depth driller
 DL  .F              3010:   Depth logger
 BLI .F              3008:   Bottom log interval
 TLI .F               308:   Top log interval
 CS1 .              8.625:   Casing size
 CBD1.      8.625" @ 393':   Casing driller 1
 BS1 .IN            7.875:   Bit size
 BSD1.F              3000:   Depth drilled with bit1
 DFT .     WATER BASE MUD:   Type fluid in hole
 DFD .                8.9:   Density
 TCS .HRS               8:   Time Circ. stopped
 MRT .F               115:   Maximum recorded temp.
 ENGI.           WACHTELL:   Recorded By
 WITN.           DINSMORE:   Witnessed by
 ORIG.      2.5" 5" PRINT:   Origin of data
 UWI .     49025108490000:   Unique Well ID
 DICO. A2D TECHNOLOGIES, INC.:   Digitizing Company
 PD  .                 GL:   Permanent Datum
 EPD .F              3051:   Elevation Permanent Datum
 LMF .                 KB:   Log Measured From
 DMF .                 KB:   Drilling Measured From
 DAPD.F                10:   Feet Above Permanent Datum
 DFV .                 43:   Viscosity
 DFPH.                9.5:   pH
 DFL .                7.2:   Fluid loss
 MSS .           FLOWLINE:   Source of sample
 RMS .OHMM             .9:   Rm
 MST .F                80:   Rm Meas. temp.
 RMF .OHMM            .72:   Rmf
 MFST.F                80:   Rmf Meas. temp.
 MFSS.               MEAS:   Source Rmf.
 RMC .OHMM           1.08:   Rmc
 MCST.F                80:   Rmc Meas. temp.
 MCSS.               MEAS:   Source Rmc.
 RMB .OHMM            .06:   Rm. at BHT
 BHT .F               115:   BHT.
 LUN .               1892:   Logging unit number
 LUL .             CASPER:   Logging unit location
~OTHER INFORMATION
~A   DEPT      SPR        ILD        ILM       SGRD        GRD       CALD       CORR       RHOB   
# ...
 1140.0000   -20.9610     6.3527     7.3232     8.2325    80.3896    10.0601     0.0689     2.5204
 1140.5000   -20.9640     6.3497     7.2199     8.2277    82.1395     9.9555     0.1139     2.5476
 1141.0000   -20.9670     6.3467     7.3192     8.2239    81.9232     9.9258     0.1154     2.5748
 1141.5000   -20.9700     6.3438     7.4200     8.3352    81.9319     9.9713     0.1169     2.5827
 1142.0000   -20.9730     6.3408     7.6276     8.3313    82.8401    10.0018     0.1215     2.5865
 1142.5000   -21.1011     6.3378     7.8447     8.3274    84.1980    10.0493     0.0935     2.5795
 1143.0000   -21.2793     6.3347     8.0740     8.4429    84.1649    10.1529     0.0654     2.5430
 1143.5000   -21.2823     6.3316     8.1714     8.5544    82.6433    10.2134     0.0000     2.4847
 1144.0000   -21.2858     6.3285     7.7713     8.6702    81.3026    10.1538    -0.0078     2.4459
 1144.5000   -20.9883     6.3254     7.5770     8.6656    80.6366    10.0341     0.0232     2.4444
 1145.0000   -20.9912     6.3224     7.4611     8.6195    80.6453     9.9895     0.0574     2.4566
 1145.5000   -20.9941     6.3193     7.4036     8.5375    82.6779    10.0200     0.0713     2.4879
 1146.0000   -20.6967     6.4048     7.5054     8.5334    84.7348    10.0528     0.0619     2.5236
 1146.5000   -20.3993     6.4013     7.6086     8.5284    85.8458    10.0960     0.0339     2.5066
 1147.0000   -20.4024     6.3983     7.6062     8.5244    84.7300    10.1415     0.0198     2.4910
 1147.5000   -20.4054     6.3953     7.6042     8.4027    82.4898    10.1569     0.0337     2.4972
 1148.0000   -20.4084     6.4820     7.4970     8.2827    80.4744    10.0373     0.0757     2.5103
 1148.5000   -20.4114     6.4789     7.2889     8.2789    79.1338     9.9326     0.0974     2.5788
 1149.0000   -20.4144     6.4757     7.2708     8.1607    79.5982     9.9486     0.1113     2.5890
 1149.5000   -20.4180     6.3830     7.1841     8.1471    81.6270     9.9936     0.1330     2.5820
 1150.0000   -21.0215     6.3799     7.2832     8.0401    82.7601    10.0391     0.1314     2.5734
 1150.5000   -21.3247     6.3397     7.2808     7.8980    82.9936    10.0846     0.1055     2.5626
 1151.0000   -22.5288     6.2855     7.2788     7.6687    82.7752    10.1301     0.0784     2.5486
 1151.5000   -23.4326     6.1949     7.2764     7.3434    81.8865    10.2206     0.0643     2.5238
 1152.0000   -23.7357     6.0218     7.2744     7.0317    80.9956    10.1760     0.0347     2.5082
 1152.5000   -24.0390     5.9357     7.1718     6.6802    80.3295    10.0703     0.0145     2.5020
 1153.0000   -24.3423     5.7699     6.7812     6.4162    80.1133    10.0118     0.0439     2.5012
 1153.5000   -24.6456     5.6874     6.3232     6.2372    79.8971     9.9822     0.0501     2.5321
 1154.0000   -24.5486     5.6060     5.9766     6.1482    79.9079     9.9525     0.0967     2.5608
 1154.5000   -24.2263     5.5171     5.8852     6.0604    79.3853     9.9530     0.1169     2.5693
 1155.0000   -23.9040     5.3564     5.8114     6.0576    78.9355     9.9835     0.1292     2.5732
 1155.5000   -23.4565     5.2004     5.9632     6.1395    78.2609     9.9689     0.1385     2.5739
 1156.0000   -22.5590     5.1198     7.1480     6.2352    77.5862     9.9674     0.1151     2.5645
 1156.5000   -22.2613     5.0727     8.8106     6.4154    77.1364     9.9548     0.0927     2.5368
 1157.0000   -21.3636     5.1091     7.4862     6.5726    76.4618     9.9703     0.0497     2.4441
 1157.5000   -20.7659     5.1388     6.3088     6.6975    74.8876    10.0158     0.0418     2.3951
 1158.0000   -20.4685     5.2811     6.0489     6.8456    71.2894    10.0313     0.0978     2.3625
 1158.5000   -20.1463     5.2787     5.9636     6.9920    69.6917     9.9866     0.1288     2.3384
 1159.0000   -19.8736     5.3504     5.8796     7.2297    69.4903     9.9721     0.1505     2.3321
 1159.5000   -19.5762     5.4228     5.8764     7.2263    70.1649     9.9726     0.1829     2.3531
 1160.0000   -19.5796     5.4201     6.0538     7.3245    71.9640    13.1112     0.2063     2.4196
 1160.5000   -19.5826     5.4937     6.5047     7.4233    73.5382    13.5170     0.1810     2.5994
 1161.0000   -19.5856     5.5682     6.8461     7.6292    75.5622    13.9229     0.1924     2.6102
 1161.5000   -19.5892     5.5907     7.0697     7.7324    76.6867    14.3137     0.2121     2.6071
 1162.0000   -19.8924     5.6410     7.1346     7.9608    75.9642    10.1700     0.1950     2.5923
 1162.5000   -20.1956     5.6377     7.1322     8.0776    73.7631    10.0653     0.1545     2.5713
 1163.0000   -20.4987     5.7135     7.1298     8.1635    72.6387    10.0357     0.1172     2.5518
 1163.5000   -21.1022     5.7108     7.1279     8.1589    73.0885    10.0211     0.0923     2.5367
 1164.0000   -21.1051     5.7082     7.2262     8.2692    75.7871     9.9915     0.1032     2.5456
 1164.5000   -21.1081     5.7858     7.3254     8.2652    79.1604     9.9921     0.1156     2.5689
 1165.0000   -21.1111     5.8641     7.5304     8.3762    82.0840     9.9775     0.1218     2.5836
 1165.5000   -21.1141     5.9452     7.7433     8.3723    84.6069     9.9779     0.1358     2.5991
 1166.0000   -21.1171     6.0241     7.9696     8.4856    86.5817     9.9784     0.1141     2.6038
 1166.5000   -21.1201     6.0210     8.0890     8.4816    87.4813     9.9789     0.0643     2.5369
 1167.0000   -20.9730     6.0417     8.2931     8.4776    86.5817    10.0094     0.0285     2.4940
 1167.5000   -20.5261     6.1001     8.2905     8.4736    85.2324    10.0248     0.0254     2.5058
 1168.0000   -20.2287     6.0966     8.2882     8.3525    84.5577    10.0102     0.0497     2.5244
 1168.5000   -20.2316     6.1397     8.1101     8.3484    84.5645     9.9806     0.0814     2.5469
 1169.0000   -19.9339     6.1761     7.7257     8.3444    84.3328     9.9355     0.0891     2.5617
 1169.5000   -19.9371     6.2593     7.5114     8.2251    83.4333     9.9064     0.0876     2.5492
 1170.0000   -19.9399     6.1698     7.5093     8.1718    81.8591     9.9520     0.0767     2.5002
 1170.5000   -19.9429     6.1669     7.7195     8.1035    80.0600     9.9825     0.0121     2.4798
 1171.0000   -19.9459     6.1640     7.9355     7.9869    80.0600     9.9829     0.0238     2.4893
 1171.5000   -19.9489     6.1610     8.0447     7.8729    80.9595     9.9533     0.0015     2.5079
 1172.0000   -19.9520     6.1580     8.0424     7.8692    82.0840     9.9087     0.0315     2.5367
 1172.5000   -19.9550     6.1550     7.9289     7.7568    82.5337     9.8941     0.0657     2.5576
 1173.0000   -20.1081     6.1520     7.7482     7.7532    82.0840     9.9247     0.0564     2.5591
 1173.5000   -20.4363     6.0639     7.3702     7.6425    81.1844     9.9402     0.0455     2.5482
 1174.0000   -20.5650     6.0196     6.9409     7.6388    80.2849     9.9556     0.0453     2.5270
 1174.5000   -21.1685     5.9263     6.6468     7.5296    79.6102     9.9709     0.0533     2.4969
 1175.0000   -21.1714     5.8067     6.6984     7.5259    79.1604     9.9264     0.0564     2.4922
 1175.5000   -21.1743     5.7237     7.0805     7.5222    80.0600     9.8818     0.0579     2.5109
 1176.0000   -21.4775     5.7210     7.4843     7.5186    82.6149     9.8823     0.0377     2.5310
 1176.5000   -21.4805     5.7987     7.8017     7.6202    86.1319     9.9279     0.0128     2.5357
 1177.0000   -21.4335     5.7959     8.0215     7.6165    89.0555     9.9733    -0.0012     2.5131
 1177.5000   -21.1858     5.8826     8.2559     7.6122    89.9550    10.0038     0.0097     2.4967
 1178.0000   -21.1892     5.9541     8.4752     7.7152    89.0555     9.9891     0.1079     2.4929
 1178.5000   -21.1922     5.9509     8.4727     7.8196    88.6057     9.9146     0.1092     2.5247
 1179.0000   -21.0450     5.9480     8.5131     7.8160    89.2804     9.8850     0.0812     2.5394
 1179.5000   -20.5976     6.0663     8.5337     7.9218    90.4325     9.9306     0.0921     2.5487
 1180.0000   -20.3003     6.1559     8.4031     7.9180    91.0795     9.9610     0.1092     2.5526
