~VERSION INFORMATION
 VERS.                2.0:   CWLS LOG ASCII STANDARD - VERSION 2.0
 WRAP.                 NO:   ONE LINE PER DEPTH STEP
~WELL INFORMATION
#MNEM.UNIT      DATA TYPE    INFORMATION
#----------   ------------   ------------------------------
 STRT.F          176.0000:   START DEPTH
 STOP.F         3442.0000:   STOP DEPTH
 STEP.F            0.5000:   STEP LENGTH
 NULL.          -999.2500:   NO VALUE
 COMP.  FENIX AND SCISSON:   COMPANY
 WELL.  FENIX "AX" #65-15:   WELL
 FLD . NAVAL PETROLEUM RESERVE #3:   FIELD
 LOC .      S15 T38N R78W:   LOCATION
 CNTY.            NATRONA:   COUNTY
 STAT.            WYOMING:   STATE
 CTRY. UNITED STATES OF AMERICA:   COUNTRY
 SRVC.       SCHLUMBERGER:   SERVICE COMPANY
 DATE.        09-APR-1981:   LOGDATE
 API .     49025108710000:   API NUMBER
~CURVE INFORMATION
#MNEM.UNIT       API CODE    CURVE DESCRIPTION
#----------   ------------   ------------------------------
 DEPT.F                  :   
 TENR.LBS    07 635 01 00:   TENSION
 SPR .MV     07 010 01 00:   SPONTANEOUS POTENTIAL
 ILD .OHMM   07 120 46 00:   INDUCTION LOG DEEP RESISTIVITY
 ILM .OHMM   07 120 44 00:   INDUCTION LOG MEDIUM RESISTIVITY
 SFL .OHMM   07 220 01 00:   SHALLOW FOCUSED LOG RESISTIVITY
 TEND.LBS    45 635 01 00:   TENSION FROM DENSITY LOG
 CALD.IN     45 280 60 00:   CALIPER FROM DENSITY LOG
 GRD .GAPI   45 310 01 00:   GAMMA RAY FROM DENSITY LOG
 RHOB.G/C3   45 350 01 00:   BULK DENSITY
 CORR.G/C3   45 356 01 00:   DENSITY CORRECTION
~PARAMETER INFORMATION
#MNEM.UNIT          VALUE    DESCRIPTION
#----------   ------------   ------------------------------
 EKB .F         5287.0000:   Kelly bushing
 EGL .F         5277.0000:   Ground level
 EDF .F            0.0000:   Drilling floor
 TD  .F         5476.0000:   Total depth
 DATE.        09-APR-1981:   Date logged
 CLNT.            A2DTECH:   Client Code
 SL  . 1945' FSL & 1161' FEL:   Surface Location
 PD  .                 GL:   Permanent Datum
 EPD .F              5277:   Elevation Permanent Datum
 LMF .                 KB:   Log Measured From
 DMF .                 KB:   Drilling Measured From
 DAPD.F                10:   Feet Above Permanent Datum
 DD  .F              5476:   Depth driller
 DL  .F              5436:   Depth logger
 BLI .F              5430:   Bottom log interval
 TLI .F               190:   Top log interval
 CS1 .IN            8.625:   Casing size
 CBD1.      8.625" @ 190':   Casing driller 1
 CBL1.F               190:   Casing logger 1
 BS1 .IN            7.875:   Bit size
 BSD1.F              5476:   Depth drilled with bit1
 DFT .           CHEM GEL:   Type fluid in hole
 DFD .                9.1:   Density
 DFV .                 42:   Viscosity
 DFPH.                9.5:   pH
 DFL .                  8:   Fluid loss
 MSS .            MUDTANK:   Source of sample
 RMS .OHMM           1.62:   Rm
 MST .F                71:   Rm Meas. temp.
 RMF .OHMM           1.45:   Rmf
 MFST.F                71:   Rmf Meas. temp.
 MFSS.               MEAS:   Source Rmf.
 RMB .OHMM           1.02:   Rm. at BHT
 BHT .F               116:   BHT.
 TCS .HRS            1600:   Time Circ. stopped
 TLAB.HRS            1830:   Time logger at bottom
 MRT .F               116:   Maximum recorded temp.
 LUN .               8035:   Logging unit number
 LUL .               CSPR:   Logging unit location
 ENGI.            BEATTIE:   Recorded By
 WITN.              EIVAS:   Witnessed by
 ORIG.           5" PRINT:   Origin of data
 UWI .     49025108710000:   Unique Well ID
 DICO. A2D TECHNOLOGIES, INC.:   Digitizing Company
~OTHER INFORMATION
~A   DEPT     TENR        SPR        ILD        ILM        SFL       TEND       CALD         GRD      RHOB       CORR   
# ...
 3392.0000   739.3820   -27.6550     2.8000     2.8130     3.2730   753.4930     8.0940   132.0370     2.4600     0.0060
 3392.5000   738.8990   -27.6480     2.7780     2.7850     3.5810   753.8490     8.0770   133.2230     2.4560     0.0040
 3393.0000   738.4150   -27.6450     2.7560     2.7580     3.5000   754.2540     8.0600   132.3970     2.4520     0.0040
 3393.5000   737.9310   -27.6480     2.7340     2.7300     3.3120   754.6590     8.0420   129.2920     2.4490     0.0030
 3394.0000   737.4480   -27.6470     2.7120     2.7030     3.1240   755.0640     8.0250   126.3610     2.4470     0.0090
 3394.5000   736.9640   -27.6470     2.6900     2.6750     2.9990   755.4690     8.0070   125.6470     2.4460     0.0150
 3395.0000   736.4800   -27.6470     2.6690     2.6470     3.0520   755.8740     7.9900   127.3740     2.4430     0.0160
 3395.5000   735.9960   -27.6480     2.6470     2.6200     3.1050   756.2800     7.9730   129.1040     2.4380     0.0160
 3396.0000   735.5130   -27.6450     2.6250     2.5920     3.1530   756.6850     7.9550   130.2940     2.4340     0.0140
 3396.5000   735.0290   -27.6490     2.6030     2.5650     3.0250   757.0900     7.9380   131.1970     2.4350     0.0210
 3397.0000   734.5450   -27.6510     2.5810     2.5370     2.8780   757.4950     7.9210   131.9460     2.4380     0.0270
 3397.5000   734.0620   -27.6300     2.5590     2.5100     2.8940   757.9000     7.9030   132.6200     2.4370     0.0270
 3398.0000   733.5780   -27.6870     2.5370     2.4820     2.9390   758.3050     7.8860   132.9860     2.4250     0.0200
 3398.5000   733.0940   -27.3310     2.5150     2.4550     2.9840   758.7110     7.8690   132.9870     2.4180     0.0130
 3399.0000   732.6110   -27.2530     2.4930     2.4270     3.0300   759.1160     7.8510   132.9890     2.4140     0.0090
 3399.5000   732.1270   -27.2350     2.4880     2.3990     2.9110   759.5210     7.8340   132.9880     2.4110     0.0130
 3400.0000   731.6430   -27.0030     2.4880     2.3990     2.7450   759.9260     7.8170   132.9880     2.4070     0.0160
 3400.5000   731.1600   -26.8390     2.5240     2.4540     2.5800   760.3310     7.8040   132.9880     2.4090     0.0200
 3401.0000   730.6760   -26.9980     2.6130     2.4990     2.5800   760.7370     7.8050   132.9880     2.4140     0.0240
 3401.5000   730.1920   -27.2550     2.7020     2.5450     2.5340   761.1420     7.8050   132.9880     2.4210     0.0310
 3402.0000   729.7090   -27.1580     2.7920     2.6450     2.6850   761.5470     7.8070   132.9880     2.4390     0.0390
 3402.5000   729.2250   -26.9900     2.8810     2.9380     3.1650   761.9520     7.7720   132.9880     2.4530     0.0430
 3403.0000   728.7410   -26.8090     2.9850     3.2300     3.6440   762.3570     7.7510   132.9900     2.4600     0.0400
 3403.5000   728.2570   -26.6700     3.2400     3.5230     4.1230   762.7620     7.7090   132.9860     2.4540     0.0410
 3404.0000   727.7740   -26.4820     3.5480     3.8160     4.6030   763.1680     7.6630   132.9570     2.4400     0.0520
 3404.5000   727.2900   -26.3980     3.8550     4.1090     5.0600   759.3150     7.6180  -999.2500     2.4320     0.0780
 3405.0000   726.8060   -26.0350     4.1630     4.4020     4.6260   755.3560     7.5730  -999.2500     2.4290     0.1010
 3405.5000   726.3230   -26.0960     4.4700     4.6950     4.0680   759.4150  -999.2500  -999.2500     2.4260     0.1140
 3406.0000   725.8390   -26.0740     4.7780     4.9880     4.6760   763.4730  -999.2500  -999.2500     2.4270     0.1160
 3406.5000   725.3550   -26.0760     5.0850     5.2810     5.6030   767.5320  -999.2500  -999.2500  -999.2500     0.1170
 3407.0000   724.8720   -26.0810     5.3930     5.5740     6.6490   771.5900  -999.2500  -999.2500  -999.2500     0.1210
 3407.5000   724.3880   -26.0770     5.7000     5.8670     6.9750   773.4530  -999.2500  -999.2500  -999.2500     0.1250
 3408.0000   723.9040   -26.0790     6.0080     6.0990     7.3500   772.7510  -999.2500  -999.2500  -999.2500     0.1330
 3408.5000   723.4210   -26.0790     6.3150     6.3030     7.7250   771.8200  -999.2500  -999.2500  -999.2500     0.1440
 3409.0000   722.9370   -26.0780     6.5290     6.5290     8.0990   770.8890  -999.2500  -999.2500  -999.2500     0.1420
 3409.5000   722.4530   -26.0790     6.4650     6.4750     8.7370   769.9590  -999.2500  -999.2500  -999.2500     0.1380
 3410.0000   721.9700   -26.0780     6.3340     6.3650     8.5960   769.0280  -999.2500  -999.2500  -999.2500  -999.2500
 3410.5000   721.4860   -26.0790     6.2030     6.2560     8.1240   768.0970  -999.2500  -999.2500  -999.2500  -999.2500
 3411.0000   721.3440   -26.0810     6.0720     6.1460     7.6520   767.1660  -999.2500  -999.2500  -999.2500  -999.2500
 3411.5000   721.3440   -26.0410     5.9410     6.0360     7.1810   766.2350  -999.2500  -999.2500  -999.2500  -999.2500
 3412.0000   721.3440   -25.8850     5.7480     5.9610     6.7090   765.3040  -999.2500  -999.2500  -999.2500  -999.2500
 3412.5000   721.3440   -25.7300     5.8730     6.0270     6.2960   764.3730  -999.2500  -999.2500  -999.2500  -999.2500
 3413.0000   721.3440   -25.5760     6.1110     6.1530     6.1820   763.4430  -999.2500  -999.2500  -999.2500  -999.2500
 3413.5000   721.3440   -25.4150     6.4110     6.2780     6.1820   762.5120  -999.2500  -999.2500  -999.2500  -999.2500
 3414.0000   721.3440   -25.2570     6.3730     6.4110     8.3710   761.5810  -999.2500  -999.2500  -999.2500  -999.2500
 3414.5000   721.3440   -25.1220     6.2600     6.2550    11.2720   760.6500  -999.2500  -999.2500  -999.2500  -999.2500
 3415.0000   721.3440   -24.9060     6.1470     6.0880    10.8690   759.7190  -999.2500  -999.2500  -999.2500  -999.2500
 3415.5000   721.3440   -25.2180     6.0340     5.9210     9.4830   758.7880  -999.2500  -999.2500  -999.2500  -999.2500
 3416.0000   721.3440   -25.2910     5.9610     5.7480     8.0250   757.8570  -999.2500  -999.2500  -999.2500  -999.2500
 3416.5000   721.3440   -25.3030     5.6480     5.5710     6.5660   756.9270  -999.2500  -999.2500  -999.2500  -999.2500
 3417.0000   721.3440   -25.2950     5.3210     5.2560     5.6440   755.9960  -999.2500  -999.2500  -999.2500  -999.2500
 3417.5000   721.3440   -25.2700     4.9950     4.9410     5.2890   755.0650  -999.2500  -999.2500  -999.2500  -999.2500
 3418.0000   721.3440   -25.5890     4.7520     4.6200     4.9690   754.1340  -999.2500  -999.2500  -999.2500  -999.2500
 3418.5000   721.3440   -26.2370     4.6490     4.5640     5.0850   753.4930  -999.2500  -999.2500  -999.2500  -999.2500
 3419.0000   721.3440   -26.4890     4.5450     4.5060     5.2030   752.4460  -999.2500  -999.2500  -999.2500  -999.2500
 3419.5000   721.3440   -26.2300     4.4410     4.4480     5.3200   751.3060  -999.2500  -999.2500  -999.2500  -999.2500
 3420.0000   721.3440   -25.9290     4.3370     4.3900     5.1840   750.1660  -999.2500  -999.2500  -999.2500  -999.2500
 3420.5000   721.3440   -25.6230     4.2610     4.3320     4.9810   749.0260  -999.2500  -999.2500  -999.2500  -999.2500
 3421.0000   721.3440   -25.3210     4.2040     4.2740     4.7790   747.8860  -999.2500  -999.2500  -999.2500  -999.2500
 3421.5000   721.3440   -25.0090     4.1470     4.2160     4.6200   746.7460  -999.2500  -999.2500  -999.2500  -999.2500
 3422.0000   721.3440   -24.8940     4.0890     4.1580     4.6200   745.6060  -999.2500  -999.2500  -999.2500  -999.2500
 3422.5000   721.3440   -24.9030     4.0680     4.1010     4.6200   744.4660  -999.2500  -999.2500  -999.2500  -999.2500
 3423.0000   721.3440   -24.9020     3.9940     4.0680     4.6200   743.3260  -999.2500  -999.2500  -999.2500  -999.2500
 3423.5000   721.3440   -24.9010     3.9940     4.0680     4.6200   742.1860  -999.2500  -999.2500  -999.2500  -999.2500
 3424.0000   721.3440   -24.9020     3.9940     4.0680     4.7670   741.0460  -999.2500  -999.2500  -999.2500  -999.2500
 3424.5000   721.3440   -24.9020     3.9940     4.0680     4.9690   739.9060  -999.2500  -999.2500  -999.2500  -999.2500
 3425.0000   721.3440   -24.9010     4.0140     4.0680     4.9040   738.7660  -999.2500  -999.2500  -999.2500  -999.2500
