~VERSION INFORMATION
 VERS.                2.0:   CWLS LOG ASCII STANDARD - VERSION 2.0
 WRAP.                 NO:   ONE LINE PER DEPTH STEP
~WELL INFORMATION
#MNEM.UNIT      DATA TYPE    INFORMATION
#----------   ------------   ------------------------------
 STRT.F            0.0000:   START DEPTH
 STOP.F          640.0000:   STOP DEPTH
 STEP.F            0.5000:   STEP LENGTH
 NULL.          -999.2500:   NO VALUE
 COMP.       FLUOR DANIEL:   COMPANY
 WELL.  FLUOR " X" #45-27:   WELL
 FLD .                NPR:   FIELD
 LOC .      S27 T39N R78W:   LOCATION
 CNTY.            NATRONA:   COUNTY
 STAT.            WYOMING:   STATE
 CTRY. UNITED STATES OF AMERICA:   COUNTRY
 SRVC.      WESTERN ATLAS:   SERVICE COMPANY
 DATE.        11-MAY-1996:   LOGDATE
 API .     49025227900000:   API NUMBER
~CURVE INFORMATION
#MNEM.UNIT       API CODE    CURVE DESCRIPTION
#----------   ------------   ------------------------------
 DEPT.F                  :   
 GRR .GAPI   07 310 01 00:   GAMMA RAY FROM RESISTIVITY
 RILD.OHMM   07 120 46 00:   INDUCTION LOG DEEP RESISTIVITY
 RILM.OHMM   07 120 44 00:   INDUCTION LOG MEDIUM RESISTIVITY
 TENR.LBS    07 635 01 00:   TENSION
~PARAMETER INFORMATION
#MNEM.UNIT          VALUE    DESCRIPTION
#----------   ------------   ------------------------------
 EKB .F         5058.0000:   Kelly bushing
 EGL .F         5048.0000:   Ground level
 EDF .F         5057.0000:   Drilling floor
 EPD .F         5048.0000:   Permanent datum
 TD  .F          632.0000:   Total depth
 DATE.        11-MAY-1996:   Date logged
 CLNT.            A2DTECH:   Client Code
 SL  . 2250' FSL & 2122' FWL:   Surface Location
 PD  .                 GL:   Permanent Datum
 LMF .                 KB:   Log Measured From
 DMF .                 KB:   Drilling Measured From
 DAPD.F                10:   Feet Above Permanent Datum
 DD  .F               632:   Depth driller
 DL  .F               631:   Depth logger
 BLI .F               620:   Bottom log interval
 CS1 .IN            9.625:   Casing size
 CBD1.       9.625" @ 53':   Casing driller 1
 CBL1.F                53:   Casing logger 1
 BS1 .IN             8.75:   Bit size
 BSD1.F               632:   Depth drilled with bit1
 DFT .                AIR:   Type fluid in hole
 LUN .            HL 6532:   Logging unit number
 LUL .             CASPER:   Logging unit location
 ORIG.         2.5" PRINT:   Origin of data
 UWI .     49025227900000:   Unique Well ID
 DICO. A2D TECHNOLOGIES, INC.:   Digitizing Company
 TLI .                620:   Top log interval
~OTHER INFORMATION
~A    DEPT      GRR      RILD       RILM       TENR   
# ...
  365.0000   101.9940     6.1240     6.7600   -40.4190
  365.5000    98.5170     6.0540     6.8140   -40.4190
  366.0000    94.8740     6.0540     6.8650   -40.4190
  366.5000    94.4340     6.0540     6.9160   -40.4190
  367.0000    99.1820     6.0540     6.9670   -40.4190
  367.5000   101.5460     6.1040     7.0190   -40.4190
  368.0000   101.6870     6.2820     7.0700   -40.4190
  368.5000   102.6790     6.4600     7.1210   -40.4190
  369.0000   104.0790     6.6380     7.1720   -40.4190
  369.5000   105.6050     6.7600     7.2240   -40.4190
  370.0000   105.6740     6.7600     7.2750   -40.4190
  370.5000   104.8780     6.7860     7.3260   -40.4190
  371.0000   104.2200     6.8080     7.3770   -40.4190
  371.5000   103.6230     6.8310     7.4110   -40.4190
  372.0000   103.0190     6.8530     7.4110   -40.4190
  372.5000   103.0180     6.8860     7.2900   -40.4190
  373.0000   103.5400     6.7980     7.1290   -40.4190
  373.5000   103.9700     6.6370     6.9680   -40.4190
  374.0000   104.3150     6.3900     6.8070   -40.4190
  374.5000   103.2310     6.1370     6.6450   -40.4190
  375.0000   102.1630     5.8840     6.5160   -40.4190
  375.5000   102.5780     5.6310     6.2870   -40.4190
  376.0000   103.2930     5.3780     6.0000   -40.4190
  376.5000   103.8090     5.1310     5.7130   -40.4190
  377.0000   104.1420     5.0220     5.4270   -40.4190
  377.5000    99.8440     4.8560     5.1400   -40.4190
  378.0000    97.2650     4.7670     5.0380   -40.4190
  378.5000    96.5390     4.7670     5.1880   -40.4190
  379.0000    96.7200     4.8550     5.5190   -40.4190
  379.5000    99.4100     5.1900     5.8510   -40.4190
  380.0000   101.8780     5.5250     6.1830   -40.4190
  380.5000   102.6790     5.8600     6.5150   -40.4190
  381.0000   102.1200     6.1940     6.8460   -40.4190
  381.5000   101.4270     6.5290     7.1440   -40.4190
  382.0000   100.6250     6.7600     7.3050   -40.4190
  382.5000    99.8570     6.8210     7.5340   -40.4190
  383.0000    99.9450     6.8870     7.7150   -40.4190
  383.5000   103.2350     6.9530     7.7960   -40.4190
  384.0000   106.4410     7.0200     7.8760   -40.4190
  384.5000   105.8020     7.0860     7.9570   -40.4190
  385.0000   104.3300     7.1520     8.0230   -40.4190
  385.5000   103.3990     7.2180     8.0840   -40.4190
  386.0000   103.2280     7.2840     8.1460   -40.4190
  386.5000   102.8210     7.3510     8.2070   -40.4190
  387.0000   102.5730     7.4170     8.2680   -40.4190
  387.5000   102.2430     7.4830     8.3300   -40.4190
  388.0000   101.3230     7.5490     8.3910   -40.4190
  388.5000   100.0290     7.6080     8.4530   -40.4190
  389.0000   101.8230     7.6890     8.5140   -40.4190
  389.5000   102.8800     7.6780     8.5850   -40.4190
  390.0000   105.3790     7.6610     8.5360   -40.4190
  390.5000   105.0810     7.6450     8.4220   -40.4190
  391.0000   102.7490     7.6280     8.3090   -40.4190
  391.5000   101.9700     7.6110     8.1950   -40.4190
  392.0000   102.0430     7.5940     8.0820   -40.4190
  392.5000   102.0010     7.5770     7.9680   -40.4190
  393.0000   102.0290     7.5610     7.8540   -40.4190
  393.5000   102.0060     7.4870     7.7410   -40.4190
  394.0000   102.0300     7.2790     7.6270   -40.4190
  394.5000   102.1220     7.0700     7.4320   -40.4190
  395.0000   104.1210     6.8610     7.0560   -40.4190
  395.5000   106.6190     6.6370     6.6790   -40.4190
  396.0000   106.6320     6.1340     6.3020   -40.4190
  396.5000   103.3520     5.5920     6.0540   -40.4190
  397.0000   101.9220     5.1310     5.4770   -40.4190
  397.5000   103.3000     4.5610     4.8670   -40.4190
  398.0000   105.0860     4.0650     4.2560   -40.4190
  398.5000   106.8990     3.5410     3.7580   -40.4190
  399.0000   107.7070     2.8490     3.2940   -40.4190
  399.5000   107.0560     2.6770     2.8980   -40.4190
  400.0000   105.8220     2.4150     2.5160   -40.4190
  400.5000   101.0840     2.3450     2.5340   -40.4190
  401.0000    93.2850     2.2030     2.5700   -40.4190
  401.5000    91.8270     2.2180     2.6060   -40.4190
  402.0000    91.2440     2.2440     2.6470   -40.4190
  402.5000    94.2930     2.4290     2.9420   -40.4190
  403.0000   100.6910     2.7330     3.5650   -40.4190
  403.5000   106.0030     3.0360     4.1880   -40.4190
  404.0000   108.9310     3.3620     4.8560   -40.4190
  404.5000   110.6190     3.9490     5.0890   -40.4190
  405.0000   110.4650     4.5820     5.5240   -40.4190
  405.5000   108.6840     5.1980     5.9580   -40.4190
  406.0000   106.4600     5.8010     6.1670   -40.4190
  406.5000   107.0720     6.2810     6.3800   -40.4190
  407.0000   109.4350     6.4280     6.5960   -40.4190
  407.5000   110.7060     6.6370     6.7600   -40.4190
  408.0000   109.7390     6.6180     6.7600   -40.4190
  408.5000   108.4480     6.5740     6.7600   -40.4190
  409.0000   109.9010     6.5310     6.7600   -40.4190
  409.5000   111.4860     6.4870     6.7600   -40.4190
  410.0000   110.5240     6.4440     6.7600   -40.4190
  410.5000   110.9590     6.3980     6.7600   -40.4190
  411.0000   112.5880     6.1690     6.7600   -40.4190
  411.5000   113.1720     5.9260     6.5010   -40.4190
  412.0000   111.9820     5.6820     6.1570   -40.4190
  412.5000   110.0170     5.4390     5.8130   -40.4190
  413.0000   113.0610     5.1950     5.4690   -40.4190
  413.5000   115.5730     4.9510     5.1260   -40.4190
  414.0000   118.6430     4.7080     4.7820   -40.4190
  414.5000   118.1750     4.4640     4.5950   -40.4190
  415.0000   116.3660     4.1920     4.5120   -40.4190
  415.5000   112.9550     4.1920     4.6800   -40.4190
  416.0000   109.5730     4.2620     4.8710   -40.4190
  416.5000   107.6740     4.3630     5.0380   -40.4190
  417.0000   107.4970     4.5240     5.1940   -40.4190
  417.5000   108.6320     4.8040     5.4070   -40.4190
  418.0000   108.4260     5.0850     5.6250   -40.4190
  418.5000   108.4690     5.4220     6.0230   -40.4190
  419.0000   108.8950     5.6430     6.4300   -40.4190
  419.5000   110.1040     5.9210     6.8370   -40.4190
  420.0000   111.1590     6.1990     7.2440   -40.4190
  420.5000   112.3770     6.5160     7.5490   -40.4190
  421.0000   111.0410     6.9720     7.5490   -40.4190
  421.5000   110.2590     7.1440     7.5490   -40.4190
  422.0000   111.2940     7.1440     7.5490   -40.4190
  422.5000   112.1450     7.1440     7.5490   -40.4190
  423.0000   113.0390     7.1440     7.3630   -40.4190
  423.5000   113.0670     7.0410     7.2710   -40.4190
  424.0000   112.6090     6.9020     7.1790   -40.4190
  424.5000   114.0630     6.7600     7.0870   -40.4190
  425.0000   116.1260     6.5280     7.0140   -40.4190
  425.5000   117.9620     6.1360     6.5680   -40.4190
  426.0000   117.5360     5.7430     6.2810   -40.4190
  426.5000   116.9290     5.3500     5.9050   -40.4190
  427.0000   116.7570     4.9570     5.4530   -40.4190
  427.5000   117.9470     4.5950     5.0380   -40.4190
  428.0000   118.3700     4.5050     4.6800   -40.4190
  428.5000   118.2320     4.4820     4.5950   -40.4190
  429.0000   115.4100     4.4580     4.5950   -40.4190
  429.5000   109.2120     4.4350     4.5950   -40.4190
  430.0000   102.8830     4.4290     5.0100   -40.4190
  430.5000   101.2890     4.7800     5.3740   -40.4190
  431.0000   110.1880     5.1440     5.7380   -40.4190
  431.5000   113.9820     5.5090     6.1010   -40.4190
  432.0000   116.4950     5.8740     6.4650   -40.4190
  432.5000   117.0030     6.2380     6.8860   -40.4190
  433.0000   119.0530     6.6030     7.0400   -40.4190
  433.5000   121.1920     7.0140     7.3830   -40.4190
  434.0000   121.9440     7.0240     7.7260   -40.4190
  434.5000   120.5010     7.0470     7.8310   -40.4190
  435.0000   118.0510     7.0690     7.8310   -40.4190
  435.5000   116.3720     7.0910     7.8310   -40.4190
  436.0000   115.0870     7.1130     7.8310   -40.4190
  436.5000   113.8380     7.1350     7.8310   -40.4190
  437.0000   112.3730     7.1580     7.8310   -40.4190
  437.5000   111.8540     7.1800     7.8310   -40.4190
