~VERSION INFORMATION
 VERS.                2.0:   CWLS LOG ASCII STANDARD - VERSION 2.0
 WRAP.                 NO:   ONE LINE PER DEPTH STEP
~WELL INFORMATION
#MNEM.UNIT      DATA TYPE    INFORMATION
#----------   ------------   ------------------------------
 STRT.F          150.0000:   START DEPTH
 STOP.F         2929.0000:   STOP DEPTH
 STEP.F            0.5000:   STEP LENGTH
 NULL.          -999.2500:   NO VALUE
 COMP.    FENIX & SCISSON:   COMPANY
 WELL.    FENIX AX #12-28:   WELL
 FLD .        TEAPOT DOME:   FIELD
 LOC .      S28 T39N R78W:   LOCATION
 CNTY.            NATRONA:   COUNTY
 STAT.            WYOMING:   STATE
 CTRY. UNITED STATES OF AMERICA:   COUNTRY
 SRVC.           BIRDWELL:   SERVICE COMPANY
 DATE.        06-JUN-1978:   LOGDATE
 API .     49025106420000:   API NUMBER
~CURVE INFORMATION
#MNEM.UNIT       API CODE    CURVE DESCRIPTION
#----------   ------------   ------------------------------
 DEPT.F                  :   
 SPR .MV     05 010 01 00:   SPONTANEOUS POTENTIAL
 SN  .OHMM   05 040 16 00:   SHORT NORMAL 16"
 ILD .OHMM   05 120 46 00:   INDUCTION LOG DEEP RESISTIVITY
 RHOB.G/C3   45 350 01 00:   BULK DENSITY
 CORR.G/C3   45 356 01 00:   DENSITY CORRECTION
 GRD .GAPI   45 310 01 00:   GAMMA RAY FROM DENSITY LOG
 CALD.IN     45 280 60 00:   CALIPER FROM DENSITY LOG
~PARAMETER INFORMATION
#MNEM.UNIT          VALUE    DESCRIPTION
#----------   ------------   ------------------------------
 EKB .F         5000.0000:   Kelly bushing
 EGL .F         4990.0000:   Ground level
 EDF .F            0.0000:   Drilling floor
 EPD .F         5005.0000:   Permanent datum
 TD  .F         2911.0000:   Total depth
 DATE.        06-JUN-1978:   Date logged
 CLNT.            A2DTECH:   Client Code
 SL  . 1250' FNL & 225' FWL:   Surface Location
 PD  .                 GL:   Permanent Datum
 LMF .                 KB:   Log Measured From
 DMF .                 KB:   Drilling Measured From
 DAPD.F                10:   Feet Above Permanent Datum
 DD  .F              2911:   Depth driller
 DL  .F              2912:   Depth logger
 BLI .F              2906:   Bottom log interval
 TLI .F               200:   Top log interval
 CS1 .IN            8.625:   Casing size
 CBD1.      8.625" @ 225':   Casing driller 1
 CBL1.F               225:   Casing logger 1
 BS1 .IN            7.875:   Bit size
 BSD1.F              2911:   Depth drilled with bit1
 DFT .       OIL BASE MUD:   Type fluid in hole
 DFD .                9.2:   Density
 DFV .                 35:   Viscosity
 DFPH.               10.5:   pH
 DFL .                  2:   Fluid loss
 TCS .HRS             3.5:   Time Circ. stopped
 LUN .               2958:   Logging unit number
 LUL .               CASP:   Logging unit location
 ENGI.            POINTER:   Recorded By
 WITN.           MCGINLEY:   Witnessed by
 ORIG.           5" PRINT:   Origin of data
 UWI .     49025106420000:   Unique Well ID
 DICO. A2D TECHNOLOGIES, INC.:   Digitizing Company
~OTHER INFORMATION
~A   DEPT      SPR         SN        ILD       RHOB       CORR         GRD      CALD   
# ...
  787.0000   -36.0790     6.9530     6.0000     2.4500     0.1550    83.8760    11.0770
  787.5000   -36.3860     6.9450     6.0000     2.4550     0.1550    83.4660    11.0820
  788.0000   -36.4990     6.9370     6.0000     2.4630     0.1490    83.0500    11.0580
  788.5000   -36.0770     6.9290     6.0000     2.4720     0.1380    83.5540    11.0250
  789.0000   -35.6780     6.9210     6.0000     2.4800     0.1280    84.7820    10.9910
  789.5000   -35.5070     6.9120     6.0000     2.4760     0.1170    84.4790    10.9480
  790.0000   -35.7810     6.9040     6.0000     2.4670     0.1140    84.1710    10.8610
  790.5000   -36.0460     6.8960     6.0000     2.4570     0.1200    84.9540    10.7750
  791.0000   -36.1030     6.8880     6.0000     2.4600     0.1270    86.0330    10.6890
  791.5000   -35.8370     6.8990     6.0040     2.4640     0.1300    86.3520    10.6020
  792.0000   -35.5730     6.9120     6.0200     2.4680     0.1330    85.8010    10.5140
  792.5000   -35.2890     6.9250     6.0360     2.4620     0.1360    85.2540    10.4910
  793.0000   -35.6180     6.9380     6.0520     2.4560     0.1390    85.1790    10.4710
  793.5000   -36.2080     6.9510     6.0680     2.4620     0.1420    85.1310    10.4510
  794.0000   -36.7930     6.9640     6.0840     2.4510     0.1450    85.0820    10.4310
  794.5000   -37.0020     6.9770     6.1000     2.4400     0.1460    85.0310    10.4100
  795.0000   -36.9060     6.9900     6.1160     2.4440     0.1440    84.9810    10.3920
  795.5000   -36.5510     7.0030     6.1320     2.4480     0.1410    84.9330    10.3960
  796.0000   -35.2600     7.0160     6.1490     2.4520     0.1320    84.8830    10.4000
  796.5000   -35.2160     7.1460     6.1650     2.4610     0.1220    84.6460    10.4040
  797.0000   -35.9160     7.2780     6.2570     2.4720     0.1130    83.1590    10.4080
  797.5000   -36.9730     7.4090     6.3680     2.4840     0.1030    81.6650    10.4120
  798.0000   -36.7540     7.6150     6.4790     2.4960     0.0900    80.1840    10.4160
  798.5000   -35.9960     7.9160     6.7830     2.5050     0.0710    79.3250    10.4200
  799.0000   -35.2230     8.2180     7.0810     2.5050     0.0630    79.3970    10.4240
  799.5000   -35.1290     8.4620     7.2020     2.5060     0.0590    79.4620    10.4280
  800.0000   -35.0440     8.5620     7.3150     2.5110     0.0550    79.4640    10.4340
  800.5000   -36.7480     8.6700     7.4830     2.5150     0.0510    76.8960    10.4450
  801.0000   -36.3690     8.6390     7.4380     2.5100     0.0500    77.4300    10.4560
  801.5000   -35.8960     8.6040     7.4070     2.5070     0.0490    78.2140    10.4660
  802.0000   -35.4280     8.5690     7.3980     2.5030     0.0520    78.3270    10.4770
  802.5000   -35.3170     8.5350     7.3880     2.4980     0.0560    78.0230    10.4880
  803.0000   -35.7030     8.5000     7.3780     2.5030     0.0600    77.7090    10.4990
  803.5000   -36.5110     8.4650     7.3680     2.5080     0.0650    77.3950    10.5090
  804.0000   -36.8130     8.4310     7.3590     2.5140     0.0640    77.1010    10.5200
  804.5000   -36.9570     8.3960     7.3490     2.5200     0.0640    77.0550    10.5310
  805.0000   -36.6930     8.3610     7.3390     2.5210     0.0630    78.0500    10.5420
  805.5000   -36.1980     8.3270     7.3300     2.5090     0.0620    79.0210    10.5530
  806.0000   -35.8930     8.2920     7.3200     2.4970     0.0610    79.9920    10.5630
  806.5000   -36.3090     8.2580     7.3100     2.4880     0.0600    80.9830    10.5740
  807.0000   -36.5600     8.2230     7.3000     2.4910     0.0600    80.9020    10.5850
  807.5000   -36.3140     8.1880     7.2910     2.4930     0.0590    80.3570    10.5960
  808.0000   -36.0820     8.1540     7.2810     2.4890     0.0580    80.4700    10.6060
  808.5000   -35.8490     8.1290     7.2710     2.4840     0.0570    81.1360    10.6170
  809.0000   -35.6180     8.1290     7.2610     2.4780     0.0580    81.5340    10.6280
  809.5000   -35.4820     8.1290     7.2520     2.4780     0.0590    80.6390    10.6390
  810.0000   -35.9800     8.1290     7.2420     2.4850     0.0600    79.7740    10.6500
  810.5000   -36.4790     8.1290     7.2320     2.4910     0.0620    79.6450    10.6600
  811.0000   -36.6000     8.1290     7.2230     2.4860     0.0630    80.3420    10.6680
  811.5000   -35.9860     8.1290     7.2130     2.4810     0.0640    80.5650    10.6680
  812.0000   -35.5490     8.1290     7.2050     2.4770     0.0650    79.5410    10.6680
  812.5000   -35.4660     8.1290     7.1950     2.4860     0.0660    78.9920    10.6680
  813.0000   -35.7380     8.1290     7.1860     2.4900     0.0670    79.2420    10.6680
  813.5000   -36.5040     8.1290     7.1760     2.4840     0.0670    78.5860    10.6680
  814.0000   -36.9650     8.1290     7.1660     2.4740     0.0680    77.4830    10.6680
  814.5000   -37.1730     8.1290     7.1560     2.4650     0.0690    76.3640    10.6680
  815.0000   -36.4410     8.1290     7.1470     2.4680     0.0700    75.2070    10.6680
  815.5000   -35.7110     8.1290     7.1370     2.4750     0.0700    75.1840    10.6730
  816.0000   -36.1540     8.1290     7.1270     2.4820     0.0710    75.4620    10.6790
  816.5000   -36.7690     8.1290     7.1180     2.4890     0.0690    75.7960    10.6850
  817.0000   -37.2130     8.1290     7.1080     2.4950     0.0670    77.1160    10.6910
  817.5000   -37.0900     8.1290     7.0980     2.5020     0.0660    78.4580    10.6970
  818.0000   -36.1940     8.1290     7.0890     2.5080     0.0640    79.7790    10.7030
  818.5000   -35.4380     8.1290     7.0790     2.5100     0.0650    80.7920    10.7040
  819.0000   -35.5950     8.1290     7.0690     2.5050     0.0680    81.0480    10.6800
  819.5000   -35.7560     8.1290     7.0590     2.5070     0.0720    81.3170    10.6550
  820.0000   -35.9120     8.1290     7.0500     2.5120     0.0740    81.3480    10.6310
  820.5000   -35.8500     8.1290     7.0400     2.5180     0.0720    81.0040    10.6060
  821.0000   -35.4140     8.1290     7.0300     2.5190     0.0700    80.6460    10.5820
  821.5000   -34.9790     8.1290     7.0210     2.5180     0.0670    79.3840    10.5700
  822.0000   -34.8250     8.1290     7.0110     2.5120     0.0650    77.0460    10.5710
  822.5000   -34.9670     8.1290     7.0010     2.4990     0.0630    76.7570    10.5720
  823.0000   -35.6510     8.1290     6.9920     2.4980     0.0640    78.1640    10.5730
  823.5000   -36.3170     8.1130     6.9820     2.4990     0.0650    79.5810    10.5740
  824.0000   -36.5270     8.0950     6.9720     2.5000     0.0660    81.0090    10.5750
  824.5000   -36.1870     8.0760     6.9620     2.5010     0.0670    81.3380    10.5770
  825.0000   -35.4180     8.0570     6.9520     2.5040     0.0680    81.1220    10.5780
  825.5000   -35.4200     8.0390     6.9370     2.5060     0.0690    81.9020    10.5790
  826.0000   -35.6800     8.0200     6.9200     2.5090     0.0670    83.0430    10.5800
  826.5000   -36.6240     8.0010     6.9040     2.5110     0.0650    84.1950    10.5810
  827.0000   -37.3360     7.9830     6.8870     2.5190     0.0590    85.3370    10.5820
  827.5000   -36.8640     7.9640     6.8700     2.5170     0.0550    86.1270    10.5840
  828.0000   -36.3860     7.9450     6.8540     2.5140     0.0530    85.5500    10.5850
  828.5000   -35.9020     7.9260     6.8370     2.5150     0.0510    85.0040    10.5860
  829.0000   -35.9810     7.9080     6.8200     2.5190     0.0530    84.4600    10.5870
  829.5000   -36.1900     7.8890     6.8040     2.5170     0.0560    83.9160    10.5880
  830.0000   -36.4070     7.8700     6.7870     2.5120     0.0590    83.3700    10.6040
  830.5000   -36.5860     7.8520     6.7700     2.5160     0.0620    83.0440    10.6300
  831.0000   -36.0650     7.8330     6.7540     2.5170     0.0660    83.1240    10.6560
  831.5000   -35.5290     7.8140     6.7370     2.5180     0.0700    84.7750    10.6820
  832.0000   -34.9690     7.7960     6.7210     2.5170     0.0710    86.4290    10.7080
