~VERSION INFORMATION
 VERS.                2.0:   CWLS LOG ASCII STANDARD - VERSION 2.0
 WRAP.                 NO:   ONE LINE PER DEPTH STEP
~WELL INFORMATION
#MNEM.UNIT      DATA TYPE    INFORMATION
#----------   ------------   ------------------------------
 STRT.F          517.0000:   START DEPTH
 STOP.F         3222.0000:   STOP DEPTH
 STEP.F            0.5000:   STEP LENGTH
 NULL.          -999.2500:   NO VALUE
 COMP.    FENIX & SCISSON:   COMPANY
 WELL.  FENIX "TX" #53-33:   WELL
 FLD .             NPR #3:   FIELD
 LOC .      S33 T39N R78W:   LOCATION
 CNTY.            NATRONA:   COUNTY
 STAT.            WYOMING:   STATE
 CTRY. UNITED STATES OF AMERICA:   COUNTRY
 SRVC.              WELEX:   SERVICE COMPANY
 DATE.        24-AUG-1980:   LOGDATE
 API .     49025108460000:   API NUMBER
~CURVE INFORMATION
#MNEM.UNIT       API CODE    CURVE DESCRIPTION
#----------   ------------   ------------------------------
 DEPT.F                  :   
 CALD.IN     45 280 60 00:   CALIPER FROM DENSITY LOG
 GRD .GAPI   45 310 01 00:   GAMMA RAY FROM DENSITY LOG
 CORR.G/C3   45 356 01 00:   DENSITY CORRECTION
 RHOB.G/C3   45 350 01 00:   BULK DENSITY
 SPR .MV     07 010 01 00:   SPONTANEOUS POTENTIAL
 ILD .OHMM   07 120 46 00:   DEEP INDUCTION RESISTIVITY
 ILM .OHMM   07 120 44 00:   INDUCTION LOG MEDIUM RESISTIVITY
 SGRD.OHMM   07 220 05 00:   SHALLOW SHORT GUARD RESISTIVITY
~PARAMETER INFORMATION
#MNEM.UNIT          VALUE    DESCRIPTION
#----------   ------------   ------------------------------
 EKB .F         5173.0000:   Kelly bushing
 EGL .F         5163.0000:   Ground level
 EDF .F            0.0000:   Drilling floor
 EPD .F            0.0000:   Permanent datum
 TD  .F         3224.0000:   Total depth
 CLNT.            A2DTECH:   Client Code
 SL  . 1650' FNL & 2500' FEL:   Surface Location
 PD  .                 GL:   Permanent Datum
 DAPD.F                10:   Feet Above Permanent Datum
 DATE.        24-AUG-1980:   Date Logged [DD-MMM-YYYY]
 DD  .F              3190:   Depth driller
 DL  .F              3224:   Depth logger
 BLI .F              3222:   Bottom log interval
 TLI .F               528:   Top log interval
 CS1 .IN            8.625:   Casing size
 CBD1.      8.625" @ 532':   Casing driller 1
 CBL1.F               528:   Casing logger 1
 BS1 .IN            7.875:   Bit size
 BSD1.F              3190:   Depth drilled with bit1
 DFT .     WATER BASE MUD:   Type fluid in hole
 DFD .                8.8:   Density
 DFV .                 45:   Viscosity
 DFL .                9.4:   Fluid loss
 MSS .            MUD PIT:   Source of sample
 RMS .OHMM           2.10:   Rm
 MST .F                65:   Rm Meas. temp.
 RMF .OHMM           1.68:   Rmf
 MFST.F                65:   Rmf Meas. temp.
 MFSS.               CALC:   Source Rmf.
 RMC .OHMM           2.52:   Rmc
 MCST.F                65:   Rmc Meas. temp.
 MCSS.               CALC:   Source Rmc.
 RMB .OHMM           1.14:   Rm. at BHT
 BHT .F               120:   BHT.
 TCS .HRS               3:   Time Circ. stopped
 MRT .F               120:   Maximum recorded temp.
 LUN .               1892:   Logging unit number
 LUL .             CASPER:   Logging unit location
 ENGI.           WACHTEIL:   Recorded By
 ORIG.         2.5" PRINT:   Origin of data
 UWI .     49025108460000:   Unique Well ID
 DICO. A2D TECHNOLOGIES, INC.:   Digitizing Company
~OTHER INFORMATION
~A   DEPT     CALD         GRD      CORR       RHOB        SPR        ILD        ILM       SGRD   
# ...
 3190.0000     7.9610   114.9862     0.1509     2.5998   -25.9761     4.1361     6.4414    11.5345
 3190.5000     7.9305   112.1026     0.1356     2.5800   -25.9835     4.4459     7.1929    12.7906
 3191.0000     7.9300   109.4372     0.1261     2.5723   -25.9910     4.9422     7.9288    12.9592
 3191.5000     7.8995   105.7106     0.1298     2.5736   -25.9985     5.5444     8.6432    12.9466
 3192.0000     7.8991   104.5757     0.1392     2.5898   -26.0060     6.3610     9.5555    12.7575
 3192.5000     7.8986   106.8236     0.1455     2.6027   -25.7118     7.1016    10.0920    12.2277
 3193.0000     7.9282   108.1707     0.1518     2.6091   -25.7207     7.8195    10.4304    12.2499
 3193.5000     7.9277   109.9682     0.1534     2.6193   -25.7282     8.3746    10.5698    12.7565
 3194.0000     7.9273   110.4143     0.1564     2.6328   -25.7357     8.8458    10.7967    13.1694
 3194.5000     7.9269   109.9338     0.1533     2.6039   -25.7432     8.9632    10.7060    13.6135
 3195.0000     7.9264   108.0484     0.1288     2.5978   -25.7508     8.3309    10.2655    13.2690
 3195.5000     7.9260   106.1621     0.1074     2.5932   -25.7586     7.8358     9.7078    11.7240
 3196.0000     7.9255   105.4421     0.1195     2.5840   -25.7658     7.4109     8.9295     9.7342
 3196.5000     7.9251   107.3043     0.1286     2.5730   -25.7733     6.9895     8.0895     8.5860
 3197.0000     7.9246   110.7295     0.1285     2.5603   -25.7808     6.5923     7.4039     8.0046
 3197.5000     7.8941   114.7414     0.1277     2.5519   -25.7883     6.2173     6.8146     7.3599
 3198.0000     7.9236   109.9272     0.1243     2.5519   -25.6976     5.8055     6.3397     6.0574
 3198.5000     7.9232    93.7529     0.1210     2.5476   -25.4411     5.4134     5.8977     5.5590
 3199.0000     7.9228    59.2838     0.1176     2.5382   -25.2102     4.8424     5.4906     5.3264
 3199.5000     7.9224    24.8147     0.1142     2.5248   -25.2177     4.0982     4.8873     5.0819
 3200.0000     7.8919     1.6517     0.1097     2.5137   -25.2264     3.6660     4.3285     4.9490
 3200.5000     7.8614     1.7973     0.1066     2.5121   -25.2336     3.3169     4.0370     4.8317
 3201.0000     7.8610     1.9474     0.1065     2.5090   -25.2408     3.0928     3.7651     4.7609
 3201.5000     7.8605     2.1181     0.1095     2.5014   -25.2480     2.9506     3.5116     4.6904
 3202.0000     7.8300     2.2887     0.1155     2.4860   -25.2553     2.8217     3.2722     4.4338
 3202.5000     7.8296     2.4594     0.1063     2.4751   -25.2628     2.6983     3.0918     4.2497
 3203.0000     7.8291     2.6301     0.1032     2.4723   -25.2703     2.5449     2.9520     4.0172
 3203.5000     7.8587     2.8007     0.1001     2.4695   -25.2778     2.3744     2.7462     3.7452
 3204.0000     7.8582     2.9714     0.1011     2.4548   -25.2853     2.3080     2.5409     3.2963
 3204.5000     7.8878     3.1420     0.1030     2.4427   -25.2928     2.2126     2.3439     3.0742
 3205.0000     7.9174     3.3127     0.1097     2.4473   -25.3003     2.1508     2.2465     3.1884
 3205.5000     7.9170     3.4833     0.1242     2.4645   -25.3092     2.1485     2.2768     4.0113
 3206.0000     7.9141     3.6540     0.1302     2.4690   -25.3164     2.1797     2.3723     5.7476
 3206.5000     7.8809     3.8246     0.1226     2.4750   -25.3236     2.2733     2.7235     6.9908
 3207.0000     7.8255     3.9953     0.0929     2.4810   -25.3308     2.3140     3.0412     7.5877
 3207.5000     7.8251     4.1660     0.0751     2.4855   -25.3381     2.4844     3.4515     6.1211
 3208.0000     7.8679     4.3366     0.0707     2.4870   -25.3453     3.1123     3.8283     6.4642
 3208.5000     7.9302     4.5073     0.0612     2.4829   -25.3529     3.6753     4.4170     7.2154
 3209.0000     7.9438     4.6779     0.0474     2.4739   -25.3604     3.9886     5.0092     7.6199
 3209.5000     8.0034     4.8486     0.0565     2.4829   -25.3679     4.2130     5.5861     7.5086
 3210.0000     8.0330     5.0192     0.0777     2.5124   -25.3754     4.4500     5.9228     7.7452
 3210.5000     8.0025     5.1899     0.0929     2.5307   -25.3829     4.5091     6.2963     8.5350
 3211.0000     7.9721     5.3606     0.0898     2.5395   -25.3099     4.6327     6.5802     9.0351
 3211.5000     7.9357     5.5312     0.0806     2.5409   -25.0976     4.6983     6.3195     9.6143
 3212.0000     7.7958     5.7019     0.0843     2.5416   -25.1062     4.9583     6.2190     9.4003
 3212.5000  -999.2500  -999.2500  -999.2500  -999.2500   -25.1134     5.1086     6.5695     8.8749
 3213.0000  -999.2500  -999.2500  -999.2500  -999.2500   -25.1206     5.2549     6.9405     8.4506
 3213.5000  -999.2500  -999.2500  -999.2500  -999.2500   -24.8275     5.4347     7.4347     8.3271
 3214.0000  -999.2500  -999.2500  -999.2500  -999.2500   -24.8348     5.5602     8.0752     8.3200
 3214.5000  -999.2500  -999.2500  -999.2500  -999.2500   -24.8226     5.7645     8.1841     8.3128
 3215.0000  -999.2500  -999.2500  -999.2500  -999.2500   -24.5488     5.9109     8.1801     8.4215
 3215.5000  -999.2500  -999.2500  -999.2500  -999.2500   -24.4665     6.0729     8.1761     8.2901
 3216.0000  -999.2500  -999.2500  -999.2500  -999.2500   -24.2643     5.9854     8.1722     8.1587
 3216.5000  -999.2500  -999.2500  -999.2500  -999.2500   -24.2718     5.8180     7.8673     7.8660
 3217.0000  -999.2500  -999.2500  -999.2500  -999.2500   -24.2793     5.5006     7.3758     7.3749
 3217.5000  -999.2500  -999.2500  -999.2500  -999.2500   -24.2881     5.3468     6.7585     6.8814
 3218.0000  -999.2500  -999.2500  -999.2500  -999.2500   -24.2953     5.2566     6.1824     6.4807
 3218.5000  -999.2500  -999.2500  -999.2500  -999.2500   -24.0015     5.1936     6.0946     6.0846
 3219.0000  -999.2500  -999.2500  -999.2500  -999.2500   -24.0094     5.1645     6.0917     5.7517
 3219.5000  -999.2500  -999.2500  -999.2500  -999.2500   -24.0166     5.1864     6.2599     5.7468
 3220.0000  -999.2500  -999.2500  -999.2500  -999.2500   -24.0041     5.6445     6.6135     5.8222
 3220.5000  -999.2500  -999.2500  -999.2500  -999.2500   -23.7307     6.1149     8.2242     5.7369
 3221.0000  -999.2500  -999.2500  -999.2500  -999.2500   -23.7387     6.1361     9.8917     5.6496
 3221.5000  -999.2500  -999.2500  -999.2500  -999.2500   -23.7462     5.9400     9.9840     5.4739
 3222.0000  -999.2500  -999.2500  -999.2500  -999.2500   -23.7538     5.7036    10.0892     5.2658
