~VERSION INFORMATION
 VERS.                2.0:   CWLS LOG ASCII STANDARD - VERSION 2.0
 WRAP.                 NO:   ONE LINE PER DEPTH STEP
~WELL INFORMATION
#MNEM.UNIT      DATA TYPE    INFORMATION
#----------   ------------   ------------------------------
 STRT.F            6.0000:   START DEPTH
 STOP.F         3190.0000:   STOP DEPTH
 STEP.F            0.5000:   STEP LENGTH
 NULL.          -999.2500:   NO VALUE
 COMP. LAWRENCE ALLISON & ASSOCIATES:   COMPANY
 WELL. LAWRENCE N. P. R. 73AX #3-3:   WELL
 FLD .              N P R:   FIELD
 LOC .       S3 T38N R78W:   LOCATION
 CNTY.            NATRONA:   COUNTY
 STAT.            WYOMING:   STATE
 CTRY. UNITED STATES OF AMERICA:   COUNTRY
 SRVC.      DRESSER ATLAS:   SERVICE COMPANY
 DATE.        04-JUN-1986:   LOGDATE
 API .     49025110910000:   API NUMBER
~CURVE INFORMATION
#MNEM.UNIT       API CODE    CURVE DESCRIPTION
#----------   ------------   ------------------------------
 DEPT.F                  :   
 CALD.IN     45 280 60 00:   CALIPER FROM DENSITY LOG
 DEN .LBS    45 635 01 00:   BUCK DENSITY
 CORR.G/C3   45 356 01 00:   DENSITY CORRECTION
 TEND.LBS    45 635 01 00:   TENSION FROM DENSITY LOG
 SPR .MV     07 010 01 00:   SPONTANEOUS POTENTIAL
 GRR .GAPI   07 310 01 00:   GAMMA RAY FROM RESISTIVITY
 SFLU.OHMM   07 220 01 00:   SPHERICALLY FOCUSED LOG UNAVERAGED RESISTIVITY
 ILD .OHMM   07 120 46 00:   DEEP INDUCTION RESISTIVITY
 ILM .OHMM   07 120 44 00:   INDUCTION LOG MEDIUM RESISTIVITY
 TENR.LBS    07 635 01 00:   TENSION FROM RESISTIVITY
 CNC .DEC    42 890 01 00:   NEUTRON PORISITY LIMESTONE
~PARAMETER INFORMATION
#MNEM.UNIT          VALUE    DESCRIPTION
#----------   ------------   ------------------------------
 EKB .F         5173.0000:   Kelly bushing
 EGL .F         5161.0000:   Ground level
 TD  .F         3170.0000:   Total depth
 DATE.        04-JUN-1986:   Date logged
 CLNT.            A2DTECH:   Client Code
 PD  .                 GL:   Permanent Datum
 EPD .F              5161:   Elevation Permanent Datum
 LMF .                 KB:   Log Measured From
 DMF .                 KB:   Drilling Measured From
 DAPD.F                12:   Feet Above Permanent Datum
 DD  .F              3170:   Depth driller
 DL  .F              3168:   Depth logger
 BLI .F               8.9:   Bottom log interval
 TLI .F                38:   Top log interval
 CS1 .IN            8.625:   Casing size
 CBD1.      8.625" @ 603':   Casing driller 1
 CBL1.F               602:   Casing logger 1
 BS1 .IN            7.875:   Bit size
 BSD1.F              3170:   Depth drilled with bit1
 DFT .        KCL/POLYMER:   Type fluid in hole
 DFD .                8.9:   Density
 DFV .                 38:   Viscosity
 DFPH.                9.0:   pH
 DFL .               13.2:   Fluid loss
 MSS .           FLOWLINE:   Source of sample
 RMS .OHMM           .446:   Rm
 MST .F                64:   Rm Meas. temp.
 RMF .OHMM           .361:   Rmf
 MFST.F                64:   Rmf Meas. temp.
 RMC .OHMM            .56:   Rmc
 MCST.F                64:   Rmc Meas. temp.
 MFSS.               MEAS:   Source Rmf.
 MCSS.               CALC:   Source Rmc.
 RMB .OHMM           .242:   Rm. at BHT
 BHT .F               118:   BHT.
 TCS .HRS               3:   Time Circ. stopped
 MRT .F               118:   Maximum recorded temp.
 LUN .               6274:   Logging unit number
 LUL .           GILLETTE:   Logging unit location
 WITN.             STRONG:   Witnessed by
 ORIG.           5" PRINT:   Origin of data
 UWI .     49025110910000:   Unique Well ID
 DICO. A2D TECHNOLOGIES, INC.:   Digitizing Company
~OTHER INFORMATION
~A    DEPT    CALD        DEN       CORR       TEND        SPR         GRR      SFLU        ILD        ILM       TENR        CNC   
# ...
 2812.0000     9.1354     2.5363     0.0355    -9.6315   -48.6930   135.6226     5.9302     4.8799     4.9241   -37.1456     0.2523
 2812.5000     9.1356     2.5424     0.0395   -29.8019   -48.4917   123.5466     6.6290     4.8349     4.9701   -37.1140     0.2499
 2813.0000     9.1357     2.5474     0.0335   -37.9188   -48.4917   118.3137     6.7533     4.8800     5.0632   -37.0824     0.2475
 2813.5000     9.1157     2.5404     0.0174   -39.9520   -48.0891   119.5216     6.4471     4.9715     5.1582   -57.2289     0.2410
 2814.0000     9.0957     2.5353     0.0073   -29.9516   -47.8878   123.5475     6.0416     5.2077     5.4033   -47.1082     0.2245
 2814.5000     9.0757     2.5353     0.0093   -40.0617   -47.6865   127.1709     5.9858     5.5574     5.7661   -47.0702     0.2180
 2815.0000     9.0156     2.5404     0.0174   -40.1116   -47.4852   121.5352     6.6293     6.0980     6.1532   -57.1273     0.2100
 2815.5000     9.0157     2.5555     0.0375   -40.1615   -47.0826   109.5052     7.9079     6.5681     6.5057   -57.0956     0.1898
 2816.0000     8.9957     2.5816     0.0597   -50.2816   -46.4787    97.4752    10.7422     6.8802     7.1386   -57.0829     0.1821
 2816.5000     8.9958     2.6078     0.0597   -50.3315   -46.4786    83.6924    11.6781     7.1405     8.0542   -57.0388     0.1785
 2817.0000     8.9959     2.6259     0.0195   -50.3814   -46.6799    80.0688    12.1199     7.4106     8.2051   -57.0004     0.1922
 2817.5000     8.9961     2.6249     0.0175   -60.4916   -46.6798    81.6790    11.3575     7.6910     8.2817   -67.0571     0.1934
 2818.0000     8.9962     2.6179     0.0175   -50.4812   -46.4785    86.1074     9.7901     7.9082     8.3590   -67.0253     0.1926
 2818.5000     9.0164     2.5817     0.0195   -90.7721   -46.4784    94.1595     8.8400     8.1315     8.3590   -97.2586     0.1910
 2819.0000     9.0165     2.5706     0.0255   -90.8220   -46.2771    97.3804     8.3612     8.1316     8.4370   -97.2266     0.1910
 2819.5000     8.9965     2.5656     0.0336  -100.9321   -45.8744    98.9908     8.3612     8.2074     8.4371  -117.3710     0.1930
 2820.0000     8.9967     2.5555     0.0396  -100.9820   -45.8744    99.7961     8.6775     8.1317     8.3592  -107.2507     0.1990
 2820.5000     9.0169     2.5525     0.0437  -101.0319   -45.9982    98.5881     9.3464     7.9822     7.9801   -97.1306     0.2059
 2821.0000     8.9969     2.5525     0.0457  -101.0818   -46.1221    97.7828     9.3465     7.7630     7.7611   -97.0986     0.2083
 2821.5000     8.9970     2.5535     0.0497  -101.1317   -46.2459    96.5749     9.5216     7.4110     7.6184   -97.0602     0.2135
 2822.0000     8.9770     2.5505     0.0377   -91.1214   -46.3697    95.3669     9.5217     7.0097     7.2057   -97.0282     0.2160
 2822.5000     9.0174     2.5394     0.0155   -91.1713   -46.4936    95.7695     9.2603     6.5081     6.8790   -86.9084     0.2297
 2823.0000     9.0376     2.5173     0.0035   -91.2212   -46.6174   102.6146     7.2077     6.5082     6.6902   -96.9642     0.2373
 2823.5000     8.9975     2.4560     0.0176  -101.3313   -46.7413   110.2653     6.3885     6.3885     6.8156   -96.9322     0.2401
 2824.0000     8.9976     2.4459     0.0236  -101.3812   -46.8651   110.2655     6.3295     6.4481     7.2059   -96.9002     0.2417
 2824.5000     8.9776     2.4540    -0.0025   -91.3709   -46.9890   104.2254     7.2078     6.5083     7.2732   -96.8747     0.2341
 2825.0000     8.9777     2.5264    -0.0126   -81.3605   -47.1128   100.1987     8.2080     6.6921     7.3410  -106.9237     0.2244
 2825.5000     8.9980     2.5455     0.0357   -81.4104   -47.2832    97.7825     9.4340     6.7546     7.3411  -106.8853     0.2192
 2826.0000     8.9780     2.5445     0.0478   -81.4603   -47.4845   100.6013     9.0903     7.0101     7.4096   -76.5976     0.2183
 2826.5000     8.9781     2.5365     0.0357   -71.4500   -47.4845   106.6419     8.8407     7.1414     7.4096   -76.5658     0.2240
 2827.0000     8.9782     2.5325     0.0197   -91.6204   -47.6858   106.6419     8.3620     7.2753     7.5485   -76.5339     0.2284
 2827.5000     8.9984     2.5284     0.0116   -61.4896   -47.6858   105.8366     8.2082     7.3432     7.6900   -66.4276     0.2308
 2828.0000     8.9382     2.5284     0.0056   -21.2985   -47.8871   103.8231     8.2848     7.4117     8.0553   -15.9415     0.2328
 2828.5000     8.9786     2.5294    -0.0045   -31.4086   -48.0884   102.6150     8.3621     7.6210     8.2063   -15.9101     0.2365
 2829.0000     8.9988     2.5335    -0.0044   -61.6492   -48.2835   100.1986     8.5982     7.6921     8.2063   -33.0150     0.2401
 2829.5000     9.0191     2.5415     0.0056   -61.6991   -48.4911   102.6150     9.0067     7.9831     8.3601   -50.1199     0.2417
 2830.0000     9.0192     2.5476     0.0097   -61.7490   -48.2897   103.8233     9.6112     7.9831     8.3602   -67.2248     0.2405
 2830.5000     9.0193     2.5546     0.0097   -71.8592   -48.2392   103.4206     9.7009     8.0576     8.3602   -76.3046     0.2340
 2831.0000     8.9993     2.5577     0.0197   -81.9693   -48.1886   100.6014     9.7914     8.0576     8.4382   -76.2727     0.2288
 2831.5000     8.9793     2.5597     0.0399   -92.0794   -48.1381    99.7959     9.8827     8.1328     8.4383   -76.2409     0.2175
 2832.0000     8.9593     2.5587     0.0479  -112.2498   -48.0875   102.2124     9.7915     7.9833     8.2066   -86.2955     0.2147
 2832.5000     8.9795     2.5597     0.0499  -112.2997   -48.0370   103.0180     9.4347     7.7642     8.0557  -106.4365     0.2122
 2833.0000     8.9997     2.5597     0.0479   -92.2291   -47.9864   103.4208     9.1757     7.6925     7.9814   -96.3181     0.2114
 2833.5000     8.9798     2.5587     0.0399   -82.2188   -47.9358   100.1986     8.9238     7.4122     7.1945   -86.1998     0.2159
 2834.0000     8.9799     2.5506     0.0097   -62.1482   -47.8853    99.7958     8.7598     7.1422     6.9310   -76.0816     0.2211
 2834.5000     8.9800     2.5446    -0.0023   -62.1981   -47.8347    99.7958     8.2089     7.0109     6.8030   -65.9636     0.2219
 2835.0000     8.9801     2.5265     0.0037   -62.2480   -47.7842   100.1986     7.6216     6.8820     6.6773   -65.9254     0.2219
 2835.5000     8.9802     2.4993     0.0299   -52.2377   -47.7336   103.8238     7.0110     6.9463     6.7399   -65.8936     0.2275
 2836.0000     8.9804     2.4883     0.0480   -52.2676   -47.6831   104.6294     7.1424     6.8821     6.6774   -55.7759     0.2283
 2836.5000     9.0006     2.4973     0.0198   -42.2772   -47.6325   103.0183     8.0582     6.9464     7.0093   -55.7442     0.2146
 2837.0000     8.9806     2.5205    -0.0023   -52.3874   -47.5820   100.1986     8.8418     7.0112     7.1407   -55.7125     0.2183
 2837.5000     8.9807     2.5346     0.0098   -62.4975   -47.5314    99.7958     8.7601     7.1425     7.2745   -55.6808     0.2219
 2838.0000     8.9808     2.5426     0.0118   -62.5474   -47.4808   100.1986     8.5991     7.4127     7.5496   -65.7347     0.2211
 2838.5000     9.0011     2.5436     0.0018   -62.5873   -47.4303   101.0042     8.5992     7.6220     7.7628   -55.6173     0.2114
 2839.0000     8.9609     2.5416    -0.0063   -62.6472   -47.3797   101.8099     9.0076     7.8372     7.9082   -55.5856     0.2106
 2839.5000     8.9610     2.5386    -0.0062   -62.6971   -47.3292   101.8099     9.2619     7.8372     7.9820   -55.5539     0.2118
 2840.0000     9.0015     2.5346    -0.0022   -62.7470   -47.2822   102.6157     9.5234     7.9103     8.2839   -45.4368     0.2170
 2840.5000     8.9814     2.5356    -0.0002   -52.7367   -47.3317    99.7957     9.9757     7.9104     8.4391   -55.4905     0.2231
 2841.0000     8.9815     2.5386    -0.0002   -52.7965   -47.3812    99.3929     9.7923     8.1337     8.5179   -61.0398     0.2275
 2841.5000     8.9817     2.5386    -0.0022   -52.8464   -47.4307    99.3928     9.3484     8.1338     8.4392   -55.4271     0.2283
 2842.0000     8.9818     2.5457    -0.0042   -52.8963   -47.4835    98.5871     8.9247     8.1338     8.4393   -65.4742     0.2178
