~VERSION INFORMATION
 VERS.                2.0:   CWLS LOG ASCII STANDARD - VERSION 2.0
 WRAP.                 NO:   ONE LINE PER DEPTH STEP
~WELL INFORMATION
#MNEM.UNIT      DATA TYPE    INFORMATION
#----------   ------------   ------------------------------
 STRT.F          190.0000:   START DEPTH
 STOP.F         3215.0000:   STOP DEPTH
 STEP.F            0.5000:   STEP LENGTH
 NULL.          -999.2500:   NO VALUE
 COMP.    FENIX & SCISSON:   COMPANY
 WELL.  FENIX "AX" #78-34:   WELL
 FLD . NAVAL PET. RES. NO. 3:   FIELD
 LOC .      S34 T39N R78W:   LOCATION
 CNTY.            NATRONA:   COUNTY
 STAT.            WYOMING:   STATE
 CTRY. UNITED STATES OF AMERICA:   COUNTRY
 SRVC.       SCHLUMBERGER:   SERVICE COMPANY
 DATE.        16-DEC-1980:   LOGDATE
 API .     49025108670000:   API NUMBER
~CURVE INFORMATION
#MNEM.UNIT       API CODE    CURVE DESCRIPTION
#----------   ------------   ------------------------------
 DEPT.F                  :   
 TEND.LBS    45 635 01 00:   TENSION FORM DENSITY LOG
 GRD .GAPI   45 310 01 00:   GAMMA RAY FROM DENSITY LOG
 CALD.IN     45 280 60 00:   CALIPER FROM DENSITY LOG
 CORR.G/C3   45 356 01 00:   DENSITY CORRECTION
 RHOB.G/C3   45 350 01 00:   BULK DENSITY
 SPR .MV     07 010 01 00:   SPONTANEOUS POTENTIAL
 TENR.LBS    07 635 01 00:   TENSION FROM RESISTIVITY
 ILD .OHMM   07 120 46 00:   DEEP INDUCTION RESISTIVITY
 ILM .OHMM   07 120 44 00:   INDUCTION LOG MEDIUM RESISTIVITY
 SFL .OHMM   07 220 01 00:   SHALLOW FOCUSED LOG RESISTIVITY
~PARAMETER INFORMATION
#MNEM.UNIT          VALUE    DESCRIPTION
#----------   ------------   ------------------------------
 EKB .F         5068.0000:   Kelly bushing
 EGL .F         5058.0000:   Ground level
 EDF .F            0.0000:   Drilling floor
 EPD .F            0.0000:   Permanent datum
 TD  .F         3202.0000:   Total depth
 CLNT.            A2DTECH:   Client Code
 SL  . 542' FSL & 693' FEL:   Surface Location
 PD  .                 GL:   Permanent Datum
 DAPD.F                10:   Feet Above Permanent Datum
 DATE.        16-DEC-1980:   Date Logged [DD-MMM-YYYY]
 DD  .F              3200:   Depth driller
 DL  .F              3202:   Depth logger
 BLI .F              3199:   Bottom log interval
 TLI .F               193:   Top log interval
 CS1 .IN            8.625:   Casing size
 CBD1.      8.625" @ 215':   Casing driller 1
 CBL1.F               193:   Casing logger 1
 BS1 .IN            7.875:   Bit size
 BSD1.F              3200:   Depth drilled with bit1
 DFT .               LSND:   Type fluid in hole
 DFD .                9.1:   Density
 DFV .                 35:   Viscosity
 DFPH.                  8:   pH
 DFL .                 16:   Fluid loss
 MSS .            MUD PIT:   Source of sample
 RMS .OHMM            2.9:   Rm
 MST .F                56:   Rm Meas. temp.
 RMF .OHMM            2.4:   Rmf
 MFST.F                56:   Rmf Meas. temp.
 MFSS.               MEAS:   Source Rmf.
 RMC .OHMM            2.7:   Rmc
 MCST.F                56:   Rmc Meas. temp.
 MCSS.               CALC:   Source Rmc.
 RMB .OHMM           1.35:   Rm. at BHT
 BHT .F               120:   BHT.
 TCS .HRS            2100:   Time Circ. stopped
 MRT .F               120:   Maximum recorded temp.
 LUN .               8161:   Logging unit number
 ENGI.             SITTON:   Recorded By
 WITN.              FIVAS:   Witnessed by
 ORIG.           5" PRINT:   Origin of data
 UWI .     49025108670000:   Unique Well ID
 DICO. A2D TECHNOLOGIES, INC.:   Digitizing Company
~OTHER INFORMATION
~A   DEPT     TEND         GRD      CALD       CORR       RHOB        SPR       TENR        ILD        ILM        SFL   
# ...
 2166.5000   632.5301   131.4095     8.4854     0.0989     2.4909   -41.2699   528.4147    10.9631    11.8019    15.7296
 2167.0000   632.5301   128.2190     8.4853     0.1006     2.4954   -41.4612   528.4147    10.9683    11.9702    16.7491
 2167.5000   632.5301   122.9668     8.4852     0.0874     2.4823   -41.6599   532.5452    10.9735    11.7285    16.2991
 2168.0000   632.5301   118.5443     8.4852     0.0437     2.4449   -41.6653   539.7237    10.7526    11.3341    15.3215
 2168.5000   632.5301   114.8350     8.4854     0.0140     2.4302   -41.6638   546.9022    10.4584    10.9623    14.2616
 2169.0000   627.9403   115.2815     8.4895     0.0031     2.4295   -41.6522   542.6293    10.1127    10.5467    12.8105
 2169.5000   612.4498   120.2932     8.5051     0.0173     2.4350   -41.8515   535.4508     9.7726    10.1311    11.8765
 2170.0000   612.4498   125.5611     8.5212     0.0392     2.4443   -41.6464   528.4147     9.4440     9.6822     9.7202
 2170.5000   612.4498   128.3866     8.4940     0.0416     2.4537   -41.4620   528.4147     9.3172     9.6180     9.5899
 2171.0000   612.4498   127.5395     8.4514     0.0401     2.4530   -41.2767   528.4147     9.3227     9.5550    10.8693
 2171.5000   612.4498   125.3842     8.4458     0.0394     2.4507   -40.9030   528.4147     9.3921     9.4932    11.8989
 2172.0000   632.5301   124.3512     8.4460     0.0379     2.4499   -40.4457   528.4147     9.5941     9.3652    12.7581
 2172.5000   632.5301   124.3479     8.4540     0.0364     2.4523   -40.1329   528.4147     9.7327     9.6317    13.3056
 2173.0000   632.5301   124.4952     8.4894     0.0349     2.4539   -40.0917   528.4147     9.8733    10.0452    12.9497
 2173.5000   632.5301   124.3128     8.5237     0.0311     2.4563   -40.0974   528.4147     9.8781    10.1158    12.4285
 2174.0000   632.5301   122.3537     8.5310     0.0272     2.4618   -40.2452   528.4147     9.8838    10.0495    12.2619
 2174.5000   632.5301   121.0904     8.5000     0.0281     2.4704   -40.2988   528.4147     9.8201    10.0537    12.4402
 2175.0000   632.5301   117.4543     8.4692     0.0453     2.4821   -40.2988   528.4147     9.7568    10.0571    12.6196
 2175.5000   632.5301   112.3935     8.4379     0.0666     2.5109   -40.2448   528.4084     9.6928    10.0605    12.5370
 2176.0000   632.5301   109.9871     8.4081     0.0751     2.5203   -40.1054   528.4147     9.6304     9.9937    12.2864
 2176.5000   632.5301   108.1553     8.4302     0.0580     2.5095   -40.1071   528.4147     9.7031    10.0673    12.0395
 2177.0000   632.5301   107.4898     8.4550     0.0409     2.4893   -40.3159   535.5626     9.8433    10.2110    12.0454
 2177.5000   632.5301   107.3322     8.4857     0.0222     2.4688   -40.3812   543.3760     9.9166    10.3566    12.2203
 2178.0000   652.6104   108.7121     8.5202     0.0136     2.4541   -40.7987   546.0042     9.9323    10.4319    12.4827
 2178.5000   652.6104   112.9116     8.5288     0.0231     2.4443   -41.2327   539.3690    10.0657    10.4354    12.8394
 2179.0000   652.6104   118.4810     8.4732     0.0388     2.4543   -41.6607   532.6421    10.1406    10.4318    13.2062
 2179.5000   652.6104   121.7731     8.4287     0.0537     2.4670   -42.2142   530.4752    10.1453    10.3705    13.4898
 2180.0000   652.6130   123.3265     8.4477     0.0647     2.4787   -42.0251   536.0585    10.1497    10.3749    13.3105
 2180.5000   652.5964   124.5049     8.4674     0.0601     2.4803   -41.4802   541.6417    10.1549    10.3784    13.1336
 2181.0000   652.5757   126.4096     8.4869     0.0461     2.4586   -40.7916   547.2250    10.1597    10.3818    12.7716
 2181.5000   646.6706   127.5260     8.5064     0.0305     2.4369   -40.4372   548.3549    10.2353    10.3853    12.3531
 2182.0000   634.2517   126.4644     8.5243     0.0157     2.4385   -40.2962   548.3619    10.2402    10.3888    12.3589
 2182.5000   632.5087   124.0550     8.5246     0.0181     2.4494   -40.4087   548.3569    10.2451    10.3923    12.5372
 2183.0000   632.5165   121.6928     8.5250     0.0323     2.4626   -40.5412   548.3549    10.1098    10.3958    12.8064
 2183.5000   632.5240   120.1374     8.4935     0.0448     2.4728   -40.6734   548.3549    10.0435    10.3277    13.0814
 2184.0000   632.5301   118.6229     8.4445     0.0552     2.4697   -40.8053   548.3549     9.9788    10.3320    13.1785
 2184.5000   632.5301   117.3426     8.4358     0.0525     2.4636   -40.9384   548.3549     9.9847    10.1936    13.1847
 2185.0000   632.5301   117.3193     8.4503     0.0401     2.4636   -41.0813   548.3549     9.7837     9.9879    13.0940
 2185.5000   632.5301   117.0113     8.4664     0.0340     2.4675   -40.6026   548.3549     9.6535     9.7189    12.2306
 2186.0000   632.5301   115.7276     8.5141     0.0295     2.4738   -39.9542   548.3549     9.3938     9.5227    10.9530
 2186.5000   632.5301   113.3821     8.5618     0.0280     2.4715   -39.5018   548.3549     9.2028     9.2662    10.0843
 2187.0000   632.5301   111.6686     8.5407     0.0296     2.4654   -39.5135   548.3549     9.0822     9.0791    10.0182
 2187.5000   652.6104   110.6760     8.5158     0.0320     2.4677   -39.6432   548.3549     9.2145     9.1505    10.5952
 2188.0000   652.6104   109.1475     8.4836     0.0360     2.4732   -39.9994   548.3549     9.4127     9.3406    11.8422
 2188.5000   652.6104   106.8704     8.4449     0.0447     2.4740   -40.1745   548.3549     9.6820     9.5395    12.6973
 2189.0000   652.6104   102.3651     8.4416     0.0416     2.4709   -40.2840   548.3549     9.7540     9.7425    13.0625
 2189.5000   652.6104    96.6826     8.4697     0.0292     2.4670   -40.5478   548.3549    10.0332     9.9499    13.3408
 2190.0000   652.6104    94.9550     8.4979     0.0175     2.4625   -40.7303   548.3549    10.3203    10.1618    13.4411
 2190.5000   652.6104    96.2756     8.5262     0.0215     2.4693   -40.9082   548.3549    10.5422    10.4500    13.5409
 2191.0000   652.6104   101.5965     8.5562     0.0364     2.4844   -41.0841   548.3549    10.6960    10.6725    13.0862
 2191.5000   652.6104   108.4977     8.5397     0.0528     2.4977   -41.2610   548.3549    10.9247    10.8997    12.4729
 2192.0000   652.6104   113.8399     8.5050     0.0678     2.5086   -41.4422   548.3549    10.9310    10.9893    11.9709
 2192.5000   652.6104   116.3566     8.4825     0.0756     2.5125   -41.3698   548.3549    10.9362    11.0597    11.9765
 2193.0000   652.6104   116.9771     8.4760     0.0702     2.4986   -41.2452   548.3549    10.9413    11.1401    12.4043
 2193.5000   652.6104   118.7446     8.4696     0.0539     2.4535   -41.1194   548.3549    10.9465    11.1439    12.9464
 2194.0000   652.6104   120.6494     8.4883     0.0321     2.4365   -40.9940   548.3549    10.8760    11.1476    13.5872
 2194.5000   652.6104   120.5550     8.5430     0.0103     2.4342   -40.8688   548.3549    10.9568    11.1513    13.6864
 2195.0000   652.6104   116.5333     8.5690     0.0127     2.4350   -40.7435   548.3549    10.9620    11.1551    13.5045
 2195.5000   652.6104   112.8159     8.5779     0.0221     2.4459   -40.6183   548.3549    10.8914    11.1588    13.3251
 2196.0000   652.6104   110.6102     8.5714     0.0316     2.4608   -40.4931   548.3549    10.7377    10.9336    13.0572
 2196.5000   652.6104   111.0536     8.5383     0.0427     2.4717   -40.3678   548.3549    10.3863    10.5667    12.9745
 2197.0000   652.6104   110.5618     8.5061     0.0489     2.4834   -40.2424   548.3549    10.1772    10.3526    12.7139
 2197.5000   652.6104   107.0450     8.5112     0.0575     2.4904   -40.1166   548.3549     9.9724    10.1444    12.5393
 2198.0000   652.6104   103.0253     8.5184     0.0523     2.4866   -39.9928   548.3549     9.7717     9.9397    12.0415
 2198.5000   652.6104   100.3648     8.5316     0.0407     2.4812   -39.9438   548.3549     9.5750     9.7390    11.3192
 2199.0000   652.6104   103.7225     8.5851     0.0314     2.4774   -40.1348   551.8273     9.5795     9.6744    10.5669
 2199.5000   652.6104   110.4902     8.6399     0.0264     2.4790   -40.3173   555.0563     9.6507     9.6784     9.8645
