~VERSION INFORMATION
 VERS.                2.0:   CWLS LOG ASCII STANDARD - VERSION 2.0
 WRAP.                 NO:   ONE LINE PER DEPTH STEP
~WELL INFORMATION
#MNEM.UNIT      DATA TYPE    INFORMATION
#----------   ------------   ------------------------------
 STRT.F          205.0000:   START DEPTH
 STOP.F         3171.5000:   STOP DEPTH
 STEP.F            0.5000:   STEP LENGTH
 NULL.          -999.2500:   NO VALUE
 COMP.    FENIX & SCISSON:   COMPANY
 WELL. FENIX & SCISSON  "AX" #27-28:   WELL
 FLD .              NPR 3:   FIELD
 LOC .      S28 T39N R78W:   LOCATION
 CNTY.            NATRONA:   COUNTY
 STAT.            WYOMING:   STATE
 CTRY. UNITED STATES OF AMERICA:   COUNTRY
 SRVC.       SCHLUMBERGER:   SERVICE COMPANY
 DATE.        30-MAY-1977:   LOGDATE
 API .     49025103870000:   API NUMBER
~CURVE INFORMATION
#MNEM.UNIT       API CODE    CURVE DESCRIPTION
#----------   ------------   ------------------------------
 DEPT.F                  :   
 NPHI.DEC    42 890 03 00:   NEUTRON POROSITY SANDSTONE
 CALD.IN     45 280 60 00:   CALIPER FROM DENSITY LOG
 GRD .GAPI   45 310 01 00:   GAMMA RAY FROM DENSITY LOG
 RHOB.G/C3   45 350 01 00:   BULK DENSITY
 CORR.G/C3   45 356 01 00:   DENSITY CORRECTION
 SPR .MV     11 010 01 00:   SPONTANEOUS POTENTIAL
 MSFL.OHMM   11 270 04 00:   MICRO SPHERICALLY FOCUSED RES.
 LLD .OHMM   11 220 10 00:   LATEROLOG LOG DEEP
 LLS .OHMM   11 220 09 00:   LATEROLOG LOG SHALLOW
~PARAMETER INFORMATION
#MNEM.UNIT          VALUE    DESCRIPTION
#----------   ------------   ------------------------------
 EKB .F         5094.0000:   Kelly bushing
 EGL .F         5084.0000:   Ground level
 EDF .F            0.0000:   Drilling floor
 EPD .F            0.0000:   Permanent datum
 TD  .F         3169.0000:   Total depth
 DATE.        30-MAY-1977:   Date logged
 CLNT.            A2DTECH:   Client Code
 SL  . 1266' FSL & 871' FWL:   Surface Location
 PD  .                 GL:   Permanent Datum
 DD  .F              3163:   Depth driller
 DL  .F              3169:   Depth logger
 BLI .F              3168:   Bottom log interval
 CS1 .IN            8.625:   Casing size
 CBD1.      8.625" @ 210':   Casing driller 1
 CBL1.F               219:   Casing logger 1
 BS1 .IN            7.875:   Bit size
 DFT .           SALT/MUD:   Type fluid in hole
 DFD .                8.9:   Density
 DFV .                 32:   Viscosity
 DFPH.                8.5:   pH
 DFL .                5.8:   Fluid loss
 MSS .                PIT:   Source of sample
 RMS .OHMM           .194:   Rm
 MST .F                65:   Rm Meas. temp.
 RMF .OHMM           .165:   Rmf
 MFST.F                65:   Rmf Meas. temp.
 MFSS.               MEAS:   Source Rmf.
 RMB .OHMM           .107:   Rm. at BHT
 BHT .F               118:   BHT.
 MRT .F               118:   Maximum recorded temp.
 LUN .               5642:   Logging unit number
 LUL .               CSPR:   Logging unit location
 ENGI.             MARTIN:   Recorded By
 WITN.         PETTINGILL:   Witnessed by
 ORIG.           5" PRINT:   Origin of data
 UWI .     49025103870000:   Unique Well ID
 DICO. A2D TECHNOLOGIES, INC.:   Digitizing Company
 DAPD.F                10:   Feet Above Permanent Datum
 BSD1.F              3163:   Depth drilled with bit1
 TLI .F               219:   Top log interval
 TLAB.HRS            0930:   Time logger at bottom
~OTHER INFORMATION
~A   DEPT     NPHI         CALD      GRD         RHOB      CORR       SPR       MSFL        LLD        LLS   
# ...
 2541.0000     0.2270     8.6857   156.1904     2.5072     0.0407   -71.4724    17.8415    11.3091    12.9282
 2541.5000     0.2294     8.6835   155.3991     2.5062     0.0506   -71.6725    18.4026    12.4018    12.9281
 2542.0000     0.2294     8.6808   153.0173     2.5062     0.0447   -71.6738    18.9156    12.5163    13.0471
 2542.5000     0.2230     8.6611   147.8521     2.5162     0.0487   -71.5668    17.7377    12.8673    14.5694
 2543.0000     0.2111     8.6613   140.3036     2.5482     0.0677   -71.4597    17.0975    13.7252    14.5690
 2543.5000     0.2071     8.6615   137.1249     2.5482     0.0707   -71.3526    16.9406    12.3999    14.0419
 2544.0000     0.2079     8.6617   137.5265     2.5422     0.0617   -71.2455    16.1195    11.2026    12.1187
 2544.5000     0.2087     8.6619   140.7115     2.5293     0.0647   -71.1385    17.0339    11.1550    12.1185
 2545.0000     0.2167     8.6621   144.6918     2.5233     0.0677   -71.0314    17.6717    11.1547    12.1182
 2545.5000     0.2235     8.6425   147.0815     2.5183     0.0587   -70.9243    18.1656    11.4665    12.1174
 2546.0000     0.2330     8.6228   148.2775     2.5094     0.0488   -70.8173    19.6156    12.3419    13.0426
 2546.5000     0.2330     8.6428   147.4871     2.5034     0.0398   -70.7102    19.7956    13.0420    13.7824
 2547.0000     0.2299     8.6431   145.9005     2.5274     0.0358   -70.6031    20.6601    13.0414    14.3840
 2547.5000     0.2271     8.6433   144.3140     2.5244     0.0548   -70.5125    20.6594    13.4059    14.5151
 2548.0000     0.2187     8.6434   141.5346     2.5194     0.0618   -70.5148    17.7290    13.9079    14.5145
 2548.5000     0.2115     8.6436   137.9599     2.5214     0.0558   -69.7232    16.9332    13.5287    14.5139
 2549.0000     0.2084     8.6438   137.1686     2.5494     0.0559   -69.3289    16.6245    12.9198    13.8662
 2549.5000     0.2092     8.6440   138.7607     2.5414     0.0659   -68.9364    16.4719    12.1134    13.0386
 2550.0000     0.2116     8.6442   144.3525     2.5324     0.0719   -68.7413    16.7763    11.5683    12.8004
 2550.5000     0.2144     8.6245   151.0982     2.5205     0.0369   -68.7432    16.9302    11.6748    12.5665
 2551.0000     0.2184     8.6247   151.4982     2.4915     0.0240   -68.7450    16.9295    11.8911    12.6553
 2551.5000     0.2208     8.6249   148.3220     2.4946     0.0440   -68.9460    16.9287    11.8906    12.6001
 2552.0000     0.2240     8.6052   146.3378     2.5255     0.0589   -69.1456    17.5608    11.7812    12.2230
 2552.5000     0.2272     8.6053   146.3418     2.5485     0.0699   -69.5430    18.0502    11.4601    12.3355
 2553.0000     0.2296     8.6055   149.5268     2.5465     0.0789   -69.5479    18.2157    11.5655    12.5988
 2553.5000     0.2312     8.6035   151.9157     2.5325     0.0740   -69.7485    18.2149    12.3344    12.9149
 2554.0000     0.2320     8.6015   151.9205     2.5146     0.0550   -69.7507    17.5577    11.7793    13.1543
 2554.5000     0.2312     8.5995   151.9244     2.5066     0.0470   -69.7530    17.0803    11.9976    13.1538
 2555.0000     0.2281     8.5975   152.3260     2.5066     0.0381   -69.7553    17.2370    12.3880    13.0329
 2555.5000     0.2297     8.5955   153.5221     2.5158     0.0660   -69.7589    17.2362    11.9387    12.4464
 2556.0000     0.2313     8.5935   153.9237     2.5256     0.0581   -69.7603    17.2354    11.5627    12.4461
 2556.5000     0.2321     8.5915   151.9403     2.5326     0.0521   -69.7612    17.0771    11.9957    12.7936
 2557.0000     0.2234     8.5895   149.9561     2.5356     0.0481   -69.6944    17.1722    11.8853    13.1191
 2557.5000     0.2210     8.5875   148.7672     2.5357     0.0361   -69.6277    17.8152    11.8848    13.1183
 2558.0000     0.2226     8.5855   147.5783     2.5037     0.0561   -69.5609    17.8144    12.4438    13.1180
 2558.5000     0.2266     8.5835   146.7870     2.5227     0.0641   -69.4942    17.6504    12.6743    13.1175
 2559.0000     0.2282     8.5815   146.3934     2.5317     0.0542   -69.4274    17.4880    12.6738    13.1169
 2559.5000     0.2227     8.5795   146.3973     2.4878     0.0412   -69.3607    17.4872    12.4422    13.1164
 2560.0000     0.2227     8.5775   148.3895     2.5048     0.0262   -69.2939    17.4864    12.3278    13.1159
 2560.5000     0.2235     8.5756   150.3816     2.5268     0.0642   -69.2272    17.4856    12.2143    13.1153
 2561.0000     0.2251     8.5736   151.5784     2.5587     0.0802   -69.3874    17.4849    12.2138    13.1148
 2561.5000     0.2251     8.5716   151.1847     2.5617     0.0792   -69.5874    17.6456    12.3262    13.1146
 2562.0000     0.2251     8.5696   149.9958     2.5198     0.0642   -69.5897    17.6449    12.3257    13.3556
 2562.5000     0.2236     8.5676   147.6140     2.5268     0.0563   -69.5920    17.4825    12.5540    13.6001
 2563.0000     0.2176     8.5656   144.0394     2.5358     0.0643   -69.5942    17.8063    12.7866    13.5999
 2563.5000     0.2140     8.5636   143.6457     2.5498     0.0573   -69.5965    17.9701    12.7861    13.4756
 2564.0000     0.2105     8.5616   143.6497     2.5099     0.0353   -69.5988    17.9693    12.7855    13.4755
 2564.5000     0.2149     8.5596   144.8465     2.5209     0.0693   -69.6006    17.6409    12.5619    13.5980
 2565.0000     0.2237     8.5576   145.6457     2.5289     0.0593   -69.6033    17.3186    12.3422    13.3517
 2565.5000     0.2253     8.5556   146.4450     2.5279     0.0414   -69.6056    17.8024    12.0974    13.6343
 2566.0000     0.2221     8.5536   146.4489     2.5020     0.0624   -69.4101    19.3379    12.0970    13.6336
 2566.5000     0.2213     8.5513   145.2600     2.5259     0.0604   -68.6214    20.4342    12.4350    13.7205
 2567.0000     0.2221     8.5515   143.6735     2.5130     0.0544   -68.0304    20.0608    12.9005    13.9725
 2567.5000     0.2229     8.5517   140.4964     2.5100     0.0434   -67.6350    19.7577    13.4464    14.2291
 2568.0000     0.2226     8.5520   138.1146     2.5360     0.0814   -67.0440    19.3976    13.9511    14.7569
 2568.5000     0.2226     8.5522   136.5281     2.5360     0.0844   -66.4531    19.2196    14.3418    15.3617
 2569.0000     0.2226     8.5524   135.7368     2.4951     0.0724   -66.0599    19.0433    14.3412    15.5035
 2569.5000     0.2222     8.5725   135.3432     2.5021     0.0655   -65.6663    19.2179    14.0784    15.9364
 2570.0000     0.2167     8.5727   137.7329     2.5151     0.1064   -65.4718    19.3941    14.2704    15.9357
 2570.5000     0.2183     8.5331   138.9297     2.5241     0.0914   -65.0777    19.7523    14.1391    16.0825
 2571.0000     0.2223     8.5333   138.5361     2.5321     0.0815   -64.6846    20.1171    14.2692    16.0818
 2571.5000     0.2223     8.5335   136.5519     2.5351     0.0745   -64.4892    21.6478    14.5335    16.2294
 2572.0000     0.2223     8.5337   133.3757     2.5341     0.0625   -64.2938    23.0177    14.8026    16.6823
 2572.5000     0.2215     8.5339   130.5962     2.5241     0.0576   -63.7029    22.5972    15.6417    16.8361
 2573.0000     0.2208     8.5540   128.6121     2.5082     0.0366   -63.3098    22.1843    16.3772    17.6092
 2573.5000     0.2084     8.5542   125.8327     2.5371     0.0746   -62.9167    21.7790    16.6805    17.7696
 2574.0000     0.2112     8.5544   122.2580     2.5162     0.0636   -62.1281    23.4406    16.3757    18.2860
 2574.5000     0.2136     8.5546   119.8762     2.5012     0.0496   -61.9328    23.4395    16.8330    18.2857
 2575.0000     0.2105     8.5548   118.6889     2.4903     0.0427   -61.5397    21.6410    17.4631    18.1175
 2575.5000     0.2037     8.5749   118.6912     2.4833     0.0337   -60.9489    18.1788    17.1440    17.7868
 2576.0000     0.2033     8.5751   119.4905     2.5073     0.0876   -60.5554    13.1868    16.2229    16.2231
 2576.5000     0.2129     8.5951   121.4826     2.4953     0.0806   -60.1628    12.1415    15.3514    15.0716
 2577.0000     0.2209     8.5953   122.6794     2.4853     0.0567   -59.9674    13.0653    14.1314    14.7964
