~VERSION INFORMATION
 VERS.                2.0:   CWLS LOG ASCII STANDARD - VERSION 2.0
 WRAP.                 NO:   ONE LINE PER DEPTH STEP
~WELL INFORMATION
#MNEM.UNIT      DATA TYPE    INFORMATION
#----------   ------------   ------------------------------
 STRT.F          195.5000:   START DEPTH
 STOP.F         3197.0000:   STOP DEPTH
 STEP.F            0.5000:   STEP LENGTH
 NULL.          -999.2500:   NO VALUE
 COMP.    FENIX & SCISSON:   COMPANY
 WELL.  FENIX "AX" #17-11:   WELL
 FLD .              NPR-3:   FIELD
 LOC .      S11 T38N R78W:   LOCATION
 CNTY.            NATRONA:   COUNTY
 STAT.            WYOMING:   STATE
 CTRY. UNITED STATES OF AMERICA:   COUNTRY
 SRVC.              WELEX:   SERVICE COMPANY
 DATE.        16-SEP-1977:   LOGDATE
 API .     49025104170000:   API NUMBER
~CURVE INFORMATION
#MNEM.UNIT       API CODE    CURVE DESCRIPTION
#----------   ------------   ------------------------------
 DEPT.F                  :   
 GRD .GAPI   45 310 01 00:   GAMMA RAY FROM DENSITY LOG
 CALD.IN     45 280 60 00:   CALIPER FROM DENSITY LOG
 CORR.G/C3   45 356 01 00:   DENSITY CORRECTION
 TEND.LBS    45 635 01 00:   TENSION FORM DENSITY LOG
 RHOB.G/C3   45 350 01 00:   BULK DENSITY
 SPR .MV     07 010 01 00:   SPONTANEOUS POTENTIAL
 TENR.LBS    07 635 01 00:   TENSION FROM RESISTIVITY
 ILD .OHMM   07 120 46 00:   DEEP INDUCTION RESISTIVITY
 ILM .OHMM   07 120 44 00:   INDUCTION LOG MEDIUM RESISTIVITY
 SGRD.OHMM   07 220 05 00:   SHALLOW SHORT GUARD RESISTIVITY
~PARAMETER INFORMATION
#MNEM.UNIT          VALUE    DESCRIPTION
#----------   ------------   ------------------------------
 EKB .F         5212.0000:   Kelly bushing
 EGL .F         5202.0000:   Ground level
 TD  .F         3195.0000:   Total depth
 CLNT.            A2DTECH:   Client Code
 SL  . 1090' FSL & 330' FWL:   Surface Location
 PD  .                 GL:   Permanent Datum
 EPD .F              5202:   Elevation Permanent Datum
 LMF .                 KB:   Log Measured From
 DMF .                 KB:   Drilling Measured From
 DAPD.F                10:   Feet Above Permanent Datum
 DATE.        16-SEP-1977:   Date Logged [DD-MMM-YYYY]
 DD  .F              3195:   Depth driller
 DL  .F              3195:   Depth logger
 BLI .F              3193:   Bottom log interval
 TLI .F               217:   Top log interval
 CS1 .IN            8.625:   Casing size
 CBD1.      8.625" @ 216':   Casing driller 1
 CBL1.F               217:   Casing logger 1
 BS1 .IN            7.875:   Bit size
 BSD1.F              3195:   Depth drilled with bit1
 DFT .            KCL MUD:   Type fluid in hole
 DFD .                9.2:   Density
 DFV .                 36:   Viscosity
 DFPH.                 11:   pH
 DFL .                8.8:   Fluid loss
 MSS .           FLOWLINE:   Source of sample
 RMS .OHMM           2.76:   Rm
 MST .F                99:   Rm Meas. temp.
 RMF .OHMM           1.54:   Rmf
 MFST.F                99:   Rmf Meas. temp.
 MFSS.               MEAS:   Source Rmf.
 RMC .OHMM           3.01:   Rmc
 MCST.F                99:   Rmc Meas. temp.
 MCSS.               MEAS:   Source Rmc.
 RMB .OHMM           2.40:   Rm. at BHT
 BHT .F               112:   BHT.
 TCS .HRS               6:   Time Circ. stopped
 MRT .F               112:   Maximum recorded temp.
 LUN .               8611:   Logging unit number
 LUL .             CASPER:   Logging unit location
 ENGI.          D. LAWSON:   Recorded By
 WITN.         HARRINGTON:   Witnessed by
 ORIG.           5" PRINT:   Origin of data
 UWI .     49025104170000:   Unique Well ID
 DICO. A2D TECHNOLOGIES, INC.:   Digitizing Company
~OTHER INFORMATION
~A   DEPT       GRD      CALD       CORR       TEND       RHOB        SPR       TENR        ILD        ILM       SGRD   
# ...
 1803.5000   112.4116     9.7654     0.0090  1647.7544     2.5370   -75.4091  1506.7006     4.2288     4.7395     9.3649
 1804.0000   111.4920     9.7307     0.0072  1662.8743     2.5279   -75.4242  1508.0223     4.1668     4.6083     8.7336
 1804.5000   109.6675     9.7036     0.0040  1663.0452     2.5216   -75.4394  1509.3444     4.1072     4.4808     6.8027
 1805.0000   110.8595     9.6625     0.0018  1663.1736     2.5136   -75.4566  1510.6665     4.1038     4.4486     5.6006
 1805.5000   111.1465     9.6411    -0.0004  1663.3234     2.5061   -75.4697  1511.9882     4.1584     4.5727     6.5188
 1806.0000   107.2067     9.6236    -0.0020  1663.4773     2.5000   -75.4849  1498.0098     4.2144     4.7992     8.0754
 1806.5000   106.2871     9.5949    -0.0021  1678.5929     2.5045   -75.5009  1499.6622     4.3597     5.0021     9.2221
 1807.0000   109.2891     9.5941    -0.0022  1677.2987     2.5187   -75.5156  1515.9541     4.5421     5.3604     9.8835
 1807.5000   116.2126     9.5916    -0.0023  1663.9095     2.5307   -75.5304  1517.2761     4.7652     5.5870    10.2736
 1808.0000   116.8049     9.5777    -0.0009  1649.0835     2.5383   -75.5455  1518.5983     4.9992     5.8638    10.4112
 1808.5000   113.7701     9.5769     0.0020  1649.2635     2.5434   -75.5606  1504.9401     5.2447     5.9442    10.4779
 1809.0000   112.2472     9.5611     0.0034  1649.4076     2.5472   -75.5783  1491.3020     5.4263     5.9425    10.4708
 1809.5000   111.9306     9.5451     0.0032  1649.5516     2.5494   -75.5930  1492.6648     5.6143     5.9406    10.5392
 1810.0000   118.2475     9.5445     0.0046  1649.7006     2.5509   -75.6061  1494.2762     5.6889     5.8978    10.6053
 1810.5000   116.4229     9.5437     0.0045  1649.8759     2.5546   -75.6212  1495.5984     5.6729     5.8149    10.6746
 1811.0000   112.1850     9.5376     0.0044  1650.0199     2.5576   -75.6373  1496.9204     5.4484     5.6540    10.6674
 1811.5000   110.9638     9.5271     0.0043  1650.1639     2.5568   -75.6515  1482.9417     5.1504     5.5745    10.6616
 1812.0000   115.1724     9.5264     0.0042  1650.3080     2.5553   -75.6667  1484.5941     5.0059     5.4961    10.5092
 1812.5000   112.4428     9.5255     0.0041  1650.4520     2.5552   -75.6818  1481.4120     5.0025     5.4188    10.1931
 1813.0000   110.6183     9.5247     0.0058  1650.5988     2.5552   -75.6970  1471.9374     5.0690     5.4932     8.8104
 1813.5000   113.4490     9.5241     0.0069  1650.7762     2.5552   -75.7147  1473.5900     5.1373     5.5685     7.5239
 1814.0000   116.0189     9.5234     0.0077  1650.9203     2.5566   -75.5044  1474.9120     5.2775     5.7238     8.8182
 1814.5000   112.9840     9.5226     0.0082  1651.0643     2.5581   -75.4375  1476.2341     5.3850     5.7189     9.7107
 1815.0000   110.5561     9.5218     0.0081  1651.2084     2.5611   -75.4559  1477.5558     5.5329     5.6417    10.3296
 1815.5000   109.0332     9.5211     0.0095  1651.3524     2.5663   -75.3154  1478.8921     5.7262     5.8798    10.9121
 1816.0000   108.1136     9.5204     0.0094  1651.4969     2.5700   -75.1824  1480.2395     5.9729     6.3010    11.0598
 1816.5000   108.4012     9.5196     0.0093  1651.6765     2.5693   -75.1971  1481.8522     6.2127     7.1383    11.0523
 1817.0000   110.1960     9.5187     0.0077  1651.8206     2.5662   -75.2121  1483.1742     6.2964     7.9200    10.8943
 1817.5000   114.8865     9.5180     0.0046  1651.9647     2.5579   -75.2303  1484.4963     6.2910     8.3123    10.7387
 1818.0000   120.7212     9.5203     0.0015  1652.0958     2.5528   -74.9420  1485.8181     6.2867     8.5447    10.7328
 1818.5000   117.9916     9.5317    -0.0001  1652.2528     2.5454   -74.9545  1487.1401     6.2825     8.3078    10.8077
 1819.0000   114.6587     9.5403    -0.0033  1652.3951     2.5401   -74.7923  1488.4623     6.2782     8.0779    11.0223
 1819.5000   112.8342     9.5528    -0.0052  1652.5449     2.5386   -74.6818  1489.7839     6.1874     8.1320    11.0929
 1820.0000   109.7424     9.5606    -0.0112  1667.6910     2.5446   -74.6095  1491.1061     6.1404     8.1865    11.0854
 1820.5000   108.8287     9.5753    -0.0098  1682.8052     2.5520   -74.4091  1492.4281     6.0937     8.1842    11.0029
 1821.0000   113.3449     9.5882    -0.0069  1682.9493     2.5618   -74.4244  1493.7499     6.0056     8.0690    10.8457
 1821.5000   120.2744     9.5952    -0.0036  1698.0635     2.5678   -74.4394  1495.0719     5.9989     7.9000    10.3268
 1822.0000   124.1872     9.6019     0.0004  1698.2036     2.5716   -74.4546  1511.3773     5.9145     7.9535     9.6976
 1822.5000   118.7464     9.6161     0.0019  1698.3534     2.5752   -74.4697  1512.7247     5.9096     8.0625     9.8275
 1823.0000   109.6880     9.6154     0.0018  1698.5031     2.5805   -74.4871  1514.3384     5.9056     8.1731    10.2389
 1823.5000   103.9477     9.6144     0.0017  1695.9323     2.5865   -74.5000  1500.3599     5.8202     8.3424    10.5939
 1824.0000   102.1290     9.6039     0.0016  1683.8136     2.6015   -74.5166  1502.0125     5.8162     8.5157    10.2278
 1824.5000   102.4220     9.5935     0.0031  1683.9938     2.5932   -74.5313  1503.3342     5.8123     8.5134    10.0815
 1825.0000   110.5581     9.5897     0.0030  1684.1377     2.5826   -74.5461  1504.6562     5.8896     8.3937    10.1577
 1825.5000   107.0460     9.5891     0.0029  1699.2520     2.5740   -74.5608  1505.9783     6.0514     8.2756    10.3536
 1826.0000   104.8091     9.5992     0.0013  1699.4012     2.5653   -74.5758  1507.3000     6.1321     8.1592    10.5637
 1826.5000   110.5297     9.6181    -0.0002  1699.5760     2.5630   -74.5909  1508.6222     6.2135     8.1665    10.7053
 1827.0000   109.3144     9.6326     0.0017  1699.7201     2.5623   -74.6061  1509.9442     6.3847     8.4527    10.8487
 1827.5000   107.1941     9.6292     0.0041  1699.8641     2.5668   -74.6235  1511.2660     6.5640     8.7390    10.9196
 1828.0000   105.9787     9.6162     0.0100  1700.0082     2.5735   -74.6364  1512.5880     6.7398     8.9821    10.9880
 1828.5000   105.0428     9.6157     0.0190  1700.1522     2.5780   -74.6515  1513.9224     6.8294     8.9797    11.0599
 1829.0000   103.5458     9.6151     0.0249  1700.2994     2.5747   -74.6677  1515.2693     6.7295     8.8534    11.1292
 1829.5000   103.2368     9.5843     0.0202  1700.4764     2.5591   -74.6825  1516.8844     6.6321     8.6084    11.2006
 1830.0000   102.6234     9.5685     0.0142  1685.6144     2.5449   -74.6972  1518.2064     6.5817     8.4874    11.0404
 1830.5000   103.5197     9.5680     0.0142  1685.7944     2.5336   -74.7121  1519.5286     6.5317     8.6037    10.7205
 1831.0000   106.8292     9.5674     0.0126  1685.9385     2.5238   -74.5752  1520.8503     6.5739     8.6014    10.1254
 1831.5000   111.9487     9.5818     0.0080  1686.0825     2.5140   -74.5936  1522.1724     6.7066     8.4804     9.7293
 1832.0000   115.0006     9.5878     0.0049  1671.0598     2.5042   -74.4545  1523.4944     6.7960     8.3033     9.7241
 1832.5000   116.7556     9.6109     0.0019  1656.4371     2.5003   -74.4716  1524.8162     6.8863     8.1251     9.5851
 1833.0000   118.5569     9.6254     0.0018  1656.6106     2.4996   -74.2883  1526.1383     6.8815     7.8957     9.5799
 1833.5000   121.5648     9.6327     0.0077  1656.7546     2.5019   -73.8950  1527.4603     6.8225     7.6325     9.5747
 1834.0000   119.1428     9.6393     0.0121  1656.8987     2.5018   -73.6068  1528.7821     6.5905     7.2683     9.4379
 1834.5000   114.0059     9.6385     0.0151  1657.0427     2.5008   -73.3182  1530.1041     6.3172     6.9215     9.4328
 1835.0000   107.2797     9.6229     0.0150  1657.1868     2.4883   -73.0302  1531.4371     5.1972     6.4106     9.2980
 1835.5000   102.8248     9.6160     0.0165  1657.3352     2.4740   -72.7419  1532.7844     4.7124     5.6165     9.1651
 1836.0000   101.3078     9.5916     0.0178  1657.5109     2.4533   -72.4536  1534.4005     4.1847     4.6548     9.0341
 1836.5000   102.2041     9.5759     0.0193  1657.6549     2.4353   -72.1653  1535.7225     3.5644     3.4281     8.8998
