~VERSION INFORMATION
 VERS.                2.0:   CWLS LOG ASCII STANDARD - VERSION 2.0
 WRAP.                 NO:   ONE LINE PER DEPTH STEP
~WELL INFORMATION
#MNEM.UNIT      DATA TYPE    INFORMATION
#----------   ------------   ------------------------------
 STRT.F          150.0000:   START DEPTH
 STOP.F         2929.0000:   STOP DEPTH
 STEP.F            0.5000:   STEP LENGTH
 NULL.          -999.2500:   NO VALUE
 COMP.    FENIX & SCISSON:   COMPANY
 WELL.    FENIX AX #12-28:   WELL
 FLD .        TEAPOT DOME:   FIELD
 LOC .      S28 T39N R78W:   LOCATION
 CNTY.            NATRONA:   COUNTY
 STAT.            WYOMING:   STATE
 CTRY. UNITED STATES OF AMERICA:   COUNTRY
 SRVC.           BIRDWELL:   SERVICE COMPANY
 DATE.        06-JUN-1978:   LOGDATE
 API .     49025106420000:   API NUMBER
~CURVE INFORMATION
#MNEM.UNIT       API CODE    CURVE DESCRIPTION
#----------   ------------   ------------------------------
 DEPT.F                  :   
 SPR .MV     05 010 01 00:   SPONTANEOUS POTENTIAL
 SN  .OHMM   05 040 16 00:   SHORT NORMAL 16"
 ILD .OHMM   05 120 46 00:   INDUCTION LOG DEEP RESISTIVITY
 RHOB.G/C3   45 350 01 00:   BULK DENSITY
 CORR.G/C3   45 356 01 00:   DENSITY CORRECTION
 GRD .GAPI   45 310 01 00:   GAMMA RAY FROM DENSITY LOG
 CALD.IN     45 280 60 00:   CALIPER FROM DENSITY LOG
~PARAMETER INFORMATION
#MNEM.UNIT          VALUE    DESCRIPTION
#----------   ------------   ------------------------------
 EKB .F         5000.0000:   Kelly bushing
 EGL .F         4990.0000:   Ground level
 EDF .F            0.0000:   Drilling floor
 EPD .F         5005.0000:   Permanent datum
 TD  .F         2911.0000:   Total depth
 DATE.        06-JUN-1978:   Date logged
 CLNT.            A2DTECH:   Client Code
 SL  . 1250' FNL & 225' FWL:   Surface Location
 PD  .                 GL:   Permanent Datum
 LMF .                 KB:   Log Measured From
 DMF .                 KB:   Drilling Measured From
 DAPD.F                10:   Feet Above Permanent Datum
 DD  .F              2911:   Depth driller
 DL  .F              2912:   Depth logger
 BLI .F              2906:   Bottom log interval
 TLI .F               200:   Top log interval
 CS1 .IN            8.625:   Casing size
 CBD1.      8.625" @ 225':   Casing driller 1
 CBL1.F               225:   Casing logger 1
 BS1 .IN            7.875:   Bit size
 BSD1.F              2911:   Depth drilled with bit1
 DFT .       OIL BASE MUD:   Type fluid in hole
 DFD .                9.2:   Density
 DFV .                 35:   Viscosity
 DFPH.               10.5:   pH
 DFL .                  2:   Fluid loss
 TCS .HRS             3.5:   Time Circ. stopped
 LUN .               2958:   Logging unit number
 LUL .               CASP:   Logging unit location
 ENGI.            POINTER:   Recorded By
 WITN.           MCGINLEY:   Witnessed by
 ORIG.           5" PRINT:   Origin of data
 UWI .     49025106420000:   Unique Well ID
 DICO. A2D TECHNOLOGIES, INC.:   Digitizing Company
~OTHER INFORMATION
~A   DEPT      SPR         SN        ILD       RHOB       CORR         GRD      CALD   
# ...
 2334.0000   -26.0010     6.6090     5.0590     2.5510     0.0110    99.8000     9.9440
 2334.5000   -26.0160     6.6170     5.0530     2.5500     0.0120   100.5330     9.9420
 2335.0000   -26.5370     6.6250     5.0460     2.5490     0.0120   101.9250     9.9410
 2335.5000   -27.0420     6.6330     5.0370     2.5490     0.0120   103.3490     9.9400
 2336.0000   -27.1440     6.7110     5.1530     2.5510     0.0130   103.5460     9.9390
 2336.5000   -26.8940     6.9690     5.3090     2.5550     0.0140   102.7690     9.9380
 2337.0000   -26.6430     7.2270     5.4230     2.5580     0.0210   101.7760     9.9380
 2337.5000   -26.3880     7.4850     5.5370     2.5620     0.0240   100.7760     9.9200
 2338.0000   -26.3680     7.7440     5.6520     2.5640     0.0240    99.2250     9.9000
 2338.5000   -26.5590     8.0020     5.8210     2.5650     0.0250    97.6920     9.8790
 2339.0000   -26.7440     8.2600     6.0060     2.5660     0.0260    96.2200     9.8590
 2339.5000   -26.9410     8.3860     6.1110     2.5690     0.0270    94.9420     9.8380
 2340.0000   -26.4230     8.4330     6.2500     2.5710     0.0280    95.4330     9.8180
 2340.5000   -25.5350     8.4790     6.3400     2.5730     0.0290    95.9400     9.7990
 2341.0000   -25.7870     8.5120     6.4220     2.5740     0.0300    96.4420     9.8090
 2341.5000   -26.0050     8.4430     6.4980     2.5770     0.0310    96.8110     9.8200
 2342.0000   -26.2250     8.9130     6.5780     2.5870     0.0310    97.0490     9.8310
 2342.5000   -26.4580     8.8850     6.5480     2.5960     0.0310    96.2980     9.8420
 2343.0000   -26.1720     8.8080     6.4940     2.5980     0.0310    95.4500     9.8530
 2343.5000   -25.7900     8.7300     6.4400     2.6000     0.0310    95.1970     9.8640
 2344.0000   -25.5470     8.6700     6.3860     2.5950     0.0320    95.8240     9.8750
 2344.5000   -25.8110     8.4320     6.3320     2.5800     0.0330    99.0470     9.8860
 2345.0000   -26.0870     8.2010     6.2820     2.5750     0.0340   100.8700     9.8970
 2345.5000   -27.0400     8.0520     6.1310     2.5730     0.0340   100.3980     9.9090
 2346.0000   -26.9050     7.9380     5.9900     2.5730     0.0340    99.9600     9.9200
 2346.5000   -26.4910     7.8860     5.8500     2.5740     0.0320    99.5140     9.9310
 2347.0000   -26.1270     7.8450     5.6770     2.5750     0.0310    99.0660     9.9420
 2347.5000   -25.7480     7.7640     5.6810     2.5720     0.0290    98.6830     9.9530
 2348.0000   -26.0800     7.6030     5.6860     2.5710     0.0270    99.2420     9.9640
 2348.5000   -26.5490     7.4410     5.6910     2.5730     0.0250    99.8180     9.9750
 2349.0000   -27.0230     7.3810     5.6960     2.5710     0.0240   100.3940     9.9860
 2349.5000   -26.9940     7.3300     5.7010     2.5650     0.0220   100.9800     9.9970
 2350.0000   -26.3920     7.2790     5.7060     2.5600     0.0230   100.2210    10.0080
 2350.5000   -25.7920     7.2270     5.7120     2.5540     0.0270    99.3200    10.0190
 2351.0000   -25.6970     7.2130     5.7170     2.5500     0.0310    98.4150    10.0300
 2351.5000   -26.0700     7.2930     5.7220     2.5520     0.0350    97.5120    10.0410
 2352.0000   -26.4400     7.3050     5.7270     2.5550     0.0420    96.6150    10.0520
 2352.5000   -26.5280     7.3170     5.7340     2.5540     0.0490    95.7340    10.0630
 2353.0000   -26.0510     7.3300     5.7470     2.5510     0.0490    96.4960    10.0750
 2353.5000   -25.5870     7.3420     5.7600     2.5530     0.0490    98.1060    10.0450
 2354.0000   -25.4880     7.3540     5.7730     2.5560     0.0510    99.7150    10.0070
 2354.5000   -26.0000     7.3660     5.7860     2.5590     0.0540   100.0600     9.9700
 2355.0000   -26.4950     7.3780     5.7990     2.5610     0.0570    99.0190     9.8760
 2355.5000   -26.7900     7.3910     5.8110     2.5610     0.0600    97.8570     9.7600
 2356.0000   -26.2660     7.4030     5.8240     2.5610     0.0630    96.6860     9.6440
 2356.5000   -25.7640     7.4140     5.8360     2.5620     0.0660    95.5470     9.5270
 2357.0000   -25.9810     7.4020     5.8220     2.5650     0.0690    95.8860     9.4070
 2357.5000   -26.3140     7.3910     5.8090     2.5680     0.0680    96.3140     9.3850
 2358.0000   -26.6500     7.3790     5.7960     2.5630     0.0640    96.3140     9.3850
 2358.5000   -27.0010     7.3680     5.7830     2.5580     0.0580    95.9110     9.3850
 2359.0000   -26.8780     7.3570     5.7700     2.5530     0.0580    95.4420     9.3850
 2359.5000   -26.5920     7.3430     5.7570     2.5530     0.0580    96.3200     9.3850
 2360.0000   -26.2970     7.3160     5.7440     2.5520     0.0580    97.8070     9.3850
 2360.5000   -26.4130     7.2890     5.7300     2.5510     0.0540    99.3270     9.3850
 2361.0000   -26.5820     7.2620     5.6750     2.5530     0.0510   100.4810     9.3850
 2361.5000   -26.7460     7.2350     5.6030     2.5570     0.0480    99.0350     9.3850
 2362.0000   -26.8870     7.1230     5.5310     2.5590     0.0390    96.9630     9.3850
 2362.5000   -26.5450     6.6390     5.4590     2.5500     0.0290    98.9530     9.3850
 2363.0000   -25.9860     6.6160     5.3870     2.5420     0.0180   101.9340     9.3850
 2363.5000   -26.0060     6.5940     5.3140     2.5350     0.0130   102.4940     9.3850
 2364.0000   -26.1400     6.5710     5.2420     2.5330     0.0130   102.9410     9.3850
 2364.5000   -26.2770     6.5480     5.1700     2.5390     0.0130   102.8580     9.3830
 2365.0000   -26.4110     6.5260     5.1170     2.5380     0.0130   102.0750     9.4390
 2365.5000   -26.1910     6.4680     5.0880     2.5370     0.0130   103.4620     9.4840
 2366.0000   -25.5700     6.3930     5.0580     2.5350     0.0130   105.8500     9.4820
 2366.5000   -25.4980     6.3990     5.0290     2.5360     0.0190   105.2960     9.5030
 2367.0000   -25.8210     6.2800     4.9910     2.5370     0.0250   105.3390     9.5030
 2367.5000   -26.4660     6.1710     5.0110     2.5380     0.0270   108.0520     9.5030
 2368.0000   -27.1350     6.0550     5.0380     2.5390     0.0280   108.8490     9.5030
 2368.5000   -26.9540     6.1740     5.0660     2.5400     0.0300   109.2400     9.5030
 2369.0000   -26.5250     6.3020     5.1060     2.5420     0.0370   107.4500     9.5030
 2369.5000   -26.0830     6.4290     5.1710     2.5480     0.0450   103.6840     9.5040
 2370.0000   -26.2470     6.6610     5.2350     2.5610     0.0470    99.9610     9.5390
 2370.5000   -26.8420     6.9250     5.3590     2.5710     0.0350    96.5410     9.5990
 2371.0000   -27.4460     7.1890     5.5780     2.5590     0.0200    96.2870     9.6060
 2371.5000   -27.6750     7.5520     5.8360     2.5510     0.0050    95.9440     9.6120
 2372.0000   -27.6870     7.5380     5.8330     2.5470     0.0030    96.4560     9.6170
 2372.5000   -27.1700     7.5040     5.8280     2.5440     0.0030    97.1980     9.6220
 2373.0000   -26.3320     7.4710     5.8240     2.5460     0.0030    97.9520     9.6280
 2373.5000   -26.3620     7.4370     5.8190     2.5480     0.0030    98.5620     9.6330
 2374.0000   -26.7530     7.4030     5.8150     2.5480     0.0030    97.0080     9.6390
 2374.5000   -27.1790     7.3700     5.8100     2.5440     0.0030    99.8110     9.6440
 2375.0000   -26.8120     7.3360     5.8060     2.5410     0.0030   100.2450     9.6500
 2375.5000   -26.1560     7.3020     5.8010     2.5380     0.0030    99.5860     9.6550
 2376.0000   -25.7760     7.2690     5.7970     2.5350     0.0040    98.8820     9.6610
 2376.5000   -26.1110     7.2350     5.7920     2.5320     0.0060    98.1770     9.6660
 2377.0000   -26.4220     7.2010     5.7880     2.5360     0.0090    97.4860     9.6720
 2377.5000   -26.6720     7.1510     5.7830     2.5410     0.0110    98.0570     9.6770
 2378.0000   -26.5090     7.1800     5.7690     2.5460     0.0130    99.0880     9.6830
 2378.5000   -26.3530     7.2730     5.7550     2.5470     0.0140    98.3300     9.6880
 2379.0000   -26.1980     7.3660     5.7410     2.5480     0.0150    96.6140     9.6940
