~VERSION INFORMATION
 VERS.                2.0:   CWLS LOG ASCII STANDARD - VERSION 2.0
 WRAP.                 NO:   ONE LINE PER DEPTH STEP
~WELL INFORMATION
#MNEM.UNIT      DATA TYPE    INFORMATION
#----------   ------------   ------------------------------
 STRT.F           40.0000:   START DEPTH
 STOP.F         1336.0000:   STOP DEPTH
 STEP.F            0.5000:   STEP LENGTH
 NULL.          -999.2500:   NO VALUE
 COMP. LAWRENCE - ALLISON WEST:   COMPANY
 WELL. LAWRENCE NPR 3 "AX" #54-23:   WELL
 FLD .              N P R:   FIELD
 LOC .      S23 T38N R78W:   LOCATION
 CNTY.            NATRONA:   COUNTY
 STAT.            WYOMING:   STATE
 CTRY. UNITED STATES OF AMERICA:   COUNTRY
 SRVC.       SCHLUMBERGER:   SERVICE COMPANY
 DATE.        13-MAY-1982:   LOGDATE
 API .     49025108880000:   API NUMBER
~CURVE INFORMATION
#MNEM.UNIT       API CODE    CURVE DESCRIPTION
#----------   ------------   ------------------------------
 DEPT.F                  :   
 NPOR.DEC    42 890 03 00:   ALPHA PROCESSED NEUTRON POROSITY
 TEND.LBS    45 635 01 00:   TENSION FROM DENSITY LOG
 CORR.G/C3   45 356 01 00:   DENSITY CORRECTION
 RHOB.G/C3   45 350 01 00:   BULK DENSITY
 GRD .GAPI   45 310 01 00:   GAMMA RAY FROM DENSITY LOG
 CALD.IN     45 280 60 00:   CALIPER FROM DENSITY LOG
 SPR .MV     07 010 01 00:   SPONTANEOUS POTENTIAL
 TENR.LBS    07 635 01 00:   TENSION
 ILD .OHMM   07 120 46 00:   DEEP INDUCTION RESISTIVITY
 ILM .OHMM   07 120 44 00:   INDUCTION LOG MEDIUM RESISTIVITY
 SFL .OHMM   07 220 01 00:   SHALLOW FOCUSED LOG RESISTIVITY
~PARAMETER INFORMATION
#MNEM.UNIT          VALUE    DESCRIPTION
#----------   ------------   ------------------------------
 EKB .F         5342.0000:   Kelly bushing
 EGL .F         5332.0000:   Ground level
 EDF .F            0.0000:   Drilling floor
 TD  .F         1325.0000:   Total depth
 DATE.        13-MAY-1982:   Date logged
 CLNT.            A2DTECH:   Client Code
 SL  . 2278' FSL & 2665' FWL:   Surface Location
 PD  .                 GL:   Permanent Datum
 DD  .F              1325:   Depth driller
 DL  .F              1314:   Depth logger
 BLI .F              1308:   Bottom log interval
 CS1 .IN             15.5:   Casing size
 CBD1.        15.5" @ 40':   Casing driller 1
 CBL1.F                54:   Casing logger 1
 BS1 .IN            12.25:   Bit size
 DFT .             LT/GEL:   Type fluid in hole
 DFD .                8.9:   Density
 DFV .                 33:   Viscosity
 DFPH.                8.8:   pH
 DFL .                 16:   Fluid loss
 MSS .                PIT:   Source of sample
 RMS .OHMM           2.47:   Rm
 MST .F                61:   Rm Meas. temp.
 RMF .OHMM           2.12:   Rmf
 MFST.F                62:   Rmf Meas. temp.
 MFSS.               MEAS:   Source Rmf.
 RMB .OHMM           1.73:   Rm. at BHT
 BHT .F                87:   BHT.
 TCS .HRS            2300:   Time Circ. stopped
 MRT .F                87:   Maximum recorded temp.
 LUN .               8043:   Logging unit number
 LUL .               CSPR:   Logging unit location
 ENGI.        WAGNER/CSPR:   Recorded By
 WITN.           JENNINGS:   Witnessed by
 ORIG.           5" PRINT:   Origin of data
 UWI .     49025108880000:   Unique Well ID
 DICO. A2D TECHNOLOGIES, INC.:   Digitizing Company
 BSD1.F              1325:   Depth drilled with bit1
 EPD .F              5332:   Elevation Permanent Datum
 LMF .                 KB:   Log Measured From
 DMF .                 KB:   Drilling Measured From
 TLI .F                54:   Top log interval
 DAPD.F                10:   Feet Above Permanent Datum
~OTHER INFORMATION
~A   DEPT     NPOR       TEND       CORR       RHOB        GRD       CALD        SPR       TENR        ILD        ILM        SFL   
# ...
 1199.0000     0.1910   287.1420     0.0210     2.4450   113.7610    12.3350   -28.4090    75.0260     9.7770     9.3530     8.8980
 1199.5000     0.1850   286.9560     0.0300     2.4680   113.9630    12.3400   -28.5870    77.1570     9.7770     9.3470     8.8980
 1200.0000     0.1870   286.7690     0.0390     2.4880   114.0640    12.3450   -29.4050    79.2890     9.7770     9.3410     8.8980
 1200.5000     0.1880   286.5830     0.0390     2.4860   116.2610    12.3500   -30.2080    81.4210     9.7760     9.3350     8.8980
 1201.0000     0.1860   286.3960     0.0280     2.4710   118.4320    12.3550   -32.9440    83.5530     9.7670     9.3290     8.8980
 1201.5000     0.1830   286.2090     0.0140     2.4490   120.0870    12.3590   -35.2190    85.6850     9.7570     9.3230     8.8980
 1202.0000     0.1800   286.0230     0.0070     2.4240   121.6220    12.3640   -33.6120    87.4230     9.7480     9.3170     8.8980
 1202.5000     0.1760   285.8360     0.0010     2.4220   121.8260    12.3690   -30.7660    87.4230     9.7380     9.3110     8.8980
 1203.0000     0.1730   285.6500    -0.0020     2.4360   121.7330    12.3720   -26.8730    87.4230     9.7280     9.3050     8.8980
 1203.5000     0.1690   285.4630    -0.0050     2.4480   119.6550    12.3700   -26.2450    87.4230     9.7190     9.2990     8.8980
 1204.0000     0.1760   285.2760    -0.0030     2.4550   116.7180    12.3680   -25.6560    87.4230     9.7090     9.2930     8.8980
 1204.5000     0.1820   285.0900    -0.0010     2.4610   113.8980    12.3660   -25.1160    87.4230     9.6990     9.2870     8.8980
 1205.0000     0.1830   284.9030     0.0030     2.4640   114.7350    12.3640   -24.8920    87.4230     9.6900     9.2810     8.8980
 1205.5000     0.1800   284.7170     0.0140     2.4670   118.9590    12.3620   -24.9130    87.4230     9.6800     9.2760     8.8980
 1206.0000     0.1770   284.6230     0.0160     2.4630   119.5460    12.3600   -24.8910    87.4230     9.6700     9.2700     8.8980
 1206.5000     0.1740   284.6230     0.0140     2.4580   115.1590    12.3580   -25.1180    87.4230     9.6610     9.2640     8.8980
 1207.0000     0.1750   284.6230     0.0100     2.4560   112.9140    12.3560   -25.6820    87.4230     9.6510     9.2580     8.8980
 1207.5000     0.1770   284.6230     0.0110     2.4590   110.7580    12.3540   -26.2740    87.4230     9.6410     9.2520     8.8980
 1208.0000     0.1800   284.6230     0.0140     2.4600   109.8150    12.3520   -26.3300    87.4230     9.6320     9.2460     8.8980
 1208.5000     0.1840   284.6230     0.0150     2.4570   110.6500    12.3500   -26.0240    87.4230     9.6220     9.2390     8.8980
 1209.0000     0.1860   284.6230     0.0150     2.4550   112.6870    12.3480   -25.7170    87.4230     9.6130     9.2170     8.8980
 1209.5000     0.1880   284.6230     0.0160     2.4560   115.3090    12.3460   -25.8420    87.4230     9.6020     9.1930     8.8980
 1210.0000     0.1910   284.6230     0.0140     2.4580   119.8110    12.3440   -26.0380    87.4230     9.5920     9.1680     8.8980
 1210.5000     0.1910   284.6230     0.0100     2.4590   122.3810    12.3420   -26.2310    87.4230     9.5640     9.1440     8.8970
 1211.0000     0.1850   284.6230     0.0060     2.4600   121.6890    12.3400   -26.4480    87.4230     9.5390     9.1200     8.8780
 1211.5000     0.1760   284.6230     0.0020     2.4630   121.1740    12.3380   -26.3300    87.4230     9.5120     9.0950     8.8560
 1212.0000     0.1720   284.6230     0.0000     2.4660   122.2150    12.3370   -26.1470    87.4230     9.4860     9.0710     8.8340
 1212.5000     0.1740   284.6230    -0.0020     2.4620   124.2780    12.3350   -25.9860    87.4230     9.4600     9.0470     8.8130
 1213.0000     0.1760   284.6230     0.0010     2.4520   125.2320    12.3330   -25.7600    87.4230     9.4320     9.0230     8.7910
 1213.5000     0.1720   284.6230     0.0090     2.4470   123.6970    12.3310   -25.7030    87.4230     9.4140     8.9980     8.7680
 1214.0000     0.1700   284.6230     0.0190     2.4550   121.7190    12.3320   -25.8460    87.4230     9.4160     8.9750     8.7530
 1214.5000     0.1690   284.6230     0.0230     2.4630   119.9060    12.3350   -28.1900    87.4230     9.4150     8.9500     8.7030
 1215.0000     0.1680   284.6230     0.0210     2.4600   119.3410    12.3370   -28.2370    87.4230     9.4160     8.9250     8.6030
 1215.5000     0.1680   284.6230     0.0130     2.4510   118.7330    12.3390   -26.9060    87.4230     9.4160     8.8980     8.5020
 1216.0000     0.1750   284.6230     0.0190     2.4410   116.5370    12.3410   -26.3880    87.4230     9.4160     9.0450     8.0800
 1216.5000     0.1790   284.6230     0.0260     2.4310   114.1670    12.3430   -27.4530    87.4230     9.4160     9.2140     8.0980
 1217.0000     0.1750   284.6230     0.0280     2.4110   111.8240    12.3450   -30.5890    87.7350     9.5230     9.3820     8.6210
 1217.5000     0.1670   284.6230     0.0230     2.3820   109.4830    12.3470   -32.7240    88.4050     9.6470     9.5500     9.5120
 1218.0000     0.1630   284.6230     0.0090     2.3560   107.3700    12.3490   -34.6810    89.0750     9.7730     9.7770    11.2160
 1218.5000     0.1600   284.6230     0.0000     2.3540   107.3720    12.3510   -34.6250    89.7450     9.9630     9.6720    12.4890
 1219.0000     0.1690   284.6230     0.0010     2.3570   108.9410    12.3530   -33.6630    90.4150     9.9010     9.5110    12.0170
 1219.5000     0.1770   284.6230     0.0050     2.3620   110.8640    12.3550   -33.0950    91.0850     9.7650     9.3500    10.9690
 1220.0000     0.1720   284.6230     0.0120     2.3690   112.8800    12.3570   -33.2080    91.7550     9.6290     9.1900     9.9630
 1220.5000     0.1650   284.6230     0.0200     2.3760   115.2860    12.3590   -33.9920    92.4250     9.4920     9.0470     9.7720
 1221.0000     0.1570   284.6230     0.0250     2.3820   117.6720    12.3610   -34.6920    93.0950     9.4150     8.9630     9.5940
 1221.5000     0.1540   284.6230     0.0240     2.3840   118.8600    12.3630   -35.1210    93.7650     9.4150     8.8980     9.6530
 1222.0000     0.1640   284.6230     0.0150     2.3900   116.5100    12.3650   -34.7560    94.4350     9.6100     9.0390     9.7100
 1222.5000     0.1710   284.6230     0.0070     2.4000   113.9820    12.3670   -34.2990    95.1050    10.0670     9.3700     9.7770
 1223.0000     0.1670   284.6230    -0.0020     2.4330   112.2280    12.3690   -33.1810    95.7750    10.5250     9.7020    10.3390
 1223.5000     0.1550   284.6230    -0.0100     2.4710   112.2420    12.3710   -32.1320    96.4450    10.9820    10.1110    11.1550
 1224.0000     0.1390   284.6230    -0.0070     2.5070   113.8390    12.3750   -30.9790    97.1150    11.4390    10.8110    13.7310
 1224.5000     0.1290   284.6230     0.0030     2.5240   116.4140    12.3790   -30.3700    97.7850    11.8030    11.3670    17.2020
 1225.0000     0.1360   284.6230     0.0100     2.5040   118.9510    12.3840   -30.9780    98.4550    11.3670    10.9920    15.5980
 1225.5000     0.1490   284.6230     0.0140     2.4790   118.6250    12.3880   -31.5160    99.1250    10.9820    10.7420    13.3620
 1226.0000     0.1580   284.6230     0.0130     2.4480   117.5470    12.3920   -31.9530    99.7960    10.6930    10.1320    10.9460
 1226.5000     0.1630   284.6230     0.0080     2.4190   117.9000    12.3930   -31.9270   100.4660    10.4040     9.6210    10.4190
 1227.0000     0.1690   284.6230     0.0040     2.4000   118.9740    12.3940   -31.5870   101.1360    10.1150     9.1110     9.8880
 1227.5000     0.1750   284.6230     0.0010     2.3830   120.0220    12.3950   -31.1620   101.8060     9.8270     8.8270     9.3570
 1228.0000     0.1790   284.6230    -0.0030     2.3750   121.2890    12.3960   -31.5230   102.4760     9.5380     8.7050     9.1300
 1228.5000     0.1720   284.6230    -0.0030     2.3760   122.6000    12.3970   -32.1560   103.1460     9.2490     8.5840     8.9900
 1229.0000     0.1650   284.6230    -0.0020     2.3830   123.9060    12.3980   -33.0770   103.8160     9.0590     8.4620     8.8490
