~VERSION INFORMATION
 VERS.                2.0:   CWLS LOG ASCII STANDARD - VERSION 2.0
 WRAP.                 NO:   ONE LINE PER DEPTH STEP
~WELL INFORMATION
#MNEM.UNIT      DATA TYPE    INFORMATION
#----------   ------------   ------------------------------
 STRT.F           29.5000:   START DEPTH
 STOP.F         2719.5000:   STOP DEPTH
 STEP.F            0.5000:   STEP LENGTH
 NULL.          -999.2500:   NO VALUE
 COMP.          INTEX OIL:   COMPANY
 WELL. INTEX NPR 3 "AX" #82-20:   WELL
 FLD .             TEAPOT:   FIELD
 LOC .      S20 T39N R78W:   LOCATION
 CNTY.            NATRONA:   COUNTY
 STAT.            WYOMING:   STATE
 CTRY. UNITED STATES OF AMERICA:   COUNTRY
 SRVC.       SCHLUMBERGER:   SERVICE COMPANY
 DATE.        19-MAY-1956:   LOGDATE
 API .     49025095270000:   API NUMBER
~CURVE INFORMATION
#MNEM.UNIT       API CODE    CURVE DESCRIPTION
#----------   ------------   ------------------------------
 DEPT.F                  :   
 CALD.IN     45 280 60 00:   CALIPER FROM DENSITY LOG
 GRD .GAPI   45 310 01 00:   GAMMA RAY FROM DENSITY LOG
 CORR.G/C3   45 356 01 00:   DENSITY CORRECTION
 RHOB.G/C3   45 350 01 00:   BULK DENSITY
 SPR .MV     05 010 01 00:   SPONTANEOUS POTENTIAL
 ILD .OHMM   05 120 46 00:   DEEP INDUCTION RESISTIVITY
 SN  .OHMM   05 040 00 00:   SHORT NORMAL
~PARAMETER INFORMATION
#MNEM.UNIT          VALUE    DESCRIPTION
#----------   ------------   ------------------------------
 EKB .F         5014.3000:   Kelly bushing
 EGL .F         5004.0000:   Ground level
 EDF .F            0.0000:   Drilling floor
 TD  .F         2717.0000:   Total depth
 DATE.        19-MAY-1956:   Date logged
 CLNT.            A2DTECH:   Client Code
 PD  .                 GL:   Permanent Datum
 EPD .F              5004:   Elevation Permanent Datum
 LMF .                 KB:   Log Measured From
 DMF .                 KB:   Drilling Measured From
 DAPD.F              10.3:   Feet Above Permanent Datum
 DD  .F              2717:   Depth driller
 DL  .F              2717:   Depth logger
 BLI .F              2716:   Bottom log interval
 TLI .F               100:   Top log interval
 CS1 .IN            10.75:   Casing size
 CBD1.       10.75" @ 30':   Casing driller 1
 BS1 .IN            7.875:   Bit size
 BSD1.F              2717:   Depth drilled with bit1
 DFT .        GEL/CAUSTIC:   Type fluid in hole
 DFD .                9.7:   Density
 DFV .                 35:   Viscosity
 DFPH.                7.6:   pH
 DFL .                8.8:   Fluid loss
 MSS .           FLOWLINE:   Source of sample
 RMS .OHMM           1.68:   Rm
 MST .F                58:   Rm Meas. temp.
 RMF .OHMM           1.17:   Rmf
 MFST.F                68:   Rmf Meas. temp.
 MFSS.                 FP:   Source Rmf.
 RMB .OHMM              1:   Rm. at BHT
 BHT .F               101:   BHT.
 TCS .HRS               4:   Time Circ. stopped
 MRT .F               101:   Maximum recorded temp.
 LUN .               4507:   Logging unit number
 LUL .               CSPR:   Logging unit location
 ENGI.            MANGOLD:   Recorded By
 WITN.             TUTTLE:   Witnessed by
 ORIG.           5" PRINT:   Origin of data
 UWI .     49025095270000:   Unique Well ID
 DICO. A2D TECHNOLOGIES, INC.:   Digitizing Company
~OTHER INFORMATION
~A   DEPT     CALD         GRD      CORR       RHOB        SPR        ILD         SN   
# ...
 1121.5000     9.0470    84.7980     0.1260     2.5510   -59.4290     8.6160    10.9580
 1122.0000     9.0700    86.4330     0.1190     2.5410   -59.6420     8.6460    11.0160
 1122.5000     9.0930    88.0780     0.1120     2.5310   -59.8560     8.6750    11.0750
 1123.0000     9.1160    89.3560     0.1200     2.5280   -60.0700     8.6980    11.1330
 1123.5000     9.1390    87.2610     0.1210     2.5090   -60.2900     8.6950    11.1920
 1124.0000     9.1630    85.1350     0.1020     2.4900   -60.2600     8.6840    11.2500
 1124.5000     9.1700    83.0220     0.1150     2.5300   -60.1630     8.6720    11.3090
 1125.0000     9.1680    80.8890     0.1480     2.5650   -60.0640     8.6610    11.3680
 1125.5000     9.1650    81.0730     0.1610     2.5620   -59.9650     8.6500    11.3750
 1126.0000     9.1630    82.0070     0.1580     2.5600   -59.8660     8.6380    11.4880
 1126.5000     9.1600    82.9910     0.1680     2.5540   -59.7670     8.6270    11.4100
 1127.0000     9.1580    82.3300     0.1290     2.5340   -59.6670     8.6150    11.3160
 1127.5000     9.1550    81.3190     0.0820     2.5070   -59.5640     8.6040    11.2220
 1128.0000     9.1530    80.2920     0.0980     2.5140   -59.6100     8.5930    11.1280
 1128.5000     9.1620    79.2700     0.1200     2.5260   -59.6950     8.5810    11.0340
 1129.0000     9.1780    78.2460     0.1480     2.5340   -59.7820     8.5700    10.9400
 1129.5000     9.1950    78.6860     0.1810     2.5440   -59.8690     8.5590    10.8460
 1130.0000     9.2110    81.7610     0.2130     2.5270   -59.9560     8.5470    10.7520
 1130.5000     9.1990    84.8580     0.1680     2.4790   -60.0430     8.5360    10.6590
 1131.0000     9.1830    86.6270     0.1250     2.4650   -60.1300     8.5250    10.5990
 1131.5000     9.1670    86.9680     0.1130     2.4840   -60.2170     8.5130    10.6630
 1132.0000     9.1510    86.3880     0.0990     2.4950   -60.3040     8.5010    10.7240
 1132.5000     9.1350    84.3070     0.0760     2.4710   -60.3910     8.5170    10.7850
 1133.0000     9.1200    81.9830     0.0410     2.4520   -60.4780     8.5390    10.8460
 1133.5000     9.1240    80.3250     0.0420     2.4380   -60.5650     8.5620    10.9070
 1134.0000     9.1110    79.4820     0.0530     2.4600   -60.6520     8.5850    10.9700
 1134.5000     9.0440    78.6150     0.0620     2.4740   -60.7380     8.6080    10.9830
 1135.0000     8.9710    77.7550     0.0810     2.4690   -60.8260     8.6310    10.9870
 1135.5000     8.9840    76.9050     0.1090     2.4840   -60.9150     8.6540    10.8590
 1136.0000     9.0360    77.1210     0.1480     2.4940   -60.8900     8.6770    10.6940
 1136.5000     9.0870    78.1150     0.1130     2.4770   -60.8350     8.7000    10.5230
 1137.0000     9.1400    76.3430     0.0870     2.4980   -60.7780     8.7230    10.5770
 1137.5000     9.1350    76.2210     0.1380     2.5350   -60.7210     8.7460    10.6910
 1138.0000     9.0780    79.9240     0.1040     2.5210   -60.6650     8.7680    10.8060
 1138.5000     9.0560    83.4930     0.0750     2.5040   -60.6080     8.7910    10.9210
 1139.0000     9.0630    85.5770     0.0930     2.5300   -60.5510     8.7830    11.0380
 1139.5000     9.0710    86.4540     0.0960     2.5330   -60.4940     8.7190    11.1620
 1140.0000     9.0890    84.4890     0.0890     2.5320   -60.4370     8.6570    10.9300
 1140.5000     9.0950    82.5360     0.0960     2.5290   -60.3810     8.5950    10.6020
 1141.0000     9.0990    80.6110     0.1070     2.5270   -60.3240     8.5330    10.2660
 1141.5000     9.1040    79.5280     0.1500     2.5280   -60.2670     8.4710    10.2110
 1142.0000     9.1090    80.4750     0.1750     2.5290   -60.2100     8.4090    10.2910
 1142.5000     9.1130    81.9390     0.1380     2.4910   -60.1530     8.3480    10.3720
 1143.0000     9.1040    84.0840     0.0870     2.4610   -60.0970     8.3070    10.4530
 1143.5000     9.0950    84.6430     0.0520     2.4590   -60.0400     8.3430    10.5350
 1144.0000     9.0850    85.3440     0.0530     2.4720   -59.9840     8.3780    10.6160
 1144.5000     9.0760    87.4790     0.0440     2.4690   -59.9380     8.4130    10.6970
 1145.0000     9.0730    85.1990     0.0370     2.4690   -59.9330     8.4470    10.7790
 1145.5000     9.0670    82.2270     0.0380     2.4700   -59.9280     8.4820    10.8600
 1146.0000     9.0430    78.4110     0.0320     2.4620   -59.9220     8.5160    10.9410
 1146.5000     9.0200    79.6940     0.0200     2.4470   -59.9170     8.5510    11.0220
 1147.0000     8.9980    82.0530     0.0250     2.4520   -59.9110     8.5850    11.0850
 1147.5000     8.9750    83.6640     0.0350     2.4600   -59.9050     8.6200    11.0830
 1148.0000     8.9550    82.4840     0.0450     2.4680   -59.9000     8.6570    11.0830
 1148.5000     8.9550    82.0480     0.0550     2.4810   -59.8940     8.6970    11.0830
 1149.0000     8.9640    83.2810     0.0590     2.4900   -59.8890     8.6720    11.0830
 1149.5000     8.9730    84.0330     0.0570     2.4890   -59.8830     8.7770    11.0830
 1150.0000     8.9820    83.5080     0.0660     2.4860   -59.8770     8.7260    11.0850
 1150.5000     8.9910    82.2970     0.0760     2.5040   -59.8720     8.6330    11.0360
 1151.0000     9.0000    79.9690     0.0820     2.5310   -59.8660     8.5400    10.9740
 1151.5000     9.0090    77.6600     0.0710     2.5230   -59.8610     8.4460    10.9110
 1152.0000     9.0180    76.7130     0.0610     2.5140   -59.8550     8.3530    10.8480
 1152.5000     9.0270    79.3310     0.0700     2.5260   -59.8490     8.2590    10.7850
 1153.0000     9.0360    80.6750     0.0790     2.5370   -59.8440     8.1660    10.7230
 1153.5000     9.0450    81.3790     0.0820     2.5350   -59.8380     8.0730    10.6600
 1154.0000     9.0530    82.2680     0.0780     2.5320   -59.8330     8.0010    10.5970
 1154.5000     9.0620    84.5390     0.0770     2.5140   -59.8270     8.0030    10.5360
 1155.0000     9.0710    88.1390     0.0800     2.5010   -59.8210     8.0340    10.5120
 1155.5000     9.0800    89.1840     0.0780     2.5050   -59.8160     8.1730    10.6780
 1156.0000     9.0890    83.5650     0.0800     2.5220   -59.8100     8.3100    11.0160
 1156.5000     9.0710    79.6670     0.0900     2.5370   -59.8050     8.4460    11.1160
 1157.0000     9.0120    77.4870     0.1020     2.5430   -59.7990     8.5830    11.2210
 1157.5000     8.9540    78.2640     0.0950     2.5370   -59.7930     8.7190    11.3260
 1158.0000     8.8980    79.8990     0.0820     2.5320   -59.7880     8.8560    11.4310
 1158.5000     8.9100    79.8000     0.0840     2.5340   -59.7820     8.9920    11.5370
 1159.0000     8.9410    80.9370     0.0880     2.5380   -59.7770     9.0980    11.6420
 1159.5000     8.9730    82.0920     0.0860     2.5230   -59.7710     9.0930    11.7470
 1160.0000     9.0050    81.6530     0.0670     2.4990   -59.7650     9.0450    11.8540
 1160.5000     9.0370    80.9110     0.0650     2.5050   -59.7600     8.9980    11.8760
 1161.0000     9.0690    80.1790     0.0710     2.5230   -59.7540     8.9870    11.8510
 1161.5000     9.1020    80.0090     0.0770     2.5190   -59.7490     8.9460    11.7300
 1162.0000     9.1140    82.0390     0.0660     2.5120   -59.7420     8.9060    11.6100
 1162.5000     9.0900    83.0590     0.0620     2.5090   -59.7850     8.8670    11.4920
 1163.0000     9.0840    81.5050     0.0730     2.5210   -59.8410     8.8280    11.3730
 1163.5000     9.0770    83.7890     0.0600     2.4990   -59.8980     8.7970    11.2750
 1164.0000     9.0710    85.5450     0.0350     2.4890   -59.9550     8.8030    11.3940
 1164.5000     9.0650    84.7860     0.0440     2.5050   -60.0110     8.8270    11.4150
 1165.0000     9.0580    81.7190     0.0650     2.5260   -60.0680     8.8500    11.4410
 1165.5000     9.0520    79.0310     0.0860     2.5480   -60.1250     8.8730    11.4680
 1166.0000     9.0460    78.3800     0.1020     2.5540   -60.1820     8.8970    11.4940
 1166.5000     9.0390    77.7850     0.0860     2.5430   -60.2380     8.9200    11.5210
