~VERSION INFORMATION
 VERS.                2.0:   CWLS LOG ASCII STANDARD - VERSION 2.0
 WRAP.                 NO:   ONE LINE PER DEPTH STEP
~WELL INFORMATION
#MNEM.UNIT      DATA TYPE    INFORMATION
#----------   ------------   ------------------------------
 STRT.F            0.5000:   START DEPTH
 STOP.F         3195.0000:   STOP DEPTH
 STEP.F            0.5000:   STEP LENGTH
 NULL.          -999.2500:   NO VALUE
 COMP.   TESORO PETROLEUM:   COMPANY
 WELL. TESORO NPR 3 "A" #15-10:   WELL
 FLD .        TEAPOT DOME:   FIELD
 LOC .      S10 T38N R78W:   LOCATION
 CNTY.            NATRONA:   COUNTY
 STAT.            WYOMING:   STATE
 CTRY. UNITED STATES OF AMERICA:   COUNTRY
 SRVC.       SCHLUMBERGER:   SERVICE COMPANY
 DATE.        03-JUL-1969:   LOGDATE
 API .     49025600130000:   API NUMBER
~CURVE INFORMATION
#MNEM.UNIT       API CODE    CURVE DESCRIPTION
#----------   ------------   ------------------------------
 DEPT.F                  :   
 SPR .MV     05 010 01 00:   SPONTANEOUS POTENTIAL FROM RES.
 ASN .OHMM   05 041 16 00:   AMPLIFIED SHORT NORMAL 16"
 ILD .OHMM   05 120 46 00:   INDUCTION LOG DEEP
 CALD.IN     45 280 60 00:   CALIPER FROM DENSITY LOG
 GRD .GAPI   45 310 01 00:   GAMMA RAY FROM DENSITY LOG
 RHOB.G/C3   45 350 01 00:   BULK DENSITY
~PARAMETER INFORMATION
#MNEM.UNIT          VALUE    DESCRIPTION
#----------   ------------   ------------------------------
 EKB .F         5250.0000:   Kelly bushing
 EGL .F         5237.0000:   Ground level
 EDF .F            0.0000:   Drilling floor
 TD  .F         3200.0000:   Total depth
 CLNT.            A2DTECH:   Client Code
 SL  . 990' FWL & 1980' FSL:   Surface Location
 PD  .                 GL:   Permanent Datum
 EPD .F              5237:   Elevation Permanent Datum
 LMF .                 KB:   Log Measured From
 DMF .                 KB:   Drilling Measured From
 DAPD.F                13:   Feet Above Permanent Datum
 DATE.        03-JUL-1969:   Date Logged [DD-MMM-YYYY]
 DD  .F              3200:   Depth driller
 DL  .F              3196:   Depth logger
 BLI .F              3195:   Bottom log interval
 TLI .F               676:   Top log interval
 CS1 .IN            10.75:   Casing size
 CBD1.      10.75" @ 675':   Casing driller 1
 CBL1.F               676:   Casing logger 1
 BS1 .IN            6.125:   Bit size
 BSD1.F              3200:   Depth drilled with bit1
 DFT .      FRESH GEL MUD:   Type fluid in hole
 DFD .                9.5:   Density
 DFV .                 46:   Viscosity
 DFPH.                9.5:   pH
 DFL .                6.4:   Fluid loss
 MSS .           FLOWLINE:   Source of sample
 RMS .OHMM           2.05:   Rm
 MST .F                76:   Rm Meas. temp.
 RMF .OHMM           1.49:   Rmf
 MFST.F                78:   Rmf Meas. temp.
 MFSS.               MEAS:   Source Rmf.
 RMB .OHMM           1.34:   Rm. at BHT
 BHT .F               116:   BHT.
 TCS .HRS               2:   Time Circ. stopped
 MRT .F               116:   Maximum recorded temp.
 LUN .               4507:   Logging unit number
 LUL .               CSPR:   Logging unit location
 ENGI.             KNOBEL:   Recorded By
 WITN.                MAY:   Witnessed by
 ORIG.        2" 5" PRINT:   Origin of data
 UWI .     49025600130000:   Unique Well ID
 DICO. A2D TECHNOLOGIES, INC.:   Digitizing Company
~OTHER INFORMATION
~A    DEPT     SPR          ASN      ILD       CALD        GRD       RHOB   
# ...
 2496.5000   -24.5401     6.1550     4.7175    11.0715   106.9418     2.5183
 2497.0000   -24.7342     6.0962     4.8681    11.1012   105.8550     2.5259
 2497.5000   -24.7670     6.0676     5.0189    11.1604   104.9885     2.5394
 2498.0000   -24.8126     6.2197     5.0196    11.2047   104.1256     2.5455
 2498.5000   -24.8545     6.2211     5.0202    11.2491   103.9199     2.5418
 2499.0000   -24.9621     6.2077     4.9460    11.2641   103.7137     2.5349
 2499.5000   -24.9057     6.1791     5.0218    11.3085   103.2882     2.5405
 2500.0000   -24.9256     6.1053     5.0975    11.3236   103.3064     2.5382
 2500.5000   -24.9692     5.9566     5.0232    11.3533   103.0970     2.5338
 2501.0000   -25.0155     5.8828     5.0240    11.3682   103.1152     2.5294
 2501.5000   -25.0617     5.8992     5.0249    11.3699   103.3621     2.5264
 2502.0000   -25.1078     5.9307     4.9504    11.3854   104.2493     2.5272
 2502.5000   -25.1539     5.7971     4.8762    11.3861   104.7043     2.5286
 2503.0000   -25.2001     5.7985     4.8771    11.3721   104.9391     2.5377
 2503.5000   -25.2465     5.8453     4.8779    11.3728   104.9537     2.5452
 2504.0000   -25.2933     5.7866     4.8035    11.3883   104.7480     2.5430
 2504.5000   -25.2957     5.6833     4.7294    11.3890   103.8851     2.5258
 2505.0000   -25.2959     5.6241     4.5802    11.4044   102.7983     2.5280
 2505.5000   -25.2907     5.5188     4.5061    11.4200   103.4737     2.5296
 2506.0000   -25.2930     5.3835     4.3569    11.4354   105.0337     2.5274
 2506.5000   -25.2724     5.1729     4.2826    11.4508   106.1496     2.5191
 2507.0000   -25.1474     5.0526     4.2835    11.4515   106.1641     2.5064
 2507.5000   -25.0941     4.9624     4.2842    11.4523   105.5179     2.5178
 2508.0000   -25.0473     4.9023     4.0600    11.4530   104.4347     2.5192
 2508.5000   -24.9534     4.8421     3.8358    11.4389   102.6872     2.5118
 2509.0000   -24.8615     4.7519     3.7615    11.3956   100.9360     2.5058
 2509.5000   -24.7692     4.6617     3.6125    11.3965    99.8528     2.5051
 2510.0000   -24.7665     4.6767     3.4582    11.3823    99.9262     2.5036
 2510.5000   -24.6999     4.5414     3.2392    11.3831   101.8679     2.4954
 2511.0000   -24.6889     4.1805     3.0900    11.3838   102.7635     2.5104
 2511.5000   -24.8954     3.9398     3.0157    11.3847   104.0997     2.5232
 2512.0000   -24.8954     3.8496     3.0166    11.3854   106.3993     2.5105
 2512.5000   -24.7589     3.8496     3.0923    11.3861   109.6390     2.4925
 2513.0000   -24.8796     3.8516     3.2429    11.3868   110.3143     2.4964
 2513.5000   -25.0582     3.9098     3.4740    11.3876   109.6681     2.5023
 2514.0000   -25.2319     4.0000     3.5443    11.3883   107.2597     2.5016
 2514.5000   -25.4055     4.0907     3.4699    11.3890   107.7184     2.5144
 2515.0000   -25.5685     4.1805     3.6957    11.3897   109.2748     2.5264
 2515.5000   -25.6070     4.1504     3.8465    11.3906   110.6110     2.5212
 2516.0000   -25.5894     4.1203     3.7720    11.3913   110.8458     2.5017
 2516.5000   -25.4865     4.1805     3.6978    11.3919   110.8639     2.4897
 2517.0000   -25.4272     4.2406     3.6987    11.3931   109.9938     2.4988
 2517.5000   -25.3526     4.1504     3.6244    11.4082   108.6904     2.5190
 2518.0000   -25.2779     4.1585     3.5503    11.4089   107.3834     2.5311
 2518.5000   -25.2041     4.2406     3.5510    11.4243   105.8597     2.5498
 2519.0000   -25.1290     4.0902     3.4018    11.4397   104.7729     2.5469
 2519.5000   -25.1847     4.0301     3.4026    11.4553   103.9064     2.5379
 2520.0000   -25.3315     4.0301     3.4783    11.4705   103.6558     2.5154
 2520.5000   -25.4799     4.1203     3.5540    11.3978   104.7675     2.4990
 2521.0000   -25.6281     4.0902     3.7048    11.3544   104.9960     2.5163
 2521.5000   -25.7785     4.0301     3.7055    11.3111   104.1069     2.5208
 2522.0000   -25.9032     4.0150     3.7811    11.3118   100.8297     2.5021
 2522.5000   -25.6965     4.0902     3.8568    11.2978    95.5516     2.5118
 2523.0000   -25.7539     4.3048     3.7825    11.2985    94.6767     2.5164
 2523.5000   -25.8675     4.3759     3.6335    11.2994    98.0054     2.5119
 2524.0000   -25.9834     4.3910     3.5523    11.3001    98.2196     2.4990
 2524.5000   -26.0988     4.3298     3.4102    11.3008    96.4678     2.4947
 2525.0000   -26.2135     4.1504     3.2609    11.3016    94.9343     2.4993
 2525.5000   -26.2800     4.0000     3.1867    11.3023    94.5020     2.5143
 2526.0000   -26.2790     3.7594     3.0376    11.3030   104.6445     2.5263
 2526.5000   -26.2748     3.5038     2.9632    11.3037   108.1770     2.5218
 2527.0000   -26.3234     3.4887     2.9641    11.3193   109.2866     2.5136
 2527.5000   -26.4879     3.4887     2.8898    11.3199   109.9559     2.5151
 2528.0000   -26.2740     3.4717     2.8155    11.3206   110.4066     2.5122
 2528.5000   -26.3016     3.4436     2.6665    11.3066   110.8554     2.4995
 2529.0000   -26.3047     3.4586     2.5922    11.3075   111.0839     2.5115
 2529.5000   -26.3346     3.4887     2.6680    11.3082   111.7533     2.5112
 2530.0000   -26.3631     3.4586     2.7437    11.3236   112.4241     2.4966
 2530.5000   -26.3911     3.3985     2.8943    11.3096   113.3135     2.4913
 2531.0000   -26.4190     3.4286     2.9780    11.3104   110.0178     2.4884
 2531.5000   -26.4516     3.5489     3.1208    11.3111   104.9621     2.5011
 2532.0000   -26.4719     3.6391     3.2714    11.3118   102.9880     2.5207
 2532.5000   -26.2823     3.7293     3.3471    11.3125   102.5536     2.5244
 2533.0000   -26.2052     3.8837     3.5728    11.3132   102.3437     2.5147
 2533.5000   -26.0462     4.1353     3.8734    11.3141   102.1318     2.5148
 2534.0000   -25.8992     4.4511     4.0240    11.2999   101.7016     2.5148
 2534.5000   -26.2548     4.6937     4.1916    11.3007   101.0491     2.5283
 2535.0000   -26.6407     4.9323     4.4754    11.3016    97.7534     2.5444
 2535.5000   -27.0192     5.1128     4.4761    11.3022    96.6603     2.5486
 2536.0000   -27.2080     5.2030     4.4768    11.3030    97.9923     2.5344
 2536.5000   -27.0623     5.0526     4.4776    11.3037   100.4235     2.5367
 2537.0000   -27.0465     4.8722     4.6283    11.2896   103.5154     2.5360
 2537.5000   -27.0233     4.7368     4.6290    11.2905   106.6095     2.5255
 2538.0000   -26.8882     4.7519     4.7046    11.2912   106.3975     2.5218
 2538.5000   -26.4703     4.8120     4.7055    11.2919   103.9829     2.5353
 2539.0000   -26.4725     4.8722     4.7062    11.2926   101.3297     2.5286
 2539.5000   -26.4961     4.9945     4.7069    11.2934    98.0544     2.5241
 2540.0000   -26.4769     5.1729     4.7078    11.3088    97.3998     2.5406
 2540.5000   -26.2836     5.2632     4.7085    11.3096    97.8507     2.5527
 2541.0000   -26.0851     5.3083     4.6340    11.3251    97.4080     2.5392
 2541.5000   -26.0807     5.2632     4.5553    11.3258    96.1072     2.5505
 2542.0000   -26.3369     5.3233     4.4857    11.3265    94.1331     2.5363
 2542.5000   -26.5230     5.3835     4.4114    11.3421    93.2582     2.5280
 2543.0000   -26.6665     5.3193     4.3373    11.3427    95.1131     2.5146
 2543.5000   -26.5252     5.1429     4.1881    11.3434   100.1071     2.5154
 2544.0000   -26.4690     4.9323     4.3389    11.3294   100.9944     2.5133
 2544.5000   -26.2237     4.9333     4.4895    11.3450   100.1237     2.4944
 2545.0000   -26.0361     5.0677     4.5753    11.3457    99.6914     2.4922
 2545.5000   -25.9887     5.2030     4.7160    11.3464    99.9220     2.4967
 2546.0000   -26.1047     5.3835     4.9416    11.3471    99.4898     2.5050
 2546.5000   -26.6569     5.8647     5.0922    11.3478    98.8370     2.5245
 2547.0000   -26.9192     6.1053     5.2430    11.3486    97.4963     2.5381
 2547.5000   -27.0632     6.1654     5.2437    11.3408    96.8715     2.5538
 2548.0000   -27.0815     6.1353     5.2444    11.3353    96.6595     2.5628
