~VERSION INFORMATION
 VERS.                2.0:   CWLS LOG ASCII STANDARD - VERSION 2.0
 WRAP.                 NO:   ONE LINE PER DEPTH STEP
~WELL INFORMATION
#MNEM.UNIT      DATA TYPE    INFORMATION
#----------   ------------   ------------------------------
 STRT.F           22.0000:   START DEPTH
 STOP.F         4228.5000:   STOP DEPTH
 STEP.F            0.5000:   STEP LENGTH
 NULL.          -999.2500:   NO VALUE
 COMP. LAWRENCE ALLISON & ASSOCIATES:   COMPANY
 WELL. LAWRENCE NPR 3 "X" #25-2:   WELL
 FLD .                NPR:   FIELD
 LOC .       S2 T38N R78W:   LOCATION
 CNTY.            NATRONA:   COUNTY
 STAT.            WYOMING:   STATE
 CTRY. UNITED STATES OF AMERICA:   COUNTRY
 SRVC.      DRESSER ATLAS:   SERVICE COMPANY
 DATE.        22-DEC-1985:   LOGDATE
 API .     49025110700000:   API NUMBER
~CURVE INFORMATION
#MNEM.UNIT       API CODE    CURVE DESCRIPTION
#----------   ------------   ------------------------------
 DEPT.F                  :   
 TENS.LBS    60 635 01 00:   TENSION FROM SONIC
 DT  .US/F   60 520 00 00:   DELTA TIME
 SPHI.DEC    60 890 00 00:   SONIC POROSITY
 TENR.LBS    07 635 01 00:   TENSION FROM RESISTIVITY
 CALR.IN     07 280 01 00:   CALIPER FROM RESISTIVITY
 SPR .MV     07 010 01 00:   SPONTANEOUS POTENTIAL
 GRR .GAPI   07 310 01 00:   GAMMA RAY FROM RESISTIVITY
 SFL .OHMM   07 220 01 00:   SHALLOW FOCUSED LOG RESISTIVITY
 ILD .OHMM   07 120 46 00:   DEEP INDUCTION RESISTIVITY
 ILM .OHMM   07 120 44 00:   INDUCTION LOG MEDIUM RESISTIVITY
~PARAMETER INFORMATION
#MNEM.UNIT          VALUE    DESCRIPTION
#----------   ------------   ------------------------------
 EKB .F         5148.0000:   Kelly bushing
 EGL .F         5136.0000:   Ground level
 EDF .F            0.0000:   Drilling floor
 TD  .F         4228.0000:   Total depth
 DATE.        22-DEC-1985:   Date logged
 CLNT.            A2DTECH:   Client Code
 SL  . 1350' FWL & 1968' FSL:   Surface Location
 PD  .                 GL:   Permanent Datum
 DD  .F              4224:   Depth driller
 DL  .F              4228:   Depth logger
 BLI .F              4225:   Bottom log interval
 CS1 .IN            8.625:   Casing size
 CBD1.      8.625" @ 677':   Casing driller 1
 CBL1.F               677:   Casing logger 1
 BS1 .IN            7.875:   Bit size
 DFT .            KCL/GEL:   Type fluid in hole
 DFD .                9.2:   Density
 DFV .                 45:   Viscosity
 DFPH.                8.5:   pH
 DFL .               11.5:   Fluid loss
 MSS .               TANK:   Source of sample
 RMS .OHMM           .256:   Rm
 MST .F                63:   Rm Meas. temp.
 RMF .OHMM           .192:   Rmf
 MFST.F                64:   Rmf Meas. temp.
 RMC .OHMM           .320:   Rmc
 MCST.F                64:   Rmc Meas. temp.
 MFSS.               MEAS:   Source Rmf.
 RMB .OHMM           .119:   Rm. at BHT
 BHT .F               143:   BHT.
 TCS .HRS             4.5:   Time Circ. stopped
 MRT .F               143:   Maximum recorded temp.
 LUN .               6427:   Logging unit number
 LUL .          WILLISTON:   Logging unit location
 ENGI.             MCHUCH:   Recorded By
 WITN.             STRONG:   Witnessed by
 ORIG.           5" PRINT:   Origin of data
 UWI .     49025110700000:   Unique Well ID
 DICO. A2D TECHNOLOGIES, INC.:   Digitizing Company
 DAPD.                 12:   Feet Above Permanent Datum
 BSD1.               4224:   Depth drilled with bit1
 MCSS.               CALC:   Source Rmc.
 EPD .F              5136:   Elevation Permanent Datum
 LMF .                 KB:   Log Measured From
 DMF .                 KB:   Drilling Measured From
~OTHER INFORMATION
~A   DEPT     TENS         DT       SPHI       TENR       CALR        SPR         GRR       SFL        ILD        ILM   
# ...
 2534.5000  -118.5310    90.1160     0.2860   -92.9510     8.8370   -62.0150   117.8570     4.5600     3.2460     3.3330
 2535.0000  -118.9980    90.5690     0.2910   -94.5850     8.8440   -61.9390   120.8030     4.4600     3.0390     3.1580
 2535.5000  -105.8370    90.9990     0.2970   -93.4080     8.8510   -61.8630   122.0920     4.3570     2.8330     2.9820
 2536.0000   -92.6770    92.3720     0.3020   -92.2300     8.8580   -61.7870   124.4440     3.9900     2.7020     2.8290
 2536.5000   -89.4010    93.7290     0.3080   -91.0530     8.8650   -61.6940   127.3270     3.4700     2.6330     2.8290
 2537.0000   -99.2710    95.0860     0.3220   -89.8760     8.8720   -61.5850   130.2430     3.0480     2.5960     2.8290
 2537.5000  -105.1450    95.8440     0.3240   -88.6980     8.8630   -61.4750   128.4930     2.7520     2.5590     2.8290
 2538.0000  -105.1450    94.8680     0.3180   -87.5210     8.8490   -61.3680   124.3340     3.1500     2.5100     2.8900
 2538.5000  -105.1450    93.3110     0.3070   -86.3430     8.8350   -61.4380   120.5820     3.6910     2.5580     2.9790
 2539.0000  -105.1450    91.6980     0.2950   -84.2430     8.8210   -61.5310   121.1920     4.0910     2.6270     3.0050
 2539.5000  -105.1450    91.3990     0.2950   -79.7470     8.8170   -61.6250   120.6920     4.1220     2.7010     3.0240
 2540.0000  -105.1450    91.7150     0.2970   -75.5230     8.8240   -61.7240   119.4130     3.8140     2.7890     3.0420
 2540.5000  -105.1450    92.0980     0.2980   -86.0120     8.8300   -61.7880   117.4360     3.6250     2.8770     3.0610
 2541.0000  -105.1450    91.8690     0.2970   -95.4640     8.8370   -61.9570   117.5670     3.7580     2.9420     3.0800
 2541.5000  -105.1450    91.6220     0.2960   -92.2360     8.8430   -62.1210   118.3290     3.9150     2.9680     3.0980
 2542.0000  -105.1450    91.4990     0.2940   -89.1450     8.8500   -62.2840   121.0990     3.9730     2.9770     3.1170
 2542.5000  -105.1450    91.5750     0.2940   -86.0540     8.8560   -62.4460   122.4430     3.7260     2.9890     3.1350
 2543.0000  -103.0850    91.8440     0.2960   -82.9640     8.8630   -62.5240   121.5820     3.7610     2.9770     3.1540
 2543.5000   -95.4930    92.0980     0.2970   -79.8730     8.8690   -62.4770   120.3300     3.8190     2.9620     3.1720
 2544.0000   -87.9010    92.1980     0.2990   -76.7820     8.8760   -62.4310   119.2460     3.8650     2.9910     3.1870
 2544.5000   -78.4100    92.3980     0.3010   -76.4110     8.8830   -62.3850   119.0870     3.8240     3.0200     3.1750
 2545.0000  -107.2340    92.4830     0.3010   -77.9090     8.8890   -62.3410   119.2010     3.7890     3.0440     3.1650
 2545.5000  -114.8570    92.4060     0.3010   -79.4070     8.8960   -62.1980   120.8350     3.7600     3.0080     3.1540
 2546.0000  -114.1830    92.2580     0.3000   -80.9040     8.9020   -62.0470   122.4070     3.8240     2.9890     3.1440
 2546.5000  -113.5100    92.2220     0.3000   -82.4020     8.9090   -61.8950   121.3250     3.7910     3.0020     3.1340
 2547.0000  -112.8360    92.2630     0.3000   -83.9000     8.9150   -61.7440   120.3500     3.6840     3.0160     3.1220
 2547.5000  -112.1630    92.2980     0.3010   -85.3980     8.9200   -61.5890   120.5730     3.6030     2.9790     3.1090
 2548.0000  -111.4890    92.0740     0.2990   -86.8950     8.9260   -61.5370   121.1470     3.7140     2.9400     3.1010
 2548.5000  -110.8160    91.7770     0.2970   -88.3930     8.9320   -61.4140   120.0840     3.8300     3.0050     3.1250
 2549.0000  -110.1420    91.5980     0.2960   -89.8910     8.9220   -61.2900   116.2960     3.6890     3.0720     3.1440
 2549.5000  -109.4680    91.5980     0.2960   -91.3890     8.9080   -61.1610   111.5980     3.5360     3.0720     3.1630
 2550.0000  -108.7950    91.5980     0.2960   -92.8870     8.8940   -61.2290   106.7310     3.3990     3.0720     3.1810
 2550.5000  -108.1210    90.5300     0.2880   -94.3840     8.8790   -61.3320   105.7720     4.0270     3.0720     3.2000
 2551.0000  -107.4480    89.7730     0.2810   -94.8080     8.8650   -61.4360   106.5260     4.4840     3.0610     3.2460
 2551.5000  -106.7740    89.0010     0.2770   -92.4630     8.8500   -61.5390   112.5460     4.6020     3.0220     3.1980
 2552.0000  -106.1010    89.6830     0.2800   -90.1180     8.8360   -61.5890   120.6780     4.0600     2.9440     3.0940
 2552.5000  -105.4270    90.5990     0.2850   -87.7720     8.8350   -61.6320   126.6870     3.6330     2.8600     2.9910
 2553.0000  -104.8800    92.8330     0.2920   -85.4940     8.8370   -61.6750   125.7090     3.2050     2.7750     2.8870
 2553.5000  -104.4230    93.8180     0.2990   -84.4380     8.8390   -61.7160   122.3970     2.9340     2.6910     2.7840
 2554.0000  -103.9670    93.8100     0.3080   -83.4120     8.8410   -61.7600   120.1480     3.1390     2.5290     2.6870
 2554.5000  -103.5100    92.8460     0.3040   -82.3860     8.8430   -62.0120   120.6600     3.3900     2.3980     2.6150
 2555.0000  -103.0530    92.3980     0.3010   -81.3600     8.8450   -62.2760   125.4790     3.5260     2.4080     2.5570
 2555.5000  -102.5970    92.6690     0.3030   -80.3340     8.8470   -62.5380   130.2310     3.2360     2.4160     2.5770
 2556.0000  -102.1400    93.2510     0.3080   -79.3080     8.8490   -62.4450   129.9660     2.8810     2.4410     2.6210
 2556.5000  -101.6840    93.7960     0.3110   -78.2820     8.8510   -62.3140   126.9630     2.9760     2.4780     2.6740
 2557.0000  -101.2270    93.6000     0.3100   -77.2560     8.8530   -62.1830   126.0270     3.1730     2.5340     2.7270
 2557.5000  -100.7710    93.1120     0.3070   -76.2300     8.8600   -62.0520   126.0520     3.3200     2.5970     2.8180
 2558.0000  -100.3140    92.4870     0.3010   -75.7580     8.8680   -61.9220   125.6310     3.3610     2.6730     3.0230
 2558.5000   -99.8580    91.8350     0.2970   -77.8990     8.8760   -61.7910   121.9810     3.3990     3.2170     3.2280
 2559.0000   -99.4010    91.3470     0.2930   -80.0400     8.8840   -61.5420   118.2780     3.6110     3.1870     3.4330
 2559.5000   -98.9450    90.4140     0.2830   -82.1820     8.8920   -61.2410   111.9870     3.8050     3.2810     3.6390
 2560.0000   -98.4880    88.3850     0.2710   -84.3230     8.8930   -60.9570   108.1830     4.2530     3.4770     3.8440
 2560.5000   -98.0310    86.3550     0.2580   -85.4940     8.8930   -60.8040   105.4520     4.6980     3.6730     4.1200
 2561.0000   -97.5750    85.2200     0.2480   -85.4940     8.8930   -60.6590   104.6190     5.0530     3.8640     4.1140
 2561.5000   -97.1180    85.0440     0.2460   -85.4940     8.8930   -60.5140   106.0030     5.0910     3.9780     4.1010
 2562.0000   -96.6620    85.7300     0.2520   -85.4940     8.8930   -60.3690   109.4570     4.8980     3.9900     4.0860
 2562.5000   -96.2050    87.3730     0.2620   -85.4940     8.8930   -60.2230   114.4740     4.5580     4.0020     4.0920
 2563.0000   -95.7490    88.8970     0.2730   -85.4940     8.8930   -60.1140   117.1760     4.1810     4.0170     4.1060
 2563.5000   -95.2920    89.4520     0.2800   -85.4940     8.8930   -60.0290   118.4650     3.7950     4.0350     4.1190
 2564.0000   -89.4610    88.9240     0.2770   -85.4940     8.8930   -59.9440   115.4240     4.1870     4.0540     4.2170
 2564.5000   -86.9100    87.7590     0.2670   -85.4940     8.8930   -59.8580   110.2560     4.6950     4.0720     4.3400
 2565.0000   -93.4230    86.5940     0.2570   -85.4940     8.8930   -59.7730   105.5610     5.2820     4.1340     4.4230
 2565.5000   -99.9370    86.2040     0.2560   -85.4940     8.8930   -59.7370   108.8860     5.1510     4.2800     4.5030
 2566.0000  -105.1450    86.8120     0.2600   -85.4940     8.8930   -59.6960   113.0730     4.9060     4.4260     4.5830
 2566.5000  -105.1450    87.3610     0.2640   -85.4940     8.8930   -59.6550   115.7050     4.7060     4.6440     4.7310
 2567.0000  -105.1450    87.5020     0.2650   -85.4940     8.8930   -59.6130   114.7920     4.8880     4.5360     4.6530
 2567.5000  -105.1450    87.2370     0.2640   -85.4940     8.8930   -59.5710   114.7580     5.0690     4.3180     4.4960
