~VERSION INFORMATION
 VERS.                2.0:   CWLS LOG ASCII STANDARD - VERSION 2.0
 WRAP.                 NO:   ONE LINE PER DEPTH STEP
~WELL INFORMATION
#MNEM.UNIT      DATA TYPE    INFORMATION
#----------   ------------   ------------------------------
 STRT.F          212.5000:   START DEPTH
 STOP.F         3098.0000:   STOP DEPTH
 STEP.F            0.5000:   STEP LENGTH
 NULL.          -999.2500:   NO VALUE
 COMP.    FENIX & SCISSON:   COMPANY
 WELL. FENIX NPR 77 "A" #3-33:   WELL
 FLD .                NPR:   FIELD
 LOC .      S33 T39N R78W:   LOCATION
 CNTY.            NATRONA:   COUNTY
 STAT.            WYOMING:   STATE
 CTRY. UNITED STATES OF AMERICA:   COUNTRY
 SRVC.       SCHLUMBERGER:   SERVICE COMPANY
 DATE.        07-MAY-1977:   LOGDATE
 API .     49025103700000:   API NUMBER
~CURVE INFORMATION
#MNEM.UNIT       API CODE    CURVE DESCRIPTION
#----------   ------------   ------------------------------
 DEPT.F                  :   
 SPR .MV     07 010 01 00:   SPONTANEOUS POTENTIAL
 LL8 .OHMM   11 220 08 00:   LATERALOG-8 RESISTIVITY
 ILD .OHMM   07 120 46 00:   DEEP INDUCTION RESISTIVITY
 CALD.IN     45 280 60 00:   CALIPER FROM DENSITY LOG
 GRD .GAPI   45 310 01 00:   GAMMA RAY FROM DENSITY LOG
 RHOB.G/C3   45 350 01 00:   BULK DENSITY
 CORR.G/C3   45 356 01 00:   DENSITY CORRECTION
 ILM .OHMM   07 120 44 00:   INDUCTION LOG MEDIUM RESISTIVITY
~PARAMETER INFORMATION
#MNEM.UNIT          VALUE    DESCRIPTION
#----------   ------------   ------------------------------
 EKB .F         5152.0000:   Kelly bushing
 EGL .F         5141.0000:   Ground level
 TD  .F         3097.0000:   Total depth
 DATE.        07-MAY-1977:   Date logged
 CLNT.            A2DTECH:   Client Code
 SL  . 990' FEL & 990' FSL:   Surface Location
 PD  .                 GL:   Permanent Datum
 EPD .F              5141:   Elevation Permanent Datum
 LMF .                 KB:   Log Measured From
 DMF .                 KB:   Drilling Measured From
 DAPD.F                11:   Feet Above Permanent Datum
 DD  .F              3096:   Depth driller
 DL  .F              3097:   Depth logger
 BLI .F              3091:   Bottom log interval
 TLI .F               222:   Top log interval
 CS1 .IN            8.625:   Casing size
 CBD1.      8.625" @ 200':   Casing driller 1
 CBL1.F               222:   Casing logger 1
 BS1 .IN            7.875:   Bit size
 BSD1.F              3096:   Depth drilled with bit1
 DFT .                KCL:   Type fluid in hole
 DFD .                9.2:   Density
 DFV .                 38:   Viscosity
 DFPH.                  8:   pH
 DFL .                7.6:   Fluid loss
 MSS .           FLOWLINE:   Source of sample
 RMS .OHMM           .191:   Rm
 MST .F                76:   Rm Meas. temp.
 RMF .OHMM           .185:   Rmf
 MFST.F                76:   Rmf Meas. temp.
 MFSS.               MEAS:   Source Rmf.
 RMB .OHMM           .126:   Rm. at BHT
 BHT .F               115:   BHT.
 TCS .HRS            1200:   Time Circ. stopped
 TLAB.HRS            1530:   Time logger at bottom
 MRT .F                15:   Maximum recorded temp.
 LUN .               6442:   Logging unit number
 LUL .               CSPR:   Logging unit location
 ENGI.             MARTIN:   Recorded By
 WITN.          PETTMGILL:   Witnessed by
 ORIG.      2.5" 5" PRINT:   Origin of data
 UWI .     49025103700000:   Unique Well ID
 DICO. A2D TECHNOLOGIES, INC.:   Digitizing Company
~OTHER INFORMATION
~A   DEPT      SPR        LL8        ILD       CALD         GRD      RHOB       CORR        ILM   
# ...
  415.0000  -105.3300     8.3290     8.2330     9.2820   124.0370     2.5700     0.1180     7.0430
  415.5000  -105.1700     8.2200     8.0550     9.2890   124.0590     2.5580     0.1100     6.9490
  416.0000  -104.8730     9.4230     7.8770     9.2960   123.3180     2.5550     0.1050     6.9490
  416.5000  -104.2990     9.3200     7.7630     9.3040   121.7200     2.5650     0.0980     7.4660
  417.0000  -103.7300     9.2110     7.7280     9.3110   120.1870     2.5450     0.0950     7.9130
  417.5000  -103.1610     9.0050     7.6330     9.3220   119.0540     2.5470     0.1010     8.2810
  418.0000  -102.5910     8.8330     7.5390     9.3530   117.0110     2.5560     0.0990     7.9460
  418.5000  -102.0220     9.2930     7.0690     9.3840   114.9700     2.5460     0.0950     7.0750
  419.0000  -101.4520     9.5980     6.0180     9.4150   112.8390     2.5360     0.0900     6.2050
  419.5000  -100.8810     9.1330     4.9670     9.4460   111.2080     2.5450     0.0960     5.3350
  420.0000  -100.3200     6.9610     4.1070     9.4770   110.7300     2.5250     0.1150     5.0780
  420.5000   -99.5660     3.0570     4.0320     9.5100   110.0430     2.4470     0.1310     5.4380
  421.0000   -99.0510     3.0010     4.2300     9.5360   108.1900     2.3680     0.1600     5.7780
  421.5000   -98.5240     4.7150     4.8670     9.5850   106.4110     2.2830     0.2400     5.7780
  422.0000   -98.0660     8.6070     5.5900     9.5930   104.6060     2.2000     0.2130     5.7780
  422.5000   -97.8750    10.7220     6.3140     9.6210   105.0880     2.1220     0.0800     7.3450
  423.0000   -97.6700    10.3720     7.0370     9.6480   106.0350     2.3810     0.0330     6.9490
  423.5000   -97.3120     9.8420     7.7610     9.6710   106.9830     2.5240     0.0620     7.6590
  424.0000   -96.4300    11.5000     8.4840     9.6700   107.8160     2.5290     0.0700     9.1630
  424.5000   -95.5660    13.2220     9.0470     9.6700   108.8750     2.5210     0.0630     9.4230
  425.0000   -94.7050    14.0120     9.2180     9.6710   109.5090     2.5150     0.0570     9.3800
  425.5000   -93.8430    13.8090     9.3890     9.6690   111.9660     2.5110     0.0500     9.3180
  426.0000   -92.9680    11.7590     9.5600     9.6710   114.6280     2.5110     0.0590     9.2510
  426.5000   -91.9280    11.6510     9.7300     9.6780   115.5750     2.5260     0.0730     9.1660
  427.0000   -90.3090    12.5310    10.2190     9.7670   113.0270     2.5390     0.0870     9.9180
  427.5000   -88.7350    13.3140    11.2840     9.8420   111.2510     2.5470     0.1020    10.8360
  428.0000   -87.1610    14.0970    12.3490     9.9240   106.0950     2.5480     0.0960    11.7550
  428.5000   -85.5850    15.2260    13.4140     9.9880    96.4740     2.5270     0.0830    12.8960
  429.0000   -84.0190    14.6160    13.8840     9.9600    86.8710     2.5100     0.0860    12.4070
  429.5000   -82.4070    12.9280    13.8840     9.8840    76.8500     2.4910     0.0830    11.7630
  430.0000   -80.9000    11.2410    13.7390     9.8090    70.5920     2.4630     0.0680    11.1190
  430.5000   -79.3540     9.7770    13.5890     9.7330    70.5560     2.4320     0.0770    10.6240
  431.0000   -77.8200     9.7770    13.4400     9.6580    70.1210     2.3940     0.0980    10.8640
  431.5000   -76.4870    10.0650    13.3800     9.5830    69.4670     2.4080     0.1190    11.1050
  432.0000   -76.2380    10.4250    13.3800     9.5050    68.9690     2.4350     0.1210    11.3450
  432.5000   -76.1170    10.7860    13.8850     9.4600    68.4810     2.4030     0.0940    11.5440
  433.0000   -76.0290    11.1250    14.3830     9.4420    67.9330     2.3630     0.0680    11.4310
  433.5000   -75.9430    11.2290    14.8810     9.4220    67.3550     2.3670     0.0740    11.2290
  434.0000   -75.8530    10.6720    15.3790     9.4020    68.1340     2.3770     0.0830    11.1250
  434.5000   -75.6490    10.2390    15.8780     9.3830    71.0560     2.3870     0.0860    11.8820
  435.0000   -75.0300    12.3800    16.3760     9.3620    73.9050     2.4010     0.0710    12.7780
  435.5000   -74.4210    15.0860    16.5440     9.3520    75.0450     2.4140     0.0710    13.3800
  436.0000   -73.7980    14.6180    16.5440     9.3530    71.4210     2.4280     0.0830    13.0630
  436.5000   -73.2360    13.9210    16.1940     9.3530    68.2960     2.4480     0.0950    12.3900
  437.0000   -72.8190    13.2230    15.4640     9.3560    64.8530     2.4400     0.1070    11.7170
  437.5000   -72.8060    12.5260    14.7340     9.3580    62.7510     2.4030     0.1180    11.0440
  438.0000   -72.3650    11.8290    14.0050     9.3600    63.5770     2.3680     0.1290    10.3720
  438.5000   -71.9370    11.1310    13.2750     9.3630    65.5960     2.3330     0.1180     9.6990
  439.0000   -71.5120    10.4340    12.5460     9.3650    72.0510     2.3290     0.1070     9.0260
  439.5000   -71.0890     9.7370    11.8680     9.3670    75.6190     2.3320     0.0960     8.3530
  440.0000   -70.6650     8.9980    12.0420     9.3700    77.1250     2.3250     0.0840     7.9080
  440.5000   -70.2410     8.9980    12.2800     9.3720    77.5750     2.3210     0.0730     8.0850
  441.0000   -69.8170     9.2740    12.5180     9.3740    77.6590     2.3260     0.0650     8.3240
  441.5000   -69.3930     9.5150    12.7560     9.3760    76.8150     2.3340     0.0710     8.5630
  442.0000   -68.9680     9.7560    12.9940     9.3790    74.8670     2.3420     0.0820     8.8020
  442.5000   -68.6900     9.9970    13.2320     9.3810    73.9120     2.3500     0.0930     8.9980
  443.0000   -68.4530    10.2390    13.4700     9.3830    74.2970     2.3500     0.1030     9.1660
  443.5000   -68.2170    10.2390    13.7080     9.3860    75.2450     2.3390     0.1150     9.3360
  444.0000   -67.9740     9.9160    13.9980     9.3880    76.2540     2.3450     0.1220     9.2990
  444.5000   -68.1450     9.5920    14.3020     9.3900    77.1970     2.3670     0.0940     9.2620
  445.0000   -68.5630     9.0810    14.5390     9.3930    78.2920     2.3880     0.1040     9.2240
  445.5000   -68.9840     9.2010    14.3410     9.3930    78.3100     2.3780     0.1200     9.1660
  446.0000   -69.4040     9.4830    14.1000     9.3930    78.0010     2.3620     0.1000     9.2190
  446.5000   -69.8220     9.7650    13.8580     9.3940    79.0510     2.3610     0.0930     9.3430
  447.0000   -70.0320    10.0470    13.6300     9.3830    82.0350     2.3640     0.1190     9.5100
  447.5000   -69.9750    10.1450    13.3800     9.3630    84.3930     2.3680     0.1090     9.3490
  448.0000   -69.9200     9.7140    13.6690     9.3440    82.9060     2.3620     0.0950     9.0810
  448.5000   -69.8630     9.3710    14.1040     9.3270    77.8230     2.3500     0.0990     8.9980
  449.0000   -69.8060     9.0290    14.5390     9.3050    71.8330     2.3390     0.1040     9.6010
  449.5000   -69.7520     8.6860    14.9750     9.2890    69.7690     2.3290     0.0930    10.0750
  450.0000   -69.6960     8.4350    15.3670     9.2840    72.0450     2.3240     0.0830    10.5490
  450.5000   -70.0350     8.4350    15.5090     9.4040    77.6000     2.3470     0.0990    11.0220
  451.0000   -70.5950    12.0040    15.5090     9.5040    83.5820     2.3770     0.1210    11.5440
  451.5000   -71.1500    15.2170    15.6530     9.6110    84.7420     2.3950     0.1270    11.6510
  452.0000   -71.6410    17.3250    16.0920     9.7180    84.9830     2.3810     0.0920    12.5890
  452.5000   -71.5130    16.7500    18.5250     9.8200    85.0580     2.4040     0.0800    13.6300
  453.0000   -71.3370    15.9980    21.5650     9.9360    85.0130     2.4420     0.1000    14.8620
  453.5000   -71.1680    15.2460    23.4960     9.9750    83.8090     2.4620     0.1040    16.5940
  454.0000   -71.2070    14.9470    24.6140    10.0220    81.4010     2.4490     0.0940    20.8180
  454.5000   -71.7570    24.3790    25.2920    10.0270    79.0700     2.4680     0.1010    28.9190
  455.0000   -72.2870    36.1930    24.8270    10.0260    76.7260     2.5210     0.1140    35.5850
