~VERSION INFORMATION
 VERS.                2.0:   CWLS LOG ASCII STANDARD - VERSION 2.0
 WRAP.                 NO:   ONE LINE PER DEPTH STEP
~WELL INFORMATION
#MNEM.UNIT      DATA TYPE    INFORMATION
#----------   ------------   ------------------------------
 STRT.F          200.0000:   START DEPTH
 STOP.F         3000.0000:   STOP DEPTH
 STEP.F            0.5000:   STEP LENGTH
 NULL.          -999.2500:   NO VALUE
 COMP.    FENIX & SCISSON:   COMPANY
 WELL.   FENIX "A" #65-28:   WELL
 FLD .              NPR 3:   FIELD
 LOC .      S28 T39N R78W:   LOCATION
 CNTY.            NATRONA:   COUNTY
 STAT.            WYOMING:   STATE
 CTRY. UNITED STATES OF AMERICA:   COUNTRY
 SRVC.              WELEX:   SERVICE COMPANY
 DATE.        25-JUL-1977:   LOGDATE
 API .     49025104010000:   API NUMBER
~CURVE INFORMATION
#MNEM.UNIT       API CODE    CURVE DESCRIPTION
#----------   ------------   ------------------------------
 DEPT.F                  :   
 GRD .GAPI   45 310 01 00:   GAMMA RAY FROM DENSITY LOG
 CALD.IN     45 280 60 00:   CALIPER FROM DENSITY LOG
 RHOB.G/C3   45 350 01 00:   BULK DENSITY
 DCOR.G/C3   45 356 01 00:   DENSITY CORRECTION
 SPR .MV     07 010 01 00:   SPONTANEOUS POTENTIAL
 RILM.OHMM   07 120 44 00:   INDUCTION LOG MEDIUM RESISTIVITY
 RILD.OHMM   07 120 46 00:   DEEP INDUCTION RESISTIVITY
 SGRD.OHMM   07 220 05 00:   SHALLOW GUARD
~PARAMETER INFORMATION
#MNEM.UNIT          VALUE    DESCRIPTION
#----------   ------------   ------------------------------
 EKB .F         5069.0000:   Kelly bushing
 EGL .F         5059.0000:   Ground level
 EDF .F            0.0000:   Drilling floor
 TD  .F         3006.0000:   Total depth
 DATE.        25-JUL-1977:   Date logged
 CLNT.            A2DTECH:   Client Code
 SL  . 2310' FSL & 1650' FEL:   Surface Location
 PD  .                 GL:   Permanent Datum
 EPD .F              5059:   Elevation Permanent Datum
 LMF .                 KB:   Log Measured From
 DMF .                 KB:   Drilling Measured From
 DAPD.F                10:   Feet Above Permanent Datum
 DD  .F              3006:   Depth driller
 DL  .F              3006:   Depth logger
 BLI .F              3004:   Bottom log interval
 TLI .F               200:   Top log interval
 CS1 .IN            8.625:   Casing size
 CBD1.      8.625" @ 205':   Casing driller 1
 CBL1.F               220:   Casing logger 1
 BS1 .IN            7.875:   Bit size
 BSD1.F              3006:   Depth drilled with bit1
 DFT .            KCL MUD:   Type fluid in hole
 DFD .                8.9:   Density
 DFV .                 39:   Viscosity
 DFPH.                7.5:   pH
 DFL .                7.2:   Fluid loss
 MSS .           FLOWLINE:   Source of sample
 RMS .OHMM           0.29:   Rm
 MST .F                78:   Rm Meas. temp.
 RMF .OHMM           0.19:   Rmf
 MFST.F                78:   Rmf Meas. temp.
 RMC .OHMM           0.80:   Rmc
 MCST.F                78:   Rmc Meas. temp.
 MFSS.               FANN:   Source Rmf.
 MCSS.                KIT:   Source Rmc.
 RMB .OHMM           0.20:   Rm. at BHT
 BHT .F               113:   BHT.
 TCS .HRS               3:   Time Circ. stopped
 MRT .F               113:   Maximum recorded temp.
 LUN .               8766:   Logging unit number
 LUL .             CASPER:   Logging unit location
 ENGI.         G. BENTSEN:   Recorded By
 WITN.      B. HARRINGTON:   Witnessed by
 ORIG.           5" PRINT:   Origin of data
 UWI .     49025104010000:   Unique Well ID
 DICO. A2D TECHNOLOGIES, INC.:   Digitizing Company
~OTHER INFORMATION
~A   DEPT       GRD        CALD       RHOB      DCOR       SPR       RILM         RILD       SGRD 
# ...
 2589.5000    66.4150     9.6370     2.4860     0.0530   -20.1500    11.0900     9.9230    13.0660
 2590.0000    67.5080     9.6430     2.4890     0.0500   -20.1110    11.1830    10.0200    13.3980
 2590.5000    68.7050     9.6530     2.4920     0.0480   -20.0690    11.1100    10.1170    13.8720
 2591.0000    68.1420     9.6630     2.4940     0.0490   -20.0600    11.0540    10.2040    14.3460
 2591.5000    67.5620     9.6730     2.4910     0.0480   -20.0630    10.9980    10.1640    14.5830
 2592.0000    68.9840     9.6830     2.4870     0.0440   -19.9380    10.9410    10.1270    14.0230
 2592.5000    68.5820     9.6930     2.4840     0.0440   -19.8040    10.8800    10.0900    13.5930
 2593.0000    67.0570     9.7040     2.4860     0.0480   -19.6690    11.0460    10.0520    13.1620
 2593.5000    65.5260     9.7140     2.4830     0.0510   -19.5350    11.2300    10.0190    12.9470
 2594.0000    64.6420     9.7240     2.4750     0.0530   -19.5220    12.2550     9.8500    13.1600
 2594.5000    66.4110     9.7340     2.4680     0.0560   -19.6320    11.8710     9.6960    13.3020
 2595.0000    68.1600     9.7470     2.4600     0.0540   -19.7410    11.7060     9.5420    13.4300
 2595.5000    67.6030     9.7620     2.4520     0.0520   -19.8470    12.2550     9.3880    13.0480
 2596.0000    65.8920     9.7760     2.4460     0.0500   -20.0840    11.0810     9.3120    12.7000
 2596.5000    64.1710     9.7910     2.4420     0.0480   -20.4190    11.6250     9.4840    12.5960
 2597.0000    64.3320     9.8060     2.4400     0.0460   -20.7500    12.1200     9.7290    12.6990
 2597.5000    65.2650     9.8210     2.4380     0.0440   -21.0860    12.3680     9.9750    12.7670
 2598.0000    65.4680     9.8350     2.4370     0.0420   -21.5730    12.1880    10.2210    12.8290
 2598.5000    64.6670     9.8500     2.4350     0.0410   -22.2530    12.0510    10.4660    12.4730
 2599.0000    63.4370     9.8720     2.4350     0.0390   -23.0450    11.9130    10.7120    12.1490
 2599.5000    64.0560     9.9010     2.4450     0.0380   -23.8990    11.7750    10.9580    11.9230
 2600.0000    67.9380     9.9310     2.4610     0.0400   -24.7730    11.7060    11.1320    12.4790
 2600.5000    71.7370     9.9600     2.4770     0.0410   -25.5820    11.5510    11.2860    12.9070
 2601.0000    70.8550     9.9890     2.4810     0.0390   -26.3890    11.3290    11.0450    13.3350
 2601.5000    70.5640    10.0180     2.4840     0.0360   -27.0150    11.1070    10.8430    13.8040
 2602.0000    72.5760    10.0410     2.4870     0.0340   -27.5730    10.8850    10.4970    13.8040
 2602.5000    73.6310    10.0490     2.4890     0.0380   -28.3720    10.6630    10.1510    13.1930
 2603.0000    70.3350    10.0570     2.4910     0.0420   -28.8840    10.4410     9.8050    12.5220
 2603.5000    69.6340    10.0650     2.4920     0.0450   -29.1640    10.1110     9.4590    11.8500
 2604.0000    73.8760    10.0740     2.4920     0.0480   -29.4370    10.1840     9.1130    11.1780
 2604.5000    70.8860    10.0820     2.4910     0.0490   -29.7090    10.3240     8.7670    10.5610
 2605.0000    72.2490    10.0900     2.4890     0.0480   -29.9820    10.4640     8.4210    10.3590
 2605.5000    73.4680    10.0980     2.4870     0.0460   -30.2670    10.6050     8.0940    10.1560
 2606.0000    72.2710    10.1060     2.4860     0.0440   -30.3350    10.7450     7.9120    10.0190
 2606.5000    70.9730    10.1140     2.4880     0.0470   -30.3360    10.8850     7.7290    10.1310
 2607.0000    70.3790    10.1230     2.4900     0.0450   -30.3290    11.0880     7.5470    10.2240
 2607.5000    72.8950    10.1310     2.4850     0.0400   -30.5820    11.4190     7.3640    10.3760
 2608.0000    74.0430    10.1390     2.4770     0.0360   -30.8560    11.7120     7.1980    10.5280
 2608.5000    71.8780    10.1470     2.4780     0.0360   -31.1290    11.7580     7.1410    10.6800
 2609.0000    72.9810    10.1550     2.4840     0.0390   -31.4000    11.8030     7.0830    10.7810
 2609.5000    74.6670    10.1630     2.4900     0.0420   -31.6900    11.8480     7.0110    10.3300
 2610.0000    75.5120    10.1710     2.4960     0.0460   -31.9750    11.8930     7.0790     9.9280
 2610.5000    73.3100    10.1780     2.5000     0.0480   -32.1860    11.9230     7.2020    10.4620
 2611.0000    75.5370    10.1860     2.5000     0.0460   -32.3380    11.6350     7.3830    10.8800
 2611.5000    75.9320    10.1940     2.5010     0.0440   -32.4870    11.3930     7.5650    10.3530
 2612.0000    74.8100    10.2010     2.5010     0.0480   -32.6360    11.0990     7.7110     9.8370
 2612.5000    77.4680    10.2090     2.5020     0.0470   -32.7850    10.8050     7.7940     9.8370
 2613.0000    76.3670    10.2170     2.5020     0.0470   -32.9340    10.5120     7.8970     9.8370
 2613.5000    74.5800    10.2240     2.5030     0.0490   -33.0820    10.2040     7.8350     9.7050
 2614.0000    72.7760    10.2320     2.5030     0.0510   -33.2310    10.1290     7.7520     8.9770
 2614.5000    72.1920    10.2370     2.5060     0.0550   -33.3800    10.0500     7.6830     9.1200
 2615.0000    75.5110    10.2230     2.5110     0.0580   -33.5290     9.9710     7.5290     9.2890
 2615.5000    77.8970    10.2100     2.5150     0.0620   -33.6780     9.8920     7.3690     9.3970
 2616.0000    80.2750    10.2040     2.5190     0.0670   -33.8270     9.8140     7.2090     8.3430
 2616.5000    79.7580    10.2470     2.5220     0.0720   -33.9760     9.7480     7.0690     8.7420
 2617.0000    78.0160    10.2900     2.5200     0.0710   -34.1250     9.8880     7.0320     9.1560
 2617.5000    78.7680    10.2920     2.5170     0.0670   -34.2740    10.0080     6.9950     9.5700
 2618.0000    79.2640    10.2800     2.5140     0.0630   -34.4980    10.1290     6.9580     9.8370
 2618.5000    78.7350    10.2680     2.5110     0.0600   -34.7300    10.2590     6.9210     9.4980
 2619.0000    77.3970    10.2560     2.5090     0.0580   -34.9630    10.4060     6.8840     9.1430
 2619.5000    77.2940    10.2410     2.5080     0.0560   -35.1950    10.5520     6.9580     9.2370
 2620.0000    77.4680    10.2270     2.5070     0.0530   -35.4280    11.0500     7.0540     9.3580
 2620.5000    78.3060    10.2320     2.5070     0.0490   -35.6590    11.6480     7.1750     9.4790
 2621.0000    80.1240    10.2640     2.5060     0.0450   -35.8890    12.2550     7.3460     9.6010
 2621.5000    79.2360    10.2950     2.5060     0.0430   -36.1240    12.4810     7.5180     9.7480
 2622.0000    77.9080    10.3100     2.5060     0.0420   -36.3580    11.4970     7.6890     9.5500
 2622.5000    77.7430    10.2650     2.5060     0.0410   -36.5990    10.7860     7.8610     9.2980
 2623.0000    79.0640    10.2210     2.5070     0.0400   -36.8070    10.0750     7.9150     9.0470
 2623.5000    80.3720    10.2050     2.5100     0.0420   -37.0380     9.7230     7.9380     8.7950
 2624.0000    81.5290    10.2200     2.5140     0.0430   -37.2760     9.4640     7.9690     8.5440
 2624.5000    81.1030    10.2340     2.5170     0.0520   -37.4790     9.2050     7.9020     8.2920
 2625.0000    80.6690    10.2490     2.5100     0.0480   -37.5820     8.9470     7.7890     8.1390
 2625.5000    80.4000    10.2630     2.5040     0.0420   -37.6840     8.8380     7.6770     8.0520
 2626.0000    80.5640    10.2780     2.4980     0.0460   -37.7850     8.7670     7.5640     7.9640
 2626.5000    80.7190    10.2690     2.4920     0.0440   -37.8860     8.6950     7.4510     7.8770
 2627.0000    80.8740    10.2590     2.4970     0.0490   -37.9880     8.6240     7.2600     7.8150
 2627.5000    81.0290    10.2490     2.5020     0.0510   -38.0890     8.5530     7.0200     7.7910
 2628.0000    81.2200    10.2390     2.5080     0.0530   -38.1910     8.4420     6.7790     7.7680
 2628.5000    81.6070    10.2540     2.5140     0.0590   -38.2950     8.1830     6.5380     7.6760
 2629.0000    81.9960    10.2710     2.5190     0.0570   -38.4060     7.9240     6.3780     7.4870
 2629.5000    82.3860    10.2880     2.5230     0.0650   -38.5170     7.6570     6.2880     7.2750
