~VERSION INFORMATION
 VERS.                2.0:   CWLS LOG ASCII STANDARD - VERSION 2.0
 WRAP.                 NO:   ONE LINE PER DEPTH STEP
~WELL INFORMATION
#MNEM.UNIT      DATA TYPE    INFORMATION
#----------   ------------   ------------------------------
 STRT.F          404.0000:   START DEPTH
 STOP.F         2919.0000:   STOP DEPTH
 STEP.F            0.5000:   STEP LENGTH
 NULL.          -999.2500:   NO VALUE
 COMP.    FENIX & SCISSON:   COMPANY
 WELL. FENIX & SCISSON "AX" #27-21:   WELL
 FLD .             NPR #3:   FIELD
 LOC .      S21 T39N R78W:   LOCATION
 CNTY.            NATRONA:   COUNTY
 STAT.            WYOMING:   STATE
 CTRY. UNITED STATES OF AMERICA:   COUNTRY
 SRVC.       SCHLUMBERGER:   SERVICE COMPANY
 DATE.        21-APR-1977:   LOGDATE
 API .     49025103730000:   API NUMBER
~CURVE INFORMATION
#MNEM.UNIT       API CODE    CURVE DESCRIPTION
#----------   ------------   ------------------------------
 DEPT.F                  :   
 SPR .MV     07 010 01 00:   SPONTANEOUS POTENTIAL
 ILM .OHMM   07 120 44 00:   INDUCTION LOG MEDIUM RESISTIVITY
 ILD .OHMM   07 120 46 00:   DEEP INDUCTION RESISTIVITY
 LL8 .OHMM   07 220 08 00:   LATEROLOG-8 RES.
 GRN .GAPI   35 310 01 00:   GAMMA RAY
 CALD.IN     45 280 60 00:   CALIPER FROM DENSITY LOG
 GRD .GAPI   45 310 01 00:   GAMMA RAY FROM DENSITY LOG
 CORR.G/C3   45 356 01 00:   DENSITY CORRECTION
 RHOB.G/C3   45 350 01 00:   BULK DENSITY
~PARAMETER INFORMATION
#MNEM.UNIT          VALUE    DESCRIPTION
#----------   ------------   ------------------------------
 EKB .F         5004.0000:   Kelly bushing
 EGL .F         4994.0000:   Ground level
 TD  .F         2920.0000:   Total depth
 CLNT.            A2DTECH:   Client Code
 SL  . 991' FWL & 1090' FSL:   Surface Location
 DATE.        21-APR-1977:   Date Logged [DD-MMM-YYYY]
 DD  .F              2920:   Depth driller
 DL  .F              2920:   Depth logger
 BLI .F              2914:   Bottom log interval
 TLI .F               419:   Top log interval
 CS1 .              8.625:   Casing size
 CBD1.      8.625" @ 425':   Casing driller 1
 CBL1.IN              419:   Casing logger 1
 BS1 .IN            7.875:   Bit size
 BSD1.F              2920:   Depth drilled with bit1
 DFT .                FGM:   Type fluid in hole
 DFD .                9.0:   Density
 DFV .                 34:   Viscosity
 DFPH.                8.0:   pH
 DFL .                8.0:   Fluid loss
 MSS .                PIT:   Source of sample
 RMS .OHMM          0.158:   Rm
 MST .F                72:   Rm Meas. temp.
 RMF .OHMM          0.158:   Rmf
 MFST.F                72:   Rmf Meas. temp.
 MFSS.               MEAS:   Source Rmf.
 RMB .OHMM          0.102:   Rm. at BHT
 BHT .F               112:   BHT.
 TCS .HRS            0500:   Time Circ. stopped
 TLAB.HRS            0700:   Time logger at bottom
 MRT .F               112:   Maximum recorded temp.
 LUN .               5642:   Logging unit number
 LUL .               CSPR:   Logging unit location
 ENGI.             TAYLOR:   Recorded By
 WITN.          PETTINGIL:   Witnessed by
 ORIG.      2.5" 5" PRINT:   Origin of data
 UWI .     49025103730000:   Unique Well ID
 DICO. A2D TECHNOLOGIES, INC.:   Digitizing Company
 PD  .                 GL:   Permanent Datum
 EPD .F              4994:   Elevation Permanent Datum
 LMF .                 KB:   Log Measured From
 DMF .                 KB:   Drilling Measured From
 DAPD.F                10:   Feet Above Permanent Datum
~OTHER INFORMATION
~A   DEPT      SPR        ILM        ILD        LL8        GRN       CALD         GRD      CORR       RHOB   
  404.0000  -999.2500  -999.2500  -999.2500  -999.2500  -999.2500  -999.2500    40.2249  -999.2500  -999.2500
  404.5000  -999.2500  -999.2500  -999.2500  -999.2500  -999.2500  -999.2500    42.2967  -999.2500  -999.2500
  405.0000  -999.2500  -999.2500  -999.2500  -999.2500  -999.2500  -999.2500    43.0605  -999.2500  -999.2500
  405.5000  -999.2500  -999.2500  -999.2500  -999.2500  -999.2500  -999.2500    43.2203  -999.2500  -999.2500
  406.0000  -999.2500  -999.2500  -999.2500  -999.2500  -999.2500  -999.2500    42.0199  -999.2500  -999.2500
  406.5000  -999.2500  -999.2500  -999.2500  -999.2500  -999.2500  -999.2500    40.0987  -999.2500  -999.2500
  407.0000  -999.2500  -999.2500  -999.2500  -999.2500  -999.2500  -999.2500    39.6667  -999.2500  -999.2500
  407.5000  -999.2500  -999.2500  -999.2500  -999.2500  -999.2500  -999.2500    40.1364  -999.2500  -999.2500
  408.0000  -999.2500  -999.2500  -999.2500  -999.2500  -999.2500  -999.2500    40.2738  -999.2500  -999.2500
  408.5000  -999.2500  -999.2500  -999.2500  -999.2500  -999.2500  -999.2500    40.1046  -999.2500  -999.2500
  409.0000  -999.2500  -999.2500  -999.2500  -999.2500  -999.2500  -999.2500    39.9881  -999.2500  -999.2500
  409.5000  -999.2500  -999.2500  -999.2500  -999.2500  -999.2500  -999.2500    40.2928  -999.2500  -999.2500
  410.0000  -999.2500  -999.2500  -999.2500  -999.2500  -999.2500  -999.2500    40.2987  -999.2500  -999.2500
  410.5000  -999.2500  -999.2500  -999.2500  -999.2500  -999.2500  -999.2500    41.4951  -999.2500  -999.2500
  411.0000  -999.2500  -999.2500  -999.2500  -999.2500  -999.2500  -999.2500    42.9891  -999.2500  -999.2500
  411.5000  -999.2500  -999.2500  -999.2500  -999.2500  -999.2500  -999.2500    44.4831  -999.2500  -999.2500
  412.0000  -999.2500  -999.2500  -999.2500  -999.2500  -999.2500  -999.2500    45.6795  -999.2500  -999.2500
  412.5000  -999.2500  -999.2500  -999.2500  -999.2500  -999.2500  -999.2500    45.9830  -999.2500  -999.2500
  413.0000  -999.2500  -999.2500  -999.2500  -999.2500  -999.2500  -999.2500    42.7151  -999.2500  -999.2500
  413.5000  -999.2500  -999.2500  -999.2500  -999.2500  -999.2500  -999.2500    38.8519  -999.2500  -999.2500
  414.0000  -999.2500  -999.2500  -999.2500  -999.2500  -999.2500  -999.2500    38.2619  -999.2500  -999.2500
  414.5000  -999.2500  -999.2500  -999.2500  -999.2500  -999.2500  -999.2500    37.9709  -999.2500  -999.2500
  415.0000  -999.2500  -999.2500  -999.2500  -999.2500  -999.2500  -999.2500    37.9768  -999.2500  -999.2500
  415.5000  -999.2500  -999.2500  -999.2500  -999.2500  -999.2500  -999.2500    39.1732  -999.2500  -999.2500
  416.0000  -999.2500  -999.2500  -999.2500  -999.2500  -999.2500  -999.2500    40.9649  -999.2500  -999.2500
  416.5000  -999.2500  -999.2500  -999.2500  -999.2500  -999.2500  -999.2500    42.7565  -999.2500  -999.2500
  417.0000  -999.2500  -999.2500  -999.2500  -999.2500  -999.2500  -999.2500    44.2505  -999.2500  -999.2500
  417.5000  -999.2500  -999.2500  -999.2500  -999.2500  -999.2500  -999.2500    40.3873  -999.2500  -999.2500
  418.0000  -999.2500  -999.2500  -999.2500  -999.2500  -999.2500  -999.2500    40.0576  -999.2500  -999.2500
  418.5000  -999.2500  -999.2500  -999.2500  -999.2500  -999.2500  -999.2500    43.0777  -999.2500  -999.2500
  419.0000  -999.2500  -999.2500  -999.2500  -999.2500  -999.2500  -999.2500    45.7622  -999.2500  -999.2500
  419.5000  -999.2500  -999.2500  -999.2500  -999.2500  -999.2500  -999.2500    43.0895  -999.2500  -999.2500
  420.0000  -999.2500  -999.2500  -999.2500  -999.2500  -999.2500     8.7003    45.1788     0.0701     2.4554
  420.5000  -999.2500  -999.2500  -999.2500  -999.2500  -999.2500     9.0307    48.7561     0.1045     2.2262
  421.0000    -0.2853     8.0061    10.7739     7.4148  -999.2500     9.5401    51.1429     0.1556     2.0685
  421.5000   -10.3932     7.8966     2.5050     6.5822  -999.2500     9.6515    52.6370     0.1466     2.0312
  422.0000   -19.0167     7.7821     3.5897     6.2012  -999.2500     9.3798    54.7262     0.0745     2.0521
  422.5000   -24.3665     6.6223     4.7919     6.6787  -999.2500     9.2010    57.1282     0.0580     2.2455
  423.0000   -29.1210     5.8971     6.6662     7.6734  -999.2500     9.0868    60.7531     0.0654     2.3051
  423.5000   -32.0898     5.1534     7.3408     9.7280  -999.2500     8.9979    67.3579     0.0594     2.3482
  424.0000   -34.4633     8.8368     7.5468    11.5449  -999.2500     8.9684    73.2182     0.0474     2.4554
  424.5000   -37.1345     9.9496     7.2431     7.9648  -999.2500     8.9427    73.8036     0.0504     2.4777
  425.0000   -40.6985    10.3139     6.7631     6.9680  -999.2500     8.9432    73.4871     0.0083     2.4673
  425.5000   -43.0720    10.5439     7.0491     6.6559  -999.2500     8.9486    71.5858     0.0067     2.4539
  426.0000   -45.1479    10.5439     7.9788     7.4711  -999.2500     8.9741    68.8572     0.0068     2.4521
  426.5000   -47.8191    10.5439     8.9079     8.3845  -999.2500     8.9746    66.0889     0.0098     2.4658
  427.0000   -49.0022    10.4832    10.0828     9.9922  -999.2500     9.0048    68.0518     0.0146     2.4821
  427.5000   -50.7805    10.3391    10.4797    12.3517  -999.2500     9.0415    70.0645     0.0171     2.4911
  428.0000   -52.8564    10.0574    10.0592    13.0972  -999.2500     9.0722    71.6190     0.0223     2.4940
  428.5000   -54.0395     9.9191     9.6801    12.2858  -999.2500     9.0955    73.1264     0.0335     2.4896
  429.0000   -54.9249     9.5752     9.3964    11.6823  -999.2500     9.1258    74.9314     0.0411     2.4821
  429.5000   -55.5127     9.4443     9.2177    11.3676  -999.2500     9.1263    76.3740     0.0286     2.4881
  430.0000   -56.1006     9.5043     9.3689    10.9593  -999.2500     9.1565    77.2817     0.0317     2.5030
  430.5000   -56.0932     9.6369     9.6311    10.8120  -999.2500     9.1571    78.4871     0.0413     2.5164
  431.0000   -54.5977     9.8426     9.8226    10.8153  -999.2500     9.1873    79.8325     0.0484     2.5015
  431.5000   -53.6974     9.9790     9.9602    10.8181  -999.2500     9.0889    74.8779     0.0228     2.4539
  432.0000   -52.7971    10.0458     9.7499    10.8209  -999.2500     9.0000    72.4039     0.0138     2.4821
  432.5000   -52.1945    10.1860     9.2867    10.8237  -999.2500     8.9812    74.2659     0.0345     2.5030
  433.0000   -51.2942    10.2576     8.8595    10.8265  -999.2500     8.9520    76.0843     0.0322     2.5074
  433.5000   -50.6916    10.3290     8.6212    10.8293  -999.2500     8.9229    75.5865     0.0216     2.4896
  434.0000   -50.0889    10.3998     8.3893    10.8321  -999.2500     8.9236    72.0079     0.0143     2.4881
  434.5000   -49.7839    10.2576     8.3388    10.6861  -999.2500     8.9241    70.3501     0.0219     2.4821
  435.0000   -48.5860    10.1845     8.6370    10.6893  -999.2500     8.9247    73.3779     0.0112     2.4688
  435.5000   -48.2810    10.0444     8.7576    10.4975  -999.2500     8.9252    75.5990     0.0078     2.4613
  436.0000   -47.9759     9.9063     8.7505    10.3565  -999.2500     8.9258    75.0595     0.0177     2.4794
  436.5000   -47.9685     9.7700     8.6331    10.2637  -999.2500     8.9121    72.8412     0.0166     2.4940
  437.0000   -47.6635     9.5038     8.4008    10.2668  -999.2500     8.8972    70.7123     0.0135     2.4804
  437.5000   -47.9539     9.4443     8.2335    10.2226  -999.2500     8.8978    69.3576     0.0210     2.4777
  438.0000   -48.5415     9.2441     8.2349    10.0852  -999.2500     8.8984    70.6586     0.0405     2.5006
  438.5000   -48.8318     9.0622     8.2363     9.9496  -999.2500     8.8829    72.6204     0.0418     2.5184
  439.0000   -49.1220     8.9383     8.2956     9.8605  -999.2500     8.8698    74.4257     0.0465     2.5305
  439.5000   -50.0074     8.9383     8.6459     9.7280  -999.2500     8.8704    75.3160     0.0509     2.5389
  440.0000   -50.8929     8.9383     8.8879     9.7309  -999.2500     8.8709    73.8294     0.0449     2.5329
