~VERSION INFORMATION
 VERS.                2.0:   CWLS LOG ASCII STANDARD - VERSION 2.0
 WRAP.                 NO:   ONE LINE PER DEPTH STEP
~WELL INFORMATION
#MNEM.UNIT      DATA TYPE    INFORMATION
#----------   ------------   ------------------------------
 STRT.F            2.0000:   START DEPTH
 STOP.F         3008.0000:   STOP DEPTH
 STEP.F            0.5000:   STEP LENGTH
 NULL.          -999.2500:   NO VALUE
 COMP.       FLUOR DANIEL:   COMPANY
 WELL.   FLUOR "X" #25-23:   WELL
 FLD .          N.P.R. #3:   FIELD
 LOC .      S23 T38N R78W:   LOCATION
 CNTY.            NATRONA:   COUNTY
 STAT.            WYOMING:   STATE
 CTRY. UNITED STATES OF AMERICA:   COUNTRY
 SRVC.      WESTERN ATLAS:   SERVICE COMPANY
 DATE.        21-APR-1995:   LOGDATE
 API .     49025227090000:   API NUMBER
~CURVE INFORMATION
#MNEM.UNIT       API CODE    CURVE DESCRIPTION
#----------   ------------   ------------------------------
 DEPT.F                  :   
 GRR .GAPI   07 310 01 00:   GAMMA RAY FROM RESISTIVITY
 TENR.LBS    07 635 01 00:   TENSION FROM RESISTIVITY
 RILD.OHMM   07 120 46 00:   RESISTIVITY INDUCTION LOG DEEP
 RILM.OHMM   07 120 44 00:   RESISTIVITY INDUCTION LOG MEDIUM
~PARAMETER INFORMATION
#MNEM.UNIT          VALUE    DESCRIPTION
#----------   ------------   ------------------------------
 EKB .F         5285.0000:   Kelly bushing
 EGL .F         5275.0000:   Ground level
 EDF .F         5284.0000:   Drilling floor
 TD  .F         3000.0000:   Total depth
 CLNT.            A2DTECH:   Client Code
 SL  . 2343' FSL & 1264' FWL:   Surface Location
 PD  .                 GL:   Permanent Datum
 EPD .F              5275:   Elevation Permanent Datum
 DMF .                 KB:   Drilling Measured From
 DAPD.                 10:   Feet Above Permanent Datum
 DATE.        21-APR-1995:   Date Logged [DD-MMM-YYYY]
 DD  .F              3000:   Depth driller
 DL  .F              3000:   Depth logger
 BLI .F              2999:   Bottom log interval
 TLI .F                 0:   Top log interval
 CS1 .IN            9.625:   Casing size
 CBD1.       9.625" @ 53':   Casing driller 1
 CBL1.F                53:   Casing logger 1
 BS1 .IN             6.25:   Bit size
 BSD1.F              3000:   Depth drilled with bit1
 DFT .                OIL:   Type fluid in hole
 MRT .F               114:   Maximum recorded temp.
 LUN .            HL 6530:   Logging unit number
 LUL .             CASPER:   Logging unit location
 ENGI.        VERN RAUTIO:   Recorded By
 WITN.        GARY STRONG:   Witnessed by
 ORIG.         2.5" PRINT:   Origin of data
 UWI .     49025227090000:   Unique Well ID
 DICO. A2D TECHNOLOGIES,INC.:   Digitizing Company
 LMF .                 KB:   Log Measured From
~OTHER INFORMATION
~A    DEPT      GRR      TENR       RILD       RILM   
# ...
  294.0000   115.8802   -12.1834     6.4421     6.4520
  294.5000   119.4004     9.9968     6.4395     6.4486
  295.0000   125.2999    10.2758     6.4369     6.4453
  295.5000   127.7552    10.5547     6.4343     6.4419
  296.0000   128.7809   -18.4062     6.4312     6.4386
  296.5000   128.7581   -18.1273     6.6052     6.4352
  297.0000   128.7375   -17.8363     6.6026     6.4437
  297.5000   126.3373   -17.5439     6.7813     6.6051
  298.0000   118.0728   -17.2515     6.8711     6.6579
  298.5000   119.8231   -16.9591     6.9621     6.8158
  299.0000   120.3953   -15.7353     6.9879     6.9611
  299.5000   120.3737   -15.2206     7.1477     7.0122
  300.0000   120.3503   -14.7059     7.1445     7.1439
  300.5000   118.5581   -14.1912     7.1416     7.1402
  301.0000   113.8160   -28.3824     7.1387     7.1365
  301.5000   109.6639   -27.8033     7.0392     7.1328
  302.0000   114.6745   -27.3208     6.9419     6.9385
  302.5000   118.1711   -12.1323     6.7537     6.7299
  303.0000   119.0365   -11.6177     6.7511     6.5244
  303.5000   116.6490   -11.1029     6.6577     6.4492
  304.0000   115.4410   -10.5882     6.5538     6.3376
  304.5000   115.4187   -10.0735     6.3604     6.1771
  305.0000   116.5763    -9.4784     6.1727     5.9592
  305.5000   118.9139    -8.9959     5.9904     5.7957
  306.0000   122.7060    -8.5133     6.1161     5.7148
  306.5000   124.7690    -8.0147     5.6349     5.6350
  307.0000   121.0856    -7.5000     5.6320     5.5564
  307.5000   114.9853    -6.9853     5.7059     5.7060
  308.0000   108.8064    -6.4706     5.7028     5.8597
  308.5000   114.0492    -5.8594     5.7935     5.9617
  309.0000   117.5667    -5.3768     5.9034     6.0138
  309.5000   119.9043    -4.8943     6.0804     6.1382
  310.0000   116.3422    -4.4118     6.2626     6.1722
  310.5000   113.9600    -3.8971     6.1683     6.0037
  311.0000   115.6657    -3.3824     5.8400     5.9199
  311.5000   120.2539   -17.6700     5.8370     5.8372
  312.0000   125.3333   -17.0588     5.6781     5.7453
  312.5000   126.8437   -31.2500     5.6687     5.6751
  313.0000   125.6368   -30.6870     5.5204     5.5681
  313.5000   122.6646   -30.2045     5.5174     5.5174
  314.0000   120.8724   -29.7059     5.4402     5.5139
  314.5000   119.6106   -29.1912     5.3641     5.5110
  315.0000   117.0895   -28.6765     5.3607     5.5082
  315.5000   115.4958   -28.1618     5.2148     5.4313
  316.0000   118.4233   -12.8447     5.2121     5.4236
  316.5000   115.7306     2.3438     5.2094     5.3525
  317.0000   114.8278     2.8263     5.2067     5.3496
  317.5000   117.1654   -11.3971     5.1910     5.2038
  318.0000   123.0428   -10.8824     5.2014     5.2010
  318.5000   127.1503   -10.3677     5.1700     5.1977
  319.0000   126.5369   -24.6553     5.0565     5.0562
  319.5000   125.3333   -24.0441     4.9853     5.0537
  320.0000   123.9331   -23.4490     4.9157     4.9831
  320.5000   122.3954   -22.9664     4.9802     4.9883
  321.0000   119.5400   -22.4839     5.0456     5.0459
  321.5000   115.7959   -21.9853     5.1160     5.1818
  322.0000   113.4137   -21.4706     5.3210     5.2825
  322.5000   112.2115   -16.0539     5.4643     5.4633
  323.0000   114.6667     1.1275     5.5651     5.6104
  323.5000   120.7787     9.5818     5.6853     5.6076
  324.0000   124.5702    -4.7059     5.8366     5.6812
  324.5000   126.7295   -18.8649     5.7552     5.6781
  325.0000   126.2537   -18.3824     5.7522     5.6751
  325.5000   123.8659   -17.8676     5.7493     5.6720
  326.0000   120.8938   -17.3529     5.6649     5.6689
  326.5000   115.5617   -16.8382     5.5896     5.5896
  327.0000   117.8993   -16.3235     5.5458     5.5861
  327.5000   122.7925   -15.7284     5.4344     5.5081
  328.0000   124.9344   -15.2459     5.3228     5.4312
  328.5000   123.3549   -14.7633     5.2828     5.2834
  329.0000   121.6794   -14.2647     5.2801     5.1394
  329.5000   120.4071   -13.7500     5.2774     5.1672
  330.0000   117.7544   -13.2353     5.4196     5.3231
  330.5000   115.9622   -12.7206     5.5655     5.4836
  331.0000   114.1700   -12.1094     5.7154     5.6490
  331.5000   112.9577   -11.6268     5.8693     5.7121
  332.0000   111.6066   -11.1443     6.0274     5.7865
  332.5000   109.3805   -10.6618     6.1459     5.8626
  333.0000   111.6185   -10.1470     6.1856     6.0258
  333.5000   116.0885    -9.6324     6.1818     6.2077
  334.0000   118.0413    -9.1176     6.1786     6.3490
  334.5000   115.1827    -8.6029     6.1754     6.2598
  335.0000   116.3403   -22.7941     6.0073     6.2143
  335.5000   116.9080   -22.2312     5.8436     6.0034
  336.0000   117.4757   -36.4706     5.6843     5.6839
  336.5000   116.0551   -35.9559     5.4757     5.3814
  337.0000   115.6578   -35.4412     5.2773     5.0950
  337.5000   115.0442   -34.9265     4.9557     4.9562
  338.0000   115.0206   -34.4118     5.0211     4.9670
  338.5000   113.2232   -33.8005     5.0868     5.0400
  339.0000   107.8912   -33.3180     5.1532     5.0840
  339.5000    97.2494   -32.8355     5.2208     5.1580
  340.0000    92.5074   -32.3529     5.2987     5.2887
  340.5000   103.7915   -31.8382     5.4494     5.3583
  341.0000   115.9802   -31.3235     5.6044     5.5024
  341.5000   123.9409   -30.8088     5.8057     5.6505
  342.0000   127.1818   -30.2941     5.8479     5.6577
  342.5000   126.6030   -29.6990     5.9586     5.7998
  343.0000   121.8610   -29.2164     5.9551     5.7963
  343.5000   117.1189   -28.7339     5.9520     5.9108
  344.0000   115.9167   -28.2353     5.9490     5.9490
  344.5000   119.4342   -27.7206     5.9557     6.0264
  345.0000   119.2134   -27.2059     6.0239     6.1057
  345.5000   117.8722   -26.6912     6.1029     6.1023
  346.0000   117.0074   -26.0800     6.0991     6.0991
  346.5000   120.5587   -25.5974     6.0958     6.0958
  347.0000   126.9812   -25.1149     6.0100     6.0436
  347.5000   128.7316   -24.6324     5.9261     5.8932
  348.0000   126.3466   -24.1176     5.7648     5.6828
  348.5000   118.0647   -23.6029     5.6073     5.4575
  349.0000   115.6825   -23.0882     5.4385     5.2375
  349.5000   117.8114   -22.5735     5.1490     5.1644
  350.0000   120.3577   -21.9784     5.0238     5.0238
  350.5000   114.2242   -21.4959     5.0211     5.0211
  351.0000   111.3786   -21.0133     5.0183     5.0183
  351.5000   109.6602   -20.5147     5.1533     5.0638
  352.0000   113.1777   -20.0000     5.2917     5.1833
  352.5000   117.8752   -19.4853     5.4342     5.3607
  353.0000   117.8328   -18.9706     5.5805     5.5051
  353.5000   118.0059   -18.3594     5.7308     5.5775
  354.0000   121.3481   -17.8768     5.8852     5.7276
  354.5000   119.6893   -17.3943     6.0437     5.8817
  355.0000   117.1681   -16.9118     6.1584     5.8785
  355.5000   114.1904   -16.3970     6.0742     5.8753
  356.0000   115.3510   -15.8824     6.0328     5.9847
  356.5000   115.3258   -15.3676     5.9486     5.9882
  357.0000   115.3035   -14.8529     5.8656     5.8652
  357.5000   116.5585   -14.2578     5.8626     5.8622
  358.0000   119.9786   -13.7753     5.8594     5.7026
  358.5000   118.7729   -13.2927     5.8562     5.5474
  359.0000   117.9037   -12.7941     5.8531     5.5444
  359.5000   117.2213   -12.2794     5.8499     5.5743
  360.0000   116.3385   -11.7647     5.8892     5.6909
  360.5000   115.7262   -11.2500     6.0040     5.7576
  361.0000   115.7039   -10.6388     6.1652     5.8404
  361.5000   118.0708   -10.1563     6.1620     5.9975
  362.0000   120.9690    -9.6737     6.3279     6.1585
  362.5000   121.5367    -9.1912     6.4181     6.3244
  363.0000   120.1141    -8.6765     6.4950     6.4102
  363.5000   117.3961    -8.1618     6.6069     6.4914
  364.0000   111.4292    -7.6471     6.6665     6.4877
  364.5000   111.4069    -7.1324     6.6622     6.4842
  365.0000   112.5645    -6.5372     6.6580     6.4806
  365.5000   116.0820    -6.0547     6.6546     6.4765
  366.0000   122.1160    -5.5722     6.6511     6.4732
  366.5000   124.5113   -19.7955     6.6477     6.4699
