~VERSION INFORMATION
 VERS.                2.0:   CWLS LOG ASCII STANDARD - VERSION 2.0
 WRAP.                 NO:   ONE LINE PER DEPTH STEP
~WELL INFORMATION
#MNEM.UNIT      DATA TYPE    INFORMATION
#----------   ------------   ------------------------------
 STRT.F          590.0000:   START DEPTH
 STOP.F         3428.0000:   STOP DEPTH
 STEP.F            0.5000:   STEP LENGTH
 NULL.          -999.2500:   NO VALUE
 COMP.    FENIX & SCISSON:   COMPANY
 WELL. FENIX NPR 3 "AX" #25-27:   WELL
 FLD .                NPR:   FIELD
 LOC .      S27 T39N R78W:   LOCATION
 CNTY.            NATRONA:   COUNTY
 STAT.            WYOMING:   STATE
 CTRY. UNITED STATES OF AMERICA:   COUNTRY
 SRVC.       SCHLUMBERGER:   SERVICE COMPANY
 DATE.        13-AUG-1981:   LOGDATE
 API .     49025108780000:   API NUMBER
~CURVE INFORMATION
#MNEM.UNIT       API CODE    CURVE DESCRIPTION
#----------   ------------   ------------------------------
 DEPT.F                  :   
 CALD.IN     45 280 60 00:   CALIPER FROM DENSITY LOG
 GRD .GAPI   45 310 01 00:   GAMMA RAY FROM DENSITY LOG
 CORR.G/C3   45 356 01 00:   DENSITY CORRECTION
 RHOB.G/C3   45 350 01 00:   BULK DENSITY
 NPHI.DEC    42 890 03 00:   NEUTRON POROSITY SANDSTONE
 TENR.LBS    07 635 01 00:   TENSION
 SPR .MV     07 010 01 00:   SPONTANEOUS POTENTIAL
 ILD .OHMM   07 120 46 00:   INDUCTION LOG DEEP RESISTIVITY
 ILM .OHMM   07 120 44 00:   INDUCTION LOG MEDIUM RESISTIVITY
 SFL .OHMM   07 220 01 00:   SHALLOW FOCUSED LOG RESISTIVITY
 TEND.LBS    45 635 01 00:   TENSION FROM DENSITY LOG
~PARAMETER INFORMATION
#MNEM.UNIT          VALUE    DESCRIPTION
#----------   ------------   ------------------------------
 EKB .F         5057.0000:   Kelly bushing
 EGL .F         5047.0000:   Ground level
 EDF .F            0.0000:   Drilling floor
 TD  .F         3415.0000:   Total depth
 DATE.        13-AUG-1981:   Date logged
 CLNT.            A2DTECH:   Client Code
 SL  . 2100' FSL & 1050' FWL:   Surface Location
 PD  .                 GL:   Permanent Datum
 EPD .F              5047:   Elevation Permanent Datum
 LMF .                 KB:   Log Measured From
 DMF .                 KB:   Drilling Measured From
 DAPD.F                10:   Feet Above Permanent Datum
 DD  .F              3400:   Depth driller
 DL  .F              3415:   Depth logger
 BLI .F              3409:   Bottom log interval
 TLI .F               603:   Top log interval
 CS1 .IN            9.625:   Casing size
 CBD1.      9.625" @ 607':   Casing driller 1
 CBL1.F               603:   Casing logger 1
 BS1 .IN            7.875:   Bit size
 BSD1.F              3400:   Depth drilled with bit1
 DFT .                FGM:   Type fluid in hole
 DFD .                8.7:   Density
 DFV .                 36:   Viscosity
 DFPH.                  9:   pH
 DFL .                 13:   Fluid loss
 MSS .           MUD/TANK:   Source of sample
 RMS .OHMM           1.69:   Rm
 MST .F                75:   Rm Meas. temp.
 RMF .OHMM           1.34:   Rmf
 MFST.F                75:   Rmf Meas. temp.
 MFSS.               MEAS:   Source Rmf.
 RMB .OHMM           1.09:   Rm. at BHT
 BHT .F               120:   BHT.
 TCS .HRS            2145:   Time Circ. stopped
 TLAB.HRS            0200:   Time logger at bottom
 MRT .F               120:   Maximum recorded temp.
 LUN .               8039:   Logging unit number
 LUL .               CSPR:   Logging unit location
 ENGI.            PURPICH:   Recorded By
 WITN.              FIVAS:   Witnessed by
 ORIG.           5" PRINT:   Origin of data
 UWI .     49025108780000:   Unique Well ID
 DICO. A2D TECHNOLOGIES, INC.:   Digitizing Company
~OTHER INFORMATION
~A   DEPT     CALD         GRD      CORR       RHOB         NPHI     TENR        SPR        ILD        ILM        SFL       TEND   
# ...
 2450.5000     8.5720   114.4800     0.0180     2.5740     0.2620   919.1900   -75.2870     5.3970     5.0110     6.5960   987.5400
 2451.0000     8.5740   117.0580     0.0470     2.5850     0.2670   919.3520   -75.1320     5.3440     4.9490     6.2840   987.9200
 2451.5000     8.5770   119.5950     0.0750     2.5960     0.2770   919.5150   -74.9530     5.2910     4.8870     5.9710   988.3010
 2452.0000     8.5790   119.6130     0.0900     2.5970     0.2860   919.6770   -74.5590     5.2390     4.8590     5.5220   988.6810
 2452.5000     8.5820   117.0300     0.0480     2.5680     0.2900   919.8390   -74.1010     5.1860     4.9200     5.7230   989.0620
 2453.0000     8.5840   114.1400     0.0180     2.5430     0.2790   920.0010   -73.8040     5.1330     4.9940     6.2740   989.4430
 2453.5000     8.5860   113.8590     0.0090     2.5350     0.2710   920.1640   -73.6230     5.0980     4.8820     6.8250   989.8230
 2454.0000     8.5890   116.8450     0.0090     2.5390     0.2680   920.3260   -73.4560     5.0530     4.7710     7.3270   990.2040
 2454.5000     8.5910   119.7940     0.0150     2.5450     0.2730   920.4880   -73.3060     5.0090     4.6590     6.8010   990.5840
 2455.0000     8.5940   125.5060     0.0300     2.5520     0.2920   920.6500   -72.9730     4.9640     4.5480     6.2810   990.9650
 2455.5000     8.5830   131.6150     0.0380     2.5470     0.3020   920.8130   -72.7280     4.9040     4.4370     5.7610   991.3450
 2456.0000     8.5610   133.9230     0.0440     2.5360     0.3260   920.9750   -72.8090     4.9660     4.3550     5.2410   991.7260
 2456.5000     8.5380   130.0250     0.0370     2.5250     0.3210   921.1370   -72.8820     5.1020     4.4540     4.5170   992.1070
 2457.0000     8.5150   124.0580     0.0250     2.5240     0.3100   921.2990   -73.1630     5.2370     4.6620     5.0280   992.4870
 2457.5000     8.4920   118.1320     0.0170     2.5440     0.2850   921.4610   -73.6650     5.3730     4.8700     6.0720   992.8680
 2458.0000     8.4710   117.7220     0.0210     2.5710     0.2780   921.6240   -73.9370     5.5080     5.0780     7.1160   993.2480
 2458.5000     8.4560   119.3190     0.0270     2.5960     0.2540   921.7860   -73.9980     5.6440     5.2860     8.6360   993.6290
 2459.0000     8.4550   120.0740     0.0320     2.6030     0.2580   921.9480   -74.0570     5.7790     5.4220     8.4630   994.0090
 2459.5000     8.4550   118.1150     0.0290     2.5930     0.2680   922.1100   -74.0860     5.9150     5.5050     8.1440   994.3900
 2460.0000     8.4550   116.8710     0.0250     2.5830     0.2780   922.2730   -73.9410     6.0500     5.5930     7.8250   994.7710
 2460.5000     8.4550   117.0590     0.0210     2.5820     0.2880   922.4350   -73.8000     6.1860     5.6800     7.5070   995.1510
 2461.0000     8.4550   117.6260     0.0170     2.5850     0.2960   922.5970   -73.8690     6.3220     5.7680     7.1880   995.5320
 2461.5000     8.4550   115.2600     0.0110     2.5770     0.3000   922.7590   -74.2710     6.4570     5.8550     7.0650   995.9120
 2462.0000     8.4550   112.8800     0.0090     2.5680     0.2990   922.9220   -74.4750     6.5080     5.9400     7.2180   996.2930
 2462.5000     8.4550   112.6280     0.0060     2.5600     0.2940   923.0840   -74.4120     6.5080     5.9490     7.4620   996.6730
 2463.0000     8.4550   114.8230     0.0040     2.5530     0.2890   923.2460   -74.3510     6.5080     5.9590     7.7060   997.0540
 2463.5000     8.4550   117.0340     0.0020     2.5600     0.2860   923.4080   -74.2880     6.5080     5.9700     7.9070   997.4350
 2464.0000     8.4550   119.2370     0.0080     2.5850     0.2870   923.5710   -74.2200     6.5080     5.9800     7.9940   997.8150
 2464.5000     8.4550   121.2360     0.0240     2.6010     0.2860   923.7330   -74.1530     6.5080     5.9900     8.0810   998.1960
 2465.0000     8.4550   120.3960     0.0360     2.6040     0.2820   923.8950   -74.1060     6.5080     6.0010     8.1760   998.5760
 2465.5000     8.4550   119.6090     0.0300     2.5970     0.2740   924.0570   -74.1070     6.5080     6.0110     8.1760   998.9570
 2466.0000     8.4550   115.3870     0.0180     2.5810     0.2680   924.2200   -74.1070     6.5080     6.0220     8.1420   999.3370
 2466.5000     8.4550   113.1660     0.0080     2.5650     0.2730   924.3820   -74.1170     6.5080     6.0320     8.0790   999.7180
 2467.0000     8.4550   113.1810     0.0060     2.5580     0.2780   924.5440   -73.7970     6.5080     6.0480     8.0280  1000.0990
 2467.5000     8.4550   115.9360     0.0150     2.5700     0.2830   924.7060   -73.3880     6.5080     6.0210     7.7520  1000.4790
 2468.0000     8.4550   119.3750     0.0220     2.5810     0.2870   924.8690   -73.4490     6.5080     5.9480     7.5270  1000.8600
 2468.5000     8.4550   122.8360     0.0240     2.5850     0.2910   925.0310   -73.6130     6.5080     5.8320     7.3030  1001.2400
 2469.0000     8.4550   126.3150     0.0150     2.5620     0.2870   925.1930   -73.8780     6.5070     5.8680     7.0530  1001.6210
 2469.5000     8.4550   126.6340     0.0060     2.5400     0.2850   925.3550   -74.2800     6.5350     5.9510     7.2440  1002.0020
 2470.0000     8.4550   124.6350     0.0030     2.5470     0.2820   925.5180   -74.5010     6.5950     6.0340     7.6250  1002.3820
 2470.5000     8.4550   121.6690     0.0100     2.5610     0.2800   925.6800   -74.5070     6.6570     6.1170     8.0070  1002.7630
 2471.0000     8.4550   118.7110     0.0210     2.5750     0.2770   925.8420   -74.6100     6.6880     6.2000     8.3880  1003.1430
 2471.5000     8.4550   116.5460     0.0320     2.5890     0.2740   926.0040   -74.7090     6.7500     6.2740     8.9570  1003.5240
 2472.0000     8.4550   115.7010     0.0260     2.5910     0.2690   926.1670   -74.8600     6.7500     6.2080     8.7760  1003.9040
 2472.5000     8.4550   117.5070     0.0180     2.5810     0.2640   926.3290   -75.0020     6.7500     6.1350     8.4190  1004.2850
 2473.0000     8.4550   120.4190     0.0160     2.5650     0.2600   926.4910   -75.0630     6.7670     6.0630     8.0630  1004.6660
 2473.5000     8.4550   119.8780     0.0150     2.5530     0.2600   926.6600   -74.9310     6.8190     5.9900     7.7070  1005.0460
 2474.0000     8.4550   116.1800     0.0120     2.5460     0.2660   926.6600   -74.8040     6.8700     5.8860     7.3500  1005.4270
 2474.5000     8.4550   112.8960     0.0070     2.5430     0.2750   926.6600   -74.5840     6.9220     5.9500     7.0650  1005.8070
 2475.0000     8.4550   115.3870     0.0060     2.5450     0.2830   926.6600   -73.9190     6.9730     6.1180     7.6190  1006.1880
 2475.5000     8.4550   118.3010     0.0050     2.5510     0.2760   926.6600   -73.4520     7.0250     6.2740     8.0880  1006.5680
 2476.0000     8.4550   119.4440     0.0040     2.5560     0.2680   926.6600   -73.2960     7.0650     6.2740     8.5570  1006.9440
 2476.5000     8.4550   117.7410     0.0030     2.5620     0.2600   926.6600   -73.1410     6.9540     6.2740     9.0250  1005.8870
 2477.0000     8.4550   116.0720     0.0060     2.5700     0.2540   926.6600   -73.0370     6.8640     6.2740     9.4610  1004.8420
 2477.5000     8.4550   115.5370     0.0110     2.5810     0.2570   926.6600   -72.9430     6.7730     6.2740     9.1380  1003.7970
 2478.0000     8.4550   115.9880     0.0170     2.5950     0.2620   926.6600   -72.9190     6.6830     6.2290     8.4410  1002.7520
 2478.5000     8.4550   118.4580     0.0210     2.5890     0.2720   926.6600   -72.9650     6.5930     6.1330     7.7440  1001.7070
 2479.0000     8.4550   121.3120     0.0110     2.5640     0.2820   926.6600   -73.1530     6.5030     6.0370     7.1300  1000.6620
 2479.5000     8.4550   124.1400     0.0030     2.5370     0.2910   926.6600   -73.3560     6.4120     5.9410     7.2720   999.6170
 2480.0000     8.4550   125.1890     0.0010     2.5180     0.2910   926.6600   -73.6900     6.3220     5.8460     7.5450   998.5720
 2480.5000     8.4550   125.6790     0.0020     2.5190     0.2820   926.6600   -74.0260     6.2320     5.7500     7.6700   997.5270
