~VERSION INFORMATION
 VERS.                2.0:   CWLS LOG ASCII STANDARD - VERSION 2.0
 WRAP.                 NO:   ONE LINE PER DEPTH STEP
~WELL INFORMATION
#MNEM.UNIT      DATA TYPE    INFORMATION
#----------   ------------   ------------------------------
 STRT.F            5.5000:   START DEPTH
 STOP.F         3261.0000:   STOP DEPTH
 STEP.F            0.5000:   STEP LENGTH
 NULL.          -999.2500:   NO VALUE
 COMP. LAWRENCE ALLISON & ASSOCIATES:   COMPANY
 WELL. LAWRENCE "X" #12-14:   WELL
 FLD .              NPR 3:   FIELD
 LOC .      S14 T38N R78W:   LOCATION
 CNTY.            NATRONA:   COUNTY
 STAT.            WYOMING:   STATE
 CTRY. UNITED STATES OF AMERICA:   COUNTRY
 SRVC.      DRESSER ATLAS:   SERVICE COMPANY
 DATE.        18-AUG-1986:   LOGDATE
 API .     49025111080000:   API NUMBER
~CURVE INFORMATION
#MNEM.UNIT       API CODE    CURVE DESCRIPTION
#----------   ------------   ------------------------------
 DEPT.F                  :   
 RILM.OHMM   07 120 44 00:   INDUCTION LOG MEDIUM RESISTIVITY
 GRR .GAPI   07 310 01 00:   GAMMA RAY FROM RESISTIVITY
 SPR .MV     07 010 01 00:   SPONTANEOUS POTENTIAL
 NPHI.DEC    42 890 03 00:   NEUTRON POROSITY SANDSTONE
 CALD.IN     45 280 60 00:   CALIPER FROM DENSITY LOG
 TEND.LBS    45 635 01 00:   TENSION FORM DENSITY LOG
 DRHO.G/C3   45 356 01 00:   DENSITY CORRECTION
 DEN .G/C3   45 350 01 00:   BULK DENSITY
 RILD.OHMM   07 120 46 00:   DEEP INDUCTION RESISTIVITY
 RFOC.OHMM   07 220 04 00:   RESISTIVITY FOCUSED LOG RES.
~PARAMETER INFORMATION
#MNEM.UNIT          VALUE    DESCRIPTION
#----------   ------------   ------------------------------
 EKB .F         5245.0000:   Kelly bushing
 EGL .F         5234.0000:   Ground level
 TD  .F         3250.0000:   Total depth
 CLNT.            A2DTECH:   Client Code
 SL  . 901' FNL & 485' FWL:   Surface Location
 PD  .                 GL:   Permanent Datum
 EPD .F              5234:   Elevation Permanent Datum
 LMF .                 KB:   Log Measured From
 DMF .                 KB:   Drilling Measured From
 DAPD.F                11:   Feet Above Permanent Datum
 DATE.        18-AUG-1986:   Date Logged [DD-MMM-YYYY]
 DD  .F              3250:   Depth driller
 DL  .F              3246:   Depth logger
 BLI .F              3244:   Bottom log interval
 TLI .F                 0:   Top log interval
 CS1 .IN            8.625:   Casing size
 CBD1.      8.625" @ 733':   Casing driller 1
 CBL1.F               735:   Casing logger 1
 BS1 .IN            7.875:   Bit size
 BSD1.F              3250:   Depth drilled with bit1
 DFT .            KCL-GEL:   Type fluid in hole
 DFD .                8.8:   Density
 DFV .                 36:   Viscosity
 DFPH.                8.5:   pH
 DFL .               12.8:   Fluid loss
 MSS .           FLOWLINE:   Source of sample
 RMS .OHMM          0.292:   Rm
 MST .F                73:   Rm Meas. temp.
 RMF .OHMM          0.224:   Rmf
 MFST.F                73:   Rmf Meas. temp.
 MFSS.               MEAS:   Source Rmf.
 RMC .OHMM          0.365:   Rmc
 MCST.F                73:   Rmc Meas. temp.
 MCSS.               CALC:   Source Rmc.
 RMB .OHMM          0.154:   Rm. at BHT
 BHT .F               138:   BHT.
 TCS .HRS               5:   Time Circ. stopped
 MRT .F               138:   Maximum recorded temp.
 LUN .            HL-6214:   Logging unit number
 LUL .           GILLETTE:   Logging unit location
 ENGI.             RAUTIO:   Recorded By
 WITN.             STRONG:   Witnessed by
 ORIG.        2" 5" PRINT:   Origin of data
 UWI .     49025111080000:   Unique Well ID
 DICO. A2D TECHNOLOGIES, INC.:   Digitizing Company
~OTHER INFORMATION
~A    DEPT    RILM         GRR       SPR       NPHI       CALD       TEND       DRHO        DEN       RILD       RFOC   
# ...
 2518.0000     5.6168   116.5831   -42.6650     0.2781     9.8430   -69.5489     0.0184     2.5461     5.6987     5.9419
 2518.5000     5.5790   114.7935   -42.6542     0.2757     9.8429   -69.5489     0.0093     2.5368     5.6614     5.9030
 2519.0000     5.6194   113.3061   -42.6431     0.2748     9.8427   -69.5489     0.0183     2.5435     5.6643     5.8641
 2519.5000     5.6993   114.2480   -42.4793     0.2766     9.8426   -69.5489     0.0454     2.5526     5.6665     5.8253
 2520.0000     5.7804   116.6814   -42.7697     0.2914     9.8424   -71.5661     0.0559     2.5586     5.6688     5.8277
 2520.5000     5.9035   117.0008   -43.0628     0.2932     9.8423   -84.5865     0.0604     2.5623     5.7119     5.8297
 2521.0000     5.9463   115.5192   -43.3506     0.2914     9.8421   -69.5489     0.0588     2.5570     5.8342     5.8316
 2521.5000     5.9059   113.7296   -43.1798     0.2843     9.8420   -62.0301     0.0392     2.5489     5.9183     5.8336
 2522.0000     5.9074   113.7527   -42.7239     0.2757     9.8418   -62.0301     0.0089     2.5350     5.8790     6.0049
 2522.5000     5.9086   114.7130   -42.5625     0.2648     9.8416   -54.5113    -0.0168     2.5237     5.9231     6.2592
 2523.0000     5.9510   115.3153   -42.5517     0.2545     9.8415   -54.5113    -0.0231     2.5176     5.9255     6.6202
 2523.5000     6.0410   113.5258   -42.5409     0.2575     9.8414   -54.5113    -0.0108     2.5161     5.9693     6.7153
 2524.0000     6.0790   111.4341   -42.6807     0.2612     9.8412   -54.5113    -0.0033     2.5146     6.0140     6.7645
 2524.5000     5.9549   111.4572   -42.6672     0.2636     9.8411   -46.9925    -0.0018     2.5206     5.9746     6.6268
 2525.0000     5.9148   114.5015   -42.6564     0.2615     9.8409   -46.9925     0.0026     2.5273     5.8938     6.2266
 2525.5000     5.9159   118.7600   -42.7990     0.2651     9.8407   -54.5113     0.0086     2.5258     5.8968     5.9322
 2526.0000     5.9585   117.8768   -42.7855     0.2735     9.8406   -69.5489     0.0192     2.5220     5.9403     5.8925
 2526.5000     6.0435   116.0873   -42.7747     0.2651     9.8404   -69.5489     0.0297     2.5152     5.9842     5.9362
 2527.0000     6.0869   114.2977   -42.7636     0.2557     9.8251   -46.9925     0.0311     2.5114     6.0286     6.0215
 2527.5000     6.0882   111.2997   -42.7504     0.2648     9.8250   -39.4737     0.0235     2.5121     6.0736     6.4199
 2528.0000     6.0894   110.0908   -42.7396     0.2623     9.8306   -39.4737     0.0295     2.5151     6.1613     7.2227
 2528.5000     6.0064   109.5332   -42.8794     0.2575     9.8399   -54.5113     0.0355     2.5204     6.1637     7.2756
 2529.0000     5.9659   109.8643   -42.8686     0.2539     9.8397   -62.0301     0.0355     2.5211     6.1228     7.1275
 2529.5000     5.9674   111.3980   -42.8577     0.2587     9.8547   -69.5489     0.0309     2.5203     6.0412     6.9339
 2530.0000     5.9272   113.2338   -42.8444     0.2669     9.8545   -69.5489     0.0233     2.5248     5.8776     6.6988
 2530.5000     5.8869   115.6738   -42.9869     0.2853     9.8544   -69.5489     0.0218     2.5278     5.8398     6.3724
 2531.0000     5.8067   117.5587   -43.1267     0.3004     9.8542   -69.5489     0.0489     2.5263     5.7214     6.0386
 2531.5000     5.7275   119.0491   -43.2638     0.3179     9.8541   -62.0301     0.0504     2.5202     5.6840     5.8338
 2532.0000     5.5719   119.9786   -43.4036     0.3161     9.8539   -62.0301     0.0201     2.5081     5.5682     5.7947
 2532.5000     5.3451   121.5123   -43.5407     0.2783     9.8538   -62.0301    -0.0041     2.4967     5.4180     5.7564
 2533.0000     5.2354   122.4418   -43.5299     0.2696     9.8385   -62.0301    -0.0102     2.5038     5.2713     6.0889
 2533.5000     5.3472   123.0695   -43.5191     0.2708     9.8383   -62.0301    -0.0072     2.5156     5.2739     5.9240
 2534.0000     5.3112   122.7959   -43.5084     0.2836     9.8533   -54.5113    -0.0042     2.5171     5.3129     5.6048
 2534.5000     5.3122   121.6106   -43.1964     0.2928     9.8380   -62.0301     0.0003     2.5140     5.3150     5.6066
 2535.0000     5.3135   119.2168   -42.8840     0.2940     9.8530   -62.0301     0.0078     2.5140     5.3172     5.7270
 2535.5000     5.3146   115.6146   -42.7203     0.2768     9.8529   -62.0301     0.0168     2.5139     5.2824     5.8908
 2536.0000     5.3528   111.4081   -42.5589     0.2668     9.8527   -62.0301     0.0214     2.5232     5.2846     5.9777
 2536.5000     5.3913   110.2227   -42.6987     0.2677     9.8374   -62.0301     0.0258     2.5320     5.2872     6.0618
 2537.0000     5.3178   110.2517   -42.6879     0.2714     9.8373   -62.0301     0.0166     2.5328     5.2893     6.0217
 2537.5000     5.1730   109.9669   -42.8368     0.2741     9.8219   -54.5113     0.0045     2.5305     5.2542     5.8175
 2538.0000     5.0669   109.9958   -42.9675     0.2750     9.8066   -54.5113     0.0045     2.5242     5.0770     5.5424
 2538.5000     4.9981   110.6232   -43.1073     0.2744     9.7913   -54.5113     0.0105     2.5168     4.9053     5.2804
 2539.0000     4.9641   112.4838   -43.2445     0.2834     9.7912   -54.5113     0.0167     2.5115     4.8058     5.1729
 2539.5000     4.8967   117.3217   -43.2337     0.2992     9.7911   -54.5113     0.0255     2.5115     4.7413     5.1751
 2540.0000     4.7610   120.3660   -43.2229     0.2952     9.7909   -54.5113     0.0224     2.5152     4.6781     5.2130
 2540.5000     4.6014   119.7849   -43.0588     0.2792     9.7907   -58.6577     0.0103     2.5182     4.6152     5.2147
 2541.0000     4.4449   117.0890   -43.0480     0.2744     9.7906   -63.0561    -0.0048     2.5167     4.4903     5.2165
 2541.5000     4.2937   111.6741   -42.8866     0.2694     9.7904   -69.5489    -0.0155     2.5091     4.3992     5.2182
 2542.0000     4.1189   110.4887   -42.7252     0.2756     9.7903   -69.5489    -0.0139     2.5043     4.2786     5.0769
 2542.5000     3.9511   114.4451   -42.7144     0.2792     9.7901   -69.5489    -0.0035     2.4969     4.1358     4.9386
 2543.0000     3.8663   120.8127   -42.7033     0.2798     9.7900   -62.0301     0.0025     2.4894     4.0238     4.7384
 2543.5000     3.7910   127.1802   -42.6902     0.2810     9.7898   -54.5113     0.0070     2.4742     3.8877     4.4830
 2544.0000     3.8185   127.8076   -42.6794     0.2858     9.7897   -54.5113     0.0145     2.4742     3.6786     4.1537
 2544.5000     3.8459   125.0994   -42.8768     0.3031     9.7895   -39.4737     0.0179     2.4802     3.6292     3.9849
 2545.0000     3.8735   123.6242   -42.8708     0.3043     9.8046   -39.4737    -0.0022     2.4847     3.6046     4.1568
 2545.5000     3.8743   124.8616   -42.7153     0.3046     9.7892   -39.4737    -0.0068     2.4877     3.5079     4.2757
 2546.0000     3.8753   125.7911   -42.7105     0.3043     9.8042   -39.4737     0.0098     2.4953     3.5096     4.3675
 2546.5000     3.8490   126.4184   -42.7056     0.3033     9.7889   -39.4737     0.0203     2.4982     3.5603     4.4302
 2547.0000     3.8230   125.5352   -42.7008     0.3021     9.8040   -39.4737     0.0248     2.4952     3.6116     4.3099
 2547.5000     3.8776   125.5589   -42.6958     0.3009     9.7886   -39.4737     0.0217     2.4929     3.6131     4.1348
 2548.0000     3.9602   126.1915   -42.6899     0.3038     9.7733   -46.9925     0.0126     2.5042     3.6401     4.0790
 2548.5000     4.0446   126.5167   -42.6850     0.3127     9.7580   -46.9925    -0.0025     2.5148     3.6927     4.4987
 2549.0000     4.1024   126.5398   -42.8308     0.3042     9.7427   -54.5113     0.0005     2.5223     3.7721     4.7582
 2549.5000     4.1032   126.2609   -42.8259     0.2797     9.7122   -54.5113     0.0170     2.5290     3.8533     4.7598
 2550.0000     4.1040   124.7734   -42.8211     0.2652     9.7121   -62.0301     0.0502     2.5388     3.9362     4.6955
 2550.5000     4.1048   124.4944   -42.8162     0.2610     9.7120   -62.0301     0.0456     2.5426     3.9653     4.6324
 2551.0000     4.1918   124.1373   -42.9620     0.2646     9.7118   -54.5113     0.0199     2.5448     3.9912     4.6018
