~VERSION INFORMATION
 VERS.                2.0:   CWLS LOG ASCII STANDARD - VERSION 2.0
 WRAP.                 NO:   ONE LINE PER DEPTH STEP
~WELL INFORMATION
#MNEM.UNIT      DATA TYPE    INFORMATION
#----------   ------------   ------------------------------
 STRT.F          514.0000:   START DEPTH
 STOP.F         4154.0000:   STOP DEPTH
 STEP.F            0.5000:   STEP LENGTH
 NULL.          -999.2500:   NO VALUE
 COMP.    FENIX & SCISSON:   COMPANY
 WELL.  FENIX "MX" #86-10:   WELL
 FLD .        TEAPOT DOME:   FIELD
 LOC .      S10 T38N R78W:   LOCATION
 CNTY.            NATRONA:   COUNTY
 STAT.            WYOMING:   STATE
 CTRY. UNITED STATES OF AMERICA:   COUNTRY
 SRVC.       SCHLUMBERGER:   SERVICE COMPANY
 DATE.        30-SEP-1978:   LOGDATE
 API .     49025107290000:   API NUMBER
~CURVE INFORMATION
#MNEM.UNIT       API CODE    CURVE DESCRIPTION
#----------   ------------   ------------------------------
 DEPT.F                  :   
 SPR .MV     07 010 01 00:   SPONTANEOUS POTENTIAL
 TENR.LBS    07 635 01 00:   TENSION FROM RESISTIVITY
 SFL .OHMM   07 220 01 00:   SHALLOW FOCUSED LOG RESISTIVITY
 ILM .OHMM   07 120 44 00:   INDUCTION LOG MEDIUM RESISTIVITY
 ILD .OHMM   07 120 46 00:   INDUCTION LOG DEEP RESISTIVITY
 CALD.IN     45 280 60 00:   CALIPER FROM DENSITY LOG
 GRD .GAPI   45 310 01 00:   GAMMA RAY FROM DENSITY LOG
 TEND.LBS    45 635 01 00:   TENSION FROM DENSITY LOG
 CORR.G/C3   45 356 01 00:   DENSITY CORRECTION
 RHOB.G/C3   45 350 01 00:   BULK DENSITY
 NPHI.DEC    42 890 03 00:   NEUTRON POROSITY SANDSTONE
~PARAMETER INFORMATION
#MNEM.UNIT          VALUE    DESCRIPTION
#----------   ------------   ------------------------------
 EKB .F         5233.0000:   Kelly bushing
 EGL .F         5222.0000:   Ground level
 EDF .F            0.0000:   Drilling floor
 TD  .F         4150.0000:   Total depth
 DATE.        30-SEP-1978:   Date logged
 CLNT.            A2DTECH:   Client Code
 SL  . 1450' FSL & 600' FEL:   Surface Location
 PD  .                 GL:   Permanent Datum
 LMF .                 KB:   Log Measured From
 DMF .                 KB:   Drilling Measured From
 DAPD.F                11:   Feet Above Permanent Datum
 DD  .F              4150:   Depth driller
 DL  .F              4141:   Depth logger
 BLI .F              4135:   Bottom log interval
 TLI .F               520:   Top log interval
 CS1 .IN            9.625:   Casing size
 CBD1.      9.625" @ 529':   Casing driller 1
 CBL1.F               529:   Casing logger 1
 BS1 .IN             8.75:   Bit size
 BSD1.F              4150:   Depth drilled with bit1
 DFT .                FGM:   Type fluid in hole
 DFD .                9.5:   Density
 DFV .                 36:   Viscosity
 DFPH.                 11:   pH
 DFL .                 60:   Fluid loss
 MSS .           MUD TANK:   Source of sample
 RMS .OHMM            .57:   Rm
 MST .F                68:   Rm Meas. temp.
 RMF .OHMM           .449:   Rmf
 MFST.F                68:   Rmf Meas. temp.
 MFSS.               MEAS:   Source Rmf.
 RMB .OHMM            .27:   Rm. at BHT
 BHT .F               142:   BHT.
 TCS .HRS            1500:   Time Circ. stopped
 TLAB.HRS            0700:   Time logger at bottom
 MRT .F               142:   Maximum recorded temp.
 LUN .               8043:   Logging unit number
 LUL .               CSPR:   Logging unit location
 ENGI.             LARSON:   Recorded By
 WITN.           DINSMORE:   Witnessed by
 ORIG.           5" PRINT:   Origin of data
 UWI .     49025107290000:   Unique Well ID
 DICO. A2D TECHNOLOGIES, INC.:   Digitizing Company
 EPD .               5222:   Elevation Permanent Datum
~OTHER INFORMATION
~A   DEPT      SPR       TENR        SFL        ILM        ILD       CALD         GRD      TEND       CORR       RHOB         NPHI 
# ...
 2923.5000   -36.0110   948.0510     6.8450     6.3980     6.1670    12.5330   116.1380  1149.2480     0.0540     2.4690     0.2530
 2924.0000   -36.0730   948.1680     7.2760     6.3600     6.1070    12.5170   117.0770  1150.1710     0.2470     2.5380     0.2560
 2924.5000   -36.1350   948.2860     7.1880     6.2770     6.0350    12.6180   122.7440  1151.0940     0.2470     2.5710     0.2600
 2925.0000   -36.1960   948.4040     6.9150     6.1950     5.9640    12.7070   123.2190  1152.0179     0.2470     2.4770     0.2670
 2925.5000   -36.2570   948.5210     6.6430     6.1120     5.8920    12.8060   124.2960  1152.9410     0.2470     2.3450     0.2730
 2926.0000   -36.3210   948.6390     6.3700     6.0540     5.8210    12.8340   122.8770  1153.8640     0.2040     2.2330     0.2800
 2926.5000   -36.3800   948.7570     6.0980     5.9440     5.7490    12.9440   120.8820  1154.7880     0.2120     2.2480     0.2770
 2927.0000   -36.4440   948.8750     5.8250     5.8360     5.6780    12.9320   120.4280  1155.7111     0.2330     2.2870     0.2760
 2927.5000   -36.5190   948.9920     5.5230     5.7420     5.6250    12.7260   119.9860  1156.6340     0.2470     2.3300     0.2780
 2928.0000   -36.6910   949.1100     5.7230     5.6490     5.8340    12.5340   119.6440  1157.5580     0.2490     2.3510     0.2810
 2928.5000   -36.8450   949.2280     5.9490     5.8240     6.2460    12.3390   118.2020  1158.4810     0.2490     2.3690     0.2820
 2929.0000   -37.0070   949.3450     6.1740     6.0880     6.6570    12.1300   114.6310  1159.4041     0.2470     2.3700     0.2770
 2929.5000   -37.1900   949.4630     6.4000     6.3530     7.0690    12.0190   112.4290  1160.3280     0.2130     2.3790     0.2710
 2930.0000   -37.1160   949.5810     6.6260     6.6180     7.4800    12.0150   110.1790  1161.2510     0.2170     2.4420     0.2600
 2930.5000   -36.8110   949.6990     6.8520     6.8830     7.8920    11.9950   107.2070  1162.1740     0.2190     2.4370     0.2500
 2931.0000   -36.4760   949.8160     7.0770     7.1480     8.2760    11.9720   105.2880  1163.0980     0.1890     2.3720     0.2410
 2931.5000   -36.4580   949.9340     7.3030     7.4120     8.1360    11.9350   105.3520  1164.0210     0.1250     2.3110     0.2370
 2932.0000   -36.4750   950.0520     7.5290     7.8310     8.0060    12.1130   106.5560  1164.9440     0.0610     2.2810     0.2340
 2932.5000   -36.5290   950.1700     7.7550     7.7930     7.8760    12.4880   107.0600  1165.8680     0.0270     2.2520     0.2290
 2933.0000   -36.5720   950.2870     7.8770     7.6990     7.8310    12.8670   106.5860  1166.7910     0.0130     2.2240     0.2330
 2933.5000   -36.6130   950.4050     7.9450     7.5490     7.8310    12.9820   109.1720  1167.7140    -0.0080     2.2110     0.2400
 2934.0000   -36.6590   950.5230     8.0140     7.5740     7.8310    12.4680   114.8210  1168.6379    -0.0140     2.3090     0.2530
 2934.5000   -36.7010   950.6400     8.0830     7.6410     8.1250    12.0000   119.7580  1169.5610     0.0020     2.3880     0.2630
 2935.0000   -36.7470   950.7580     8.1510     7.7070     8.2760    12.0200   118.4590  1170.4840     0.0150     2.3710     0.2610
 2935.5000   -36.7910   950.8760     8.2200     7.7740     8.2550    12.0190   117.2350  1171.4080     0.0160     2.3220     0.2590
 2936.0000   -36.8280   950.9940     8.2890     7.8400     8.1970    11.9980   115.6100  1172.3311     0.0170     2.2690     0.2580
 2936.5000   -36.9430   951.1110     8.3570     7.9070     8.1390    12.0000   116.2420  1173.2540     0.0260     2.3060     0.2550
 2937.0000   -37.1250   951.2290     8.4260     7.9770     8.0800    11.9920   118.0790  1174.1770     0.0390     2.3640     0.2490
 2937.5000   -37.3100   951.3470     8.4940     7.8670     8.0220    12.0270   118.4970  1175.1010     0.0540     2.4440     0.2400
 2938.0000   -37.4620   951.4640     8.5850     7.7510     7.9640    12.2180   117.3270  1176.0240     0.0450     2.4720     0.2450
 2938.5000   -37.6310   951.5820     8.4180     7.6360     7.9060    12.4800   116.9780  1176.9470     0.0360     2.5020     0.2560
 2939.0000   -37.3560   951.7000     8.1690     7.5200     7.8480    12.7420   117.6780  1177.8710     0.0400     2.5120     0.2680
 2939.5000   -36.9940   951.8180     7.9200     7.4040     7.7900    12.7580   116.0640  1178.7939     0.0430     2.5200     0.2660
 2940.0000   -37.1690   951.9350     7.5490     7.2880     7.7320    12.5820   112.6360  1179.7170     0.0460     2.5150     0.2630
 2940.5000   -37.3590   952.0530     7.6800     7.0140     7.6730    12.0520   110.8370  1180.6410     0.0410     2.5130     0.2610
 2941.0000   -37.4910   952.1710     7.9380     7.0550     7.6150    11.8560   112.4210  1181.5640     0.0370     2.5220     0.2560
 2941.5000   -37.5950   952.2880     8.1960     7.1660     7.5490    11.7320   113.8530  1182.4871     0.0340     2.5240     0.2470
 2942.0000   -37.6040   952.4060     8.4290     7.2780     7.4470    11.7490   114.4750  1183.4110     0.0320     2.5150     0.2380
 2942.5000   -37.5040   952.5240     9.0720     7.3890     7.3280    11.7420   112.4750  1184.3340     0.0430     2.5100     0.2290
 2943.0000   -37.4040   952.6420     8.8540     7.5010     7.1440    11.7450   110.0600  1185.2570     0.0740     2.5140     0.2380
 2943.5000   -37.2920   952.7590     8.6260     7.6120     7.2550    11.7570   108.1680  1186.1810     0.1140     2.5030     0.2470
 2944.0000   -37.4220   952.8770     8.3990     7.7650     7.5040    11.8570   109.8210  1187.1040     0.1030     2.4310     0.2550
 2944.5000   -37.9640   952.9950     8.1710     8.0090     7.7530    12.0990   109.7150  1188.0270     0.0690     2.2830     0.2580
 2945.0000   -38.4840   953.1130     8.9580     8.2530     8.0020    12.4640   107.2760  1188.9510     0.0360     2.2320     0.2620
 2945.5000   -39.0060   953.2300    10.0060     9.7850     8.2760    12.5200    94.5340  1189.8740     0.0160     2.2490     0.2640
 2946.0000   -39.5340   953.3480    10.9030    14.6240    11.2440    12.4370    83.1680  1190.7970     0.0360     2.3240     0.2520
 2946.5000   -40.0580   953.4660    21.8650    19.4630    14.5370    12.6600    71.8420  1191.7209     0.1650     2.4270     0.2400
 2947.0000   -40.5810   953.5830    31.4480    24.3020    17.8300    12.5710    66.3300  1192.6440     0.2130     2.4820     0.2220
 2947.5000   -41.1080   953.7010    41.0300    29.1400    20.7490    12.3800    61.1440  1193.5670     0.1760     2.4830     0.1850
 2948.0000   -41.6350   953.8190    50.6130    32.8550    23.2110    12.1260    58.0600  1194.4910     0.1350     2.4750     0.1650
 2948.5000   -42.0770   953.9370    56.0560    31.3030    25.3990    11.7600    61.9020  1195.4139     0.0940     2.4790     0.1190
 2949.0000   -42.2700   954.0540    45.4890    26.9630    24.3490    11.4070    67.6860  1196.3370     0.0560     2.4700     0.1090
 2949.5000   -42.4740   954.1720    33.3990    23.5990    22.0760    11.0420    84.5220  1197.2610     0.0480     2.4600     0.1290
 2950.0000   -42.6710   954.2900    23.5990    21.0020    19.8040    11.0750    93.3310  1198.1840     0.0510     2.4540     0.1380
 2950.5000   -42.8560   954.4070    18.2770    18.2610    17.5310    11.1170   102.8310  1199.1071     0.0540     2.4300     0.1750
 2951.0000   -43.0740   954.5250    13.8030    15.5190    15.2580    11.1770   105.6830  1200.0310     0.0470     2.3410     0.2060
 2951.5000   -43.2720   954.6430    11.4370    12.7770    13.3470    11.2230    99.4820  1200.9540     0.0370     2.2500     0.2330
 2952.0000   -44.0120   954.7610    11.1060    12.1750    13.1040    11.2490    91.4690  1201.8770     0.0260     2.2000     0.2430
 2952.5000   -44.6380   954.8780    12.0400    12.7820    13.8200    11.2610    82.7160  1202.8000     0.0240     2.2060     0.2520
 2953.0000   -45.2050   954.9960    12.9530    13.7240    14.9330    11.1090    74.3920  1203.7240     0.0220     2.2170     0.2640
 2953.5000   -45.2150   955.1140    13.8670    14.6670    16.0450    10.9190    65.0170  1204.6470     0.0200     2.2710     0.2580
