~VERSION INFORMATION
 VERS.                2.0:   CWLS LOG ASCII STANDARD - VERSION 2.0
 WRAP.                 NO:   ONE LINE PER DEPTH STEP
~WELL INFORMATION
#MNEM.UNIT      DATA TYPE    INFORMATION
#----------   ------------   ------------------------------
 STRT.F           40.0000:   START DEPTH
 STOP.F         1336.0000:   STOP DEPTH
 STEP.F            0.5000:   STEP LENGTH
 NULL.          -999.2500:   NO VALUE
 COMP. LAWRENCE - ALLISON WEST:   COMPANY
 WELL. LAWRENCE NPR 3 "AX" #54-23:   WELL
 FLD .              N P R:   FIELD
 LOC .      S23 T38N R78W:   LOCATION
 CNTY.            NATRONA:   COUNTY
 STAT.            WYOMING:   STATE
 CTRY. UNITED STATES OF AMERICA:   COUNTRY
 SRVC.       SCHLUMBERGER:   SERVICE COMPANY
 DATE.        13-MAY-1982:   LOGDATE
 API .     49025108880000:   API NUMBER
~CURVE INFORMATION
#MNEM.UNIT       API CODE    CURVE DESCRIPTION
#----------   ------------   ------------------------------
 DEPT.F                  :   
 NPOR.DEC    42 890 03 00:   ALPHA PROCESSED NEUTRON POROSITY
 TEND.LBS    45 635 01 00:   TENSION FROM DENSITY LOG
 CORR.G/C3   45 356 01 00:   DENSITY CORRECTION
 RHOB.G/C3   45 350 01 00:   BULK DENSITY
 GRD .GAPI   45 310 01 00:   GAMMA RAY FROM DENSITY LOG
 CALD.IN     45 280 60 00:   CALIPER FROM DENSITY LOG
 SPR .MV     07 010 01 00:   SPONTANEOUS POTENTIAL
 TENR.LBS    07 635 01 00:   TENSION
 ILD .OHMM   07 120 46 00:   DEEP INDUCTION RESISTIVITY
 ILM .OHMM   07 120 44 00:   INDUCTION LOG MEDIUM RESISTIVITY
 SFL .OHMM   07 220 01 00:   SHALLOW FOCUSED LOG RESISTIVITY
~PARAMETER INFORMATION
#MNEM.UNIT          VALUE    DESCRIPTION
#----------   ------------   ------------------------------
 EKB .F         5342.0000:   Kelly bushing
 EGL .F         5332.0000:   Ground level
 EDF .F            0.0000:   Drilling floor
 TD  .F         1325.0000:   Total depth
 DATE.        13-MAY-1982:   Date logged
 CLNT.            A2DTECH:   Client Code
 SL  . 2278' FSL & 2665' FWL:   Surface Location
 PD  .                 GL:   Permanent Datum
 DD  .F              1325:   Depth driller
 DL  .F              1314:   Depth logger
 BLI .F              1308:   Bottom log interval
 CS1 .IN             15.5:   Casing size
 CBD1.        15.5" @ 40':   Casing driller 1
 CBL1.F                54:   Casing logger 1
 BS1 .IN            12.25:   Bit size
 DFT .             LT/GEL:   Type fluid in hole
 DFD .                8.9:   Density
 DFV .                 33:   Viscosity
 DFPH.                8.8:   pH
 DFL .                 16:   Fluid loss
 MSS .                PIT:   Source of sample
 RMS .OHMM           2.47:   Rm
 MST .F                61:   Rm Meas. temp.
 RMF .OHMM           2.12:   Rmf
 MFST.F                62:   Rmf Meas. temp.
 MFSS.               MEAS:   Source Rmf.
 RMB .OHMM           1.73:   Rm. at BHT
 BHT .F                87:   BHT.
 TCS .HRS            2300:   Time Circ. stopped
 MRT .F                87:   Maximum recorded temp.
 LUN .               8043:   Logging unit number
 LUL .               CSPR:   Logging unit location
 ENGI.        WAGNER/CSPR:   Recorded By
 WITN.           JENNINGS:   Witnessed by
 ORIG.           5" PRINT:   Origin of data
 UWI .     49025108880000:   Unique Well ID
 DICO. A2D TECHNOLOGIES, INC.:   Digitizing Company
 BSD1.F              1325:   Depth drilled with bit1
 EPD .F              5332:   Elevation Permanent Datum
 LMF .                 KB:   Log Measured From
 DMF .                 KB:   Drilling Measured From
 TLI .F                54:   Top log interval
 DAPD.F                10:   Feet Above Permanent Datum
~OTHER INFORMATION
~A   DEPT     NPOR       TEND       CORR       RHOB        GRD       CALD        SPR       TENR        ILD        ILM        SFL   
# ...
  619.5000     0.1570   151.3760     0.1050     2.3590   140.8400    13.5930   -30.0960     5.6240     2.9290     2.3810     2.3880
  620.0000     0.1640   151.9540     0.1360     2.2900   141.2130    14.3580   -30.3460     5.6240     2.9840     2.3360     1.9720
  620.5000     0.1650   151.6820     0.1140     2.2150   139.1140    15.4020   -30.5920     5.6240     3.0500     2.9630     2.5340
  621.0000     0.1580   150.5760     0.0840     2.1790   136.6840    15.0210   -30.8280     5.6240     3.1320     3.3180     2.9290
  621.5000     0.1480   149.4700     0.0970     2.2720   134.9850    14.0160   -31.0850     5.6240     3.2140     3.6740     3.9360
  622.0000     0.1330   148.3640     0.1290     2.3510   134.1300    13.2390   -31.2040     5.6240     3.2790     3.9590     4.2460
  622.5000     0.1390   147.2580     0.1020     2.3920   133.2530    13.0910   -31.4400     5.6240     3.6950     4.2000     4.4320
  623.0000     0.1520   146.1520     0.0550     2.3670   133.2230    13.0710   -31.6500     5.6240     4.1110     4.4010     4.5170
  623.5000     0.1680   145.0460     0.0200     2.3590   134.8760    13.0700   -31.8720     5.6240     4.3140     4.6020     4.7520
  624.0000     0.1650   143.9400     0.0030     2.3950   135.2500    13.0700   -31.9750     5.6240     4.5170     4.6390     4.8700
  624.5000     0.1620   142.8340     0.0000     2.4280   133.3220    13.0740   -31.9500     5.6240     4.5170     4.6900     4.8700
  625.0000     0.1580   141.7290    -0.0010     2.4470   133.1780    13.0790   -31.8920     5.6240     4.5170     4.6680     4.8390
  625.5000     0.1550   140.6230     0.0000     2.4480   134.5650    13.0830   -31.0490     5.6240     4.5170     4.6320     4.7880
  626.0000     0.1530   139.5170     0.0010     2.4390   136.5160    13.0870   -30.3630     5.6240     4.4480     4.5960     4.7360
  626.5000     0.1570   138.4110     0.0020     2.4310   136.6110    13.0890   -29.6440     5.6240     4.3790     4.5600     4.6850
  627.0000     0.1650   137.3050     0.0030     2.4260   136.3320    13.0800   -29.6140     5.6240     4.3100     4.5170     4.6330
  627.5000     0.1720   136.1990     0.0060     2.4290   137.6130    13.0710   -29.6080     5.6240     4.1540     4.3790     4.5550
  628.0000     0.1740   135.0930     0.0090     2.4340   139.4120    13.0610   -29.5510     5.6240     3.8690     4.2060     4.4350
  628.5000     0.1680   133.9870     0.0130     2.4310   139.6790    13.0520   -29.4360     5.7340     3.5840     4.0340     4.3160
  629.0000     0.1580   132.8810     0.0190     2.4240   135.7990    13.0750   -29.3220     6.0090     3.2940     3.6690     4.2680
  629.5000     0.1490   131.8740     0.0480     2.3990   132.0520    13.1300   -29.1940     6.2830     3.0020     3.3040     3.8730
  630.0000     0.1400   135.2170     0.0930     2.3280   130.2810    13.2760   -28.7270     6.5580     2.7680     2.8020     3.2810
  630.5000     0.1380   138.2880     0.1380     2.2350   128.5240    14.1900   -28.2300     6.8330     2.7370     2.2080     2.5150
  631.0000     0.1390   141.3580     0.1590     2.1420   127.0890    15.5160   -28.0320     7.1080     2.7160     2.2080     1.8290
  631.5000     0.1430   144.4280     0.1130     2.0520   125.4290    16.0650   -28.1460     7.3830     2.7160     2.3810     1.8290
  632.0000     0.1500   147.4980     0.0680     2.0060   123.9350    16.3390   -28.2190     7.6580     2.7160     2.6130     2.3020
  632.5000     0.1640   150.5680     0.0290     2.0540   124.3180    15.5000   -28.3040     7.9330     2.7790     2.8460     3.0900
  633.0000     0.1770   153.6390     0.0050     2.1520   126.4970    14.3730   -28.3750     8.2070     2.8200     3.0780     4.1110
  633.5000     0.1820   156.7090     0.0010     2.2530   129.5930    13.2770   -28.6200     8.4820     3.1510     3.3540     4.3810
  634.0000     0.1800   159.7790     0.0030     2.3480   131.1110    13.2270   -29.1230     8.7570     3.4270     3.6940     4.5170
  634.5000     0.1770   162.8490     0.0140     2.3870   129.1500    13.1710   -29.6110     9.0320     3.7020     4.0340     4.1890
  635.0000     0.1770   165.9190     0.0290     2.4040   128.3780    13.1610   -29.9900     9.3070     3.8120     3.9590     4.2090
  635.5000     0.1790   168.9900     0.0590     2.4230   131.4260    13.1520   -29.9940     9.5820     3.7410     3.9870     4.2420
  636.0000     0.1770   172.0600     0.0830     2.4230   134.6720    13.1660   -30.0010     9.8570     3.7410     4.0590     4.2680
  636.5000     0.1630   172.3510     0.0950     2.3780   136.3780    13.1830   -29.9960    10.1310     3.8500     4.1310     4.2680
  637.0000     0.1550   172.0390     0.0530     2.3460   133.8140    13.2000   -30.0020    10.4060     3.9590     4.1890     4.2680
  637.5000     0.1520   171.7280     0.0250     2.3470   130.7730    13.2130   -29.9920    10.6810     3.9590     4.1890     4.2960
  638.0000     0.1590   171.4160     0.0090     2.3750   127.8860    13.1800   -30.0090    10.9560     3.9220     4.1110     4.3500
  638.5000     0.1610   171.1050     0.0270     2.4090   125.9130    13.1530   -29.9910    11.2310     3.8210     4.0250     4.2180
  639.0000     0.1530   170.7930     0.0430     2.4340   124.8850    13.1280   -29.9360    11.5060     3.7410     3.9180     4.0910
  639.5000     0.1450   170.4810     0.0410     2.4250   124.8590    13.1200   -29.0780    11.7810     3.6610     3.8120     3.9640
  640.0000     0.1540   170.1700     0.0060     2.4000   126.0520    13.1110   -28.8170    12.0560     3.5810     3.7050     3.8370
  640.5000     0.1640   169.8580    -0.0080     2.3930   127.4560    13.1110   -28.8240    12.3300     3.5020     3.5980     3.7100
  641.0000     0.1670   169.5470    -0.0040     2.3860   127.9930    13.1110   -28.8140    12.6050     3.3570     3.4700     3.5830
  641.5000     0.1650   169.2350     0.0130     2.3830   126.8530    13.1400   -28.8610    12.8800     3.1680     3.2970     3.4560
  642.0000     0.1580   168.9240     0.0770     2.3900   125.8070    13.1800   -28.4510    13.1550     2.9800     3.0810     3.2660
  642.5000     0.1440   168.6120     0.1840     2.4030   127.2690    13.3760   -27.7040    13.4300     2.7920     2.8650     3.0350
  643.0000     0.1320   168.3000     0.2250     2.4080   129.4810    13.5840   -27.2750    13.7050     2.7160     2.6490     2.8040
  643.5000     0.1270   167.9890     0.2040     2.2930   129.8470    14.1520   -27.4610    13.9800     2.6160     2.4580     2.5050
  644.0000     0.1280   167.6770     0.1440     2.2000   128.2100    14.9010   -27.6620    14.2540     2.6160     2.3360     1.8640
  644.5000     0.1310   167.3660     0.0930     2.1260   125.6710    15.6510   -27.9510    14.5290     2.7160     2.3810     1.9780
  645.0000     0.1370   167.0540     0.0460     2.1430   123.6300    16.3470   -28.1840    14.8040     2.8560     2.7160     2.2080
  645.5000     0.1450   166.7420     0.0170     2.1860   123.0890    16.1260   -28.4360    15.0790     2.9950     2.9700     2.9750
  646.0000     0.1580   166.4310    -0.0030     2.2420   124.1080    15.2070   -28.7660    15.3540     3.1340     3.2860     3.7410
  646.5000     0.1640   166.1190    -0.0080     2.3170   127.1070    13.3600   -29.0700    15.6290     3.3370     3.6030     4.4330
  647.0000     0.1550   165.8080     0.0000     2.3920   129.7970    13.2180   -29.4280    15.9040     3.6340     3.8700     4.7790
  647.5000     0.1490   165.4960     0.0150     2.4210   129.7670    13.1920   -29.7050    16.1790     3.8590     4.1360     4.7790
  648.0000     0.1500   165.1850     0.0300     2.4270   128.1190    13.2210   -30.0200    16.4530     3.9770     4.3500     4.7720
  648.5000     0.1510   164.8730     0.0440     2.4230   127.6750    13.2590   -30.0130    16.7280     4.0950     4.4330     4.7600
  649.0000     0.1490   164.5610     0.0470     2.4140   128.2050    13.3010   -29.7340    17.0030     4.1890     4.5170     4.7490
  649.5000     0.1520   164.2500     0.0240     2.4090   128.9680    13.4630   -29.2060    17.2780     4.2490     4.5170     4.7370
