~VERSION INFORMATION
 VERS.                2.0:   CWLS LOG ASCII STANDARD - VERSION 2.0
 WRAP.                 NO:   ONE LINE PER DEPTH STEP
~WELL INFORMATION
#MNEM.UNIT      DATA TYPE    INFORMATION
#----------   ------------   ------------------------------
 STRT.F          740.0000:   START DEPTH
 STOP.F         2749.0000:   STOP DEPTH
 STEP.F            0.5000:   STEP LENGTH
 NULL.          -999.2500:   NO VALUE
 COMP.    FENIX & SCISSON:   COMPANY
 WELL.   FENIX SHX #11-10:   WELL
 FLD .                NPR:   FIELD
 LOC .      S10 T38N R78W:   LOCATION
 CNTY.            NATRONA:   COUNTY
 STAT.            WYOMING:   STATE
 CTRY. UNITED STATES OF AMERICA:   COUNTRY
 SRVC.              WELEX:   SERVICE COMPANY
 DATE.        09-APR-1980:   LOGDATE
 API .     49025108060000:   API NUMBER
~CURVE INFORMATION
#MNEM.UNIT       API CODE    CURVE DESCRIPTION
#----------   ------------   ------------------------------
 DEPT.F                  :   
 GRD .GAPI   45 310 01 00:   GAMMA RAY FROM DENSITY LOG
 CALD.IN     45 280 60 00:   CALIPER FROM DENSITY LOG
 TEND.LBS    45 635 01 00:   TENSION FROM DENSITY LOG
 RHOB.G/C3   45 350 01 00:   BULK DENSITY
 CORR.G/C3   45 356 01 00:   DENSITY CORRECTION
~PARAMETER INFORMATION
#MNEM.UNIT          VALUE    DESCRIPTION
#----------   ------------   ------------------------------
 EKB .F         5287.0000:   Kelly bushing
 EGL .F         5277.0000:   Ground level
 EDF .F            0.0000:   Drilling floor
 EPD .F         5277.0000:   Permanent datum
 TD  .F         2762.0000:   Total depth
 DATE.        09-APR-1980:   Date logged
 CLNT.            A2DTECH:   Client Code
 SL  . 474' FNL & 644' FWL:   Surface Location
 PD  .                 GL:   Permanent Datum
 LMF .                 KB:   Log Measured From
 DMF .                 KB:   Drilling Measured From
 DAPD.F                10:   Feet Above Permanent Datum
 DD  .F              2762:   Depth driller
 DL  .F            2751.5:   Depth logger
 BLI .F              2750:   Bottom log interval
 TLI .F               750:   Top log interval
 CS1 .IN            9.625:   Casing size
 CBD1.      9.625" @ 760':   Casing driller 1
 BS1 .IN             8.75:   Bit size
 BSD1.F              2762:   Depth drilled with bit1
 DFT .                AIR:   Type fluid in hole
 TCS .HRS               3:   Time Circ. stopped
 MRT .F               118:   Maximum recorded temp.
 ENGI.            BENTSEN:   Recorded By
 WITN.           DINSMORE:   Witnessed by
 ORIG.         2.5" PRINT:   Origin of data
 UWI .     49025108060000:   Unique Well ID
 DICO. A2D TECHNOLOGIES, INC.:   Digitizing Company
~OTHER INFORMATION
~A   DEPT       GRD      CALD       TEND       RHOB       CORR   
# ...
 1106.0000    65.1400     8.7980  1102.2040     2.5120     0.0890
 1106.5000    66.0730     8.7990  1102.2040     2.5260     0.1050
 1107.0000    66.3920     8.8290  1102.2040     2.5320     0.0980
 1107.5000    66.3680     8.8610  1102.2040     2.5270     0.0810
 1108.0000    66.3670     8.8680  1102.2090     2.5320     0.0760
 1108.5000    66.3730     8.8340  1102.2140     2.5430     0.0900
 1109.0000    66.3670     8.8040  1102.2050     2.5580     0.1020
 1109.5000    66.3730     8.7720  1102.2360     2.5590     0.1050
 1110.0000    66.3690     8.7600  1102.2111     2.5500     0.1040
 1110.5000    66.6270     8.7680  1102.1870     2.5370     0.0830
 1111.0000    66.9960     8.7750  1102.4010     2.5280     0.0730
 1111.5000    67.3610     8.7810  1100.2300     2.5260     0.0650
 1112.0000    67.7190     8.7880  1095.6740     2.5230     0.0580
 1112.5000    68.0900     8.7940  1091.3390     2.5210     0.0630
 1113.0000    68.4500     8.8010  1087.0140     2.5160     0.0680
 1113.5000    68.7360     8.8080  1082.6400     2.5070     0.0590
 1114.0000    68.6250     8.8140  1078.2430     2.4980     0.0500
 1114.5000    68.5330     8.8210  1073.9821     2.4880     0.0400
 1115.0000    68.4250     8.8270  1069.5551     2.4790     0.0290
 1115.5000    68.3230     8.8350  1064.9440     2.4720     0.0290
 1116.0000    68.2130     8.8310  1065.4460     2.4940     0.0560
 1116.5000    68.1490     8.8150  1078.0890     2.5140     0.0820
 1117.0000    68.1560     8.8010  1090.3690     2.5230     0.0840
 1117.5000    68.1550     8.7870  1102.9620     2.5290     0.0850
 1118.0000    68.1540     8.7730  1115.5179     2.5180     0.0750
 1118.5000    68.1550     8.7590  1127.9840     2.5090     0.0590
 1119.0000    68.1550     8.7450  1140.5649     2.5020     0.0620
 1119.5000    68.1550     8.7300  1153.0930     2.5400     0.0860
 1120.0000    68.1570     8.7160  1165.4670     2.5250     0.0890
 1120.5000    68.1550     8.7020  1178.2531     2.5140     0.0770
 1121.0000    68.1530     8.6870  1182.6689     2.5250     0.0690
 1121.5000    68.1700     8.6820  1182.2200     2.5170     0.0640
 1122.0000    68.0120     8.6980  1182.1010     2.5010     0.0580
 1122.5000    67.7170     8.7130  1182.0670     2.5000     0.0530
 1123.0000    67.4380     8.7270  1181.9020     2.4970     0.0470
 1123.5000    67.1460     8.7420  1181.8080     2.4950     0.0420
 1124.0000    66.8280     8.7570  1181.6970     2.4910     0.0360
 1124.5000    66.4570     8.7720  1181.5820     2.4850     0.0370
 1125.0000    66.0700     8.7860  1181.4790     2.5030     0.0520
 1125.5000    65.6870     8.7970  1181.3770     2.5010     0.0530
 1126.0000    65.2920     8.7970  1181.2750     2.4970     0.0480
 1126.5000    64.9120     8.7980  1181.1730     2.4930     0.0440
 1127.0000    64.5470     8.7970  1181.0699     2.5100     0.0530
 1127.5000    64.0730     8.7970  1180.9680     2.5120     0.0610
 1128.0000    64.6240     8.8030  1180.8660     2.5130     0.0640
 1128.5000    65.9780     8.8290  1180.7629     2.5080     0.0600
 1129.0000    66.4030     8.8540  1180.6610     2.5030     0.0570
 1129.5000    66.3570     8.8800  1180.5590     2.5010     0.0540
 1130.0000    66.3700     8.9070  1180.4561     2.5120     0.0650
 1130.5000    66.3680     8.9180  1180.3540     2.5280     0.0780
 1131.0000    66.3720     8.9170  1180.2520     2.5280     0.0740
 1131.5000    66.3720     8.9180  1180.1500     2.5100     0.0600
 1132.0000    66.3390     8.9070  1180.0470     2.5020     0.0570
 1132.5000    66.7120     8.8830  1179.9449     2.5000     0.0570
 1133.0000    67.7280     8.8600  1179.8430     2.5000     0.0570
 1133.5000    68.6830     8.8370  1179.7400     2.5010     0.0590
 1134.0000    68.4830     8.8160  1179.6379     2.4920     0.0630
 1134.5000    68.2320     8.7960  1179.5360     2.4740     0.0300
 1135.0000    68.3540     8.7760  1179.4330     2.4690     0.0310
 1135.5000    68.7450     8.7540  1179.3311     2.4730     0.0310
 1136.0000    69.0980     8.7330  1179.2290     2.4760     0.0320
 1136.5000    69.2040     8.7270  1179.1270     2.4790     0.0330
 1137.0000    68.6170     8.7600  1179.0240     2.4780     0.0260
 1137.5000    68.0370     8.7950  1178.9220     2.4770     0.0300
 1138.0000    67.4370     8.8090  1178.8199     2.4910     0.0390
 1138.5000    66.8440     8.8230  1178.7170     2.5030     0.0480
 1139.0000    66.2510     8.8350  1178.6150     2.5050     0.0510
 1139.5000    65.6540     8.8480  1178.5129     2.5060     0.0550
 1140.0000    65.0650     8.8600  1178.4100     2.5050     0.0560
 1140.5000    64.4620     8.8740  1178.3080     2.5010     0.0440
 1141.0000    63.8720     8.8630  1178.2061     2.4970     0.0410
 1141.5000    63.4120     8.8410  1178.1040     2.5060     0.0540
 1142.0000    63.5840     8.8210  1178.0010     2.5180     0.0670
 1142.5000    63.7170     8.8000  1177.8990     2.5300     0.0800
 1143.0000    63.8820     8.8100  1177.7970     2.5360     0.0920
 1143.5000    64.2030     8.8230  1177.6940     2.5250     0.0820
 1144.0000    64.8490     8.8370  1177.5920     2.5090     0.0730
 1144.5000    65.5470     8.8500  1177.4900     2.4950     0.0610
 1145.0000    65.6100     8.8640  1177.3870     2.4800     0.0510
 1145.5000    65.1960     8.8790  1177.2850     2.4610     0.0320
 1146.0000    64.8830     8.9140  1177.1830     2.4680     0.0150
 1146.5000    64.6740     8.9470  1177.0811     2.4850     0.0280
 1147.0000    65.7890     8.9850  1176.9780     2.5010     0.0430
 1147.5000    66.7600     8.9760  1176.8760     2.5030     0.0410
 1148.0000    67.8100     8.9320  1176.7740     2.4970     0.0360
 1148.5000    68.3960     8.8930  1176.6710     2.4900     0.0310
 1149.0000    68.7620     8.8550  1176.5690     2.4950     0.0340
 1149.5000    69.1290     8.8130  1176.4670     2.5000     0.0450
 1150.0000    69.4830     8.8010  1176.3640     2.5000     0.0470
 1150.5000    69.8680     8.8110  1176.2620     2.4940     0.0420
 1151.0000    70.2130     8.8200  1176.1600     2.4880     0.0380
 1151.5000    70.4520     8.8280  1176.0580     2.4880     0.0340
 1152.0000    69.4710     8.8370  1175.9550     2.4930     0.0400
 1152.5000    68.8170     8.8460  1175.8530     2.4980     0.0520
 1153.0000    69.1300     8.8540  1175.7510     2.5010     0.0530
 1153.5000    69.4140     8.8630  1175.6479     2.5030     0.0530
 1154.0000    69.7890     8.8730  1175.5460     2.5050     0.0570
 1154.5000    69.6610     8.8690  1175.4440     2.5130     0.0660
 1155.0000    68.7390     8.8420  1175.3409     2.5210     0.0670
 1155.5000    67.8750     8.8160  1175.2390     2.5190     0.0610
 1156.0000    67.3120     8.7910  1175.1370     2.5160     0.0570
 1156.5000    66.9210     8.7640  1175.0350     2.5110     0.0540
 1157.0000    66.5180     8.7390  1174.9320     2.5120     0.0580
 1157.5000    66.1580     8.7210  1174.8300     2.5170     0.0630
 1158.0000    65.8380     8.7450  1174.7280     2.5200     0.0600
 1158.5000    66.8140     8.7660  1174.6250     2.4980     0.0460
 1159.0000    67.7030     8.7890  1174.5229     2.4770     0.0340
 1159.5000    68.6700     8.8100  1174.4210     2.4690     0.0230
 1160.0000    67.9690     8.8350  1174.3190     2.4830     0.0370
 1160.5000    67.2760     8.8310  1174.2159     2.5050     0.0520
 1161.0000    66.4380     8.8240  1174.1140     2.5230     0.0660
 1161.5000    67.0020     8.8150  1174.0120     2.5410     0.0800
 1162.0000    67.6830     8.8080  1173.9091     2.5340     0.0720
 1162.5000    68.4000     8.8000  1173.8070     2.5130     0.0610
 1163.0000    69.1090     8.7920  1173.7050     2.4940     0.0500
 1163.5000    69.3670     8.7850  1173.6021     2.4740     0.0380
 1164.0000    69.3420     8.7770  1173.5000     2.4600     0.0270
 1164.5000    69.3280     8.7690  1173.3979     2.4600     0.0180
 1165.0000    68.9730     8.7610  1173.2960     2.4810     0.0330
 1165.5000    68.5920     8.7540  1173.1930     2.5010     0.0540
 1166.0000    68.2010     8.7460  1173.0909     2.5190     0.0760
 1166.5000    67.8030     8.7380  1172.9890     2.5290     0.0810
