~VERSION INFORMATION
 VERS.                2.0:   CWLS LOG ASCII STANDARD - VERSION 2.0
 WRAP.                 NO:   ONE LINE PER DEPTH STEP
~WELL INFORMATION
#MNEM.UNIT      DATA TYPE    INFORMATION
#----------   ------------   ------------------------------
 STRT.F         2200.0000:   START DEPTH
 STOP.F         2735.0000:   STOP DEPTH
 STEP.F            0.5000:   STEP LENGTH
 NULL.          -999.2500:   NO VALUE
 COMP.          U.S. NAVY:   COMPANY
 WELL.       U.S. #403-20:   WELL
 FLD .        TEAPOT DOME:   FIELD
 LOC .      S20 T39N R78W:   LOCATION
 CNTY.            NATRONA:   COUNTY
 STAT.            WYOMING:   STATE
 CTRY. UNITED STATES OF AMERICA:   COUNTRY
 SRVC.         MCCULLOUGH:   SERVICE COMPANY
 DATE.        28-SEP-1965:   LOGDATE
 API .     49025095330000:   API NUMBER
~CURVE INFORMATION
#MNEM.UNIT       API CODE    CURVE DESCRIPTION
#----------   ------------   ------------------------------
 DEPT.F                  :   
 GR  .GAPI   30 310 01 00:   GAMMA RAY
 CALI.IN     70 280 01 00:   CALIPER
~PARAMETER INFORMATION
#MNEM.UNIT          VALUE    DESCRIPTION
#----------   ------------   ------------------------------
 EKB .F            0.0000:   Kelly bushing
 EGL .F            0.0000:   Ground level
 EDF .F            0.0000:   Drilling floor
 TD  .F         2749.0000:   Total depth
 DATE.        28-SEP-1965:   Date logged
 CLNT.            A2DTECH:   Client Code
 PD  .                 GL:   Permanent Datum
 EPD .F                 0:   Elevation Permanent Datum
 LMF .                 GL:   Log Measured From
 DMF .                 GL:   Drilling Measured From
 DD  .F              2749:   Depth driller
 DL  .F              2731:   Depth logger
 BLI .F              2729:   Bottom log interval
 TLI .F              2200:   Top log interval
 CS1 .IN           5.3125:   Casing size
 CBD1.    5.3125" @ 2720':   Casing driller 1
 BS1 .IN                5:   Bit size
 BSD1.F              2749:   Depth drilled with bit1
 DFT .              WATER:   Type fluid in hole
 TCS .HRS               1:   Time Circ. stopped
 LUN .               2146:   Logging unit number
 ENGI.        FITZSIMMOMS:   Recorded By
 ORIG.           5" PRINT:   Origin of data
 UWI .     49025095330000:   Unique Well ID
 DICO. A2D TECHNOLOGIES, INC.:   Digitizing Company
~OTHER INFORMATION
~A  DEPT         GR      CALI   
# ...
 2564.5000   111.8360     5.1560
 2565.0000   110.2590     5.1570
 2565.5000   108.4750     5.1580
 2566.0000   107.2090     5.1600
 2566.5000   105.0640     5.1610
 2567.0000   108.7750     5.1620
 2567.5000   109.5310     5.1630
 2568.0000   106.4370     5.1640
 2568.5000   103.4250     5.1650
 2569.0000   100.5540     5.1660
 2569.5000   100.6950     5.1660
 2570.0000   102.0090     5.1660
 2570.5000   107.9760     5.1670
 2571.0000   109.3690     5.1670
 2571.5000   101.7920     5.1670
 2572.0000   104.9720     5.1680
 2572.5000   108.5810     5.1680
 2573.0000   107.6470     5.1690
 2573.5000   109.5440     5.1690
 2574.0000   108.3110     5.1690
 2574.5000   104.1490     5.1700
 2575.0000   104.2920     5.1700
 2575.5000   105.6820     5.1700
 2576.0000    97.4360     5.1710
 2576.5000   101.8780     5.1710
 2577.0000    97.0940     5.1710
 2577.5000   100.8840     5.1720
 2578.0000   109.1430     5.1720
 2578.5000   108.0330     5.1730
 2579.0000   109.2830     5.1730
 2579.5000   107.9960     5.1730
 2580.0000   110.6930     5.1740
 2580.5000   105.9870     5.1740
 2581.0000   107.0010     5.1740
 2581.5000   104.4030     5.1730
 2582.0000   115.1090     5.2510
 2582.5000   121.4080     5.2740
 2583.0000   111.2330     5.1770
 2583.5000   104.9080     5.1740
 2584.0000   101.9220     5.1750
 2584.5000   104.7650     5.1750
 2585.0000   107.9750     5.1750
 2585.5000   110.8760     5.1750
 2586.0000   113.6490     5.1740
 2586.5000   108.6030     5.1740
 2587.0000   105.9290     5.1740
 2587.5000   107.4670     5.1730
 2588.0000   110.0530     5.1730
 2588.5000   120.6250     5.1730
 2589.0000   121.7670     5.1730
 2589.5000   116.8830     5.1720
 2590.0000   112.0650     5.1720
 2590.5000   120.5460     5.1720
 2591.0000   119.0110     5.1710
 2591.5000   112.5520     5.1710
 2592.0000   113.5710     5.1710
 2592.5000   111.2040     5.1700
 2593.0000   110.3170     5.1700
 2593.5000   115.1760     5.1700
 2594.0000   113.3010     5.1700
 2594.5000   110.6710     5.1690
 2595.0000   104.8550     5.1690
 2595.5000    98.1370     5.1690
 2596.0000   103.5320     5.1680
 2596.5000   101.2330     5.1680
 2597.0000    98.9940     5.1680
 2597.5000   103.5820     5.1670
 2598.0000   108.0190     5.1670
 2598.5000   108.2180     5.1670
 2599.0000   107.8640     5.1670
 2599.5000   105.2390     5.1660
 2600.0000   104.4480     5.1660
 2600.5000   110.6670     5.1660
 2601.0000   111.6590     5.1650
 2601.5000   109.7910     5.1650
 2602.0000   110.4710     5.1690
 2602.5000   114.1650     5.1730
 2603.0000   108.9860     5.1770
 2603.5000   104.8670     5.1800
 2604.0000   108.8640     5.1840
 2604.5000   103.9110     5.1850
 2605.0000   104.5480     5.1850
 2605.5000   106.0980     5.1890
 2606.0000   113.3610     5.2630
 2606.5000   115.2470     5.1760
 2607.0000   113.9580     5.1650
 2607.5000   110.6960     5.1580
 2608.0000   110.5720     5.1520
 2608.5000   116.7240     5.1460
 2609.0000   111.3160     5.1400
 2609.5000   107.3270     5.1360
 2610.0000   102.8520     5.1370
 2610.5000   100.1430     5.1390
 2611.0000   107.1940     5.1400
 2611.5000   106.1940     5.1420
 2612.0000   114.2580     5.1440
 2612.5000   121.1090     5.1450
 2613.0000   114.4200     5.1560
 2613.5000   112.1660     5.1720
 2614.0000   107.0560     5.1790
 2614.5000   105.3530     5.1450
 2615.0000   103.3450     5.1250
 2615.5000   103.1780     5.1260
 2616.0000   104.4780     5.1260
 2616.5000   103.9890     5.1260
 2617.0000   106.2430     5.1250
 2617.5000   107.0260     5.1250
 2618.0000   107.9790     5.1250
 2618.5000   108.8370     5.1250
 2619.0000   114.9830     5.1240
 2619.5000   111.3210     5.1240
 2620.0000   101.2390     5.1230
 2620.5000   102.7920     5.1230
 2621.0000   102.0400     5.1220
 2621.5000   103.6860     5.1220
 2622.0000    99.7040     5.1210
 2622.5000   101.2480     5.1210
 2623.0000   103.2360     5.1200
 2623.5000   102.1350     5.1200
 2624.0000   102.0950     5.1190
 2624.5000   102.9230     5.1190
 2625.0000   105.0790     5.1190
 2625.5000   101.7940     5.1180
 2626.0000   105.9240     5.1180
 2626.5000   107.9790     5.1170
 2627.0000   107.4960     5.1170
 2627.5000   106.8560     5.1160
 2628.0000   101.7200     5.1150
 2628.5000   106.2020     5.1320
 2629.0000   105.7560     5.3200
 2629.5000   106.0770     5.1820
 2630.0000   109.4780     5.1420
 2630.5000   113.2890     5.1350
 2631.0000   108.8140     5.1350
 2631.5000   104.0780     5.1350
 2632.0000    99.7830     5.1360
 2632.5000   101.4260     5.1380
 2633.0000   103.7270     5.1400
 2633.5000   102.5120     5.1420
 2634.0000   104.6080     5.1440
 2634.5000   106.1120     5.1450
 2635.0000   102.5630     5.1450
 2635.5000   102.6130     5.1450
 2636.0000   100.1310     5.1450
 2636.5000   101.3230     5.1450
 2637.0000    98.0070     5.1450
 2637.5000    96.9140     5.1450
 2638.0000    97.5770     5.1450
 2638.5000    98.9450     5.1450
 2639.0000   101.9630     5.1460
 2639.5000   105.8170     5.1470
 2640.0000   111.3840     5.1470
 2640.5000   116.7440     5.1480
 2641.0000   114.2140     5.1490
 2641.5000   112.7300     5.1500
 2642.0000   111.2350     5.1500
 2642.5000   116.8960     5.1510
 2643.0000   113.7270     5.1520
 2643.5000   111.7030     5.1530
 2644.0000   115.6290     5.1530
 2644.5000   111.8830     5.1540
 2645.0000   109.9200     5.1550
 2645.5000   102.7570     5.1560
 2646.0000   102.2600     5.1560
 2646.5000   101.6720     5.1570
 2647.0000   105.1360     5.1580
 2647.5000   109.7860     5.1590
 2648.0000   107.0340     5.1600
 2648.5000   104.3930     5.1600
 2649.0000   105.7100     5.1610
 2649.5000   107.7140     5.1620
 2650.0000   106.8460     5.1630
 2650.5000   104.6090     5.1630
 2651.0000    97.2000     5.1640
 2651.5000    89.4960     5.1650
 2652.0000    83.6500     5.2000
 2652.5000    91.8880     5.2330
 2653.0000   101.9080     5.1830
 2653.5000   108.6520     5.1550
 2654.0000   109.0460     5.1550
 2654.5000   115.0780     5.1550
 2655.0000   115.6670     5.1550
 2655.5000   112.1510     5.1550
 2656.0000   102.8170     5.1550
 2656.5000   105.8020     5.1550
 2657.0000   107.1180     5.1550
 2657.5000   103.3500     5.1550
 2658.0000   103.8900     5.1550
 2658.5000   104.1800     5.1470
 2659.0000   104.1700     5.1430
 2659.5000   105.5630     5.1350
 2660.0000   106.5160     5.1280
 2660.5000   109.6290     5.1260
 2661.0000   107.3760     5.1260
 2661.5000   104.5530     5.1250
 2662.0000   103.5800     5.1250
 2662.5000   108.0770     5.1250
 2663.0000   110.2040     5.1250
 2663.5000   106.4730     5.1250
 2664.0000   102.7190     5.1250
 2664.5000    98.9160     5.1260
 2665.0000    98.2980     5.1150
 2665.5000    98.5950     5.1150
 2666.0000   103.6760     5.1160
 2666.5000    99.6930     5.1160
 2667.0000   103.0390     5.1170
 2667.5000   107.1720     5.1190
 2668.0000   107.7720     5.1210
 2668.5000   113.4170     5.1230
 2669.0000   110.5270     5.1250
 2669.5000   112.1630     5.1270
 2670.0000   114.8670     5.1290
 2670.5000   105.5200     5.1310
 2671.0000    97.9780     5.1320
 2671.5000    97.9800     5.1340
 2672.0000   102.0550     5.1360
 2672.5000   111.6430     5.1380
 2673.0000   127.8020     5.1400
 2673.5000   124.6210     5.1420
 2674.0000   110.1720     5.1440
 2674.5000    98.3780     5.1620
 2675.0000   102.4740     5.2520
 2675.5000    99.0310     5.1920
 2676.0000    95.4000     5.1650
 2676.5000    95.2610     5.1590
 2677.0000    93.6760     5.1520
 2677.5000    94.5840     5.1450
 2678.0000    99.3600     5.1450
 2678.5000   101.1100     5.1450
 2679.0000   107.8380     5.1450
 2679.5000   103.9290     5.1440
 2680.0000    98.8690     5.1430
 2680.5000    99.1930     5.1420
 2681.0000   104.1970     5.1410
 2681.5000   105.9910     5.1400
 2682.0000   105.6200     5.1390
 2682.5000    99.0260     5.1380
 2683.0000    98.1510     5.1370
 2683.5000   107.0050     5.1360
 2684.0000   114.2090     5.1350
 2684.5000   123.6930     5.1330
 2685.0000   132.6190     5.1310
 2685.5000   131.1030     5.1290
