~VERSION INFORMATION
 VERS.                2.0:   CWLS LOG ASCII STANDARD - VERSION 2.0
 WRAP.                 NO:   ONE LINE PER DEPTH STEP
~WELL INFORMATION
#MNEM.UNIT      DATA TYPE    INFORMATION
#----------   ------------   ------------------------------
 STRT.F            0.0000:   START DEPTH
 STOP.F          640.0000:   STOP DEPTH
 STEP.F            0.5000:   STEP LENGTH
 NULL.          -999.2500:   NO VALUE
 COMP.       FLUOR DANIEL:   COMPANY
 WELL.  FLUOR " X" #45-27:   WELL
 FLD .                NPR:   FIELD
 LOC .      S27 T39N R78W:   LOCATION
 CNTY.            NATRONA:   COUNTY
 STAT.            WYOMING:   STATE
 CTRY. UNITED STATES OF AMERICA:   COUNTRY
 SRVC.      WESTERN ATLAS:   SERVICE COMPANY
 DATE.        11-MAY-1996:   LOGDATE
 API .     49025227900000:   API NUMBER
~CURVE INFORMATION
#MNEM.UNIT       API CODE    CURVE DESCRIPTION
#----------   ------------   ------------------------------
 DEPT.F                  :   
 GRR .GAPI   07 310 01 00:   GAMMA RAY FROM RESISTIVITY
 RILD.OHMM   07 120 46 00:   INDUCTION LOG DEEP RESISTIVITY
 RILM.OHMM   07 120 44 00:   INDUCTION LOG MEDIUM RESISTIVITY
 TENR.LBS    07 635 01 00:   TENSION
~PARAMETER INFORMATION
#MNEM.UNIT          VALUE    DESCRIPTION
#----------   ------------   ------------------------------
 EKB .F         5058.0000:   Kelly bushing
 EGL .F         5048.0000:   Ground level
 EDF .F         5057.0000:   Drilling floor
 EPD .F         5048.0000:   Permanent datum
 TD  .F          632.0000:   Total depth
 DATE.        11-MAY-1996:   Date logged
 CLNT.            A2DTECH:   Client Code
 SL  . 2250' FSL & 2122' FWL:   Surface Location
 PD  .                 GL:   Permanent Datum
 LMF .                 KB:   Log Measured From
 DMF .                 KB:   Drilling Measured From
 DAPD.F                10:   Feet Above Permanent Datum
 DD  .F               632:   Depth driller
 DL  .F               631:   Depth logger
 BLI .F               620:   Bottom log interval
 CS1 .IN            9.625:   Casing size
 CBD1.       9.625" @ 53':   Casing driller 1
 CBL1.F                53:   Casing logger 1
 BS1 .IN             8.75:   Bit size
 BSD1.F               632:   Depth drilled with bit1
 DFT .                AIR:   Type fluid in hole
 LUN .            HL 6532:   Logging unit number
 LUL .             CASPER:   Logging unit location
 ORIG.         2.5" PRINT:   Origin of data
 UWI .     49025227900000:   Unique Well ID
 DICO. A2D TECHNOLOGIES, INC.:   Digitizing Company
 TLI .                620:   Top log interval
~OTHER INFORMATION
~A    DEPT      GRR      RILD       RILM       TENR   
# ...
  584.0000    68.6770    17.6550    18.2440    71.6090
  584.5000    68.7680    17.0550    18.0050    72.9870
  585.0000    67.5700    16.6730    17.7530    74.3650
  585.5000    65.6700    16.2910    17.5010    75.7430
  586.0000    61.6740    15.9090    17.2480    77.1210
  586.5000    61.3010    15.7400    16.9960    78.4990
  587.0000    64.8810    15.7260    16.7440    79.9250
  587.5000    67.8650    15.7120    16.6410    81.4270
  588.0000    71.1290    15.6980    16.6410    82.9280
  588.5000    71.9770    15.6840    16.6410    84.4300
  589.0000    71.6600    15.6690    16.6410    85.9310
  589.5000    70.8000    15.6550    16.6410    87.4330
  590.0000    70.0320    15.6410    16.6410    88.9340
  590.5000    69.2700    15.6270    16.6410    90.4360
  591.0000    68.4030    15.6130    16.6410    91.9370
  591.5000    68.8000    15.5980    16.6410    93.4380
  592.0000    71.2780    15.5840    16.6410    94.9400
  592.5000    74.1740    15.5700    16.6410    96.4410
  593.0000    76.8940    15.5560    16.5390    97.9430
  593.5000    76.1810    15.5420    16.4220    99.4440
  594.0000    72.9070    15.5280    16.3070   100.9460
  594.5000    70.1880    15.5140    16.1910   102.4470
  595.0000    68.6320    15.4990    16.0750   103.9490
  595.5000    67.0760    15.4860    15.9640   105.4500
  596.0000    65.9230    15.4650    15.7220   106.9520
  596.5000    67.3890    15.4750    15.4650   108.4530
  597.0000    69.9150    15.5200    15.5400   109.9550
  597.5000    72.8580    15.5610    15.6180   111.4560
  598.0000    72.3150    15.6030    15.6980   112.9580
  598.5000    68.9680    15.6460    15.7840   114.4590
  599.0000    67.8170    15.6880    15.8780   115.9610
  599.5000    66.7120    15.7310    15.9730   117.4620
  600.0000    66.7510    15.7730    16.0670   119.2610
  600.5000    68.5460    15.8160    16.1620   121.1200
  601.0000    70.3710    15.8580    16.2560   123.4380
  601.5000    70.3360    15.9010    16.3510   125.7570
  602.0000    70.1020    15.9430    16.4460   128.0750
  602.5000    69.9330    15.9850    16.5400   130.3940
  603.0000    74.1040    16.0280    16.6350   132.7120
  603.5000    76.1050    16.0710    16.7300   135.0300
  604.0000    75.1940    16.1130    16.8240   137.3490
  604.5000    74.7420    16.1560    16.9190   139.6670
  605.0000    75.8060    16.1990    16.9510   141.9860
  605.5000    76.8560    16.2400    16.8670   144.3040
  606.0000    76.2160    16.2830    16.7700   146.6230
  606.5000    75.4620    16.3380    16.6740   148.9410
  607.0000    75.4010    16.2480    16.5780   151.2590
  607.5000    75.4000    15.9370    16.4820   153.5780
  608.0000    75.4290    15.6260    16.3850   155.8960
  608.5000    75.3410    15.3150    16.1600   158.2150
  609.0000    76.0340    15.0040    15.8100   160.5330
  609.5000    77.2230    14.6930    15.4610   162.8520
  610.0000    78.5740    14.3820    15.1110   165.1700
  610.5000    79.4460    14.0700    14.7610   167.4880
  611.0000    78.6170    13.7590    14.4120   169.8070
  611.5000    78.2170    13.4480    14.0620   172.1250
  612.0000    77.5390    13.1370    13.7130   174.4440
  612.5000    76.3860    12.8260    13.3630   176.7620
  613.0000    77.9300    12.6310    13.0130   179.0810
  613.5000    50.9310    12.5970    12.8650   181.3990
  614.0000     3.3820    12.5390    13.0240   183.7170
  614.5000  -999.2500    12.4820    13.1590   186.0360
  615.0000  -999.2500    12.4240    13.2930   188.3540
  615.5000  -999.2500  -999.2500    13.3470   190.6730
  616.0000  -999.2500  -999.2500  -999.2500   192.9910
  616.5000  -999.2500  -999.2500  -999.2500   195.3100
  617.0000  -999.2500  -999.2500  -999.2500   197.6280
  617.5000  -999.2500  -999.2500  -999.2500   199.9460
  618.0000  -999.2500  -999.2500  -999.2500   202.2650
  618.5000  -999.2500  -999.2500  -999.2500   204.5830
  619.0000  -999.2500  -999.2500  -999.2500   206.9020
  619.5000  -999.2500  -999.2500  -999.2500   209.2200
  620.0000  -999.2500  -999.2500  -999.2500   211.5390
  620.5000  -999.2500  -999.2500  -999.2500   213.8570
  621.0000  -999.2500  -999.2500  -999.2500   216.1750
  621.5000  -999.2500  -999.2500  -999.2500   218.4940
  622.0000  -999.2500  -999.2500  -999.2500   220.8120
  622.5000  -999.2500  -999.2500  -999.2500   223.1310
  623.0000  -999.2500  -999.2500  -999.2500   225.4490
  623.5000  -999.2500  -999.2500  -999.2500   227.7680
  624.0000  -999.2500  -999.2500  -999.2500   230.0860
  624.5000  -999.2500  -999.2500  -999.2500   232.4040
  625.0000  -999.2500  -999.2500  -999.2500   234.7230
  625.5000  -999.2500  -999.2500  -999.2500   237.0410
  626.0000  -999.2500  -999.2500  -999.2500   239.0220
  626.5000  -999.2500  -999.2500  -999.2500   242.8590
  627.0000  -999.2500  -999.2500  -999.2500   246.2080
  627.5000  -999.2500  -999.2500  -999.2500   249.5560
  628.0000  -999.2500  -999.2500  -999.2500   252.9050
  628.5000  -999.2500  -999.2500  -999.2500   256.2540
  629.0000  -999.2500  -999.2500  -999.2500   258.9820
  629.5000  -999.2500  -999.2500  -999.2500   219.0620
  630.0000  -999.2500  -999.2500  -999.2500   219.0620
  630.5000  -999.2500  -999.2500  -999.2500     1.4940
  631.0000  -999.2500  -999.2500  -999.2500   -80.6770
  631.5000  -999.2500  -999.2500  -999.2500   -90.1130
  632.0000  -999.2500  -999.2500  -999.2500  -100.5980
  632.5000  -999.2500  -999.2500  -999.2500  -111.0820
  633.0000  -999.2500  -999.2500  -999.2500  -121.5660
  633.5000  -999.2500  -999.2500  -999.2500  -126.5950
  634.0000  -999.2500  -999.2500  -999.2500  -137.2930
  634.5000  -999.2500  -999.2500  -999.2500  -147.7770
  635.0000  -999.2500  -999.2500  -999.2500  -160.3590
  635.5000  -999.2500  -999.2500  -999.2500  -163.9800
  636.0000  -999.2500  -999.2500  -999.2500  -168.5080
  636.5000  -999.2500  -999.2500  -999.2500  -173.0350
  637.0000  -999.2500  -999.2500  -999.2500  -177.5620
  637.5000  -999.2500  -999.2500  -999.2500  -220.1200
  638.0000  -999.2500  -999.2500  -999.2500  -220.1200
  638.5000  -999.2500  -999.2500  -999.2500  -220.1200
  639.0000  -999.2500  -999.2500  -999.2500  -220.1200
  639.5000  -999.2500  -999.2500  -999.2500  -220.1200
  640.0000  -999.2500  -999.2500  -999.2500  -220.1200
