~VERSION INFORMATION
 VERS.                2.0:   CWLS LOG ASCII STANDARD - VERSION 2.0
 WRAP.                 NO:   ONE LINE PER DEPTH STEP
~WELL INFORMATION
#MNEM.UNIT      DATA TYPE    INFORMATION
#----------   ------------   ------------------------------
 STRT.F          720.0000:   START DEPTH
 STOP.F         3416.0000:   STOP DEPTH
 STEP.F            0.5000:   STEP LENGTH
 NULL.          -999.2500:   NO VALUE
 COMP.    FENIX & SCISSON:   COMPANY
 WELL.  FENIX "AX" #31-14:   WELL
 FLD .                NPR:   FIELD
 LOC .      S14 T38N R78W:   LOCATION
 CNTY.            NATRONA:   COUNTY
 STAT.            WYOMING:   STATE
 CTRY. UNITED STATES OF AMERICA:   COUNTRY
 SRVC.       SCHLUMBERGER:   SERVICE COMPANY
 DATE.        04-JUN-1981:   LOGDATE
 API .     49025108730000:   API NUMBER
~CURVE INFORMATION
#MNEM.UNIT       API CODE    CURVE DESCRIPTION
#----------   ------------   ------------------------------
 DEPT.F                  :   
 TEND.LBS    45 635 01 00:   TENSION FROM DENSITY LOG
 CORR.G/C3   45 356 01 00:   DENSITY CORRECTION
 RHOB.G/C3   45 350 01 00:   BULK DENSITY
 CALD.IN     45 280 60 00:   CALIPER FROM DENSITY LOG
 GRD .GAPI   45 310 01 00:   GAMMA RAY FROM DENSITY LOG
 SPR .MV     07 010 01 00:   SPONTANEOUS POTENTIAL
 SFL .OHMM   07 220 01 00:   SHALLOW FOCUSED LOG RESISTIVITY
 ILD .OHMM   07 120 46 00:   INDUCTION LOG DEEP RESISTIVITY
 ILM .OHMM   07 120 44 00:   INDUCTION LOG MEDIUM RESISTIVITY
 TENR.LBS    07 635 01 00:   TENSION FROM RESISTIVITY
~PARAMETER INFORMATION
#MNEM.UNIT          VALUE    DESCRIPTION
#----------   ------------   ------------------------------
 EKB .F         5196.0000:   Kelly bushing
 EGL .F         5186.0000:   Ground level
 EDF .F            0.0000:   Drilling floor
 TD  .F         3402.0000:   Total depth
 DATE.        04-JUN-1981:   Date logged
 CLNT.            A2DTECH:   Client Code
 SL  . 377' FWL & 1733' FWL:   Surface Location
 PD  .                 GL:   Permanent Datum
 DD  .F              3400:   Depth driller
 DL  .F              3402:   Depth logger
 BLI .F              3395:   Bottom log interval
 TLI .F               720:   Top log interval
 CS1 .IN            8.625:   Casing size
 CBD1.      8.625" @ 707':   Casing driller 1
 CBL1.F               751:   Casing logger 1
 BS1 .IN            7.875:   Bit size
 BSD1.F              3400:   Depth drilled with bit1
 DFT .                FGM:   Type fluid in hole
 DFD .                8.8:   Density
 DFV .                 55:   Viscosity
 DFPH.                9.5:   pH
 DFL .                  9:   Fluid loss
 MSS .           MUD TANK:   Source of sample
 RMS .OHMM            1.7:   Rm
 MST .F                78:   Rm Meas. temp.
 RMF .OHMM           1.45:   Rmf
 MFST.F                78:   Rmf Meas. temp.
 MFSS.               MEAS:   Source Rmf.
 RMB .OHMM           1.12:   Rm. at BHT
 BHT .F               118:   BHT.
 TCS .HRS            1200:   Time Circ. stopped
 TLAB.HRS            1600:   Time logger at bottom
 MRT .F               118:   Maximum recorded temp.
 LUN .               8043:   Logging unit number
 LUL .             CASPER:   Logging unit location
 ENGI.             LARSON:   Recorded By
 WITN.              FIVAS:   Witnessed by
 ORIG.      2.5" 5" PRINT:   Origin of data
 UWI .     49025108730000:   Unique Well ID
 DICO. A2D TECHNOLOGIES, INC.:   Digitizing Company
 EPD .               5186:   Elevation Permanent Datum
 LMF .                 KB:   Log Measured From
 DMF .                 KB:   Drilling Measured From
 DAPD.                 10:   Feet Above Permanent Datum
~OTHER INFORMATION
~A   DEPT     TEND       CORR       RHOB       CALD         GRD       SPR        SFL        ILD        ILM       TENR   
# ...
 2328.0000  1323.9550     0.0070     2.4870     8.3030   115.2490    -7.1430    12.5950     8.8000     8.4740  1457.9060
 2328.5000  1324.4871     0.0070     2.4880     8.3030   117.2470    -7.1430    12.3810     8.7430     8.3150  1457.9060
 2329.0000  1325.0200     0.0070     2.4850     8.3020   117.9690    -7.1430    11.8440     8.5990     8.1600  1457.9060
 2329.5000  1325.5520     0.0050     2.4860     8.3020   117.7110    -7.1430    11.3070     8.4560     8.0220  1457.9060
 2330.0000  1326.0840     0.0030     2.4890     8.3010   114.6150    -7.1430    10.7710     8.3130     7.9070  1457.9060
 2330.5000  1326.6150     0.0020     2.4890     8.3000   110.0910    -7.1440    10.2340     8.1700     7.7930  1457.9060
 2331.0000  1327.1460     0.0000     2.4840     8.3000   110.1980    -7.1420    10.1200     8.0270     7.6780  1457.9060
 2331.5000  1327.6770    -0.0010     2.4780     8.2990   111.7540    -7.1430     9.9310     7.8830     7.5630  1457.9060
 2332.0000  1328.2080    -0.0020     2.4750     8.2990   113.2610    -7.1460     9.6710     7.7400     7.4480  1457.9060
 2332.5000  1328.7390    -0.0030     2.4750     8.2980   114.7580    -7.1330     9.4040     7.5970     7.3340  1457.9060
 2333.0000  1329.2700    -0.0020     2.4750     8.2980   116.2500    -7.2460     9.1380     7.4250     7.2190  1457.9060
 2333.5000  1329.8010    -0.0010     2.4750     8.2980   117.0610    -7.4510     9.1380     7.4250     7.1500  1457.9060
 2334.0000  1330.3320     0.0010     2.4730     8.2990   117.6530    -7.6410     9.1150     7.4250     7.1500  1457.9060
 2334.5000  1330.8630     0.0020     2.4810     8.3000   116.8670    -7.8300     9.0760     7.4250     7.1500  1457.9060
 2335.0000  1331.3940     0.0020     2.4880     8.3010   115.8980    -8.0240     9.0370     7.4250     7.1500  1457.9060
 2335.5000  1331.9250     0.0030     2.4870     8.3020   114.9260    -8.2160     8.9990     7.4820     7.2240  1457.9060
 2336.0000  1332.4561     0.0020     2.4780     8.3030   113.9550    -8.3640     8.9670     7.5300     7.2850  1457.9060
 2336.5000  1332.9871     0.0000     2.4690     8.3040   112.9860    -8.3650     9.6130     7.5770     7.3460  1457.9060
 2337.0000  1333.5179    -0.0010     2.4610     8.3050   112.2090    -8.3690    10.0430     7.6250     7.4070  1457.9060
 2337.5000  1334.0490    -0.0010     2.4610     8.3060   112.6850    -8.3660    10.2340     7.6730     7.4690  1457.9060
 2338.0000  1334.5800     0.0000     2.4730     8.3070   113.1120    -8.3680    10.1630     7.7110     7.5300  1457.9060
 2338.5000  1335.1110     0.0000     2.4850     8.3080   111.8700    -8.3680    10.0440     7.8580     7.5670  1457.9060
 2339.0000  1335.6420     0.0030     2.4920     8.3090   108.6020    -8.3640     9.9260     7.8580     7.5670  1457.9060
 2339.5000  1336.1730     0.0070     2.4980     8.3100   105.3210    -8.3770     9.8550     7.9080     7.5670  1457.9060
 2340.0000  1336.7040     0.0110     2.5020     8.3110   104.0100    -8.2750    10.0440     7.9490     7.5080  1457.9060
 2340.5000  1337.2350     0.0160     2.5040     8.3120   106.6640    -8.0910    10.2340     8.0070     7.4490  1457.9060
 2341.0000  1337.7660     0.0130     2.4940     8.3130   110.6780    -7.9620    10.2340     7.9580     7.4250  1457.9060
 2341.5000  1338.2970     0.0070     2.4850     8.3140   114.6930    -7.9620    10.0460     7.8760     7.4250  1457.9060
 2342.0000  1338.8280     0.0000     2.4750     8.3150   117.5020    -7.9580     9.8900     7.7930     7.4250  1457.9060
 2342.5000  1339.3590    -0.0070     2.4650     8.3160   117.8930    -7.9600     9.7330     7.7110     7.4250  1457.9060
 2343.0000  1339.8900    -0.0090     2.4580     8.3170   115.4740    -7.9600     9.4900     7.7110     7.4920  1457.9060
 2343.5000  1340.4210    -0.0110     2.4570     8.3190   112.3450    -7.9600     9.6710     7.8580     7.6040  1457.9060
 2344.0000  1340.9520    -0.0090     2.4600     8.3200   108.3550    -7.9580     9.8980     8.0840     7.7160  1457.9060
 2344.5000  1341.4830    -0.0010     2.4680     8.3210   103.5440    -7.9640    10.2780     8.2080     7.8280  1457.9060
 2345.0000  1342.0140     0.0070     2.4760     8.3220   100.9830    -7.9510    10.6570     8.2690     7.9400  1457.9060
 2345.5000  1342.5450     0.0100     2.4850     8.3230   100.5500    -7.9650    11.0370     8.3290     8.0070  1457.9060
 2346.0000  1343.0760     0.0100     2.4850     8.3240   101.8160    -8.0010    11.2130     8.3890     8.0070  1457.9060
 2346.5000  1343.6071     0.0070     2.4800     8.3250   102.8950    -8.4910    11.4610     8.4740     7.9270  1457.9060
 2347.0000  1344.1379     0.0050     2.4750     8.3260   101.7740    -8.9390    11.3540     8.3250     7.7270  1457.9060
 2347.5000  1344.6689     0.0010     2.4710     8.3270    98.1230    -9.2100    11.2470     8.0780     7.5260  1457.9060
 2348.0000  1345.2000    -0.0020     2.4730     8.3280    94.6020    -9.1750    10.6650     7.8310     7.3260  1457.9060
 2348.5000  1345.7310    -0.0020     2.4780     8.3290    93.9060    -9.1840    10.0470     7.5830     7.1260  1457.9060
 2349.0000  1346.2620    -0.0010     2.4810     8.3300    93.6590    -9.1850     9.4290     7.2860     6.8850  1457.9060
 2349.5000  1346.7930     0.0000     2.4870     8.3310    93.3810    -9.1820     8.8100     7.2570     6.8850  1457.9060
 2350.0000  1347.3240     0.0020     2.4940     8.3320    93.0910    -9.1840     8.3150     7.1830     6.8850  1457.9060
 2350.5000  1347.8550     0.0050     2.5010     8.3330    92.8000    -9.1840     8.3150     7.1090     6.8850  1457.9060
 2351.0000  1348.3860     0.0080     2.5060     8.3340    92.0940    -9.1810     8.6770     7.0340     6.8390  1457.9060
 2351.5000  1348.9170     0.0110     2.5060     8.3350    90.9700    -9.1880     9.0410     6.9600     6.7920  1457.9060
 2352.0000  1349.4480     0.0190     2.5080     8.3360    89.8660    -9.1780     9.4610     6.8860     6.7450  1457.9060
 2352.5000  1349.9790     0.0460     2.5290     8.3370    89.2970    -9.1640     9.4060     6.8120     6.6980  1457.9060
 2353.0000  1350.5100     0.0730     2.5540     8.3380    90.4290    -8.7640     9.3120     6.7380     6.6510  1457.9060
 2353.5000  1351.0410     0.0990     2.5710     8.3370    92.5660    -8.3350     8.7400     6.6640     6.6040  1457.9060
 2354.0000  1351.5720     0.1000     2.5720     8.3370    94.7090    -7.9710     8.2430     6.6300     6.5570  1457.9060
 2354.5000  1352.1030     0.0440     2.5170     8.3360    96.8550    -7.9660     7.7110     6.7000     6.5060  1457.9060
 2355.0000  1352.6340     0.0120     2.4920     8.3350    99.0020    -7.9500     7.7110     6.9110     6.7320  1457.9060
 2355.5000  1353.1650     0.0080     2.4890     8.3340   101.1260    -8.0450     8.5630     7.1210     6.9760  1457.9060
 2356.0000  1353.6960     0.0060     2.4930     8.3330   102.2360    -8.3170     9.5450     7.3320     7.2200  1457.9060
 2356.5000  1354.2271     0.0050     2.5010     8.3330   100.8930    -8.5840    10.3250     7.5430     7.4640  1457.9060
 2357.0000  1354.7581     0.0070     2.5090     8.3320    99.5840    -8.8540    10.6290     7.7540     7.7080  1457.9060
 2357.5000  1355.2889     0.0070     2.5140     8.3310    98.2460    -9.1230    10.9330     7.9640     7.9520  1457.9060
 2358.0000  1355.8199     0.0070     2.5160     8.3300    97.3380    -9.3980    11.3900     8.1600     8.1960  1457.9060
 2358.5000  1356.3510     0.0070     2.5160     8.3300    96.4250    -9.5850    11.2910     8.1470     8.4740  1457.9060
 2359.0000  1356.8820     0.0050     2.5140     8.3290    95.5700    -9.5630    10.6510     8.1280     8.3800  1457.9060
 2359.5000  1357.4130     0.0060     2.5120     8.3280    95.5320    -9.5470    10.2200     8.1090     8.2720  1457.9060
 2360.0000  1357.9440     0.0060     2.5100     8.3270    97.2630    -9.5250    10.0430     8.0910     8.1640  1457.9060
 2360.5000  1358.4750     0.0070     2.5090     8.3270   100.7510    -9.5050    10.0930     8.0720     8.0550  1457.9060
 2361.0000  1359.0060     0.0070     2.5070     8.3260   103.8310    -9.4850    10.3100     8.0530     7.9470  1457.9060
