~VERSION INFORMATION
 VERS.                2.0:   CWLS LOG ASCII STANDARD - VERSION 2.0
 WRAP.                 NO:   ONE LINE PER DEPTH STEP
~WELL INFORMATION
#MNEM.UNIT      DATA TYPE    INFORMATION
#----------   ------------   ------------------------------
 STRT.F          197.0000:   START DEPTH
 STOP.F         3238.5000:   STOP DEPTH
 STEP.F            0.5000:   STEP LENGTH
 NULL.          -999.2500:   NO VALUE
 COMP.    FENIX & SCISSON:   COMPANY
 WELL. FENIX 28 "A" #28-11:   WELL
 FLD .              NPR-3:   FIELD
 LOC .      S11 T38N R78W:   LOCATION
 CNTY.            NATRONA:   COUNTY
 STAT.            WYOMING:   STATE
 CTRY. UNITED STATES OF AMERICA:   COUNTRY
 SRVC.              WELEX:   SERVICE COMPANY
 DATE.        25-OCT-1977:   LOGDATE
 API .     49025104350000:   API NUMBER
~CURVE INFORMATION
#MNEM.UNIT       API CODE    CURVE DESCRIPTION
#----------   ------------   ------------------------------
 DEPT.F                  :   
 SPR .MV     07 010 01 00:   SPONTANEOUS POTENTIAL
 TENR.LBS    07 635 01 00:   TENSION FROM RESISTIVITY
 ILM .OHMM   07 120 44 00:   INDUCTION LOG MEDIUM RESISTIVITY
 SGRD.OHMM   07 220 05 00:   SHALLOW SHORT GUARD RESISTIVITY
 ILD .OHMM   07 120 46 00:   INDUCTION LOG DEEP RESISTIVITY
 GRD .GAPI   45 310 01 00:   GAMMA RAY FROM DENSITY LOG
 CALD.IN     45 280 60 00:   CALIPER FROM DENSITY LOG
 CORR.G/C3   45 356 01 00:   DENSITY CORRECTION
 RHOB.G/C3   45 350 01 00:   BULK DENSITY
~PARAMETER INFORMATION
#MNEM.UNIT          VALUE    DESCRIPTION
#----------   ------------   ------------------------------
 EKB .F         5211.0000:   Kelly bushing
 EGL .F         5201.0000:   Ground level
 EDF .F            0.0000:   Drilling floor
 EPD .F         5201.0000:   Permanent datum
 TD  .F         3235.0000:   Total depth
 CLNT.            A2DTECH:   Client Code
 SL  . 330' FSL & 990' FWL:   Surface Location
 PD  .                 GL:   Permanent Datum
 DAPD.F                10:   Feet Above Permanent Datum
 DATE.        25-OCT-1977:   Date Logged [DD-MMM-YYYY]
 DD  .F              3235:   Depth driller
 DL  .F              3231:   Depth logger
 BLI .F              3229:   Bottom log interval
 TLI .F               200:   Top log interval
 CS1 .IN            8.625:   Casing size
 CBD1.      8.625" @ 217':   Casing driller 1
 CBL1.F               217:   Casing logger 1
 BS1 .              7.875:   Bit size
 BSD1.IN             3235:   Depth drilled with bit1
 DFT .            KCL MUD:   Type fluid in hole
 DFD .                8.9:   Density
 DFV .                 35:   Viscosity
 DFPH.               11.5:   pH
 DFL .               16.4:   Fluid loss
 MSS .           FLOWLINE:   Source of sample
 RMS .OHMM           1.18:   Rm
 MST .F                74:   Rm Meas. temp.
 RMF .OHMM           1.74:   Rmf
 MFST.F                74:   Rmf Meas. temp.
 MFSS.               MEAS:   Source Rmf.
 MCSS.               MEAS:   Source Rmc.
 RMB .OHMM           1.15:   Rm. at BHT
 BHT .F               116:   BHT.
 TCS .HRS               3:   Time Circ. stopped
 MRT .F               116:   Maximum recorded temp.
 LUN .               8611:   Logging unit number
 LUL .             CASPER:   Logging unit location
 ENGI.            C. DOAK:   Recorded By
 WITN.      W. PETTINGILL:   Witnessed by
 ORIG.           5" PRINT:   Origin of data
 UWI .     49025104350000:   Unique Well ID
 DICO. A2D TECHNOLOGIES, INC.:   Digitizing Company
~OTHER INFORMATION
~A   DEPT      SPR       TENR        ILM       SGRD        ILD         GRD      CALD       CORR       RHOB   
# ...
 1000.0000   -80.4856   973.0539     5.8005     7.9618     5.5406   108.2683    10.3293     0.0147     2.5120
 1000.5000   -80.4943   959.2345     5.7587     8.0685     5.6205   105.7232    10.3316     0.0106     2.5010
 1001.0000   -80.5030   960.6727     5.7972     8.2335     5.7287   104.1522    10.3338     0.0083     2.4924
 1001.5000   -80.3604   961.8234     5.8759     8.5258     5.8063   103.5005    10.3360     0.0035     2.4945
 1002.0000   -80.3692   962.9740     5.9966     8.7525     5.8832   104.4089    10.3382     0.0018     2.4953
 1002.5000   -80.3579   949.1545     6.1669     8.7634     5.9527   105.0096    10.3365    -0.0029     2.4944
 1003.0000   -80.3401   950.3051     6.3769     8.6411     6.1466   105.2896    10.3351    -0.0062     2.4929
 1003.5000   -80.3223   951.4970     6.5535     8.6999     6.1893   105.2600    10.3338    -0.0110     2.4825
 1004.0000   -80.3045   952.8940     6.5973     8.7582     6.1893   105.1655    10.3324    -0.0111     2.4765
 1004.5000   -80.2867   954.0446     6.4592     8.8785     6.1893   104.5757    10.3310    -0.0112     2.4840
 1005.0000   -80.2711   970.1653     6.3684     8.9380     6.1893   104.2361    10.3297    -0.0113     2.4892
 1005.5000   -80.2821   986.2860     6.3215     8.9362     6.1893   103.8976    10.3283    -0.0114     2.4907
 1006.0000   -80.2908   972.4666     6.2762     8.9344     6.1466   103.8687    10.3266    -0.0131     2.4832
 1006.5000   -80.4509   973.6527     6.2741     8.8710     6.1466   103.8403    10.3252    -0.0117     2.4786
 1007.0000   -80.4599   975.0556     6.2720     8.8080     6.1466   103.8065    10.3241    -0.0118     2.4740
 1007.5000   -80.4705   976.2062     6.2267     8.7454     6.1466   104.0908    10.3225    -0.0122     2.4688
 1008.0000   -80.4793   962.0990     6.1392     8.6230     6.1466   104.4849    10.3211    -0.0167     2.4620
 1008.5000   -80.4880   963.5374     5.9697     8.6213     6.1466   105.2836    10.3198    -0.0246     2.4485
 1009.0000   -80.4962   964.6880     5.8011     8.6196     6.1042   105.9404    10.3184    -0.0294     2.4417
 1009.5000   -80.5055   965.8683     5.6834     8.6178     6.0621   107.0348    10.3170    -0.0311     2.4364
 1010.0000   -80.5144   967.2769     5.6815     8.6760     6.0616   108.0257    10.3154    -0.0312     2.4356
 1010.5000   -80.5252   968.4275     5.6796     8.7346     6.0203   109.5997    10.3140    -0.0282     2.4380
 1011.0000   -80.5339   969.5781     5.6777     8.7327     6.0203   111.0666    10.3128    -0.0252     2.4521
 1011.5000   -80.5426   985.6988     5.6758     8.6704     6.0203   111.9750    10.3114    -0.0222     2.4626
 1012.0000   -80.5514   986.8264     5.6739     8.6088     6.0203   112.3557    10.3099    -0.0177     2.4724
 1012.5000   -80.5601   988.0239     5.6720     8.5477     6.0103   112.5506    10.3085    -0.0160     2.4776
 1013.0000   -80.5689   989.4383     5.6697     8.4284     5.9788   112.5160    10.3072    -0.0148     2.4746
 1013.5000   -80.5779   990.5889     5.6678     8.2535     5.9309   111.5510    10.3058    -0.0165     2.4686
 1014.0000   -80.5885   991.7396     5.6273     8.0234     5.8966   110.7211    10.3041    -0.0136     2.4670
 1014.5000   -80.5973   992.8901     5.6645     7.9140     5.8966   109.6180    10.3027    -0.0121     2.4764
 1015.0000   -80.6060   994.0408     5.7014     7.9674     5.8966   108.6543    10.3016    -0.0107     2.4933
 1015.5000   -80.6148   995.2095     5.6995     8.0212     5.8966   107.6906    10.3002    -0.0077     2.4948
 1016.0000   -80.7748   996.6296     5.7372     8.0757     5.8966   106.4126    10.2985    -0.0047     2.4887
 1016.5000   -80.9349   982.5226     5.7746     8.1863     5.8966   105.6357    10.2973    -0.0049     2.4925
 1017.0000   -81.0970   983.8324     5.7726     8.2988     5.8966   104.7263    10.2959    -0.0050     2.5022
 1017.5000   -80.8032   985.1115     5.8108     8.4757     5.8966   104.4592    10.3102    -0.0051     2.5033
 1018.0000   -80.6585   986.2620     5.8088     8.5285     5.8559   103.8013    10.3087    -0.0053     2.4901
 1018.5000   -80.3646   987.4251     5.8472     8.6457     5.8559   103.4371    10.3071    -0.0054     2.4871
 1019.0000   -80.6781   988.8509     5.8858     8.6435     5.8559   103.1253    10.3058    -0.0055     2.4894
 1019.5000   -80.8382   975.0315     5.9247     8.6418     5.8559   103.0942    10.3204    -0.0056     2.4999
 1020.0000   -81.3011   976.1821     5.9633     8.7001     5.8156   103.0666    10.3187    -0.0026     2.5111
 1020.5000   -81.0091   977.3328     5.9613     8.7588     5.9618   103.0395    10.3173     0.0034     2.5209
 1021.0000   -80.8644   978.4834     5.9593     8.7570     6.0028   103.0109    10.3159     0.0095     2.5118
 1021.5000   -80.8753   979.6407     5.9987     8.7551     6.0073   102.9836    10.3145     0.0047     2.4998
 1022.0000   -81.3379   981.0723     5.9967     8.7531     6.0437   103.5800    10.3129    -0.0031     2.4937
 1022.5000   -80.8928   982.2228     6.0363     8.7515     6.0853   104.4814    10.3275    -0.0064     2.4885
 1023.0000   -80.7423   983.3735     6.0338     8.7496     6.1271   105.3967    10.3259    -0.0065     2.4877
 1023.5000   -80.9125   984.5241     6.0317     8.6875     6.1266   106.6102    10.3403    -0.0066     2.4907
 1024.0000   -80.9212   985.6747     6.0716     8.6853     6.1262   109.0786    10.3387    -0.0083     2.4967
 1024.5000   -81.0812   986.8264     6.0696     8.6839     6.1258   112.4844    10.3373    -0.0084     2.5011
 1025.0000   -80.9365   988.0240     6.0257     8.6819     6.1253   114.0155    10.3359    -0.0085     2.5013
 1025.5000   -80.7940   989.4142     6.0236     8.6801     6.1249   110.2368    10.3345    -0.0087     2.4981
 1026.0000   -80.9562   990.5650     6.0212     8.6784     6.1244   108.0250    10.3329    -0.0088     2.4934
 1026.5000   -81.1357   991.7155     6.0192     8.6767     6.0818   106.8937    10.3315    -0.0082     2.4875
 1027.0000   -80.9759  1007.8362     6.0172     8.6749     6.0814   105.7856    10.3303    -0.0075     2.4860
 1027.5000   -80.6820  1023.9568     6.0152     8.6132     6.0391   105.1340    10.3288    -0.0076     2.4890
 1028.0000   -80.2347  1025.1498     6.0132     8.6112     6.0386   103.7095    10.3275    -0.0077     2.4942
 1028.5000   -81.0021  1011.5756     6.0112     8.5711     5.9965   102.8796    10.3261    -0.0078     2.5025
 1029.0000   -81.3134  1012.7264     6.0087     8.5483     5.9961   102.2359    10.3247    -0.0064     2.5092
 1029.5000   -81.4735   998.6192     6.0067     8.4876     5.9957   101.5843    10.3232    -0.0050     2.5047
 1030.0000   -81.4844   984.7999     6.0047     8.4859     5.9953   101.5601    10.3216    -0.0036     2.5008
 1030.5000   -81.4931   986.2380     6.0027     8.4838     5.9949   101.9758    10.3206    -0.0006     2.4994
 1031.0000   -81.5018   987.4250     6.0007     8.4236     5.9945   102.7493    10.3347     0.0024     2.5009
 1031.5000   -81.5106   988.8268     5.9574     8.4219     5.9941   104.0269    10.3333     0.0069     2.5114
 1032.0000   -81.5193   989.9776     5.9143     8.4202     5.9523   105.2037    10.3318     0.0115     2.5301
 1032.5000   -81.5331   991.1281     5.8307     8.4771     5.9519   106.4656    10.3305     0.0160     2.5399
 1033.0000   -81.5371   992.2789     5.8287     8.4749     5.9104   107.7276    10.3291     0.0220     2.5436
 1033.5000   -81.5477   993.4293     5.8268     8.2900     5.8693   108.8444    10.3277     0.0266     2.5405
 1034.0000   -80.9513   994.6108     5.9065     8.1832     5.8689   108.8167    10.3263     0.0280     2.5258
 1034.5000   -81.1114   996.0185     6.1117     8.0691     5.9503   108.1650    10.3248     0.0279     2.5082
 1035.0000   -81.5740   997.1689     6.3275     8.0118     5.9499   107.0680    10.3233     0.0262     2.5157
 1035.5000   -81.5827   998.3198     6.7279     7.9000     5.9494   106.1339    10.3219     0.0261     2.5232
 1036.0000   -81.5915   999.4011     6.4523     7.8439     5.9490   105.5642    10.3206     0.0244     2.5247
