~VERSION INFORMATION
 VERS.                2.0:   CWLS LOG ASCII STANDARD - VERSION 2.0
 WRAP.                 NO:   ONE LINE PER DEPTH STEP
~WELL INFORMATION
#MNEM.UNIT      DATA TYPE    INFORMATION
#----------   ------------   ------------------------------
 STRT.F          297.0000:   START DEPTH
 STOP.F         2946.0000:   STOP DEPTH
 STEP.F            0.5000:   STEP LENGTH
 NULL.          -999.2500:   NO VALUE
 COMP.    FENIX & SCISSON:   COMPANY
 WELL. FENIX & SCISSON SH "X" #17-10:   WELL
 FLD .             NPR #3:   FIELD
 LOC .      S10 T38N R78W:   LOCATION
 CNTY.            NATRONA:   COUNTY
 STAT.            WYOMING:   STATE
 CTRY. UNITED STATES OF AMERICA:   COUNTRY
 SRVC.       SCHLUMBERGER:   SERVICE COMPANY
 DATE.        05-APR-1977:   LOGDATE
 API .     49025103310000:   API NUMBER
~CURVE INFORMATION
#MNEM.UNIT       API CODE    CURVE DESCRIPTION
#----------   ------------   ------------------------------
 DEPT.F                  :   
 SPR .MV     07 010 01 00:   SPONTANEOUS POTENTIAL
 ILD .OHMM   07 120 46 00:   DEEP INDUCTION RESISTIVITY
 ILM .OHMM   07 120 44 00:   INDUCTION LOG MEDIUM RESISTIVITY
 LL8 .OHMM   07 220 08 00:   LATEROLOG-8 RES.
 CALD.IN     45 280 60 00:   CALIPER FROM DENSITY LOG
 GRD .GAPI   45 310 01 00:   GAMMA RAY FROM DENSITY LOG
 CORR.G/C3   45 356 01 00:   DENSITY CORRECTION
 RHOB.G/C3   45 350 01 00:   BULK DENSITY
~PARAMETER INFORMATION
#MNEM.UNIT          VALUE    DESCRIPTION
#----------   ------------   ------------------------------
 EKB .F         5270.0000:   Kelly bushing
 EGL .F         5260.0000:   Ground level
 TD  .F         2950.0000:   Total depth
 CLNT.            A2DTECH:   Client Code
 SL  . 205' FWL & 1115' FSL:   Surface Location
 DATE.        05-APR-1977:   Date Logged [DD-MMM-YYYY]
 DD  .F              2950:   Depth driller
 DL  .F              2948:   Depth logger
 BLI .F              2946:   Bottom log interval
 TLI .F               310:   Top log interval
 CS1 .              10.75:   Casing size
 CBD1.      10.75" @ 300':   Casing driller 1
 CBL1.IN              310:   Casing logger 1
 BS1 .IN            8.625:   Bit size
 BSD1.F              2950:   Depth drilled with bit1
 DFT .                KCL:   Type fluid in hole
 DFD .                9.0:   Density
 DFV .                 33:   Viscosity
 DFL .                  9:   Fluid loss
 MSS .            MUD PIT:   Source of sample
 RMS .OHMM          0.153:   Rm
 MST .F                60:   Rm Meas. temp.
 RMF .OHMM          0.130:   Rmf
 MFST.F                60:   Rmf Meas. temp.
 MFSS.               MEAS:   Source Rmf.
 RMC .OHMM          0.229:   Rmc
 MCST.F                60:   Rmc Meas. temp.
 MCSS.               CALC:   Source Rmc.
 RMB .OHMM           0.08:   Rm. at BHT
 BHT .F               115:   BHT.
 TCS .HRS               6:   Time Circ. stopped
 MRT .F               115:   Maximum recorded temp.
 LUN .               7689:   Logging unit number
 LUL .               CODY:   Logging unit location
 ENGI.             RASMUS:   Recorded By
 WITN.              LYONS:   Witnessed by
 ORIG.         2.5" PRINT:   Origin of data
 UWI .     49025103310000:   Unique Well ID
 DICO. A2D TECHNOLOGIES, INC.:   Digitizing Company
 PD  .                 GL:   Permanent Datum
 EPD .               5260:   Elevation Permanent Datum
 LMF .                 KB:   Log Measured From
 DMF .                 KB:   Drilling Measured From
 DAPD.                 10:   Feet Above Permanent Datum
~OTHER INFORMATION
~A   DEPT      SPR        ILD        ILM        LL8       CALD        GRD       CORR       RHOB   
# ...
 1147.5000   -51.2193     4.7173     5.3864     9.2379    10.1584   103.6336     0.0301     2.4822
 1148.0000   -51.5059     4.7179     5.4605     9.3656    10.1303   104.5152     0.0362     2.4697
 1148.5000   -51.4957     4.7185     5.5356     9.3663    10.1314   106.5663     0.0406     2.4718
 1149.0000   -51.4868     4.7192     5.6118     9.4958    10.1326   105.1086     0.0437     2.4749
 1149.5000   -51.1838     4.7849     5.6890     9.6271    10.1044   104.2358     0.0469     2.4771
 1150.0000   -51.1750     4.7855     5.6890     9.7602    10.0469   105.4097     0.0535     2.4786
 1150.5000   -51.1661     4.7862     5.6890     9.7609    10.0481   111.4644     0.0629     2.4639
 1151.0000   -50.8632     4.7868     5.6890     9.6291    10.0199   114.6667     0.0565     2.4506
 1151.5000   -50.8543     4.7875     5.6890     9.3701    10.0211   116.4444     0.0393     2.4447
 1152.0000   -50.5513     4.7881     5.6118     9.2435    10.0222   117.6373     0.0316     2.4447
 1152.5000   -50.2484     4.8108     5.6118     9.3714    10.0235   118.2976     0.0282     2.4580
 1153.0000   -49.9454     4.8555     5.6118     9.3720    10.0247   117.4248     0.0247     2.4551
 1153.5000   -49.9366     4.8561     5.6118     9.2454    10.0258   113.3355     0.0275     2.4614
 1154.0000   -49.9277     4.8568     5.6118     9.2461    10.0242   108.6615     0.0455     2.4805
 1154.5000   -50.2130     4.8574     5.6890     9.1212     9.9988   108.0804     0.0572     2.4846
 1155.0000   -50.2059     4.8582     5.6890     9.3746    10.0000   109.2550     0.0535     2.4718
 1155.5000   -50.1971     4.9259     5.6890     9.6350    10.0012   113.6453     0.0369     2.4559
 1156.0000   -50.1882     4.9265     5.6890     9.7682     9.9730   113.6496     0.0376     2.4579
 1156.5000   -50.1794     4.9951     5.6890     9.7689     9.9568   113.3616     0.0452     2.4702
 1157.0000   -50.1706     4.9958     5.6890     9.9040     9.9461   113.6583     0.0528     2.4713
 1157.5000   -50.3285     5.0653     5.7673     9.9047     9.9179   112.2007     0.0586     2.4673
 1158.0000   -50.4470     5.0660     5.7673     9.9053     9.8606   108.1114     0.0489     2.4617
 1158.5000   -50.4383     5.0667     5.8466     9.9060     9.8322   105.1918     0.0475     2.4581
 1159.0000   -50.4294     5.0674     5.8466     9.9067     9.8043   104.3190     0.0520     2.4715
 1159.5000   -50.4206     5.0681     5.8466     9.9074     9.7761   104.9081     0.0642     2.4869
 1160.0000   -50.5686     5.0688     5.8466     9.9080     9.7480   105.7896     0.0757     2.4991
 1160.5000   -50.6971     5.0695     5.8466     9.9087     9.7198   106.6712     0.0551     2.5018
 1161.0000   -50.6882     5.0702     5.8466     9.9094     9.7210   107.8451     0.0600     2.4952
 1161.5000   -50.6794     5.0709     5.8466     9.9101     9.6928   109.0190     0.0655     2.4906
 1162.0000   -50.8196     5.0716     5.7673     9.9107     9.6940   109.6141     0.0671     2.4965
 1162.5000   -51.1030     5.0722     5.6890     9.7769     9.6951   109.9049     0.0650     2.4980
 1163.0000   -51.2412     5.0040     5.6118     9.6449     9.6963   108.9949     0.0591     2.4948
 1163.5000   -51.2324     5.0047     5.6118     9.3855     9.6974   107.5249     0.0527     2.4906
 1164.0000   -51.2235     5.0054     5.5356     9.2587     9.6986   108.9668     0.0453     2.4906
 1164.5000   -51.2147     4.9380     5.5122     9.1337     9.6998   112.9966     0.0383     2.4906
 1165.0000   -51.2058     4.8715     5.4605     9.0103     9.7009   114.6930     0.0348     2.5010
 1165.5000   -51.1971     4.8060     5.4605     8.8887     9.7021   115.1941     0.0406     2.5083
 1166.0000   -51.4824     4.8066     5.4605     8.8893     9.7326   113.9727     0.0598     2.5083
 1166.5000   -51.4735     4.7419     5.4359     8.7692     9.7337   113.7408     0.0582     2.5054
 1167.0000   -51.4647     4.6781     5.3864     8.5334     9.7646   115.2767     0.0493     2.4939
 1167.5000   -51.5833     4.6152     5.3864     8.4181     9.8240   115.0608     0.0454     2.4826
 1168.0000   -51.7412     4.5531     5.3133     8.3044     9.8545   112.8421     0.0440     2.4736
 1168.5000   -51.7324     4.5537     5.2879     8.3050     9.8557   110.9508     0.0449     2.4600
 1169.0000   -51.7235     4.5543     5.2412     8.3056     9.8541   110.2537     0.0471     2.4460
 1169.5000   -51.7147     4.4929     5.2412     8.4204     9.7961   111.3377     0.0309     2.4391
 1170.0000   -51.7059     4.4937     5.2412     8.5369     9.7381   112.3091     0.0235     2.4435
 1170.5000   -51.6971     4.4331     5.2412     8.5374     9.6800   111.4363     0.0251     2.4524
 1171.0000   -51.6882     4.3734     5.2144     8.4222     9.6562   111.9738     0.0251     2.4627
 1171.5000   -51.6794     4.3146     5.1432     8.1775     9.6280   113.1203     0.0237     2.4701
 1172.0000   -51.6706     4.3152     5.0731     7.2998     9.6293   114.6394     0.0237     2.4598
 1172.5000   -51.6618     4.2570     4.9360     7.0527     9.6305   116.6741     0.0267     2.4591
 1173.0000   -51.6529     4.1808     4.8286     7.0532     9.6317   119.0594     0.0312     2.4760
 1173.5000   -51.6441     4.0869     4.7630     7.0537     9.6329   119.0550     0.0342     2.4804
 1174.0000   -51.6353     4.0319     4.7583     7.0542     9.6634   116.0760     0.0373     2.4701
 1174.5000   -51.6265     3.9776     4.6934     7.0547     9.6737   113.1545     0.0358     2.4524
 1175.0000   -51.9132     3.9241     4.5717     7.0552     9.6950   111.7690     0.0270     2.4406
 1175.5000   -51.9030     3.9069     4.4989     7.0557     9.7255   114.1134     0.0256     2.4404
 1176.0000   -51.9882     3.8543     4.3230     7.0562     9.7377   118.5037     0.0301     2.4539
 1176.5000   -52.1808     3.8025     4.1492     7.0567     9.7688   118.2157     0.0390     2.4628
 1177.0000   -52.2608     3.7171     4.0926     6.9371     9.8170   116.7580     0.0330     2.4596
 1177.5000   -52.4572     3.7008     4.0368     6.7740     9.8475   115.3004     0.0287     2.4492
 1178.0000   -52.4471     3.6511     3.9337     6.4345     9.8487   115.3047     0.0210     2.4419
 1178.5000   -52.4382     3.6182     3.9337     6.0519     9.8499   115.8939     0.0170     2.4390
 1179.0000   -52.4294     3.6024     3.9337     5.9100     9.8510   116.1906     0.0230     2.4392
 1179.5000   -52.4206     3.5700     3.9878     5.9105     9.8522   113.5633     0.0228     2.4379
 1180.0000   -52.4902     3.5706     4.0501     6.1425     9.8534   110.3513     0.0201     2.4239
 1180.5000   -52.6982     3.5711     4.1626     6.5531     9.8545   109.1861     0.0187     2.4215
 1181.0000   -52.6883     3.6208     4.2698     6.8961     9.8557   108.3132     0.0221     2.4337
 1181.5000   -52.6794     3.6213     4.3285     6.9656     9.8274   108.3175     0.0247     2.4275
 1182.0000   -52.6705     3.6384     4.3881     6.9661     9.7912   109.7839     0.0262     2.4068
 1182.5000   -52.6618     3.6890     4.3881     6.9666     9.7418   113.5894     0.0288     2.4384
 1183.0000   -52.6529     3.7404     4.3881     6.9936     9.7044   115.3481     0.0500     2.4651
 1183.5000   -52.6441     3.8271     4.3881     7.0634     9.6756   115.9372     0.0634     2.4709
 1184.0000   -52.6353     3.8804     4.3881     7.0639     9.6469   116.2340     0.0649     2.4738
 1184.5000   -52.5658     3.8809     4.3881     7.1616     9.6291   115.9459     0.0561     2.4712
 1185.0000   -52.3235     3.8286     4.3881     7.1621     9.6009   116.2427     0.0473     2.4586
 1185.5000   -52.3147     3.8292     4.3881     7.0652     9.5731   116.8319     0.0281     2.4429
 1186.0000   -52.3059     3.8298     4.3881     7.0658     9.5449   116.5262     0.0207     2.4332
 1186.5000   -52.2971     3.8303     4.3881     7.0663     9.5326   115.9633     0.0267     2.4317
 1187.0000   -52.2882     3.8308     4.3881     7.0668     9.5179   115.6752     0.0327     2.4629
 1187.5000   -52.5743     3.8313     4.3881     7.0673     9.4897   115.9723     0.0386     2.4688
