~VERSION INFORMATION
 VERS.                2.0:   CWLS LOG ASCII STANDARD - VERSION 2.0
 WRAP.                 NO:   ONE LINE PER DEPTH STEP
~WELL INFORMATION
#MNEM.UNIT      DATA TYPE    INFORMATION
#----------   ------------   ------------------------------
 STRT.F         2933.0000:   START DEPTH
 STOP.F         5494.0000:   STOP DEPTH
 STEP.F            0.5000:   STEP LENGTH
 NULL.          -999.2500:   NO VALUE
 COMP.    FENIX & SCISSON:   COMPANY
 WELL. FENIX "TPX" #56-10:   WELL
 FLD .        TEAPOT DOME:   FIELD
 LOC .      S10 T38N R78W:   LOCATION
 CNTY.            NATRONA:   COUNTY
 STAT.            WYOMING:   STATE
 CTRY. UNITED STATES OF AMERICA:   COUNTRY
 SRVC.       SCHLUMBERGER:   SERVICE COMPANY
 DATE.        22-MAY-1978:   LOGDATE
 API .     49025106100000:   API NUMBER
~CURVE INFORMATION
#MNEM.UNIT       API CODE    CURVE DESCRIPTION
#----------   ------------   ------------------------------
 DEPT.F                  :   
 NPHI.DEC    42 890 03 00:   NEUTRON POROSITY SANDSTONE
 GRD .GAPI   45 310 01 00:   GAMMA RAY FROM DENSITY LOG
 CALD.IN     45 280 60 00:   CALIPER FROM DENSITY LOG
 CORR.G/C3   45 356 01 00:   DENSITY CORRECTION
 RHOB.G/C3   45 350 01 00:   BULK DENSITY
 SPR .MV     07 010 01 00:   SPONTANEOUS POTENTIAL
 ILD .OHMM   07 120 46 00:   INDUCTION LOG DEEP RESISTIVITY
 ILM .OHMM   07 120 44 00:   INDUCTION LOG MEDIUM RESISTIVITY
 SFL .OHMM   07 220 01 00:   SHALLOW FOCUSED LOG RESISITIVITY
 DT  .US/F   60 520 00 00:   DELTA TIME
~PARAMETER INFORMATION
#MNEM.UNIT          VALUE    DESCRIPTION
#----------   ------------   ------------------------------
 EKB .F         5212.0000:   Kelly bushing
 EGL .F         5202.0000:   Ground level
 TD  .F         5500.0000:   Total depth
 CLNT.            A2DTECH:   Client Code
 SL  . 1270' FSL & 2130' FEL:   Surface Location
 PD  .                 GL:   Permanent Datum
 EPD .F              5202:   Elevation Permanent Datum
 LMF .                 KB:   Log Measured From
 DMF .                 KB:   Drilling Measured From
 DAPD.F                10:   Feet Above Permanent Datum
 DATE.        22-MAY-1978:   Date Logged [DD-MMM-YYYY]
 DD  .F              5500:   Depth driller
 DL  .F              5499:   Depth logger
 BLI .F              5497:   Bottom log interval
 TLI .F              2971:   Top log interval
 CS1 .IN            8.625:   Casing size
 CBD1.     8.625" @ 2972':   Casing driller 1
 CBL1.F              2971:   Casing logger 1
 BS1 .IN            7.875:   Bit size
 BSD1.F              5500:   Depth drilled with bit1
 DFT .                FGM:   Type fluid in hole
 DFD .                9.3:   Density
 DFV .                 57:   Viscosity
 DFPH.               10.5:   pH
 DFL .                  6:   Fluid loss
 MSS .           MUD TANK:   Source of sample
 RMS .OHMM           0.93:   Rm
 MST .F                58:   Rm Meas. temp.
 RMF .OHMM           0.71:   Rmf
 MFST.F                61:   Rmf Meas. temp.
 MFSS.               MEAS:   Source Rmf.
 RMB .OHMM           0.27:   Rm. at BHT
 BHT .F               198:   BHT.
 TCS .HRS            1500:   Time Circ. stopped
 TLAB.HRS            0100:   Time logger at bottom
 MRT .F               198:   Maximum recorded temp.
 LUN .               8039:   Logging unit number
 LUL .               CSPR:   Logging unit location
 ENGI.          CHALUPSKY:   Recorded By
 WITN.            RHOADES:   Witnessed by
 ORIG.      2.5" 5" PRINT:   Origin of data
 UWI .     49025106100000:   Unique Well ID
 DICO. A2D TECHNOLOGIES, INC.:   Digitizing Company
~OTHER INFORMATION
~A  DEPTH     NPHI        GRD       CALD       CORR       RHOB        SPR        ILD        ILM        SFL         DT
# ...
 3469.0000     0.3050   132.4940    10.4859     0.1548     2.3831   -51.9043     9.2150     9.1314    11.4961    87.5976
 3469.5000     0.2965   132.1627    10.2460     0.1511     2.3637   -51.3109     9.6718     9.4484    11.5728    88.4306
 3470.0000     0.3108   133.0924    10.1261     0.1164     2.3447   -51.0146    10.0811    10.0515    11.8115    89.8651
 3470.5000     0.3208   134.5843    10.2198     0.0796     2.3252   -50.5705     9.8713    10.4011    11.8911    88.9687
 3471.0000     0.3184   134.5915    11.1065     0.0600     2.3189   -50.4234     9.8010    10.6930    11.1694    88.5235
 3471.5000     0.2900   132.1877    11.5115     0.0792     2.3590   -50.4271     9.9360    10.9291    10.1353    86.8753
 3472.0000     0.2746   128.5791    11.2688     0.0985     2.3930   -50.1307    10.8720    11.7626    10.4893    83.2722
 3472.5000     0.2776   125.5730    10.2663     0.1591     2.4081   -50.1344    11.9790    12.1726    13.6404    82.5263
 3473.0000     0.2663   120.1572    10.2180     0.1561     2.3890   -49.8388    12.6616    12.5065    15.0239    82.1494
 3473.5000     0.2373   114.7414    10.6087     0.1324     2.3467   -49.8418    12.9241    13.0309    15.4414    81.6998
 3474.0000     0.2237   106.9159    10.3509     0.0969     2.3698   -50.1433    12.8166    15.0657    16.8903    78.9360
 3474.5000     0.2195   107.5242    10.0087     0.1147     2.3942   -50.5946    12.1359    16.7106    20.3545    77.8126
 3475.0000     0.2237   117.1687    10.1441     0.1206     2.3646   -51.3438    11.3199    15.3657    24.1922    83.7599
 3475.5000     0.2385   120.7890    10.2657     0.1205     2.3306   -51.4952    11.2398    11.9642    24.6929    90.3072
 3476.0000     0.3114   110.8765    10.2042     0.1108     2.2063   -51.3489    11.7964     9.3156    14.1343    89.8620
 3476.5000     0.3091   105.5725    10.0503     0.0811     2.1590   -51.3525    11.9595     7.9930     8.0437    86.9356
 3477.0000     0.2421   105.1440     9.8301     0.0526     2.2625   -51.8032    11.2324     9.1773     9.7608    82.2798
 3477.5000     0.2445   112.6220     9.6502     0.0406     2.3616   -52.2539    10.0497    14.6993    16.3969    76.7219
 3478.0000     0.2546   118.7467     9.5904     0.0721     2.3969   -52.5553     8.8063    14.0208    23.6550    78.5925
 3478.5000     0.2925   121.0221     9.5607     0.1086     2.3882   -52.5583     8.1009    11.1721    22.2207    86.5020
 3479.0000     0.3126   122.1090     9.5309     0.1040     2.3035   -52.8597     8.0417     7.8061    13.3122    90.4834
 3479.5000     0.3441   129.4879     9.5313     0.0741     2.1826   -52.8627     8.3256     7.1292     9.2866    92.2358
 3480.0000     0.3269   135.8241     9.5015     0.0226     2.1999   -52.5677     7.7303     6.8358     7.2871    92.3906
 3480.5000     0.3162   138.9373     9.4718     0.0139     2.2324   -52.2722     6.1317     7.9022     8.3665    82.6231
 3481.0000     0.3186   139.5301     9.5021     0.0177     2.2430   -51.5288     5.2990     7.7891     8.7188    85.4861
 3481.5000     0.3252   139.5373    10.1635     0.0198     2.2510   -50.7855     4.6757     6.5456     8.0131    90.9056
 3482.0000     0.3593   138.3384    10.4651     0.0198     2.2272   -50.7884     4.2714     5.2399     6.8482   101.1371
 3482.5000     0.4186   137.7419    10.6196    -0.0010     2.1508   -50.7913     4.2117     4.4340     5.0427   102.7971
 3483.0000     0.4265   137.5941    10.8151    -0.0187     2.0506   -50.7942     4.3595     3.5007     3.5668   103.4798
 3483.5000     0.3718   138.9585    10.7840    -0.0261     2.0476   -50.7972     4.4506     3.4010     3.4208   102.9504
 3484.0000     0.3386   140.7715    10.3238    -0.0188     2.0776   -50.8001     4.4494     4.1016     3.6904    97.1413
 3484.5000     0.3430   140.7774    10.2312     0.0374     2.2305   -50.2060     4.3872     4.8795     6.2857    89.4397
 3485.0000     0.3440   140.7833    10.2958     0.0788     2.3111   -49.6119     4.4476     5.0145     7.9509    87.4884
 3485.5000     0.3313   138.3796    10.2556     0.0877     2.2637   -49.6149     4.6704     5.1474     8.2292    88.5485
 3486.0000     0.3080   135.9597    10.2259     0.0607     2.2696   -49.9170     5.4587     5.5911     7.3642    89.1559
 3486.5000     0.3059   134.1302    10.1060     0.0309     2.2829   -50.3677     6.3714     6.2438     7.3034    88.7107
 3487.0000     0.3233   132.9755     9.9562     0.0126     2.2814   -51.1168     7.2739     6.5508     7.7255    86.4610
 3487.5000     0.3256   133.9843     9.6562     0.0018     2.2797   -51.1198     7.4775     6.6849     7.7770    85.6384
 3488.0000     0.3110   138.6663     9.4763     0.0103     2.3154   -51.1227     7.2206     6.8218     7.3441    86.7736
 3488.5000     0.3010   140.8253     9.3865     0.0345     2.3199   -51.1256     6.7351     7.4613     9.0699    87.0803
 3489.0000     0.3184   141.0161     9.5381     0.0664     2.3125   -51.1285     6.5493     7.7752    10.2480    89.3418
 3489.5000     0.3392   142.4682    10.1378     0.0832     2.2413   -51.2807     6.6858     7.4532     9.1714    96.8665
 3490.0000     0.3543   143.9752    10.1381     0.0574     2.1926   -51.4329     6.8726     6.1344     6.6693    99.6544
 3490.5000     0.3543   148.5519    10.0175     0.0509     2.2431   -51.7343     7.0646     5.9536     5.8061   100.0363
 3491.0000     0.3444   153.4904     9.6582     0.0810     2.3359   -52.0358     7.1620     7.2411     7.3437    98.5385
 3491.5000     0.3342   157.1752     9.7609     0.1152     2.4045   -52.0394     7.1605     7.9758     9.3537    94.0331
 3492.0000     0.3295   157.7349     9.9591     0.1452     2.4092   -51.5946     7.1590     7.9489     9.8834    90.5617
 3492.5000     0.3224   155.9348     9.8604     0.1165     2.3819   -51.1490     7.1080     7.8516    10.0191    88.4816
 3493.0000     0.3123   154.1335     9.6528     0.0902     2.3863   -50.5556     7.1062     7.9581     9.9466    88.3368
 3493.5000     0.3019   151.7297     9.2019     0.0756     2.3892   -50.2593     7.0556     7.5758    10.0825    87.7415
 3494.0000     0.3046   147.5187     9.1472     0.1015     2.3138   -49.9637     6.7196     6.9188    10.6535    87.5729
 3494.5000     0.3576   138.4885     9.7077     0.1104     2.2073   -49.9674     6.3114     6.3629     9.5312    94.3084
 3495.0000     0.3829   128.8558    10.8573     0.0771     2.1466   -50.1195     6.0109     6.0580     6.2492    95.7292
 3495.5000     0.3402   125.2472    10.9287     0.0316     2.1377   -49.9731     5.4155     5.8484     5.4778    92.9608
 3496.0000     0.3041   128.2652    10.2739     0.0012     2.0815   -49.6776     4.8118     5.8452     5.2177    90.0474
 3496.5000     0.3029   136.7343     9.3313     0.0066     2.1821   -49.6806     4.4263     5.6822     7.0723    86.8763
 3497.0000     0.3462   142.7668     9.2415     0.0321     2.1746   -49.5342     4.2448     5.1536     7.0217    93.9499
 3497.5000     0.3981   143.3431     9.3919     0.0661     2.1362   -49.6871     3.9869     4.2123     5.0708   100.1964
 3498.0000     0.4131   139.1157     9.5724     0.1068     2.0977   -49.6900     3.5671     3.5398     3.7647   103.2099
 3498.5000     0.3889   130.3732     9.6027     0.1515     2.1199   -49.9915     3.6163     3.6940     3.2772    98.4790
 3499.0000     0.3708   118.3976     9.3928     0.2103     2.1832   -50.2929     4.3911     4.1758     3.6096    93.2969
 3499.5000     0.3366   116.8606     9.1829     0.2256     2.2331   -49.9973     4.9400     4.7285     5.2800    86.6111
 3500.0000     0.3188   120.8831     9.1832     0.1718     2.2437   -49.8510     5.3308     5.1718     7.5125    84.0606
 3500.5000     0.3178   120.3173     9.2462     0.0949     2.2023   -50.0032     5.6341     5.3521     7.9380    84.6681
 3501.0000     0.3187   122.9043     9.4402     0.0605     2.2422   -50.3199     5.8724     5.7073     7.9357    86.1778
 3501.5000     0.3149   122.9102     9.8429     0.0559     2.3603   -50.9272     6.0365     6.0978     7.9331    85.7326
 3502.0000     0.3104   125.3257    10.2480     0.1223     2.4327   -51.3852     5.9521     6.1365     8.1536    84.3846
