~VERSION INFORMATION
 VERS.                2.0:   CWLS LOG ASCII STANDARD - VERSION 2.0
 WRAP.                 NO:   ONE LINE PER DEPTH STEP
~WELL INFORMATION
#MNEM.UNIT      DATA TYPE    INFORMATION
#----------   ------------   ------------------------------
 STRT.F          200.0000:   START DEPTH
 STOP.F         3098.0000:   STOP DEPTH
 STEP.F            0.5000:   STEP LENGTH
 NULL.          -999.2500:   NO VALUE
 COMP.    FENIX & SCISSON:   COMPANY
 WELL.   FENIX "AX" #74-3:   WELL
 FLD .              N P R:   FIELD
 LOC .       S3 T38N R78W:   LOCATION
 CNTY.            NATRONA:   COUNTY
 STAT.            WYOMING:   STATE
 CTRY. UNITED STATES OF AMERICA:   COUNTRY
 SRVC.              WELEX:   SERVICE COMPANY
 DATE.        17-AUG-1977:   LOGDATE
 API .     49025104120000:   API NUMBER
~CURVE INFORMATION
#MNEM.UNIT       API CODE    CURVE DESCRIPTION
#----------   ------------   ------------------------------
 DEPT.F                  :   
 CALD.IN     45 280 60 00:   CALIPER FROM DENSITY LOG
 SPR .MV     07 010 01 00:   SPONTANEOUS POTENTIAL
 NPHI.DEC    42 890 00 00:   NEUTRON POROSITY
 GRD .GAPI   45 310 01 00:   GAMMA RAY FROM DENSITY LOG
 CORR.G/C3   45 356 01 00:   DENSITY CORRECTION
 RHOB.G/C3   45 350 01 00:   BULK DENSITY
 SGRD.OHMM   07 220 05 00:   SHALLOW SHORT GUARD RESISTIVITY
 ILD .OHMM   07 120 46 00:   DEEP INDUCTION RESISTIVITY
 ILM .OHMM   07 120 44 00:   INDUCTION LOG MEDIUM RESISTIVITY
~PARAMETER INFORMATION
#MNEM.UNIT          VALUE    DESCRIPTION
#----------   ------------   ------------------------------
 EKB .F         5141.0000:   Kelly bushing
 EGL .F         5131.0000:   Ground level
 EDF .F            0.0000:   Drilling floor
 TD  .F         3100.0000:   Total depth
 DATE.        17-AUG-1977:   Date logged
 CLNT.            A2DTECH:   Client Code
 SL  . 2272' FNL & 1060' FEL:   Surface Location
 PD  .                 GL:   Permanent Datum
 EPD .F              5131:   Elevation Permanent Datum
 LMF .                 KB:   Log Measured From
 DMF .                 KB:   Drilling Measured From
 DD  .F              3100:   Depth driller
 DL  .F              3100:   Depth logger
 BLI .F              3098:   Bottom log interval
 TLI .F               200:   Top log interval
 CS1 .IN            8.625:   Casing size
 CBD1.      8.625" @ 215':   Casing driller 1
 CBL1.F               218:   Casing logger 1
 BS1 .IN            7.875:   Bit size
 DFT .            KCL MUD:   Type fluid in hole
 DFD .                8.8:   Density
 DFV .                 33:   Viscosity
 DFPH.                9.5:   pH
 DFL .               10.6:   Fluid loss
 MSS .           FLOWLINE:   Source of sample
 RMS .OHMM            .67:   Rm
 MST .F                98:   Rm Meas. temp.
 RMF .OHMM            .64:   Rmf
 MFST.F                98:   Rmf Meas. temp.
 RMC .OHMM            .31:   Rmc
 MCST.F                98:   Rmc Meas. temp.
 MFSS.           MEASURED:   Source Rmf.
 RMB .OHMM            .57:   Rm. at BHT
 BHT .F               115:   BHT.
 TCS .HRS               3:   Time Circ. stopped
 MRT .F               115:   Maximum recorded temp.
 LUN .               8611:   Logging unit number
 LUL .             CASPER:   Logging unit location
 ENGI.            C. DOAK:   Recorded By
 WITN.     MR. PETTINGILL:   Witnessed by
 ORIG.           5" PRINT:   Origin of data
 UWI .     49025104120000:   Unique Well ID
 DICO. A2D TECHNOLOGIES, INC.:   Digitizing Company
 BSD1.               3100:   Depth drilled with bit1
~OTHER INFORMATION
~A   DEPT       CALD      SPR       NPHI          GRD      CORR        RHOB     SGRD        ILD        ILM   
# ...
 1915.5000     8.7500   -69.6710     0.3400   142.9680     0.0300     2.4720    11.7630     7.1980     9.3120
 1916.0000     8.7390   -69.6670     0.3400   143.4620     0.0250     2.4720    11.8140     7.2090     9.3120
 1916.5000     8.7480   -69.6610     0.3390   143.9730     0.0200     2.4730    11.6080     7.2190     9.3110
 1917.0000     8.7570   -69.6550     0.3340   143.3230     0.0200     2.4750    11.4570     7.2300     9.3120
 1917.5000     8.7660   -69.6480     0.3290   142.3720     0.0240     2.4760    11.3890     7.2400     9.3660
 1918.0000     8.7750   -69.6420     0.3230   141.4090     0.0280     2.4770    11.0810     7.2510     9.4250
 1918.5000     8.7840   -69.6360     0.3200   141.5940     0.0320     2.4820    10.8560     7.2610     9.4840
 1919.0000     8.7920   -69.6300     0.3220   142.8700     0.0360     2.4890    10.6820     7.2720     9.5430
 1919.5000     8.8010   -69.6240     0.3250   144.1600     0.0400     2.4960    11.3380     7.2450     9.6010
 1920.0000     8.8100   -69.6170     0.3290   145.4520     0.0440     2.5030    12.1430     7.2090     9.6590
 1920.5000     8.8190   -69.6110     0.3320   145.4660     0.0440     2.5070    12.0320     7.1730     9.4840
 1921.0000     8.8270   -69.6050     0.3360   145.2870     0.0440     2.4950    11.8890     7.1360     9.3120
 1921.5000     8.8360   -69.5990     0.3380   145.1060     0.0440     2.4850    11.7550     7.1000     9.2270
 1922.0000     8.8360   -69.5930     0.3390   144.9320     0.0400     2.4790    11.6210     7.0630     9.1430
 1922.5000     8.8310   -69.5860     0.3380   144.8420     0.0360     2.4720    11.4940     7.0270     9.0690
 1923.0000     8.8230   -69.5800     0.3380   145.2620     0.0310     2.4650    10.8850     6.9910     8.9970
 1923.5000     8.8160   -69.5740     0.3400   146.1690     0.0260     2.4600    10.0190     6.9540     8.8950
 1924.0000     8.8080   -69.5680     0.3420   147.1830     0.0230     2.4680    10.5410     6.9180     8.8950
 1924.5000     8.8000   -69.5610     0.3420   148.1990     0.0300     2.4770    11.2210     6.8810     8.9330
 1925.0000     8.7970   -69.5550     0.3400   148.6430     0.0340     2.4830    11.7060     6.8450     8.9710
 1925.5000     8.7970   -69.5490     0.3380   148.4680     0.0320     2.4830    11.7060     6.8210     9.0100
 1926.0000     8.7990   -69.5430     0.3360   148.9080     0.0310     2.4850    11.1300     6.8720     9.0480
 1926.5000     8.8010   -69.5370     0.3340   150.4850     0.0340     2.4910    10.7810     6.9180     9.0860
 1927.0000     8.8040   -69.5300     0.3320   152.0420     0.0370     2.4970    10.8260     6.9630     9.1240
 1927.5000     8.8060   -69.5240     0.3300   153.3750     0.0390     2.5000    10.8690     7.0080     9.2270
 1928.0000     8.8090   -69.5180     0.3280   152.6570     0.0450     2.5080    11.1650     7.0530     9.3120
 1928.5000     8.8110   -69.5120     0.3270   151.9290     0.0530     2.5180    11.6750     7.0990     9.4840
 1929.0000     8.8130   -69.5050     0.3300   153.2170     0.0530     2.5170    12.1430     7.1440     9.5710
 1929.5000     8.8160   -69.4990     0.3350   154.8870     0.0510     2.5100    12.3680     7.1890     9.5710
 1930.0000     8.8180   -69.4930     0.3390   156.5840     0.0510     2.5100    12.2370     7.2350     9.5710
 1930.5000     8.8200   -69.4880     0.3430   156.4110     0.0530     2.5130    12.0620     7.2800     9.5710
 1931.0000     8.8230   -69.4880     0.3410   154.8540     0.0540     2.5150    11.8880     7.3250     9.5710
 1931.5000     8.8250   -69.6840     0.3380   153.2760     0.0560     2.5170    11.7130     7.3390     9.5710
 1932.0000     8.8270   -69.6680     0.3350   151.6960     0.0510     2.5110    11.6000     7.3040     9.5710
 1932.5000     8.8300   -69.6590     0.3320   150.1190     0.0460     2.5020    11.9230     7.2720     9.5700
 1933.0000     8.8320   -69.6540     0.3290   148.5400     0.0400     2.4920    12.2500     7.2400     9.5780
 1933.5000     8.8350   -69.6480     0.3300   146.9550     0.0340     2.4830    12.5960     7.2060     9.4810
 1934.0000     8.8340   -69.6430     0.3340   145.3700     0.0300     2.4780    12.5960     7.1400     9.4830
 1934.5000     8.8240   -69.6370     0.3380   145.9090     0.0340     2.4840    11.1210     7.0750     9.4840
 1935.0000     8.8150   -69.6320     0.3400   146.6900     0.0380     2.4890    10.2980     7.0950     9.4840
 1935.5000     8.8060   -69.6260     0.3370   147.4760     0.0420     2.4950    11.3390     7.1150     9.4840
 1936.0000     8.7970   -69.6200     0.3340   148.2760     0.0450     2.5010    12.1730     7.1350     9.4840
 1936.5000     8.7870   -69.6150     0.3320   147.3930     0.0490     2.5040    12.3680     7.1550     9.4840
 1937.0000     8.7780   -69.6090     0.3310   146.2950     0.0520     2.4980    12.3930     7.1750     9.4840
 1937.5000     8.7690   -69.6040     0.3330   145.1940     0.0520     2.4910    12.4810     7.1950     9.4840
 1938.0000     8.7600   -69.5980     0.3350   144.0980     0.0390     2.4850    12.2550     7.2140     9.4840
 1938.5000     8.7580   -69.5930     0.3380   143.0010     0.0260     2.4790    11.8930     7.2340     9.4840
 1939.0000     8.7580   -69.5870     0.3380   141.9040     0.0130     2.4750    11.2310     7.2540     9.4840
 1939.5000     8.7580   -69.5820     0.3350   140.8230     0.0160     2.4840    10.8800     7.2720     9.4840
 1940.0000     8.7580   -69.5760     0.3320   140.5560     0.0240     2.4880    12.3480     7.2720     9.4840
 1940.5000     8.7580   -69.5700     0.3290   141.5910     0.0310     2.4870    12.5960     7.2740     9.4840
 1941.0000     8.7580   -69.5650     0.3260   142.4750     0.0360     2.4880    12.5960     7.2820     9.4840
 1941.5000     8.7580   -69.5590     0.3260   142.0490     0.0360     2.4930    12.4810     7.2900     9.4840
 1942.0000     8.7580   -69.5540     0.3270   141.9020     0.0360     2.4980    12.2550     7.2980     9.4840
 1942.5000     8.7580   -69.5480     0.3280   143.0780     0.0340     2.4980    12.2240     7.3060     9.4840
 1943.0000     8.7580   -69.5430     0.3290   144.2290     0.0320     2.4960    12.1820     7.3140     9.4840
 1943.5000     8.7580   -69.5370     0.3310   145.0770     0.0330     2.4940    12.1430     7.3220     9.4320
 1944.0000     8.7580   -69.5310     0.3330   143.5980     0.0380     2.5040    10.7810     7.3300     9.3970
 1944.5000     8.7590   -69.5260     0.3350   142.1560     0.0420     2.5070    11.0520     7.3380     9.3120
 1945.0000     8.7690   -69.5200     0.3370   142.0190     0.0450     2.5050    11.4190     7.3470     9.3120
 1945.5000     8.7790   -69.5150     0.3400   143.6340     0.0480     2.5050    11.7870     7.3550     9.3110
 1946.0000     8.7900   -69.5090     0.3390   145.2730     0.0480     2.5060    12.1550     7.3630     9.3120
 1946.5000     8.8000   -69.5040     0.3380   145.5300     0.0440     2.5000    12.2550     7.3710     9.3120
 1947.0000     8.8110   -69.4980     0.3370   145.3170     0.0400     2.4880    12.2550     7.3790     9.3120
 1947.5000     8.8210   -69.4930     0.3360   145.9240     0.0370     2.4760    12.1820     7.3870     9.3120
 1948.0000     8.8310   -69.4870     0.3350   147.4540     0.0330     2.4640    12.0650     7.3950     9.3120
 1948.5000     8.8420   -69.4810     0.3310   148.9780     0.0300     2.4560    11.9490     7.4030     9.3120
 1949.0000     8.8520   -69.4760     0.3280   150.5140     0.0260     2.4600    11.8330     7.4070     9.3120
 1949.5000     8.8630   -69.4700     0.3250   152.0650     0.0220     2.4640    11.7160     7.3410     9.3120
 1950.0000     8.8730   -69.4650     0.3240   151.4090     0.0190     2.4530    11.6000     7.2940     9.3120
 1950.5000     8.8830   -69.4590     0.3240   150.4320     0.0150     2.4440    11.4840     7.2460     9.1430
 1951.0000     8.8940   -69.4540     0.3250   149.4480     0.0120     2.4390    11.3680     7.1990     8.9770
 1951.5000     8.9040   -69.4480     0.3250   148.4680     0.0130     2.4460    11.2510     7.1510     8.9470
