~VERSION INFORMATION
 VERS.                2.0:   CWLS LOG ASCII STANDARD - VERSION 2.0
 WRAP.                 NO:   ONE LINE PER DEPTH STEP
~WELL INFORMATION
#MNEM.UNIT      DATA TYPE    INFORMATION
#----------   ------------   ------------------------------
 STRT.F          204.0000:   START DEPTH
 STOP.F         3040.0000:   STOP DEPTH
 STEP.F            0.5000:   STEP LENGTH
 NULL.          -999.2500:   NO VALUE
 COMP.    FENIX & SCISSON:   COMPANY
 WELL.   FENIX "A" #47-21:   WELL
 FLD .            N P R 3:   FIELD
 LOC .      S21 T39N R78W:   LOCATION
 CNTY.            NATRONA:   COUNTY
 STAT.            WYOMING:   STATE
 CTRY. UNITED STATES OF AMERICA:   COUNTRY
 SRVC.              WELEX:   SERVICE COMPANY
 DATE.        20-JUN-1977:   LOGDATE
 API .     49025103820000:   API NUMBER
~CURVE INFORMATION
#MNEM.UNIT       API CODE    CURVE DESCRIPTION
#----------   ------------   ------------------------------
 DEPT.F                  :   
 SPR .MV     07 010 01 00:   SPONTANEOUS POTENTIAL
 ILM .OHMM   07 120 44 00:   INDUCTION LOG MEDIUM RESISTIVITY
 ILD .OHMM   07 120 46 00:   DEEP INDUCTION RESISTIVITY
 SGRD.OHMM   07 220 05 00:   SHALLOW GUARD LOG RESISTIVITY
 GRD .GAPI   45 310 01 00:   GAMMA RAY FROM DENSITY LOG
 CALD.IN     45 280 60 00:   CALIPER FROM DENSITY LOG
 RHOB.G/C3   45 350 01 00:   BULK DENSITY
 CORR.G/C3   45 356 01 00:   DENSITY CORRECTION
~PARAMETER INFORMATION
#MNEM.UNIT          VALUE    DESCRIPTION
#----------   ------------   ------------------------------
 EKB .F         5010.0000:   Kelly bushing
 EGL .F         5000.0000:   Ground level
 EDF .F            0.0000:   Drilling floor
 TD  .F         3050.0000:   Total depth
 DATE.        20-JUN-1977:   Date logged
 CLNT.            A2DTECH:   Client Code
 SL  . 990' FSL & 2310' FWL:   Surface Location
 PD  .                 GL:   Permanent Datum
 DD  .F              3050:   Depth driller
 DL  .F              3039:   Depth logger
 BLI .F              3037:   Bottom log interval
 CS1 .IN            8.625:   Casing size
 CBD1.      8.625" @ 210':   Casing driller 1
 CBL1.F               215:   Casing logger 1
 BS1 .IN            7.875:   Bit size
 DFT .                KCL:   Type fluid in hole
 DFD .                9.3:   Density
 DFV .                 35:   Viscosity
 DFPH.                7.5:   pH
 DFL .                7.2:   Fluid loss
 MSS .             MUDPIT:   Source of sample
 RMS .OHMM            .22:   Rm
 MST .F                80:   Rm Meas. temp.
 RMF .OHMM            .19:   Rmf
 MFST.F                80:   Rmf Meas. temp.
 RMC .OHMM            .35:   Rmc
 MCST.F                80:   Rmc Meas. temp.
 MFSS.               MEAS:   Source Rmf.
 RMB .OHMM            .15:   Rm. at BHT
 BHT .F               111:   BHT.
 TCS .HRS               4:   Time Circ. stopped
 MRT .F               111:   Maximum recorded temp.
 LUN .               8766:   Logging unit number
 LUL .             CAPSER:   Logging unit location
 ENGI.          T. JOYNER:   Recorded By
 WITN.         PETTINGILL:   Witnessed by
 ORIG.           5" PRINT:   Origin of data
 UWI .     49025103820000:   Unique Well ID
 DICO. A2D TECHNOLOGIES, INC.:   Digitizing Company
 DAPD.                 10:   Feet Above Permanent Datum
 BSD1.               3050:   Depth drilled with bit1
 MCSS.               MEAS:   Source Rmc.
 EPD .               5000:   Elevation Permanent Datum
 LMF .                 KB:   Log Measured From
 DMF .                 KB:   Drilling Measured From
 TLI .                215:   Top log interval
~OTHER INFORMATION
~A   DEPT      SPR        ILM        ILD       SGRD         GRD        CALD       RHOB      CORR  
# ...
  406.5000   -12.3280    11.4810     9.1990     8.3140    72.8870    13.6820     2.4850     0.0220
  407.0000   -12.5900    11.1680     9.1030     8.1980    72.8180    13.5880     2.4860     0.0220
  407.5000   -12.8510    10.8670     9.0620     8.1070    72.8370    13.4950     2.4870     0.0220
  408.0000   -13.0930    10.4820     8.8080     8.0230    72.8400    13.4030     2.4880     0.0220
  408.5000   -13.2670    10.0980     8.4080     7.9380    72.8290    13.3040     2.4890     0.0220
  409.0000   -13.4430     9.7130     8.0080     7.8520    72.8400    13.2590     2.4880     0.0220
  409.5000   -13.6190     9.2970     7.6890     7.6410    72.8350    13.2390     2.4840     0.0220
  410.0000   -13.7950     8.8450     7.5370     7.4300    72.8200    13.2190     2.4810     0.0220
  410.5000   -13.9710     8.3520     7.3840     7.2190    72.8870    13.1940     2.4780     0.0220
  411.0000   -14.1470     7.8590     7.2320     7.0080    72.2520    13.1770     2.4740     0.0220
  411.5000   -14.3200     7.3660     7.0800     6.8060    70.9470    13.1420     2.4710     0.0220
  412.0000   -14.3950     6.8740     6.9270     6.4540    69.7200    13.1480     2.4670     0.0220
  412.5000   -14.2130     6.5080     6.7270     6.1150    68.4860    13.1450     2.4650     0.0220
  413.0000   -14.0410     6.2240     6.3410     5.7760    67.2490    13.1460     2.4690     0.0220
  413.5000   -13.8670     5.9860     5.9020     5.4380    65.9920    13.1460     2.4760     0.0220
  414.0000   -13.4550     6.0230     5.3710     5.0590    64.7900    13.1440     2.4850     0.0220
  414.5000   -13.0070     6.4800     5.1060     4.3680    63.4670    13.1500     2.4930     0.0220
  415.0000   -12.5570     7.3920     5.0750     3.8190    62.9640    13.1120     2.5020     0.0220
  415.5000   -12.1070     7.6080     5.2900     4.2630    62.4510    13.0680     2.5040     0.0220
  416.0000   -11.6620     7.8480     5.5300     6.5960    61.9860    13.0450     2.5070     0.0220
  416.5000   -11.4450     8.1130     5.8800     7.3320    61.6990    12.9570     2.5070     0.0230
  417.0000   -11.2360     8.4660     6.2880     7.4460    61.5380    12.8290     2.5060     0.0230
  417.5000   -11.0260     8.8180     6.6960     7.5600    61.3750    12.7130     2.5060     0.0230
  418.0000   -10.8160     9.0950     7.1040     7.6740    61.2120    12.5970     2.5050     0.0230
  418.5000   -10.6060     9.3200     7.5290     7.7870    61.0310    12.4770     2.5040     0.0230
  419.0000   -10.3960     9.5450     7.8780     7.9010    60.8030    12.3630     2.5040     0.0230
  419.5000   -10.1870     9.7690     8.2430     7.9550    60.5380    12.2840     2.5030     0.0230
  420.0000    -9.9780     9.9940     8.6080     7.9190    60.2820    12.2790     2.5030     0.0230
  420.5000    -9.8720    10.2180     8.7750     7.8820    60.0100    12.2790     2.5050     0.0230
  421.0000    -9.8950    10.4430     8.8560     7.9420    59.7660    12.2830     2.5060     0.0230
  421.5000    -9.9180    10.7910     8.9360     8.0710    59.4790    12.3310     2.5070     0.0230
  422.0000    -9.9410    11.1590     9.0170     8.1990    59.7050    12.3780     2.5110     0.0230
  422.5000    -9.9640    11.6570     9.0970     8.3270    60.0100    12.4290     2.5140     0.0230
  423.0000    -9.9880    12.3430     9.1780     8.4550    60.3270    12.4770     2.5190     0.0230
  423.5000   -10.0110    13.0300     9.3320     8.5830    60.6320    12.5140     2.5220     0.0230
  424.0000   -10.0340    13.7160     9.5400     8.7190    60.9450    12.4590     2.5260     0.0230
  424.5000   -10.0610    14.1780     9.7490     8.9440    61.2480    12.3890     2.5270     0.0230
  425.0000   -10.2470    14.0250     9.9570     9.1840    61.5720    12.3190     2.5260     0.0230
  425.5000   -10.4510    13.9100    10.1660     9.4240    61.8290    12.2490     2.5250     0.0230
  426.0000   -10.6550    13.7950    10.3740     9.6630    62.2170    12.1790     2.5240     0.0240
  426.5000   -10.8590    13.6790    10.5830     9.9030    62.5530    12.1240     2.5230     0.0240
  427.0000   -11.0630    13.5430    10.7910    10.2850    63.8070    12.1540     2.5210     0.0240
  427.5000   -11.2670    13.7610    11.0000    10.2780    65.3630    12.1910     2.5200     0.0240
  428.0000   -11.4720    14.0290    11.2730    10.2630    65.9740    12.2310     2.5190     0.0240
  428.5000   -11.6760    14.2960    11.2620    10.2480    66.5250    12.2780     2.5210     0.0240
  429.0000   -11.8790    14.5640    11.2500    10.2330    67.0730    12.3240     2.5230     0.0240
  429.5000   -12.0830    14.8310    11.2390    10.2170    67.6470    12.3230     2.5250     0.0240
  430.0000   -12.2410    15.0980    11.2280    10.2020    68.1920    12.3310     2.5280     0.0240
  430.5000   -12.4030    15.3840    11.2170    10.1870    68.7550    12.3360     2.5260     0.0240
  431.0000   -12.5660    15.2980    11.2060    10.1710    68.8260    12.3410     2.5220     0.0240
  431.5000   -12.5870    15.1840    11.1940    10.1560    68.7060    12.3480     2.5180     0.0240
  432.0000   -12.4640    14.9460    11.1840    10.1410    68.5960    12.3530     2.5140     0.0240
  432.5000   -12.3440    14.5430    11.1700    10.1260    68.4900    12.3580     2.5100     0.0240
  433.0000   -12.2490    14.1390    11.0720    10.1100    68.3780    12.3590     2.5070     0.0230
  433.5000   -12.2510    13.6710    10.9060    10.0780    68.2730    12.3550     2.5070     0.0230
  434.0000   -12.2510    13.1840    10.7410     9.9550    68.1590    12.3470     2.5070     0.0230
  434.5000   -12.2510    13.0120    10.5760     9.8320    68.1020    12.3400     2.5070     0.0220
  435.0000   -12.2510    12.9530    10.4100     9.7090    68.1200    12.3340     2.5070     0.0220
  435.5000   -12.2510    12.6740    10.2450     9.5860    68.1110    12.3260     2.5060     0.0220
  436.0000   -12.2760    12.2970    10.1650     9.4640    68.6550    12.3180     2.5050     0.0210
  436.5000   -12.4430    12.0700    10.1270     9.3410    69.4570    12.2930     2.5030     0.0210
  437.0000   -12.6110    11.8060    10.0980     9.2180    70.2400    12.2650     2.5020     0.0210
  437.5000   -12.7780    11.5420    10.1210     9.0950    71.0240    12.2370     2.5010     0.0200
  438.0000   -12.9450    11.2730    10.1440     9.0020    71.8100    12.2090     2.4990     0.0200
  438.5000   -13.1130    11.3730    10.1670     8.9310    72.5690    12.1810     2.4980     0.0200
  439.0000   -13.2800    11.4810    10.1900     8.8590    73.0950    12.1610     2.4960     0.0190
  439.5000   -13.4480    11.2340    10.2130     8.7870    73.5020    12.1620     2.4950     0.0190
  440.0000   -13.6130    10.9700    10.2360     8.7150    73.8750    12.1610     2.4930     0.0190
  440.5000   -13.7400    10.7070    10.2590     8.6430    74.3220    12.1610     2.4930     0.0190
  441.0000   -13.8550    10.4430    10.2820     8.5710    73.9790    12.1610     2.4930     0.0180
  441.5000   -13.9700    10.1910    10.3050     8.5000    73.1840    12.1620     2.4950     0.0180
  442.0000   -14.0860    10.2780    10.3280     8.4300    72.3740    12.1600     2.4970     0.0190
  442.5000   -14.2010    10.3610    10.3510     8.3600    72.3700    12.1650     2.4980     0.0190
  443.0000   -14.3160    10.4450    10.3790     8.2900    73.2560    12.1320     2.5000     0.0190
  443.5000   -14.4310    10.5290    10.3380     8.2200    74.0600    12.0920     2.5010     0.0200
  444.0000   -14.5470    10.6130    10.2850     8.1490    74.8680    12.0170     2.5010     0.0200
  444.5000   -14.6620    10.6690    10.2320     8.1020    75.6880    11.9490     2.5000     0.0210
  445.0000   -14.7780    10.4460    10.1790     8.1570    76.1920    11.8770     2.4980     0.0210
  445.5000   -14.9450    10.2780    10.1260     8.1980    76.5210    11.8070     2.4970     0.0210
  446.0000   -15.1790    10.1100    10.0210     8.2390    76.8470    11.7360     2.4940     0.0220
  446.5000   -15.4130     9.9420     9.8580     8.2800    77.1750    11.6650     2.4900     0.0220
