~VERSION INFORMATION
 VERS.                2.0:   CWLS LOG ASCII STANDARD - VERSION 2.0
 WRAP.                 NO:   ONE LINE PER DEPTH STEP
~WELL INFORMATION
#MNEM.UNIT      DATA TYPE    INFORMATION
#----------   ------------   ------------------------------
 STRT.F           16.0000:   START DEPTH
 STOP.F         2860.0000:   STOP DEPTH
 STEP.F            0.5000:   STEP LENGTH
 NULL.          -999.2500:   NO VALUE
 COMP.    FENIX & SCISSON:   COMPANY
 WELL. FENIX NPR 3 "AX" #22-21:   WELL
 FLD .  TEAPOT DOME - NPR:   FIELD
 LOC .      S21 T39N R78W:   LOCATION
 CNTY.            NATRONA:   COUNTY
 STAT.            WYOMING:   STATE
 CTRY. UNITED STATES OF AMERICA:   COUNTRY
 SRVC.      DRESSER ATLAS:   SERVICE COMPANY
 DATE.        07-AUG-1978:   LOGDATE
 API .     49025106790000:   API NUMBER
~CURVE INFORMATION
#MNEM.UNIT       API CODE    CURVE DESCRIPTION
#----------   ------------   ------------------------------
 DEPT.F                  :   
 CALD.IN     45 280 60 00:   CALIPER FROM DENSITY LOG
 GRD .GAPI   45 310 01 00:   GAMMA RAY FROM DENSITY LOG
 CORR.G/C3   45 356 01 00:   DENSITY CORRECTION
 RHOB.G/C3   45 350 01 00:   BULK DENSITY
 SPR .MV     05 010 01 00:   SPONTANEOUS POTENTIAL
 ILD .OHMM   05 120 46 00:   DEEP INDUCTION RESISTIVITY
 SN  .OHMM   05 040 00 00:   SHORT NORMAL
~PARAMETER INFORMATION
#MNEM.UNIT          VALUE    DESCRIPTION
#----------   ------------   ------------------------------
 EKB .F         4989.0000:   Kelly bushing
 EGL .F         4979.0000:   Ground level
 EDF .F            0.0000:   Drilling floor
 TD  .F         2847.0000:   Total depth
 DATE.        07-AUG-1978:   Date logged
 CLNT.            A2DTECH:   Client Code
 SL  . 880' FNL & 660' FWL:   Surface Location
 PD  .                 GL:   Permanent Datum
 DD  .F              2845:   Depth driller
 DL  .F              2847:   Depth logger
 BLI .F              2841:   Bottom log interval
 CS1 .IN            8.625:   Casing size
 CBD1.      8.625" @ 240':   Casing driller 1
 CBL1.F               240:   Casing logger 1
 BS1 .IN            7.875:   Bit size
 DFT .                KCL:   Type fluid in hole
 DFD .                9.2:   Density
 DFV .                 31:   Viscosity
 DFPH.               10.5:   pH
 MSS .           FLOWLINE:   Source of sample
 RMS .OHMM           1.25:   Rm
 MST .F                74:   Rm Meas. temp.
 RMF .OHMM            1.8:   Rmf
 MFST.F                76:   Rmf Meas. temp.
 RMC .OHMM              3:   Rmc
 MCST.F                78:   Rmc Meas. temp.
 MFSS.               MEAS:   Source Rmf.
 TCS .HRS               4:   Time Circ. stopped
 LUN .               3006:   Logging unit number
 LUL .               CASP:   Logging unit location
 ENGI.             MILLER:   Recorded By
 WITN.           MCGINLEY:   Witnessed by
 ORIG.           5" PRINT:   Origin of data
 UWI .     49025106790000:   Unique Well ID
 DICO. A2D TECHNOLOGIES, INC.:   Digitizing Company
 DAPD.                 10:   Feet Above Permanent Datum
 BSD1.F              2845:   Depth drilled with bit1
 EPD .F              4970:   Elevation Permanent Datum
 LMF .                 KB:   Log Measured From
 DMF .                 KB:   Drilling Measured From
 TLI .                240:   Top log interval
~OTHER INFORMATION
~A   DEPT     CALD         GRD      CORR       RHOB        SPR        ILD         SN   
# ...
 2837.0000     7.3970   115.6470     0.0300     2.4310    -8.3480     2.6610     3.4440
 2837.5000     7.3460   114.3950     0.0310     2.4210    -8.4850     2.6550     3.4090
 2838.0000     7.2970   114.1590     0.0320     2.4140    -8.5380     2.6300     3.3730
 2838.5000     7.2480   115.7900     0.0330     2.4130    -8.6710     2.6010     3.3380
 2839.0000     7.2020   117.2690     0.0340     2.4130    -8.7810     2.5730     3.3030
 2839.5000     7.1580   119.1890     0.0350     2.4160    -8.8680     2.5450     3.2680
 2840.0000     7.1160   122.2330     0.0360     2.4180    -8.6060     2.5170     3.2320
 2840.5000     7.0740   124.9880     0.0350     2.4200    -8.3620     2.4890     3.1970
 2841.0000     7.0320   120.6670     0.0340     2.4210    -8.1040     2.4610     3.1620
 2841.5000     6.9870   115.4990     0.0330     2.4190    -7.8500     2.4320     3.1290
 2842.0000     6.9650   110.3040     0.0320     2.4150    -7.5990     2.4140     3.0860
 2842.5000     6.9770   110.4250     0.0300     2.4110    -7.3490     2.4010     3.0450
 2843.0000     6.9840   111.8380     0.0290     2.4070    -7.0630     2.3790     3.0050
 2843.5000     6.9920   114.9040     0.0320     2.4070    -7.0330     2.3800     2.9630
 2844.0000     7.0010   115.6220     0.0380     2.4050    -7.4670     2.3840     2.9730
 2844.5000  -999.2500  -999.2500     0.0450     2.4100    -7.8970     2.3870     2.9840
 2845.0000  -999.2500  -999.2500     0.0490     2.4200    -8.0850     2.3900     2.9950
 2845.5000  -999.2500  -999.2500     0.0480     2.4300    -7.9700     2.3930     3.0060
 2846.0000  -999.2500  -999.2500     0.0480     2.4340    -7.8880     2.3970     3.0170
 2846.5000  -999.2500  -999.2500     0.0520     2.4340    -7.8010     2.4000     2.9980
 2847.0000  -999.2500  -999.2500     0.0560     2.4350    -7.7150     2.4030     2.9790
 2847.5000  -999.2500  -999.2500     0.0600     2.4340    -7.7060     2.4060     2.9630
 2848.0000  -999.2500  -999.2500     0.0640     2.4410    -7.7070     2.4090     2.9760
 2848.5000  -999.2500  -999.2500     0.0660     2.4510    -7.7410     2.4130     2.9880
 2849.0000  -999.2500  -999.2500     0.0680     2.4590    -8.1250     2.4160     3.0000
 2849.5000  -999.2500  -999.2500     0.0660     2.4560    -8.4720     2.4190     3.0130
 2850.0000  -999.2500  -999.2500     0.0640     2.4500    -8.4980     2.4230     3.0170
 2850.5000  -999.2500  -999.2500     0.0610     2.4470  -999.2500  -999.2500  -999.2500
 2851.0000  -999.2500  -999.2500     0.0600     2.4480  -999.2500  -999.2500  -999.2500
 2851.5000  -999.2500  -999.2500     0.0630     2.4440  -999.2500  -999.2500  -999.2500
 2852.0000  -999.2500  -999.2500     0.0650     2.4270  -999.2500  -999.2500  -999.2500
 2852.5000  -999.2500  -999.2500     0.0670     2.4320  -999.2500  -999.2500  -999.2500
 2853.0000  -999.2500  -999.2500     0.0680     2.4370  -999.2500  -999.2500  -999.2500
 2853.5000  -999.2500  -999.2500     0.0670     2.4440  -999.2500  -999.2500  -999.2500
 2854.0000  -999.2500  -999.2500     0.0660     2.4470  -999.2500  -999.2500  -999.2500
 2854.5000  -999.2500  -999.2500     0.0660     2.4460  -999.2500  -999.2500  -999.2500
 2855.0000  -999.2500  -999.2500     0.0650     2.4450  -999.2500  -999.2500  -999.2500
 2855.5000  -999.2500  -999.2500     0.0640     2.4460  -999.2500  -999.2500  -999.2500
 2856.0000  -999.2500  -999.2500     0.0640     2.4480  -999.2500  -999.2500  -999.2500
 2856.5000  -999.2500  -999.2500     0.0640     2.4500  -999.2500  -999.2500  -999.2500
 2857.0000  -999.2500  -999.2500     0.0630     2.4510  -999.2500  -999.2500  -999.2500
 2857.5000  -999.2500  -999.2500     0.0620     2.4510  -999.2500  -999.2500  -999.2500
 2858.0000  -999.2500  -999.2500     0.0610     2.4520  -999.2500  -999.2500  -999.2500
 2858.5000  -999.2500  -999.2500     0.0600     2.4520  -999.2500  -999.2500  -999.2500
 2859.0000  -999.2500  -999.2500     0.0600     2.4520  -999.2500  -999.2500  -999.2500
 2859.5000  -999.2500  -999.2500     0.0600     2.4500  -999.2500  -999.2500  -999.2500
 2860.0000  -999.2500  -999.2500     0.0600     2.4510  -999.2500  -999.2500  -999.2500
