~VERSION INFORMATION
 VERS.                2.0:   CWLS LOG ASCII STANDARD - VERSION 2.0
 WRAP.                 NO:   ONE LINE PER DEPTH STEP
~WELL INFORMATION
#MNEM.UNIT      DATA TYPE    INFORMATION
#----------   ------------   ------------------------------
 STRT.F            0.5000:   START DEPTH
 STOP.F         1380.0000:   STOP DEPTH
 STEP.F            0.5000:   STEP LENGTH
 NULL.          -999.2500:   NO VALUE
 COMP.       FLUOR DANIEL:   COMPANY
 WELL. FLUOR 84 "X" #1-14:   WELL
 FLD .          N.P.R. #3:   FIELD
 LOC .      S14 T38N R78W:   LOCATION
 CNTY.            NATRONA:   COUNTY
 STAT.            WYOMING:   STATE
 CTRY. UNITED STATES OF AMERICA:   COUNTRY
 SRVC.     ATLAS WIRELINE:   SERVICE COMPANY
 DATE.        24-AUG-1994:   LOGDATE
 API .     49025226370000:   API NUMBER
~CURVE INFORMATION
#MNEM.UNIT       API CODE    CURVE DESCRIPTION
#----------   ------------   ------------------------------
 DEPT.F                  :   
 GRR .GAPI   07 310 01 00:   GAMMA RAY FROM RESISTIVITY
 RILD.OHMM   07 120 46 00:   INDUCTION LOG DEEP RESISTIVITY
 RILM.OHMM   07 120 44 00:   INDUCTION LOG MEDIUM RESISTIVITY
 TENR.LBS    07 635 01 00:   TENSION FROM RESISTIVITY
~PARAMETER INFORMATION
#MNEM.UNIT          VALUE    DESCRIPTION
#----------   ------------   ------------------------------
 EKB .F         5326.0000:   Kelly bushing
 EGL .F         5316.0000:   Ground level
 EDF .F         5325.0000:   Drilling floor
 TD  .F         1368.0000:   Total depth
 CLNT.            A2DTECH:   Client Code
 PD  .                 GL:   Permanent Datum
 EPD .F              5316:   Elevation Permanent Datum
 LMF .                 KB:   Log Measured From
 DMF .                 KB:   Drilling Measured From
 DAPD.F                10:   Feet Above Permanent Datum
 DATE.        24-AUG-1994:   Date Logged [DD-MMM-YYYY]
 DD  .F              1368:   Depth driller
 DL  .F              1364:   Depth logger
 BLI .F              1356:   Bottom log interval
 TLI .F                 0:   Top log interval
 CS1 .IN            9.625:   Casing size
 CBD1.       9.625" @ 56':   Casing driller 1
 CBL1.F                56:   Casing logger 1
 BS1 .IN             8.75:   Bit size
 BSD1.F              1368:   Depth drilled with bit1
 DFT .                AIR:   Type fluid in hole
 LUN .            HL 6530:   Logging unit number
 LUL .             CASPER:   Logging unit location
 WITN.        GARY STRONG:   Witnessed by
 ORIG.         2.5" PRINT:   Origin of data
 UWI .     49025226370000:   Unique Well ID
 DICO. A2D TECHNOLOGIES, INC.:   Digitizing Company
 SL  . 2551' FNL & 575' FEL:   Surface Location
~OTHER INFORMATION
~A    DEPT      GRR      RILD       RILM       TENR   
# ...
  511.5000   125.9072     5.7550     5.6478   -66.8398
  512.0000   128.0160     5.7538     5.6467   -66.6172
  512.5000   128.4448     5.7526     5.6455   -66.3947
  513.0000   124.4890     5.7514     5.6443   -66.1288
  513.5000   120.8244     5.7502     5.6432   -65.7094
  514.0000   118.8263     5.7490     5.6420   -65.2900
  514.5000   119.0489     5.7478     5.6408   -64.8706
  515.0000   121.3474     5.7466     5.7180   -64.4512
  515.5000   123.8454     5.8250     5.7167   -64.0318
  516.0000   122.1320     5.9046     5.7155   -63.6124
  516.5000   117.5887     5.9034     5.7143   -63.1930
  517.0000   113.6347     5.8214     5.7131   -62.7736
  517.5000   112.4302     5.7405     5.7120   -62.3542
  518.0000   113.1616     5.6608     5.5962   -61.9347
  518.5000   116.1887     5.5821     5.4037   -61.5153
  519.0000   119.3031     5.4292     5.2896   -61.0959
  519.5000   119.8922     5.2804     5.1426   -60.6765
  520.0000   118.6807     5.1358     5.0409   -60.2571
  520.5000   119.8664     5.0644     5.0399   -59.8377
  521.0000   119.8546     4.9940     5.0388   -59.4183
  521.5000   119.8428     4.9930     5.0378   -58.9989
  522.0000   118.6333     4.9920     5.0368   -58.5795
  522.5000   117.4239     5.0603     5.1057   -58.1601
  523.0000   117.4121     5.0625     5.1045   -57.7407
  523.5000   118.5979     5.1284     5.1035   -57.3213
  524.0000   118.5860     5.1273     5.1025   -56.9019
  524.5000   117.3766     5.1263     5.1014   -56.4825
  525.0000   116.1672     5.2084     5.1711   -56.0631
  525.5000   115.5565     5.2675     5.2417   -55.6437
  526.0000   114.9459     5.3396     5.2406   -55.2242
  526.5000   115.5329     5.4126     5.2396   -54.8048
  527.0000   115.5210     5.4113     5.2385   -54.3854
  527.5000   115.5090     5.4102     5.2374   -53.9660
  528.0000   115.5769     5.4091     5.1572   -53.5466
  528.5000   116.6832     5.3064     5.0931   -53.1272
  529.0000   114.6647     5.2305     5.0224   -52.7078
  529.5000   110.3314     5.1157     4.9527   -52.2884
  530.0000   106.8663     5.0820     4.9517   -51.8690
  530.5000   108.8514     5.0093     4.9507   -51.4496
  531.0000   107.3814     4.9735     4.9496   -51.0302
  531.5000   106.4311     4.9724     4.9486   -50.6108
  532.0000   108.0960     5.0119     5.0164   -50.1914
  532.5000   111.7212     5.1091     5.0849   -49.7720
  533.0000   114.3693     5.1081     5.0836   -49.3526
  533.5000   112.3563     5.1780     5.0826   -48.9332
  534.0000   109.7445     5.2489     5.0815   -48.5137
  534.5000   107.9212     5.3206     5.1170   -48.0943
  535.0000   107.7944     5.3933     5.1891   -47.6749
  535.5000   109.2596     5.3922     5.2622   -47.2555
  536.0000   112.8701     5.4661     5.3648   -46.8361
  536.5000   113.8014     5.5408     5.4378   -46.4167
  537.0000   112.2874     5.5396     5.5121   -45.9973
  537.5000   113.1986     5.5385     5.5110   -45.5779
  538.0000   112.5230     5.5374     5.5098   -45.1585
  538.5000   110.3453     5.5362     5.5087   -44.7391
  539.0000   109.3852     5.5351     5.5076   -44.3197
  539.5000   109.8323     5.5340     5.5065   -43.9003
  540.0000   110.4172     5.5328     5.5054   -43.4809
  540.5000   112.2018     5.5317     5.5042   -43.0615
  541.0000   113.9864     5.5305     5.5031   -42.6421
  541.5000   114.5748     5.5294     5.5020   -42.2227
  542.0000   114.5615     5.5282     5.5009   -41.8032
  542.5000   114.5497     5.5271     5.4997   -41.3838
  543.0000   114.5378     5.5260     5.4986   -40.9644
  543.5000   115.1248     5.5039     5.4975   -40.5450
  544.0000   117.5082     5.3509     5.4123   -40.1256
  544.5000   121.0892     5.2262     5.2619   -39.7062
  545.0000   123.4726     5.1536     5.1157   -39.2868
  545.5000   123.4960     5.1245     5.0426   -38.8674
  546.0000   121.6525     5.0809     4.9704   -38.4480
  546.5000   117.4491     5.0481     4.9180   -38.0286
  547.0000   113.2455     5.0431     4.9170   -37.6092
  547.5000   114.4809     5.1511     4.9160   -37.1898
  548.0000   120.5670     5.3312     4.9662   -36.7704
  548.5000   122.7910     5.3634     5.2509   -36.3510
  549.0000   120.8426     5.1448     5.4200   -35.9316
  549.5000   118.3204     5.0734     5.2283   -35.5121
  550.0000   114.3713     5.4343     5.1180   -35.0927
  550.5000   117.2138     5.5088     5.1219   -34.6107
  551.0000   121.5825     5.5075     5.2998   -49.2282
  551.5000   125.4033     5.5064     5.4791   -49.0089
  552.0000   127.0579     5.5053     5.4780   -48.7897
  552.5000   125.5889     5.6581     5.4769   -48.5704
  553.0000   120.3173     6.3166     6.1133   -48.3511
  553.5000   117.0619     6.4919     6.2827   -48.1319
  554.0000   113.8362     6.4906     6.3685   -47.9126
  554.5000   113.0682     6.5794     6.4556   -47.6934
  555.0000   115.6986     6.5780     6.5438   -47.4741
  555.5000   116.0359     6.5767     6.4873   -47.2548
  556.0000   116.0239     6.4853     6.4516   -47.0326
  556.5000   117.1997     6.4789     6.2751   -46.8101
  557.0000   120.2116     6.2988     6.0199   -46.5875
  557.5000   122.9491     6.1335     5.9364   -46.3650
  558.0000   127.1736     6.0361     5.8541   -46.1424
  558.5000   131.8624     5.9642     5.8529   -45.9199
  559.0000   130.9199     5.9629     5.8516   -45.6973
  559.5000   126.1176     5.9813     5.8587   -45.4748
  560.0000   122.5130     6.0434     5.9304   -45.2522
  560.5000   120.1060     6.0669     5.9426   -45.0297
  561.0000   125.4833     6.1248     6.1100   -44.8071
  561.5000   128.4655     6.3257     6.2623   -44.5846
  562.0000   130.8489     6.5942     6.3706   -44.3620
  562.5000   132.6335     6.6871     6.4345   -50.3227
  563.0000   133.2216     6.7396     6.5514   -58.7537
  563.5000   133.2086     6.8318     6.6438   -43.6943
  564.0000   131.4004     6.8784     6.8308   -35.9560
  564.5000   131.3244     7.1252     7.0231   -20.4480
  565.0000   133.1732     7.2714     7.2209   -13.3531
  565.5000   133.7605     7.4148     7.3749   -27.9231
  566.0000   133.1495     7.4130     7.4259   -27.7039
  566.5000   129.5449     7.4115     7.4184   -42.3590
  567.0000   126.5188     7.4100     7.3703   -42.1021
  567.5000   124.1069     7.4085     7.3685   -41.8829
  568.0000   123.5214     7.3056     7.1669   -41.6636
  568.5000   127.3764     7.2041     6.8756   -41.4444
  569.0000   131.8809     6.9107     6.5960   -41.2251
  569.5000   131.2695     6.6294     6.3279   -41.0058
  570.0000   129.8603     6.4477     6.0706   -40.7865
  570.5000   128.1367     6.3581     6.0694   -40.5673
  571.0000   131.6226     6.2698     6.1523   -40.3480
  571.5000   133.0194     6.2685     6.3227   -40.1288
  572.0000   131.3292     6.3543     6.4091   -39.9095
  572.5000   127.8543     6.4412     6.4966   -39.6884
  573.0000   125.7964     6.4398     6.4953   -39.4659
  573.5000   124.9810     6.4385     6.4940   -39.2433
  574.0000   127.0897     6.3398     6.4926   -39.0208
  574.5000   132.4520     6.1635     6.3980   -38.7982
  575.0000   134.9801     5.8968     6.2203   -38.5757
  575.5000   133.2565     5.6825     5.9648   -38.3531
  576.0000   131.1537     5.6034     5.7876   -38.1306
  576.5000   129.0110     5.4499     5.5744   -37.9080
  577.0000   128.6946     5.3741     5.4813   -37.6855
  577.5000   130.8034     5.2995     5.4208   -37.4629
  578.0000   131.6647     5.2984     5.4197   -37.2404
  578.5000   130.9441     5.2973     5.4186   -37.0178
  579.0000   127.4468     5.2962     5.5182   -36.7952
  579.5000   125.6386     5.2951     5.6736   -36.5727
  580.0000   128.0220     5.3676     5.7220   -36.3502
  580.5000   128.0101     5.3664     5.7206   -38.5847
  581.0000   126.2019     5.3653     5.6832   -48.4012
  581.5000   125.5913     5.3642     5.5253   -50.5193
  582.0000   125.5795     5.3631     5.3718   -50.2967
  582.5000   127.9628     5.3620     5.2627   -50.0322
  583.0000   132.7414     5.3378     5.2616   -49.8129
  583.5000   137.5200     5.1895     5.2603   -49.5936
  584.0000   130.9214     5.0452     5.1164   -49.3744
