~VERSION INFORMATION
 VERS.                2.0:   CWLS LOG ASCII STANDARD - VERSION 2.0
 WRAP.                 NO:   ONE LINE PER DEPTH STEP
~WELL INFORMATION
#MNEM.UNIT      DATA TYPE    INFORMATION
#----------   ------------   ------------------------------
 STRT.F           13.0000:   START DEPTH
 STOP.F         2858.0000:   STOP DEPTH
 STEP.F            0.5000:   STEP LENGTH
 NULL.          -999.2500:   NO VALUE
 COMP.    FENIX & SCISSON:   COMPANY
 WELL. FENIX & SCISSON "AX" #16-21:   WELL
 FLD .  TEAPOT DOME NRP-3:   FIELD
 LOC .      S21 T39N R78W:   LOCATION
 CNTY.            NATRONA:   COUNTY
 STAT.            WYOMING:   STATE
 CTRY. UNITED STATES OF AMERICA:   COUNTRY
 SRVC.           BIRDWELL:   SERVICE COMPANY
 DATE.        17-JUL-1978:   LOGDATE
 API .     49025106590000:   API NUMBER
~CURVE INFORMATION
#MNEM.UNIT       API CODE    CURVE DESCRIPTION
#----------   ------------   ------------------------------
 DEPT.F                  :   
 GRD .GAPI   45 310 01 00:   GAMMA RAY FROM DENSITY LOG
 CALD.IN     45 280 60 00:   CALIPER FROM DENSITY LOG
 CORR.G/C3   45 356 01 00:   DENSITY CORRECTION
 RHOB.G/C3   45 350 01 00:   BULK DENSITY
 SPR .MV     05 010 01 00:   SPONTANEOUS POTENTIAL FROM RES.
 ILD .OHMM   05 120 46 00:   INDUCTION LOG DEEP
 SN  .OHMM   05 041 16 00:   SHORT NORMAL 16"
~PARAMETER INFORMATION
#MNEM.UNIT          VALUE    DESCRIPTION
#----------   ------------   ------------------------------
 EKB .F         5003.0000:   Kelly bushing
 EGL .F         4993.0000:   Ground level
 EDF .F            0.0000:   Drilling floor
 EPD .F         4993.0000:   Permanent datum
 TD  .F         2858.0000:   Total depth
 CLNT.            A2DTECH:   Client Code
 SL  . 1420' FSL & 200' FWL:   Surface Location
 DATE.        17-JUL-1978:   Date Logged [DD-MMM-YYYY]
 DD  .F              2855:   Depth driller
 DL  .F              2858:   Depth logger
 BLI .F              2858:   Bottom log interval
 TLI .F                20:   Top log interval
 CS1 .              8.625:   Casing size
 CBD1.      8.625" @ 200':   Casing driller 1
 CBL1.IN              228:   Casing logger 1
 BS1 .IN            7.875:   Bit size
 BSD1.F              2855:   Depth drilled with bit1
 DFT .            MUD GEL:   Type fluid in hole
 DFD .                9.9:   Density
 DFV .                 32:   Viscosity
 DFPH.               10.5:   pH
 DFL .                7.2:   Fluid loss
 MSS .           FLOWLINE:   Source of sample
 RMS .OHMM            1.3:   Rm
 MST .F                80:   Rm Meas. temp.
 RMF .OHMM           0.77:   Rmf
 MFST.F                74:   Rmf Meas. temp.
 MFSS.               MEAS:   Source Rmf.
 RMC .OHMM            1.5:   Rmc
 MCST.F                73:   Rmc Meas. temp.
 MCSS.               MEAS:   Source Rmc.
 TCS .HRS               1:   Time Circ. stopped
 MRT .F               118:   Maximum recorded temp.
 LUN .               2958:   Logging unit number
 LUL .               CASP:   Logging unit location
 ENGI.              HONEA:   Recorded By
 WITN.           MCGINLEY:   Witnessed by
 ORIG.        2" 5" PRINT:   Origin of data
 UWI .     49025106590000:   Unique Well ID
 DICO. A2D TECHNOLOGIES, INC.:   Digitizing Company
 PD  .                 GL:   Permanent Datum
 DAPD.                 10:   Feet Above Permanent Datum
~OTHER INFORMATION
~A   DEPT       GRD      CALD       CORR       RHOB        SPR        ILD         SN   
# ...
 1287.0000    74.6617     9.5111     0.0822     2.5444   -31.9940     7.5404     8.1865
 1287.5000    75.1113     9.4681     0.0808     2.5533   -32.1225     7.5451     8.2463
 1288.0000    71.4001     9.5292     0.0690     2.5675   -32.0970     7.5505     8.3637
 1288.5000    70.9644     9.5757     0.0512     2.5653   -31.9282     7.6594     8.4248
 1289.0000    71.7308     9.5770     0.0409     2.5565   -31.9079     7.7167     8.6036
 1289.5000    75.4783     9.4871     0.0501     2.5392   -31.8875     7.7745     8.6665
 1290.0000    78.6287     9.4612     0.0607     2.5291   -32.0205     7.8327     8.8505
 1290.5000    77.1523     9.4781     0.0723     2.5358   -31.8467     7.8914     8.9152
 1291.0000    79.2580     9.5095     0.0813     2.5336   -31.8263     7.9505     8.9188
 1291.5000    81.5129     9.4218     0.0843     2.5389   -31.8059     8.0651     9.0466
 1292.0000    79.2902     9.1849     0.1007     2.5575   -31.9347     8.2377     9.1127
 1292.5000    74.5303     9.6333     0.1052     2.5494   -31.9134     8.3564     9.1792
 1293.0000    73.4975     9.8135     0.0830     2.5695   -31.8930     8.4769     9.1829
 1293.5000    77.2842     9.7110     0.0697     2.5822   -31.8724     8.5991     9.1866
 1294.0000    79.6896     9.4298     0.0638     2.5570   -31.8516     8.7231     9.1904
 1294.5000    78.7779     9.4374     0.0847     2.5281   -31.8267     8.7885     9.1941
 1295.0000    76.4059     9.3737     0.0892     2.5541   -31.8063     8.8545     9.1349
 1295.5000    74.7803     9.8217     0.0834     2.5668   -31.9394     8.7991     9.0751
 1296.0000    74.3486     9.4959     0.0880     2.5577   -31.9139     8.7444     9.1423
 1296.5000    74.5140     9.4154     0.0924     2.5624   -31.8935     8.5729     9.2090
 1297.0000    73.7839     9.6147     0.0850     2.5744   -31.8731     8.4614     9.2127
 1297.5000    72.6060     9.1138     0.0940     2.5663   -31.8527     8.3513     9.2165
 1298.0000    71.5773     9.5186     0.1000     2.5782   -31.8323     8.2993     9.2203
 1298.5000    74.1307     9.1661     0.0808     2.5954   -31.9654     8.3044     9.1608
 1299.0000    77.2812     9.3869     0.0719     2.5991   -32.0891     8.3094     9.1655
 1299.5000    74.6107     9.0016     0.0738     2.5888   -32.2166     8.2564     9.1692
 1300.0000    69.5522     8.8689     0.0676     2.5874   -32.3442     8.2627     9.1723
 1300.5000    77.9438     9.4309     0.0484     2.5748   -32.3234     8.2678     9.1759
 1301.0000    78.0952     9.4609     0.0381     2.5689   -32.3027     8.2728     9.2422
 1301.5000    78.7081     9.4772     0.0338     2.5630   -32.2779     8.2778     9.2453
 1302.0000    81.6989     9.4935     0.0339     2.5699   -32.4059     8.2829     9.1843
 1302.5000    86.7730     9.5098     0.0340     2.5742   -32.2371     8.2879     9.1882
 1303.0000    84.2578     9.5113     0.0341     2.5683   -32.0684     8.2930     9.1912
 1303.5000    80.4033     9.5127     0.0343     2.5751   -32.0204     8.2981     9.1314
 1304.0000    80.1166     9.5439     0.0314     2.5774   -31.9648     8.3032     9.1345
 1304.5000    80.1348     9.5751     0.0271     2.5640   -31.9092     8.3234     9.1383
 1305.0000    80.4470     9.5765     0.0257     2.5589   -31.8536     8.3503     9.2043
 1305.5000    82.5450     9.5631     0.0258     2.5567   -31.7980     8.3771     9.2074
 1306.0000    79.8810     9.5649     0.0274     2.5582   -31.7602     8.4025     9.2740
 1306.5000    79.1515     9.5512     0.0350     2.5559   -31.8911     8.4092     9.4054
 1307.0000    79.6379     9.5232     0.0470     2.5427   -31.8620     8.4739     9.5387
 1307.5000    80.3748     9.5095     0.0560     2.5376   -31.6903     8.5390     9.6739
 1308.0000    80.2405     9.5261     0.0542     2.5748   -31.8154     8.7234     9.8109
 1308.5000    79.2134     9.6465     0.0251     2.5823   -31.9405     8.9117     9.8142
 1309.0000    75.9542     9.6331     0.0192     2.5638   -32.3623     9.0420     9.8176
 1309.5000    75.0723     9.5305     0.0208     2.5460   -32.6532     9.1224     9.8216
 1310.0000    76.4298     9.5171     0.0269     2.5393   -32.9092     9.2464     9.8249
 1310.5000    77.6348     9.5334     0.0463     2.5379   -32.8801     9.0656     9.8282
 1311.0000    77.6494     9.5649     0.0569     2.5458   -32.8568     8.8275     9.8315
 1311.5000    77.3664     9.6258     0.0525     2.5841   -32.6851     8.5957     9.5683
 1312.0000    76.3393     9.7016     0.0378     2.5886   -32.6618     8.3700     9.3763
 1312.5000    66.9045     9.7179     0.0304     2.5574   -32.6385     8.2063     9.3151
 1313.0000    66.1006     9.6896     0.0351     2.5344   -32.6152     8.2129     9.2545
 1313.5000    68.0533     9.5425     0.0619     2.5248   -32.5919     8.1633     9.3215
 1314.0000    70.5977     9.3210     0.0771     2.5182   -32.7228     8.1700     9.4711
 1314.5000    73.5884     9.3522     0.0934     2.5502   -32.6937     8.1767     9.9233
 1315.0000    72.1149     9.4279     0.1069     2.5666   -32.5221     8.1847     9.6577
 1315.5000    69.4509     9.4740     0.1174     2.5753   -32.3502     8.2476     9.2709
 1316.0000    69.6143     9.4457     0.1115     2.5950   -32.3264     8.3110     9.0841
 1316.5000    72.1586     9.4323     0.0805     2.5898   -32.2980     8.4324     9.0879
 1317.0000    81.6970     9.4935     0.0568     2.6100   -32.2747     8.4972     9.2167
 1317.5000    77.5449     9.6139     0.0584     2.6167   -32.2514     8.5625     9.0939
 1318.0000    72.5000     9.5856     0.0511     2.5580   -32.2281     8.6283     9.0970
 1318.5000    67.1453     9.3493     0.0391     2.5811   -32.2048     8.2874     9.0357
 1319.0000    67.6686     9.2018     0.0588     2.5507   -32.0332     8.1808     8.8564
 1319.5000    71.8033     9.3373     0.0678     2.5433   -32.0099     8.1318     8.8602
 1320.0000    73.0084     9.5022     0.0560     2.5555   -32.1349     8.1400     8.8017
 1320.5000    73.0230     9.4888     0.0546     2.5716   -32.1117     8.1465     8.8054
 1321.0000    73.6328     9.4906     0.0533     2.5531   -32.0884     8.1531     8.8691
 1321.5000    75.7307     9.5664     0.0638     2.5450   -32.0651     8.1596     8.8720
 1322.0000    78.2714     9.6418     0.0716     2.5406   -32.0416     8.1662     8.8750
 1322.5000    72.4860     9.3910     0.0700     2.5473   -32.0178     8.1727     8.9392
 1323.0000    75.6256     9.3772     0.0747     2.5645   -32.2861     8.1793     9.0658
 1323.5000    75.3426     9.5276     0.0824     2.5669   -32.4170     8.1859     9.1314
 1324.0000    74.3155     9.5142     0.0852     2.5765   -32.5421     8.1924     9.1345
 1324.5000    75.4094     9.4711     0.0675     2.5960   -32.5130     8.1991     9.1383
 1325.0000    77.3214     9.5765     0.0453     2.6011   -32.6439     8.2623     9.1413
 1325.5000    76.5950     9.6820     0.0246     2.5870   -32.6147     8.2703     9.1444
 1326.0000    74.2286     9.4906     0.0069     2.5574   -32.4431     8.2770     9.1475
 1326.5000    77.0706     9.4471     0.0001     2.5411   -32.1231     8.2836     9.0879
 1327.0000    84.0792     9.4040     0.0250     2.5262   -31.8030     8.2903     8.9669
 1327.5000    82.9033     9.4058     0.0430     2.5114   -31.7797     8.2969     8.9084
 1328.0000    83.2155     9.4073     0.0460     2.5293   -31.7564     8.3036     8.9115
 1328.5000    82.1884     9.4087     0.0298     2.5673   -31.7330     8.3103     8.9145
 1329.0000    78.4827     9.4102     0.0151     2.5770   -31.8582     8.3169     8.9176
 1329.5000    74.4795     9.4116     0.0077     2.5615   -31.6807     8.3237     8.9212
 1330.0000    71.0714     9.4279     0.0109     2.5474   -31.8116     8.2734     8.9242
 1330.5000    72.3266     9.4145     0.0199     2.5504   -31.9367     8.2252     8.9272
 1331.0000    75.8133     9.4011     0.0215     2.5527   -32.2102     8.2318     8.8683
 1331.5000    78.5593     9.3732     0.0201     2.5453   -32.3352     8.2384     8.7503
 1332.0000    83.7822     9.3747     0.0172     2.5617   -32.4603     8.1871     8.7539
