~VERSION INFORMATION
 VERS.                2.0:   CWLS LOG ASCII STANDARD - VERSION 2.0
 WRAP.                 NO:   ONE LINE PER DEPTH STEP
~WELL INFORMATION
#MNEM.UNIT      DATA TYPE    INFORMATION
#----------   ------------   ------------------------------
 STRT.F          200.0000:   START DEPTH
 STOP.F         3135.5000:   STOP DEPTH
 STEP.F            0.5000:   STEP LENGTH
 NULL.          -999.2500:   NO VALUE
 COMP.    FENOX & SCISSON:   COMPANY
 WELL. FENIX NPR 23 "AX" #3-11:   WELL
 FLD .                NPR:   FIELD
 LOC .      S11 T38N R78W:   LOCATION
 CNTY.            NATRONA:   COUNTY
 STAT.            WYOMING:   STATE
 CTRY. UNITED STATES OF AMERICA:   COUNTRY
 SRVC.       SCHLUMBERGER:   SERVICE COMPANY
 DATE.        06-NOV-1977:   LOGDATE
 API .     49025104320000:   API NUMBER
~CURVE INFORMATION
#MNEM.UNIT       API CODE    CURVE DESCRIPTION
#----------   ------------   ------------------------------
 DEPT.F                  :   
 CALD.IN     45 280 60 00:   CALIPER FROM DENSITY LOG
 GRD .GAPI   45 310 01 00:   GAMMA RAY FROM DENSITY LOG
 RHOB.G/C3   45 350 01 00:   BULK DENSITY
 CORR.G/C3   45 356 01 00:   DENSITY CORRECTION
 SPR .MV     07 010 01 00:   SPONTANEOUS POTENTIAL
 LL8 .OHMM   07 220 08 00:   LATEROLOG-8 RES.
 ILD .OHMM   07 120 46 00:   DEEP INDUCTION RESISTIVITY
 ILM .OHMM   07 120 44 00:   INDUCTION LOG MEDIUM RESISTIVITY
~PARAMETER INFORMATION
#MNEM.UNIT          VALUE    DESCRIPTION
#----------   ------------   ------------------------------
 EKB .F         5176.0000:   Kelly bushing
 EGL .F         5171.0000:   Ground level
 TD  .F         3138.0000:   Total depth
 DATE.        06-NOV-1977:   Date logged
 CLNT.            A2DTECH:   Client Code
 SL  . 1650' FNL & 750' FWL:   Surface Location
 PD  .                 GL:   Permanent Datum
 EPD .F              5171:   Elevation Permanent Datum
 LMF .                 KB:   Log Measured From
 DMF .                 KB:   Drilling Measured From
 DAPD.F                 5:   Feet Above Permanent Datum
 DD  .F              3138:   Depth driller
 DL  .F              3135:   Depth logger
 BLI .F              3134:   Bottom log interval
 TLI .F               196:   Top log interval
 CS1 .IN            8.625:   Casing size
 CBD1.      8.625" @ 205':   Casing driller 1
 CBL1.F               205:   Casing logger 1
 BS1 .IN            7.875:   Bit size
 BSD1.F              3138:   Depth drilled with bit1
 DFT .            KCL/MUD:   Type fluid in hole
 DFD .                8.8:   Density
 DFV .                 34:   Viscosity
 DFPH.                 11:   pH
 DFL .                  6:   Fluid loss
 MSS .            MUD/PIT:   Source of sample
 RMS .OHMM           0.27:   Rm
 MST .F                48:   Rm Meas. temp.
 RMF .OHMM           0.29:   Rmf
 MFST.F                48:   Rmf Meas. temp.
 RMC .OHMM           0.39:   Rmc
 MCST.F                48:   Rmc Meas. temp.
 MFSS.               MEAS:   Source Rmf.
 MCSS.               CALC:   Source Rmc.
 RMB .OHMM           0.12:   Rm. at BHT
 BHT .F               104:   BHT.
 TCS .HRS            1500:   Time Circ. stopped
 TLAB.HRS            1930:   Time logger at bottom
 MRT .F               104:   Maximum recorded temp.
 LUN .               7711:   Logging unit number
 LUL .               CSPR:   Logging unit location
 ENGI.       CRAIG/SAYLER:   Recorded By
 WITN.         PETTINGILL:   Witnessed by
 ORIG.           5" PRINT:   Origin of data
 UWI .     49025104320000:   Unique Well ID
 DICO. A2D TECHNOLOGIES, INC.:   Digitizing Company
~OTHER INFORMATION
~A   DEPT     CALD        GRD       RHOB       CORR        SPR        LL8        ILD        ILM   
# ...
 3075.5000     8.0814    44.7980     2.2657    -0.0059   -11.5824     7.1962     8.1806     6.0687
 3076.0000     8.0817    49.0246     2.2710    -0.0060   -10.9681     7.2661     8.2229     6.0162
 3076.5000     8.0819    49.6314     2.2756    -0.0040   -10.9573     6.9443     7.2034     5.9642
 3077.0000     8.0821    48.1266     2.2796     0.0051   -10.7458     6.8845     7.1399     5.7525
 3077.5000     8.0824    43.6051     2.2786     0.0081   -10.9286     6.7012     7.1442     5.7548
 3078.0000     8.0826    39.3851     2.2736     0.0071   -10.9242     6.3461     7.1485     5.7583
 3078.5000     8.0828    37.2768     2.2646     0.0031   -10.9134     6.2341     7.1506     5.7606
 3079.0000     8.0831    34.8667     2.2616    -0.0019   -10.9048     6.2945     7.1556     5.8703
 3079.5000     8.0833    33.3617     2.2576    -0.0069   -10.6918     6.5928     7.1592     6.0146
 3080.0000     8.0835    33.0633     2.2587    -0.0069   -10.8817     6.5961     7.1620     6.0742
 3080.5000     8.0838    35.1784     2.2667    -0.0038   -10.8709     6.5392     7.3652     6.1325
 3081.0000     8.0639    38.1986     2.2697    -0.0018   -10.8601     6.5424     8.3802     6.1920
 3081.5000     8.0652    40.6162     2.2587    -0.0098   -10.8492     6.6667     8.8562     6.3362
 3082.0000     8.0665    42.4290     2.2667    -0.0018   -11.0370     6.7927     8.8607     6.5145
 3082.5000     8.0679    43.0358     2.2768    -0.0018   -11.2269     6.9853     8.1629     6.7617
 3083.0000     8.0692    40.9274     2.2808    -0.0078   -11.8131     7.2503     7.9812     6.9541
 3083.5000     8.0705    38.2154     2.2898    -0.0048   -11.9301     7.3880     7.9130     7.0865
 3084.0000     8.0719    36.7103     2.3028     0.0043   -12.0471     7.7388     8.9210     7.3554
 3084.5000     8.0732    36.7136     2.3229     0.0103   -12.1641     8.0292    10.6271     7.8485
 3085.0000     8.0745    37.6221     2.3822     0.0053   -12.2810    17.0326    10.7305     8.2965
 3085.5000     8.0758    41.2467     2.4390    -0.0117   -12.7626    20.2799     9.9754     8.5325
 3086.0000     8.0772    43.3621     2.4791    -0.0097   -12.8546    14.8150     8.8580     8.7762
 3086.5000     8.0785    44.2707     2.4781    -0.0037   -12.9466     9.6662     8.7805     7.3738
 3087.0000     8.0798    44.2741     2.3885     0.0004   -13.0385     9.2372     8.7046     7.2432
 3087.5000     8.0812    44.2776     2.2819    -0.0006   -13.1305     8.4331     8.5496     7.0217
 3088.0000     8.0825    45.1862     2.2829     0.0054   -13.2224     8.4373     8.6337     7.1551
 3088.5000     8.0838    49.4139     2.2943     0.0164   -13.3043     8.2883     8.6380     7.1572
 3089.0000     8.0852    50.3225     2.3057     0.0325   -14.0950     8.6810     8.6423     7.3617
 3089.5000     8.0865    52.1364     2.3180     0.0295   -14.2432     8.4499     8.6467     7.5728
 3090.0000     8.0880    55.4598     2.3016     0.0165   -14.3914     8.5319     8.6510     7.5743
 3090.5000     8.0679    56.9721     2.2910     0.0015   -14.5396     8.2292     8.6553     7.5781
 3091.0000     8.0681    54.5616     2.2960     0.0065   -14.6877     8.1582     8.4243     7.5811
 3091.5000     8.0684    49.4354     2.3020     0.0175   -14.8440     8.5447     8.4277     7.2462
 3092.0000     8.0686    47.9319     2.3031     0.0175   -15.0340     8.5490     8.4327     7.1182
 3092.5000     8.0688    48.8406     2.2930    -0.0015   -15.4283     8.2456     8.2826     7.0554
 3093.0000     8.0691    48.5423     2.2829    -0.0025   -15.7622     8.1000     8.0623     6.8226
 3093.5000     8.0693    48.5458     2.2681     0.0016   -16.0961     8.1048     8.0672     6.8704
 3094.0000     8.0695    50.6598     2.2691     0.0076   -16.4300     8.2588     8.1457     6.7511
 3094.5000     8.0698    53.6810     2.2845     0.0036   -16.7639     8.2629     8.1498     6.8417
 3095.0000     8.0700    56.0987     2.2998    -0.0004   -17.0978     8.4973     8.3050     6.8827
 3095.5000     8.0702    56.4040     2.3152    -0.0014   -17.3689     8.3472     8.3083     6.8868
 3096.0000     8.0705    60.9349     2.3252     0.0086   -17.7604     8.1998     8.3900     6.8882
 3096.5000     8.0707    64.2581     2.3232     0.0157   -18.1512     8.2039     8.3942     6.8937
 3097.0000     8.0709    67.2796     2.3172     0.0187   -18.5420     8.1332     8.2456     6.8972
 3097.5000     8.0712    67.5850     2.3142     0.0057   -18.9306     7.9896     8.0255     6.8999
 3098.0000     8.0714    64.2690     2.3163     0.0037   -19.3206     7.9936     7.9561     7.1617
 3098.5000     8.0716    61.8583     2.3153     0.0107   -19.3099     7.9976     7.9601     7.3641
 3099.0000     8.0719    54.0145     2.3063     0.0057   -19.2970     8.0752     8.1117     7.6066
 3099.5000     8.0720    47.9820     2.2993    -0.0013   -19.2884     8.6141     8.3425     7.6097
 3100.0000     8.0723    46.1747     2.2983    -0.0053   -19.6800     8.6184     8.2704     7.6142
 3100.5000     8.0725    45.5911     2.2964    -0.0002   -19.8435     8.4660     8.2036     7.4289
 3101.0000     8.0728    45.8810     2.2893     0.0128   -20.0568     8.3928     8.1276     7.2793
 3101.5000     8.0729    46.7901     2.2813    -0.0002   -20.2451     8.4733     7.9827     7.1501
 3102.0000     8.0731    48.9064     2.2724    -0.0092   -20.6343     8.4008     7.7701     7.3534
 3102.5000     8.0733    52.2299     2.2754     0.0118   -20.8226     8.3274     8.0293     7.6344
 3103.0000     8.0738    54.6480     2.2824     0.0119   -21.0110     8.3314     8.0331     7.6366
 3103.5000     8.0538    55.5571     2.2864     0.0069   -21.4001     8.3369     8.1493     7.6402
 3104.0000     8.0540    57.3724     2.2895     0.0009   -21.7892     8.3393     8.1508     7.6438
 3104.5000     8.0543    57.3731     2.2885    -0.0041   -21.9776     8.2687     8.0070     7.5767
 3105.0000     8.0545    60.9999     2.2895     0.0009   -22.3667     8.1972     8.0100     7.3435
 3105.5000     8.0548    65.0848     2.2915     0.0039   -22.7559     8.1247     7.7959     7.3470
 3106.0000     8.0551    69.1697     2.2755     0.0039   -23.1450     8.0559     7.5187     7.2155
 3106.5000     8.0553    73.6889     2.2765     0.0040   -23.3333     8.0597     7.2507     6.9603
 3107.0000     8.0556    76.4088     2.3043     0.0100   -23.9232     8.0620     7.1871     6.8364
 3107.5000     8.0559    76.7143     2.3236     0.0150   -24.3124     7.9223     7.1911     6.7772
 3108.0000     8.0561    75.8126     2.3277     0.0160   -24.5007     7.4320     7.1945     6.7191
 3108.5000     8.0564    74.9109     2.3257     0.0120   -24.6891     7.5039     7.2643     6.6892
 3109.0000     8.0566    74.9146     2.3227     0.0050   -24.6767     7.3710     7.4026     6.6905
 3109.5000     8.0569    75.5219     2.3237     0.0010   -24.8651     7.5117     7.4752     6.6317
 3110.0000     8.0572    77.6390     2.3588     0.0031   -24.6494     7.7960     7.4780     6.6354
 3110.5000     8.0574    81.5661     2.3598     0.0111   -24.6370     8.0173     7.6212     6.5771
 3111.0000     8.0577    82.7770     2.3432     0.0101   -24.6246     8.2448     8.2448     6.5814
 3111.5000     8.0580    83.0825     2.3128     0.0041   -24.2107     8.6358     8.6358     6.5235
 3112.0000     8.0582    79.4646     2.3088     0.0151   -23.9976     9.2129     9.2129     7.1925
 3112.5000     8.0585    68.9067     2.3078     0.0172   -23.7844     9.6499     9.6110     7.1952
 3113.0000     8.0574    67.3999     2.3109     0.0122   -23.9728     9.0541     9.5276     7.1985
 3113.5000     8.0563    65.2910     2.3149     0.0012   -24.3619     8.1889     8.8938     7.3352
 3114.0000     8.0552    63.1821     2.3239    -0.0088   -24.9518     8.0438     8.4223     7.6832
 3114.5000     8.0540    61.0746     2.3810     0.0022   -25.5417     8.5040     8.5432     7.9014
 3115.0000     8.0529    59.5686     2.4160     0.0022   -26.3323     9.1561     8.6263     7.9787
 3115.5000     8.0518    58.3643     2.4951     0.0012   -26.9222    14.7640     8.6313     8.3620
