~VERSION INFORMATION
 VERS.                2.0:   CWLS LOG ASCII STANDARD - VERSION 2.0
 WRAP.                 NO:   ONE LINE PER DEPTH STEP
~WELL INFORMATION
#MNEM.UNIT      DATA TYPE    INFORMATION
#----------   ------------   ------------------------------
 STRT.F          297.0000:   START DEPTH
 STOP.F         2946.0000:   STOP DEPTH
 STEP.F            0.5000:   STEP LENGTH
 NULL.          -999.2500:   NO VALUE
 COMP.    FENIX & SCISSON:   COMPANY
 WELL. FENIX & SCISSON SH "X" #17-10:   WELL
 FLD .             NPR #3:   FIELD
 LOC .      S10 T38N R78W:   LOCATION
 CNTY.            NATRONA:   COUNTY
 STAT.            WYOMING:   STATE
 CTRY. UNITED STATES OF AMERICA:   COUNTRY
 SRVC.       SCHLUMBERGER:   SERVICE COMPANY
 DATE.        05-APR-1977:   LOGDATE
 API .     49025103310000:   API NUMBER
~CURVE INFORMATION
#MNEM.UNIT       API CODE    CURVE DESCRIPTION
#----------   ------------   ------------------------------
 DEPT.F                  :   
 SPR .MV     07 010 01 00:   SPONTANEOUS POTENTIAL
 ILD .OHMM   07 120 46 00:   DEEP INDUCTION RESISTIVITY
 ILM .OHMM   07 120 44 00:   INDUCTION LOG MEDIUM RESISTIVITY
 LL8 .OHMM   07 220 08 00:   LATEROLOG-8 RES.
 CALD.IN     45 280 60 00:   CALIPER FROM DENSITY LOG
 GRD .GAPI   45 310 01 00:   GAMMA RAY FROM DENSITY LOG
 CORR.G/C3   45 356 01 00:   DENSITY CORRECTION
 RHOB.G/C3   45 350 01 00:   BULK DENSITY
~PARAMETER INFORMATION
#MNEM.UNIT          VALUE    DESCRIPTION
#----------   ------------   ------------------------------
 EKB .F         5270.0000:   Kelly bushing
 EGL .F         5260.0000:   Ground level
 TD  .F         2950.0000:   Total depth
 CLNT.            A2DTECH:   Client Code
 SL  . 205' FWL & 1115' FSL:   Surface Location
 DATE.        05-APR-1977:   Date Logged [DD-MMM-YYYY]
 DD  .F              2950:   Depth driller
 DL  .F              2948:   Depth logger
 BLI .F              2946:   Bottom log interval
 TLI .F               310:   Top log interval
 CS1 .              10.75:   Casing size
 CBD1.      10.75" @ 300':   Casing driller 1
 CBL1.IN              310:   Casing logger 1
 BS1 .IN            8.625:   Bit size
 BSD1.F              2950:   Depth drilled with bit1
 DFT .                KCL:   Type fluid in hole
 DFD .                9.0:   Density
 DFV .                 33:   Viscosity
 DFL .                  9:   Fluid loss
 MSS .            MUD PIT:   Source of sample
 RMS .OHMM          0.153:   Rm
 MST .F                60:   Rm Meas. temp.
 RMF .OHMM          0.130:   Rmf
 MFST.F                60:   Rmf Meas. temp.
 MFSS.               MEAS:   Source Rmf.
 RMC .OHMM          0.229:   Rmc
 MCST.F                60:   Rmc Meas. temp.
 MCSS.               CALC:   Source Rmc.
 RMB .OHMM           0.08:   Rm. at BHT
 BHT .F               115:   BHT.
 TCS .HRS               6:   Time Circ. stopped
 MRT .F               115:   Maximum recorded temp.
 LUN .               7689:   Logging unit number
 LUL .               CODY:   Logging unit location
 ENGI.             RASMUS:   Recorded By
 WITN.              LYONS:   Witnessed by
 ORIG.         2.5" PRINT:   Origin of data
 UWI .     49025103310000:   Unique Well ID
 DICO. A2D TECHNOLOGIES, INC.:   Digitizing Company
 PD  .                 GL:   Permanent Datum
 EPD .               5260:   Elevation Permanent Datum
 LMF .                 KB:   Log Measured From
 DMF .                 KB:   Drilling Measured From
 DAPD.                 10:   Feet Above Permanent Datum
~OTHER INFORMATION
~A   DEPT      SPR        ILD        ILM        LL8       CALD        GRD       CORR       RHOB   
# ...
  459.0000   -57.3147     4.0480     4.4594     6.5749    10.5560   106.0626     0.0352     2.4832
  459.5000   -57.0103     4.0488     4.3996     6.5753    10.5566   107.3211     0.0411     2.4832
  460.0000   -57.0000     3.9946     4.4324     6.5758    10.5572   108.8855     0.0411     2.4876
  460.5000   -56.9897     3.9954     4.4613     6.5442    10.5578   109.2438     0.0426     2.4965
  461.0000   -56.8069     3.9990     4.4619     6.4873    10.5584   105.5512     0.0471     2.5009
  461.5000   -56.6730     4.0521     4.4020     6.4878    10.5590   105.1528     0.0421     2.4980
  462.0000   -56.6629     4.1088     4.2839     6.4883    10.5890   106.9385     0.0317     2.4714
  462.5000   -56.6527     4.1663     4.2263     6.5780    10.5896   108.3931     0.0245     2.4699
  463.0000   -56.6426     4.2246     4.4038     6.6222    10.5608   102.6675     0.0202     2.4714
  463.5000   -56.6324     4.2837     4.6519     7.0000    10.5614    97.8998     0.0188     2.4744
  464.0000   -56.6222     4.3556     4.9139     7.6542    10.5913    96.8504     0.0173     2.4818
  464.5000   -56.6121     4.4650     4.9821     7.7523    10.5919    96.8066     0.0162     2.4866
  465.0000   -56.3078     4.5275     5.0514     7.6309    10.6218    98.0156     0.0162     2.4896
  465.5000   -56.2976     4.6082     5.0521     7.3410    10.6185    99.0572     0.0177     2.4940
  466.0000   -55.9934     4.6551     5.0527     7.3415    10.6086    99.6481     0.0266     2.4974
  466.5000   -55.9832     4.6560     5.1230     7.4430    10.5988    99.4946     0.0178     2.5010
  467.0000   -55.9731     4.5718     5.1236     7.4435    10.6240    99.2024     0.0128     2.4956
  467.5000   -55.9629     4.5090     5.0548     7.3429    10.6246    98.9101     0.0150     2.4855
  468.0000   -55.9527     4.3630     4.8524     7.0485    10.6252    98.7976     0.0219     2.4783
  468.5000   -55.6485     4.2342     4.6581     6.6740    10.6258    99.3928     0.0252     2.4774
  469.0000   -55.6382     4.1267     4.5324     6.4945    10.6264    99.6933     0.0210     2.4732
  469.5000   -55.6279     4.0392     4.4115     6.3198    10.5976   101.9749     0.0121     2.4673
  470.0000   -55.6177     4.0111     4.3522     6.2345    10.5983   104.3207     0.0133     2.4628
  470.5000   -55.6073     4.0119     4.3473     6.2349    10.5989   105.1065     0.0202     2.4605
  471.0000   -55.5971     4.0127     4.2943     6.2353    10.5994   105.5338     0.0231     2.4598
  471.5000   -55.5868     4.0135     4.3036     6.1511    10.6000   106.0137     0.0268     2.4612
  472.0000   -55.5765     4.0145     4.3547     6.1515    10.6006   105.7889     0.0238     2.4673
  472.5000   -55.5074     4.1267     4.4152     6.2616    10.6012   103.2920     0.0202     2.4763
  473.0000   -55.2617     4.3006     4.5381     6.4378    10.6311   101.8035     0.0186     2.4892
  473.5000   -55.2515     4.4208     4.6172     6.5879    10.6317   102.2561     0.0175     2.5114
  474.0000   -55.2412     4.5444     4.6831     6.8396    10.6322   103.4428     0.0299     2.5247
  474.5000   -55.2309     4.6715     4.7300     7.2690    10.6328    97.9489     0.0433     2.5306
  475.0000   -55.2206     4.7368     4.7306     8.0075    10.6334    91.3490     0.0433     2.5350
  475.5000   -54.9162     4.8030     4.7312     8.7012    10.6340    93.0440     0.0300     2.5350
  476.0000   -54.9059     4.8040     4.7319     8.7999    10.6346    96.8635     0.0211     2.5336
  476.5000   -54.8956     4.8050     4.7325     7.4593    10.6352   100.3898     0.0226     2.5295
  477.0000   -54.7558     4.7405     4.6689     7.0076    10.6357   103.0364     0.0256     2.5187
  477.5000   -54.5809     4.6771     4.6400     7.0137    10.6364   105.3897     0.0227     2.4914
  478.0000   -54.5706     4.5518     4.5760     7.1131    10.6370   101.8779     0.0212     2.4609
  478.5000   -54.4073     4.4908     4.5450     7.1557    10.6376   100.4188     0.0212     2.4519
  479.0000   -54.0951     4.4917     4.4839     7.0590    10.6382   102.4789     0.0213     2.4481
  479.5000   -53.9515     4.4316     4.4236     7.1567    10.6387   103.1369     0.0160     2.4533
  480.0000   -53.6450     4.3722     4.3643     7.1572    10.6394   101.0271     0.0079     2.4651
  480.5000   -53.3408     4.2550     4.3649     7.3560    10.6400   100.6881     0.0036     2.4534
  481.0000   -53.0365     4.2530     4.3655     7.4577    10.6406   102.8012     0.0021     2.4401
  481.5000   -52.7322     4.1989     4.4261     7.3570    10.6412   103.6882     0.0115     2.4525
  482.0000   -52.7220     4.1998     4.8711     7.0620    10.6711   103.6954     0.0391     2.4673
  482.5000   -52.4178     4.2586     4.9388     6.7788    10.7010   103.1162     0.0569     2.4643
  483.0000   -52.1135     4.2595     4.9394     6.4186    10.7309   103.1026     0.0318     2.4437
  483.5000   -52.1033     4.2603     4.8731     6.2460    10.7608   107.5295     0.0279     2.4614
  484.0000   -51.7991     4.2612     4.6780     6.3324    10.7614   111.0558     0.0422     2.4880
  484.5000   -51.7889     4.3208     4.4907     6.5083    10.7326   110.4766     0.0511     2.4972
  485.0000   -51.4846     4.3217     4.3702     6.6890    10.7039   109.0079     0.0437     2.4836
  485.5000   -51.4745     4.3225     4.3115     6.6895    10.6750   107.5136     0.0275     2.4762
  486.0000   -51.4647     4.3234     4.3120     6.6899    10.6757   105.1497     0.0186     2.4777
  486.5000   -51.4524     4.3243     4.3126     6.5996    10.6763   103.7607     0.0112     2.4821
  487.0000   -51.1482     4.3252     4.3132     6.6908    10.6769   104.6489     0.0068     2.4836
  487.5000   -51.1380     4.3261     4.3731     6.6952    10.6481   101.4304     0.0024     2.4814
  488.0000   -50.8337     4.3270     4.3737     6.7838    10.6487    98.2118     0.0039     2.4724
  488.5000   -50.5295     4.3532     4.3743     6.7843    10.6493    99.9786     0.0069     2.4620
  489.0000   -50.2252     4.3884     4.3797     6.7956    10.6499   101.7454     0.0084     2.4577
  489.5000   -50.2150     4.3893     4.4357     6.8785    10.6505   102.3391     0.0099     2.4556
  490.0000   -49.9107     4.3902     4.4363     6.8635    10.6804   101.4666     0.0114     2.4615
  490.5000   -49.3124     4.3911     4.4979     6.7861    10.6809   100.5941     0.0144     2.4674
  491.0000   -49.0081     4.3920     4.5605     6.8069    10.7108   100.3079     0.0174     2.4704
  491.5000   -48.9979     4.3929     4.5612     6.8804    10.7408   100.6086     0.0203     2.4748
  492.0000   -48.6936     4.3940     4.6245     6.8810    10.7425   100.6159     0.0233     2.4778
  492.5000   -48.6835     4.3949     4.6252     6.8814    10.7712   100.6231     0.0219     2.4792
  493.0000   -48.6733     4.3958     4.6258     6.8819    10.7741   102.1318     0.0236     2.4778
  493.5000   -48.6632     4.3967     4.6264     6.9771    10.8017   103.8939     0.0263     2.4719
  494.0000   -48.9471     4.3976     4.6270     6.9775    10.8023   105.3588     0.0218     2.4675
  494.5000   -49.2311     4.3985     4.6277     6.9780    10.8029   105.9868     0.0187     2.4675
  495.0000   -49.2206     4.3994     4.6283     6.9785    10.8035   106.9207     0.0144     2.4704
  495.5000   -49.2378     4.4002     4.6289     6.9789    10.8041   108.0391     0.0114     2.4763
  496.0000   -49.4947     4.4011     4.5667     6.9794    10.8047   108.2985     0.0084     2.4793
  496.5000   -49.4839     4.4020     4.5673     7.0272    10.8053   107.0270     0.0043     2.4778
  497.0000   -49.4735     4.4029     4.5680     7.1267    10.8059   105.6148     0.0028     2.4601
  497.5000   -49.4633     4.3439     4.5686     7.3272    10.8065   104.6700     0.0028     2.4528
  498.0000   -49.1588     4.3448     4.5693     7.4750    10.8071   104.1506     0.0047     2.4498
  498.5000   -49.1485     4.2866     4.5699     7.4755    10.8158   103.9360     0.0096     2.4557
  499.0000   -48.8441     4.2875     4.5085     7.3747    10.8756   107.0086     0.0194     2.4793
