~VERSION INFORMATION
 VERS.                2.0:   CWLS LOG ASCII STANDARD - VERSION 2.0
 WRAP.                 NO:   ONE LINE PER DEPTH STEP
~WELL INFORMATION
#MNEM.UNIT      DATA TYPE    INFORMATION
#----------   ------------   ------------------------------
 STRT.F            0.0000:   START DEPTH
 STOP.F         3504.0000:   STOP DEPTH
 STEP.F            0.5000:   STEP LENGTH
 NULL.          -999.2500:   NO VALUE
 COMP. LAWRENCE-ALLISON AND ASSOCIATES:   COMPANY
 WELL. LAWRENCE "TX" #16-34:   WELL
 FLD .              NPR 3:   FIELD
 LOC .      S34 T39N R78W:   LOCATION
 CNTY.            NATRONA:   COUNTY
 STAT.            WYOMING:   STATE
 CTRY. UNITED STATES OF AMERICA:   COUNTRY
 SRVC.       SCHLUMBERGER:   SERVICE COMPANY
 DATE.        10-APR-1982:   LOGDATE
 API .     49025108970000:   API NUMBER
~CURVE INFORMATION
#MNEM.UNIT       API CODE    CURVE DESCRIPTION
#----------   ------------   ------------------------------
 DEPT.F                  :   
 SPR .MV     07 010 01 00:   SPONTANEOUS POTENTIAL
 ILD .OHMM   07 120 46 00:   DEEP INDUCTION RESISTIVITY
 SFLU.OHMM   07 220 01 00:   SPHERICALLY FOCUSED LOG UNAVERAGED RESISTIVITY
 TENR.LBS    07 635 01 00:   TENSION FROM RESISTIVITY
 ILM .OHMM   07 120 44 00:   INDUCTION LOG MEDIUM RESISTIVITY
 GRD .GAPI   45 310 01 00:   GAMMA RAY FROM DENSITY LOG
 CALD.IN     45 280 60 00:   CALIPER FROM DENSITY LOG
 RHOB.G/C3   45 350 01 00:   BULK DENSITY
 CORR.G/C3   45 356 01 00:   DENSITY CORRECTION
 TEND.LBS    45 635 01 00:   TENSION FROM DENSITY LOG
 NPHI.DEC    42 890 03 00:   NEUTRON POROSITY SANDSTONE
~PARAMETER INFORMATION
#MNEM.UNIT          VALUE    DESCRIPTION
#----------   ------------   ------------------------------
 EKB .F         5149.0000:   Kelly bushing
 EGL .F         5139.0000:   Ground level
 EDF .F            0.0000:   Drilling floor
 TD  .F         3500.0000:   Total depth
 DATE.        10-APR-1982:   Date logged
 CLNT.            A2DTECH:   Client Code
 SL  . 1406' FSL & 423' FWL:   Surface Location
 PD  .                 GL:   Permanent Datum
 EPD .F              5139:   Elevation Permanent Datum
 LMF .                 KB:   Log Measured From
 DMF .                 KB:   Drilling Measured From
 DAPD.F                10:   Feet Above Permanent Datum
 DD  .F              3500:   Depth driller
 DL  .F              3497:   Depth logger
 BLI .F              3491:   Bottom log interval
 TLI .F               658:   Top log interval
 CS1 .IN            9.625:   Casing size
 CBD1.      9.625" @ 632':   Casing driller 1
 CBL1.F               658:   Casing logger 1
 BS1 .IN             8.75:   Bit size
 BSD1.F              3500:   Depth drilled with bit1
 DFT .           SPUD MUD:   Type fluid in hole
 DFD .                  9:   Density
 DFV .                 44:   Viscosity
 DFPH.                 10:   pH
 DFL .                  7:   Fluid loss
 MSS .           FLOWLINE:   Source of sample
 RMS .OHMM              2:   Rm
 MST .F                53:   Rm Meas. temp.
 RMF .OHMM            1.9:   Rmf
 MFST.F                53:   Rmf Meas. temp.
 RMC .OHMM            1.5:   Rmc
 MCST.F                53:   Rmc Meas. temp.
 MFSS.               MEAS:   Source Rmf.
 MCSS.               CALC:   Source Rmc.
 RMB .OHMM              1:   Rm. at BHT
 BHT .F               106:   BHT.
 TCS .HRS            1100:   Time Circ. stopped
 TLAB.HRS            1330:   Time logger at bottom
 MRT .F               106:   Maximum recorded temp.
 LUN .               8151:   Logging unit number
 LUL .                GLT:   Logging unit location
 ENGI.            NEUFFER:   Recorded By
 WITN.           JENNINGS:   Witnessed by
 ORIG.           5" PRINT:   Origin of data
 UWI .     49025108970000:   Unique Well ID
 DICO. A2D TECHNOLOGIES, INC.:   Digitizing Company
~OTHER INFORMATION
~A    DEPT     SPR        ILD       SFLU       TENR        ILM        GRD       CALD       RHOB       CORR       TEND       NPHI   
# ...
 2897.5000   -18.3760     2.4630     1.4930  1618.3820     2.5550   121.2430    12.8020     1.5820    -0.0500  1669.1410     0.5750
 2898.0000   -18.9190     2.5950     2.8240  1618.3820     2.6920   119.9040    12.3370     1.7880    -0.0430  1670.0060     0.4460
 2898.5000   -19.4590     2.7270     4.6500  1618.3820     2.8290   114.8750    10.3420     2.1980    -0.0070  1670.8700     0.2710
 2899.0000   -19.9400     3.0400     6.4770  1618.3820     3.1540   111.5680     9.3560     2.4100     0.0230  1671.7340     0.2410
 2899.5000   -20.0410     3.7490     7.2020  1618.3820     3.8900   110.6380     8.9480     2.4990     0.0190  1672.5990     0.2430
 2900.0000   -20.4110     4.4580     7.2020  1618.3820     4.6250   112.6950     8.9970     2.5190     0.0130  1673.4630     0.2490
 2900.5000   -20.7720     5.1670     7.0800  1618.3820     5.3610   114.9650     9.0370     2.5170     0.0170  1674.3280     0.2550
 2901.0000   -21.1350     5.6300     6.9440  1618.3820     5.8410   116.6440     9.0590     2.5230     0.0210  1675.1920     0.2610
 2901.5000   -21.5020     5.8820     6.7920  1618.3820     6.1030   116.7200     9.0750     2.5300     0.0220  1676.0560     0.2680
 2902.0000   -21.3640     5.8820     6.6230  1618.3820     6.1030   116.8270     9.0920     2.5310     0.0190  1676.9210     0.2670
 2902.5000   -21.1900     5.8820     6.5090  1618.3820     6.1030   117.9180     9.1080     2.5220     0.0110  1677.7850     0.2680
 2903.0000   -21.0170     5.9080     6.5090  1618.3820     6.1290   119.8820     9.1250     2.5140     0.0050  1678.6500     0.2720
 2903.5000   -20.8450     5.9370     6.5090  1618.3820     6.1600   121.8500     9.1420     2.5060     0.0030  1679.5140     0.2760
 2904.0000   -20.6760     5.9370     6.5090  1618.3820     6.1600   123.8760     9.1430     2.5000     0.0030  1680.3781     0.2760
 2904.5000   -20.5270     5.9370     6.8060  1618.3820     6.1590   124.5550     9.1380     2.5030     0.0020  1681.2430     0.2730
 2905.0000   -20.5260     5.9370     7.0040  1618.3820     6.1590   123.6160     9.1330     2.5040     0.0020  1682.1071     0.2670
 2905.5000   -20.5200     5.9340     6.9790  1618.3820     6.1570   122.7100     9.1280     2.5040     0.0020  1682.9720     0.2610
 2906.0000   -20.5130     5.9200     6.9590  1618.3820     6.1420   124.0860     9.1230     2.5050     0.0050  1683.8361     0.2580
 2906.5000   -20.5070     5.9060     6.9390  1618.3820     6.1270   125.1320     9.1180     2.5120     0.0090  1684.7000     0.2610
 2907.0000   -20.5010     5.8910     6.9190  1618.3820     6.1050   124.5300     9.1130     2.5190     0.0150  1685.5649     0.2650
 2907.5000   -20.4940     5.8840     6.8990  1618.3820     6.1270   123.9330     9.1080     2.5240     0.0170  1686.4290     0.2700
 2908.0000   -20.4880     5.8940     6.8780  1618.3820     6.1900   124.7050     9.1030     2.5270     0.0140  1687.2930     0.2710
 2908.5000   -20.4810     5.9030     7.1220  1618.3820     6.2530   126.3220     9.0980     2.5300     0.0120  1688.1580     0.2630
 2909.0000   -20.4750     5.9120     7.4260  1618.3820     6.3160   129.2830     9.0930     2.5320     0.0100  1689.0220     0.2580
 2909.5000   -20.4690     5.9200     7.7310  1618.3820     6.3900   132.5040     9.0880     2.5320     0.0090  1689.8870     0.2520
 2910.0000   -20.4620     5.9290     7.9690  1618.3820     6.2850   134.6290     9.0900     2.5300     0.0120  1690.7510     0.2530
 2910.5000   -20.4560     5.9370     7.4780  1618.3820     6.1590   135.1290     9.0940     2.5240     0.0160  1691.6150     0.2770
 2911.0000   -20.4490     5.8000     7.0760  1618.3820     6.0180   134.8870     9.0980     2.5180     0.0200  1692.4800     0.2830
 2911.5000   -20.4430     5.6670     6.6730  1618.3820     5.8800   131.8770     9.1020     2.5210     0.0240  1693.3440     0.2890
 2912.0000   -20.4370     5.5340     6.0470  1618.3820     5.7420   128.4600     9.1060     2.5300     0.0310  1694.2090     0.2950
 2912.5000   -20.4300     5.4010     6.0540  1618.3820     5.6040   126.8160     9.1100     2.5390     0.0290  1695.0730     0.3020
 2913.0000   -20.4240     5.2680     6.0700  1618.3820     5.4660   127.0010     9.1140     2.5320     0.0220  1695.9370     0.3040
 2913.5000   -20.4170     5.1350     6.0850  1618.3820     5.3280   128.4030     9.1180     2.5200     0.0170  1696.8020     0.3030
 2914.0000   -20.4110     5.0020     6.1010  1618.3820     5.1890   129.8050     9.1220     2.5100     0.0180  1697.6660     0.3030
 2914.5000   -20.4040     5.1100     5.9520  1618.3820     5.3020   129.5140     9.1260     2.5150     0.0270  1698.5310     0.3040
 2915.0000   -20.3980     5.2540     5.7220  1618.3820     5.4510   126.2980     9.1020     2.5220     0.0340  1699.3950     0.3050
 2915.5000   -20.3920     5.3990     5.8450  1618.3820     5.6010   123.3390     9.0770     2.5350     0.0400  1700.0000     0.3010
 2916.0000   -20.3850     5.7990     6.2470  1618.3820     6.0170   120.6950     9.0520     2.5490     0.0460  1700.0000     0.2850
 2916.5000   -20.3790     6.2330     6.8810  1618.3820     6.4660   118.1110     9.0260     2.5640     0.0520  1700.0000     0.2630
 2917.0000   -20.3720     6.6660     8.0980  1618.3820     6.9160   115.5130     9.0010     2.5640     0.0560  1700.0000     0.2390
 2917.5000   -20.3660     7.1000     9.4550  1618.3820     7.3660   112.8610     8.9760     2.5600     0.0560  1700.0000     0.2360
 2918.0000   -20.3600     7.5330     9.9160  1618.3820     7.8150   113.0260     8.9510     2.5580     0.0560  1700.0000     0.2330
 2918.5000   -20.3530     7.9660    10.3760  1618.3820     8.2650   113.8360     8.9250     2.5500     0.0480  1700.0000     0.2290
 2919.0000   -20.3470     8.3450    10.5030  1618.3820     8.6580   114.7740     8.9000     2.5370     0.0330  1700.0000     0.2260
 2919.5000   -20.3400     8.3450    10.3990  1618.3820     8.6580   116.4150     8.8630     2.5270     0.0220  1700.0000     0.2250
 2920.0000   -20.3440     8.2310    10.0870  1618.3820     8.5400   120.0760     8.8170     2.5300     0.0150  1700.0000     0.2300
 2920.5000   -20.3900     8.0770     9.7580  1618.3820     8.3800   124.4440     8.7710     2.5360     0.0120  1700.0000     0.2350
 2921.0000   -20.4340     7.8640     9.0480  1618.3820     8.1590   127.1800     8.7460     2.5320     0.0090  1700.0000     0.2400
 2921.5000   -20.4790     7.6510     7.9690  1618.3820     7.9380   127.0050     8.7350     2.5240     0.0090  1700.0000     0.2460
 2922.0000   -20.5240     7.4510     8.1260  1618.3820     7.7300   126.6910     8.7250     2.5230     0.0090  1700.0000     0.2420
 2922.5000   -20.5680     7.3180     8.5430  1618.3820     7.5930   126.4210     8.7150     2.5230     0.0090  1700.0000     0.2350
 2923.0000   -20.6130     7.1860     8.4480  1618.3820     7.4550   127.3710     8.7050     2.5200     0.0080  1700.0000     0.2400
 2923.5000   -20.6580     7.0540     8.1010  1618.3820     7.3180   127.7180     8.6950     2.5060     0.0050  1700.0000     0.2470
 2924.0000   -20.7020     6.9210     7.7530  1618.3820     7.1810   127.6450     8.6850     2.5000     0.0020  1700.0000     0.2540
 2924.5000   -20.7470     6.7890     7.5240  1618.3820     7.0430   126.2790     8.6750     2.5010     0.0000  1700.0000     0.2550
 2925.0000   -20.7920     6.6560     7.4720  1618.3820     6.9060   125.2430     8.6650     2.5120     0.0010  1700.0000     0.2520
 2925.5000   -20.8370     6.7730     7.7460  1618.3820     7.0020   125.6820     8.6550     2.5300     0.0120  1700.0000     0.2480
 2926.0000   -20.8810     6.8750     8.0870  1618.3820     7.0770   126.1240     8.6450     2.5490     0.0250  1700.0000     0.2460
 2926.5000   -20.9260     6.9760     8.4220  1618.3820     7.1510   127.0420     8.6340     2.5670     0.0320  1700.0000     0.2440
 2927.0000   -20.9700     7.0780     8.4060  1618.3820     7.2260   125.6750     8.6240     2.5670     0.0310  1700.0000     0.2420
 2927.5000   -21.0150     7.1800     8.3900  1618.3820     7.3290   125.1080     8.6140     2.5470     0.0220  1700.0000     0.2360
