~VERSION INFORMATION
 VERS.                2.0:   CWLS LOG ASCII STANDARD - VERSION 2.0
 WRAP.                 NO:   ONE LINE PER DEPTH STEP
~WELL INFORMATION
#MNEM.UNIT      DATA TYPE    INFORMATION
#----------   ------------   ------------------------------
 STRT.F            0.0000:   START DEPTH
 STOP.F         5786.0000:   STOP DEPTH
 STEP.F            0.5000:   STEP LENGTH
 NULL.          -999.2500:   NO VALUE
 COMP. U.S. DEPARTMENT OF ENERGY:   COMPANY
 WELL. DEPARTMENT "X" #2-3:   WELL
 FLD .           N P R #3:   FIELD
 LOC .       S3 T38N R78W:   LOCATION
 CNTY.            NATRONA:   COUNTY
 STAT.            WYOMING:   STATE
 CTRY. UNITED STATES OF AMERICA:   COUNTRY
 SRVC.       BAKER HUHGES:   SERVICE COMPANY
 DATE.        14-JUL-2002:   LOGDATE
 API .     49025230540000:   API NUMBER
~CURVE INFORMATION
#MNEM.UNIT       API CODE    CURVE DESCRIPTION
#----------   ------------   ------------------------------
 DEPT.F                  :   
 TEND.LBS    45 635 01 00:   TENSION FROM DENSITY LOG
 CALD.IN     45 280 60 00:   CALIPER FROM DENSITY LOG
 ZCOR.G/C3   45 356 01 00:   DENSITY CORRECTION
 PE  .B/E    45 358 01 00:   PHOTOELECTRIC FACTOR
 ZDEN.G/C3   45 350 01 00:   BULK DENSITY
 CNCF.DEC    42 890 03 00:   NEUTRON POROSITY
 TENS.LBS    60 635 01 00:   TENSION FROM SONIC
 DT  .US/F   60 520 00 00:   DELTA TIME
 RD  .OHMM   11 220 10 00:   RESISTIVITY DEEP
 TENR.LBS    11 635 01 00:   TENSION FROM RES. LOG
 RS  .OHMM   11 220 09 00:   RESISTIVITY SHALLOW
 GRR .GAPI   11 310 01 00:   GAMMA RAY FROM RES.
 RMLL.OHMM   11 270 04 00:   MICRO LATEROLOG
 SPR .MV     11 010 01 00:   SPONTANEOUS POTENTIAL FROM RES.
~PARAMETER INFORMATION
#MNEM.UNIT          VALUE    DESCRIPTION
#----------   ------------   ------------------------------
 EKB .F         5164.7000:   Kelly bushing
 EGL .F         5154.7000:   Ground level
 EDF .F         5163.7000:   Drilling floor
 TD  .F         5773.0000:   Total depth
 DATE.        14-JUL-2002:   Date logged
 CLNT.            A2DTECH:   Client Code
 SL  . 838' FNL & 2128' FWL:   Surface Location
 PD  .                 GL:   Permanent Datum
 EPD .F            5154.7:   Elevation Permanent Datum
 LMF .                 KB:   Log Measured From
 DMF .                 KB:   Drilling Measured From
 DD  .F              5770:   Depth driller
 DL  .F              5773:   Depth logger
 BLI .F              5770:   Bottom log interval
 CS1 .IN            9.625:   Casing size
 CBD1.       9.625 @ 578':   Casing driller 1
 CBL1.F               578:   Casing logger 1
 BS1 .IN             8.75:   Bit size
 DFT .       GEL/CHEMICAL:   Type fluid in hole
 DFD .                  9:   Density
 DFV .                 45:   Viscosity
 DFPH.                8.5:   pH
 DFL .                9.6:   Fluid loss
 MSS .           FLOWLINE:   Source of sample
 RMS .OHMM          0.568:   Rm
 MST .F                91:   Rm Meas. temp.
 RMF .OHMM          0.490:   Rmf
 MFST.F                92:   Rmf Meas. temp.
 RMC .OHMM          1.072:   Rmc
 MCST.F                90:   Rmc Meas. temp.
 MFSS.               MEAS:   Source Rmf.
 RMB .OHMM          0.291:   Rm. at BHT
 BHT .F               184:   BHT.
 TCS .HRS               8:   Time Circ. stopped
 MRT .F               184:   Maximum recorded temp.
 LUN .            HL-6530:   Logging unit number
 LUL .             CASPER:   Logging unit location
 ENGI.           VERCIMAK:   Recorded By
 WITN.              HARDY:   Witnessed by
 ORIG.           5" PRINT:   Origin of data
 UWI .     49025230540000:   Unique Well ID
 DICO. A2D TECHNOLOGIES, INC.:   Digitizing Company
~OTHER INFORMATION
~A    DEPT    TEND       CALD       ZCOR         PE       ZDEN       CNCF       TENS         DT         RD       TENR         RS         GRR      RMLL        SPR   
# ...
 1592.5000     4.6960     9.8870     0.0550     2.7970     2.5130     0.2880   -44.5890    87.0440     5.0420    -6.7220     6.1360    95.9870  -999.2500    -2.9960
 1593.0000     2.5570     9.8960     0.0900     2.8050     2.4660     0.3010   -44.5890    89.1730     5.0840    -7.4470     6.2360    95.8360  -999.2500    -3.0540
 1593.5000     0.4170     9.9050     0.1590     2.8120     2.4160     0.3210   -44.5890    90.7360     5.1080    -8.1720     6.3100    96.9330  -999.2500    -3.1110
 1594.0000    -1.7220     9.9170     0.1820     2.8200     2.4020     0.3380   -44.5890    92.8560     4.9570    -8.8970     6.0310    97.9760  -999.2500    -3.1140
 1594.5000    -3.8610     9.9270     0.1340     2.8280     2.4530     0.3320   -44.5890    92.1550     4.7470    -9.6220     5.7030    98.4340  -999.2500    -2.9550
 1595.0000    -3.3570     9.9380     0.0930     2.8360     2.5070     0.3110   -44.5890    91.1520     4.7550   -10.3470     5.6510    99.8120  -999.2500    -2.7980
 1595.5000     0.1570     9.9490     0.0840     2.8440     2.5250     0.3040   -44.5890    91.0520     4.7690   -11.0720     5.6900   101.1190  -999.2500    -2.6430
 1596.0000     3.6710     9.9600     0.0740     2.8520     2.5250     0.2980   -44.5890    90.1270     4.7840   -11.7970     5.7520    99.6010  -999.2500    -2.5630
 1596.5000     1.0090     9.9710     0.0650     2.8600     2.5260     0.3000   -44.5890    90.9470     4.7980   -12.5220     5.8150    97.9480  -999.2500    -2.6140
 1597.0000    -5.4090     9.9810     0.0560     2.8690     2.5270     0.3070   -44.5890    91.6530     4.8130   -13.2470     5.8770    98.6640  -999.2500    -2.6630
 1597.5000   -11.8260     9.9740     0.0470     2.8560     2.5220     0.3130   -44.5890    88.6470     4.8340   -13.9720     5.9170   103.0180  -999.2500    -2.7130
 1598.0000   -18.2430     9.9660     0.0570     2.8390     2.5040     0.3180   -44.5890    89.9500     4.8090   -14.6970     5.8660   103.4070  -999.2500    -2.7630
 1598.5000   -25.0000     9.9600     0.0930     2.8220     2.4610     0.3210   -51.8370    89.5490     4.7640   -15.4690     5.7750   102.9960  -999.2500    -2.8120
 1599.0000   -22.2600     9.9560     0.1440     2.8070     2.4330     0.3200   -62.9170    90.9460     4.7180   -35.4290     5.6840   101.3600  -999.2500    -2.8620
 1599.5000   -19.3660     9.9520     0.1770     2.9120     2.4210     0.3190   -56.0810    92.9560     4.6730   -26.9260     5.5930    99.6720  -999.2500    -2.9110
 1600.0000   -16.4730     9.9480     0.1650     3.0500     2.4220     0.3300   -49.2440    91.6760     4.6280   -10.5170     5.5480    99.5860  -999.2500    -2.9460
 1600.5000   -17.8200     9.9450     0.1510     3.1520     2.4330     0.3280   -35.3710    91.0700     4.5830     4.4910     5.5480    99.5970  -999.2500    -2.9210
 1601.0000   -24.7250     9.9730     0.1440     3.1290     2.4230     0.3030   -41.8090    90.3150     4.5380     5.3520     5.5330    99.5980  -999.2500    -2.8200
 1601.5000   -23.7020    10.0350     0.1930     3.0850     2.4080     0.2870   -48.2460    88.4470     4.5320    -4.9850     5.4970    99.5740  -999.2500    -2.7210
 1602.0000   -22.6790    10.0870     0.2070     3.0740     2.4020     0.2750   -54.6090    88.3980     4.6370   -15.3220     5.5920   100.2880  -999.2500    -2.6230
 1602.5000   -21.6560    10.1050     0.1910     3.0800     2.4490     0.2780   -53.7550    88.5270     4.7200   -25.4490     5.7730   101.1010  -999.2500    -2.5270
 1603.0000   -20.6330    10.1200     0.1660     3.0870     2.5020     0.2910   -52.9110    88.9820     4.8030   -33.3930     5.9550   102.2550  -999.2500    -2.4470
 1603.5000   -19.6100    10.0920     0.1460     3.1130     2.5520     0.3050   -52.0660    88.6440     4.8870   -23.5730     6.1380   104.0410  -999.2500    -2.3620
 1604.0000   -18.5880    10.0630     0.1270     3.2400     2.5760     0.3170   -51.2220    87.6230     4.9700   -13.7520     6.1950   104.3510  -999.2500    -2.3980
 1604.5000   -17.5650    10.0840     0.1190     3.2640     2.5680     0.3170   -50.3780    88.8850     5.0530    -5.4890     6.1680   101.5520  -999.2500    -2.4670
 1605.0000   -16.5420    10.1420     0.1250     2.9690     2.5520     0.3190   -49.5330    88.2460     5.1080    -5.4890     6.1210    98.8290  -999.2500    -2.5380
 1605.5000   -15.5190    10.1980     0.1610     2.7510     2.5290     0.3250   -48.6890    88.2460     5.0520    -5.4890     6.0740    99.0750  -999.2500    -2.6080
 1606.0000   -25.0000    10.2560     0.1790     2.8090     2.5130     0.3240   -47.8450    90.5510     4.9770    -5.4890     6.0270    99.6710  -999.2500    -2.6790
 1606.5000   -25.0000    10.2600     0.2010     2.8990     2.4330     0.3110   -47.0010    88.9100     4.9020    -5.4890     5.9800    99.9990  -999.2500    -2.7440
 1607.0000   -25.0000    10.2220     0.2390     3.1460     2.3670     0.2960   -46.1560    88.4470     4.8780    -4.6280     5.9170    99.9920  -999.2500    -2.7460
 1607.5000   -25.0000    10.1830     0.2610     3.3280     2.3210     0.2890   -45.3120    90.5620     4.9630    -1.5590     5.9420    99.7450  -999.2500    -2.7460
 1608.0000   -27.1680    10.1770     0.2450     3.3640     2.3400     0.2920   -44.5890    90.9520     5.0300     1.5090     5.9970    98.4330  -999.2500    -2.7450
 1608.5000   -32.3370    10.1720     0.2240     3.3970     2.3850     0.3020   -39.6990    88.7030     5.0960     4.5780     6.0520    97.9840  -999.2500    -2.7450
 1609.0000   -37.5050    10.1670     0.2110     3.4190     2.4390     0.3200   -34.5490    88.4460     5.1080     7.6470     6.1070   100.5790  -999.2500    -2.7450
 1609.5000   -42.6740    10.1610     0.2080     3.4350     2.4720     0.3290   -29.3990    88.2460     5.0370    10.7160     6.1890   101.4260  -999.2500    -2.7460
 1610.0000   -46.4000    10.1560     0.2540     3.4500     2.4430     0.3170   -24.5490    91.2630     4.9670    13.7850     6.1760   101.1790  -999.2500    -2.7460
 1610.5000   -56.2200    10.1510     0.2790     3.4670     2.4140     0.3080   -26.1100    92.4550     4.9230     3.6990     6.1250   100.3510  -999.2500    -2.7440
 1611.0000   -66.0400    10.1460     0.2120     3.5050     2.4420     0.3060   -27.9170    89.7840     5.0190    -1.0530     6.0820    99.5240  -999.2500    -2.6110
 1611.5000   -75.0000    10.1420     0.1240     3.2260     2.4960     0.3050   -29.7240    88.1460     5.1550    -5.8050     6.1500    98.7050  -999.2500    -2.4660
 1612.0000   -67.3710    10.1460     0.0900     2.9090     2.5320     0.2950   -31.5310    89.4270     5.2020   -10.5560     6.2340    99.0050  -999.2500    -2.4820
 1612.5000   -60.3570    10.1500     0.1750     2.7990     2.5170     0.2940   -33.3390    91.1340     5.1420   -15.3080     6.3390   102.0270  -999.2500    -3.1280
 1613.0000   -53.3430    10.1540     0.2390     2.7340     2.4790     0.3140   -35.1460    92.8400     5.0760   -20.0600     6.3680   107.1490  -999.2500    -3.1510
 1613.5000   -46.3290    10.1580     0.2170     2.7580     2.4850     0.3240   -36.9530    93.7580     5.0150   -24.8120     6.0820   105.1640  -999.2500    -3.1470
 1614.0000   -31.0700    10.1620     0.1900     2.7950     2.5040     0.3120   -38.7600    91.1000     5.0970   -20.7250     6.1570   101.7120  -999.2500    -3.1350
 1614.5000   -13.8850    10.1660     0.1780     2.8320     2.5280     0.2910   -40.5670    89.7190     5.1760   -15.2690     6.2320    98.1690  -999.2500    -3.0530
 1615.0000     3.3000    10.1700     0.1730     2.8690     2.5440     0.2810   -42.3740    90.6510     5.2560    -9.8140     6.3060    98.6350  -999.2500    -2.9710
 1615.5000    20.4850    10.1740     0.1520     2.8800     2.5520     0.2860   -44.1810    88.7730     5.3350    -5.9130     6.3800   101.1600  -999.2500    -2.8890
 1616.0000    22.5870    10.1780     0.1080     2.8900     2.5510     0.2940   -45.3360    85.5410     5.4470    -7.9590     6.4550   103.6020  -999.2500    -2.8070
 1616.5000    19.3130    10.1820     0.0550     2.9000     2.5340     0.2910   -46.6230    88.2460     5.4160   -10.0050     6.5290   106.0440  -999.2500    -2.7340
