~VERSION INFORMATION
 VERS.                2.0:   CWLS LOG ASCII STANDARD - VERSION 2.0
 WRAP.                 NO:   ONE LINE PER DEPTH STEP
~WELL INFORMATION
#MNEM.UNIT      DATA TYPE    INFORMATION
#----------   ------------   ------------------------------
 STRT.F          218.0000:   START DEPTH
 STOP.F         3062.0000:   STOP DEPTH
 STEP.F            0.5000:   STEP LENGTH
 NULL.          -999.2500:   NO VALUE
 COMP.    FEXIN & SCISSON:   COMPANY
 WELL. FEXIN 32 "A" #3-34:   WELL
 FLD .              N P R:   FIELD
 LOC .      S34 T39N R78W:   LOCATION
 CNTY.            NATRONA:   COUNTY
 STAT.            WYOMING:   STATE
 CTRY. UNITED STATES OF AMERICA:   COUNTRY
 SRVC.              WELEX:   SERVICE COMPANY
 DATE.        18-JUL-1977:   LOGDATE
 API .     49025103960000:   API NUMBER
~CURVE INFORMATION
#MNEM.UNIT       API CODE    CURVE DESCRIPTION
#----------   ------------   ------------------------------
 DEPT.F                  :   
 CALD.IN     45 280 60 00:   CALIPER FROM DENSITY LOG
 RHOB.G/C3   45 350 01 00:   BULK DENSITY
 GRD .GAPI   45 310 01 00:   GAMMA RAY FROM DENSITY LOG
 CORR.G/C3   45 356 01 00:   DENSITY CORRECTION
 SPR .MV     07 010 01 00:   SPONTANEOUS POTENTIAL
 SGRD.OHMM   07 220 05 00:   SHALLOW SHORT GUARD RESISTIVITY
 ILM .OHMM   07 120 44 00:   INDUCTION LOG MEDIUM RESISTIVITY
 ILD .OHMM   07 120 46 00:   DEEP INDUCTION RESISTIVITY
~PARAMETER INFORMATION
#MNEM.UNIT          VALUE    DESCRIPTION
#----------   ------------   ------------------------------
 EKB .F         5080.0000:   Kelly bushing
 EGL .F         5070.0000:   Ground level
 TD  .F         3070.0000:   Total depth
 DATE.        18-JUL-1977:   Date logged
 CLNT.            A2DTECH:   Client Code
 SL  . 900' FNL & 1650'FWL:   Surface Location
 PD  .                 GL:   Permanent Datum
 DD  .F              3070:   Depth driller
 DL  .F              3063:   Depth logger
 BLI .F              3061:   Bottom log interval
 CS1 .IN            8.625:   Casing size
 CBD1.      8.625" @ 212':   Casing driller 1
 CBL1.F               222:   Casing logger 1
 BS1 .IN            7.875:   Bit size
 DFT .           CEHM-GEL:   Type fluid in hole
 DFD .                8.8:   Density
 DFV .                 42:   Viscosity
 DFPH.                7.5:   pH
 DFL .                  8:   Fluid loss
 MSS .           FLOWLINE:   Source of sample
 RMS .OHMM            .89:   Rm
 MST .F                94:   Rm Meas. temp.
 RMF .OHMM            .54:   Rmf
 MFST.F                94:   Rmf Meas. temp.
 RMC .OHMM           1.24:   Rmc
 MCST.F                94:   Rmc Meas. temp.
 MFSS.               FANN:   Source Rmf.
 RMB .OHMM            .67:   Rm. at BHT
 BHT .F               122:   BHT.
 TCS .HRS               4:   Time Circ. stopped
 MRT .F               122:   Maximum recorded temp.
 LUN .               8611:   Logging unit number
 LUL .             CASPER:   Logging unit location
 ENGI.          C.A. DOAK:   Recorded By
 WITN.         PETTINGILL:   Witnessed by
 ORIG.           5" PRINT:   Origin of data
 UWI .     49025103960000:   Unique Well ID
 DICO. A2D TECHNOLOGIES, INC.:   Digitizing Company
 DAPD.                 12:   Feet Above Permanent Datum
 BSD1.F              3950:   Depth drilled with bit1
 MCSS.                KIT:   Source Rmc.
 EPD .F              5070:   Elevation Permanent Datum
 LMF .                 KB:   Log Measured From
 DMF .                 KB:   Drilling Measured From
 TLI .F               200:   Top log interval
~OTHER INFORMATION
~A   DEPT     CALD       RHOB        GRD       CORR        SPR       SGRD        ILM        ILD   
# ...
 1149.5000     8.4930     2.5040    91.0890     0.0200   -65.7060    47.5360    33.6090    31.4780
 1150.0000     8.4920     2.5040    90.9770     0.0220   -65.7220    46.0490    33.4410    31.3580
 1150.5000     8.4910     2.4960    90.4100     0.0180   -65.7380    44.9910    33.2720    31.2390
 1151.0000     8.4890     2.4820    89.3830     0.0140   -65.7540    46.4330    33.1040    31.1190
 1151.5000     8.4880     2.4680    88.3520     0.0100   -65.7700    47.8650    32.9350    30.9990
 1152.0000     8.4870     2.4550    87.3170     0.0060   -65.7860    49.2000    32.7850    30.8790
 1152.5000     8.4850     2.4530    86.6590     0.0040   -65.8020    49.0010    32.8170    30.7590
 1153.0000     8.4840     2.4680    88.8100     0.0040   -65.8190    48.7200    32.8620    30.6390
 1153.5000     8.4830     2.4860    90.9030     0.0080   -65.8350    47.5930    32.9080    30.1870
 1154.0000     8.4810     2.4940    92.9640     0.0120   -65.9240    44.6110    32.9530    30.1680
 1154.5000     8.4800     2.5000    94.4770     0.0160   -66.0760    43.1710    32.9980    30.1480
 1155.0000     8.4790     2.5020    93.6680     0.0200   -66.2290    44.5240    33.0440    30.1270
 1155.5000     8.4770     2.4970    92.9040     0.0200   -66.3820    45.5510    33.0890    30.1070
 1156.0000     8.4760     2.4890    92.1490     0.0170   -66.5330    46.2460    33.1350    30.0870
 1156.5000     8.4750     2.4810    92.2170     0.0140   -66.6080    45.3010    33.1800    30.0660
 1157.0000     8.4750     2.4760    93.3260     0.0110   -66.5150    45.5660    33.2250    30.0460
 1157.5000     8.4750     2.4810    94.4180     0.0120   -66.4270    45.9300    33.2710    30.0250
 1158.0000     8.4750     2.4850    95.2880     0.0140   -66.3400    46.2460    33.3160    30.0050
 1158.5000     8.4750     2.4850    95.1410     0.0170   -66.2520    45.7510    33.3610    29.9850
 1159.0000     8.4750     2.4890    94.5450     0.0200   -66.1650    45.3010    33.4070    29.7940
 1159.5000     8.4750     2.4940    93.9620     0.0230   -66.0760    45.4030    33.4520    29.9360
 1160.0000     8.4750     2.4990    93.3780     0.0260   -66.0400    45.5920    33.4980    30.0790
 1160.5000     8.4750     2.4990    92.7940     0.0280   -66.0400    45.7820    33.5430    30.2220
 1161.0000     8.4750     2.4990    92.2100     0.0300   -66.0400    45.9710    33.5880    30.3650
 1161.5000     8.4750     2.4980    91.6270     0.0270   -66.0400    46.1600    33.6340    30.5080
 1162.0000     8.4750     2.4980    91.0450     0.0230   -66.0400    46.3750    33.6800    30.6510
 1162.5000     8.4750     2.4950    91.5960     0.0200   -66.0400    46.7470    33.7330    30.7940
 1163.0000     8.4750     2.4920    93.2770     0.0170   -66.0400    47.2100    33.7950    30.9370
 1163.5000     8.4750     2.4820    94.9680     0.0130   -66.0400    46.9310    33.8570    31.0290
 1164.0000     8.4750     2.4730    95.1770     0.0100   -66.0400    46.5590    33.9190    31.0290
 1164.5000     8.4750     2.4780    93.7550     0.0130   -66.0400    46.2460    33.9810    31.0290
 1165.0000     8.4730     2.4840    95.3190     0.0160   -66.0400    45.9290    34.0420    31.0290
 1165.5000     8.4700     2.4830    97.4090     0.0180   -66.0400    46.9560    34.1040    31.0290
 1166.0000     8.4670     2.4820    99.4840     0.0180   -66.0400    47.5360    34.1660    31.0290
 1166.5000     8.4640     2.4900   100.8880     0.0180   -66.0400    47.5360    34.2280    31.1950
 1167.0000     8.4610     2.4980   100.4560     0.0180   -66.0400    47.2100    34.2890    31.4900
 1167.5000     8.4570     2.5040    99.2560     0.0180   -66.0400    47.8050    34.3510    31.6810
 1168.0000     8.4540     2.4930    98.0500     0.0180   -66.0400    48.4190    34.4020    31.7080
 1168.5000     8.4510     2.4950    97.9100     0.0190   -66.0400    49.0330    34.6340    31.7360
 1169.0000     8.4480     2.4970    99.9950     0.0200   -66.0400    49.5400    34.8790    31.7630
 1169.5000     8.4440     2.4990   100.0360     0.0190   -66.0400    48.8160    34.7850    31.7910
 1170.0000     8.4410     2.4940    98.8300     0.0160   -66.0400    47.8650    34.6230    31.8180
 1170.5000     8.4380     2.4880    97.6630     0.0140   -66.0390    47.8650    34.4610    31.8460
 1171.0000     8.4350     2.4820    96.4990     0.0110   -66.0250    49.1150    34.2990    31.8730
 1171.5000     8.4310     2.4810    95.3210     0.0080   -65.9610    48.0360    34.1660    31.9010
 1172.0000     8.4280     2.4860    94.1450     0.0070   -65.8990    45.0150    34.3000    31.9280
 1172.5000     8.4250     2.4880    95.0150     0.0120   -65.8370    44.0710    34.5270    31.9560
 1173.0000     8.4220     2.4800    96.0440     0.0130   -65.7750    47.1280    34.7550    31.9830
 1173.5000     8.4180     2.4800    97.0700     0.0070   -65.7120    49.5400    34.9820    32.0110
 1174.0000     8.4160     2.4830    98.1010     0.0100   -65.6500    49.8820    35.1200    32.0380
 1174.5000     8.4170     2.4860    99.1630     0.0120   -65.5880    48.5020    35.0050    32.0660
 1175.0000     8.4180     2.4790    99.2180     0.0100   -65.5260    47.3480    34.9090    32.0930
 1175.5000     8.4190     2.4710    99.2360     0.0080   -65.4640    46.8870    34.8120    32.1180
 1176.0000     8.4200     2.4630    98.1590     0.0060   -65.4020    49.8820    34.7160    32.1280
 1176.5000     8.4210     2.4640    96.6660     0.0040   -65.3400    48.8320    34.6400    32.1390
 1177.0000     8.4220     2.4750    95.1640     0.0060   -65.2770    47.5360    34.6400    32.1510
 1177.5000     8.4230     2.4860    93.6610     0.0080   -65.2150    47.5360    34.6400    32.1620
 1178.0000     8.4230     2.4830    92.1570     0.0100   -65.1530    49.2530    34.6400    32.1730
 1178.5000     8.4240     2.4780    90.6510     0.0080   -65.0920    50.9670    34.6400    32.1840
 1179.0000     8.4250     2.4850    89.1690     0.0080   -65.0630    51.9840    34.6400    32.1950
 1179.5000     8.4260     2.4940    89.2760     0.0120   -65.1130    50.5390    34.6400    32.2060
 1180.0000     8.4270     2.5040    90.8080     0.0170   -65.1610    48.5280    34.6400    32.2170
 1180.5000     8.4280     2.5130    92.4820     0.0220   -65.2080    49.7340    34.6400    32.2280
 1181.0000     8.4290     2.5220    94.1500     0.0260   -65.2560    51.2040    34.6400    32.2390
 1181.5000     8.4290     2.5320    92.8890     0.0310   -65.3040    52.3430    34.6400    32.2500
 1182.0000     8.4300     2.5370    90.4970     0.0360   -65.3510    50.2260    34.6400    32.2620
 1182.5000     8.4310     2.5330    90.9960     0.0390   -65.3990    50.3090    34.6540    32.2730
 1183.0000     8.4320     2.5260    92.2850     0.0360   -65.4470    50.5030    34.6760    32.2840
 1183.5000     8.4330     2.5200    92.2220     0.0330   -65.4940    50.6970    34.6980    32.2950
 1184.0000     8.4340     2.5130    90.9040     0.0300   -65.5420    50.9220    34.7210    32.3060
 1184.5000     8.4350     2.5140    90.1940     0.0290   -65.5900    50.3830    34.7430    32.3170
 1185.0000     8.4360     2.5220    91.6280     0.0320   -65.6370    49.2000    34.7650    32.3280
 1185.5000     8.4350     2.5290    92.9930     0.0340   -65.6850    49.4760    34.7870    32.3400
 1186.0000     8.4340     2.5230    94.4460     0.0340   -65.7330    50.1010    34.8100    32.3530
 1186.5000     8.4330     2.5080    94.4320     0.0330   -65.7800    50.5730    34.8320    32.3670
 1187.0000     8.4320     2.5160    92.6900     0.0350   -65.8280    50.2080    34.8540    32.3800
 1187.5000     8.4310     2.5230    90.8930     0.0390   -65.8750    49.5400    34.8760    32.3930
 1188.0000     8.4300     2.5260    89.1010     0.0440   -65.9230    49.8410    34.8990    32.4060
 1188.5000     8.4290     2.5240    87.3140     0.0410   -65.9710    50.5090    34.9210    32.4200
 1189.0000     8.4280     2.5210    86.1610     0.0360   -66.0180    51.2740    34.9430    32.4330
 1189.5000     8.4260     2.5180    86.1550     0.0320   -66.0660    49.8270    34.9660    32.4460
