~VERSION INFORMATION
 VERS.                2.0:   CWLS LOG ASCII STANDARD - VERSION 2.0
 WRAP.                 NO:   ONE LINE PER DEPTH STEP
~WELL INFORMATION
#MNEM.UNIT      DATA TYPE    INFORMATION
#----------   ------------   ------------------------------
 STRT.F            0.0000:   START DEPTH
 STOP.F         3083.0000:   STOP DEPTH
 STEP.F            0.5000:   STEP LENGTH
 NULL.          -999.2500:   NO VALUE
 COMP. LAWRENCE & ALLISON & ASSOCIATES:   COMPANY
 WELL. LAWRENCE 71 "AX" #3-29:   WELL
 FLD .              N P R:   FIELD
 LOC .      S29 T38N R78W:   LOCATION
 CNTY.            NATRONA:   COUNTY
 STAT.            WYOMING:   STATE
 CTRY. UNITED STATES OF AMERICA:   COUNTRY
 SRVC.      DRESSER ATLAS:   SERVICE COMPANY
 DATE.        12-MAR-1985:   LOGDATE
 API .     49025110160000:   API NUMBER
~CURVE INFORMATION
#MNEM.UNIT       API CODE    CURVE DESCRIPTION
#----------   ------------   ------------------------------
 DEPT.F                  :   
 GRR .GAPI   07 310 01 00:   GAMMA RAY FROM RESISTIVITY
 SPR .MV     07 010 01 00:   SPONTANEOUS POTENTIAL
 TENR.LBS    07 635 01 00:   TENSION FROM RESISTIVITY
 RFOC.OHMM   07 220 04 00:   RESISTIVITY FOCUSED LOG RES.
 RILD.OHMM   07 120 46 00:   DEEP INDUCTION RESISTIVITY
 RILM.OHMM   07 120 44 00:   INDUCTION LOG MEDIUM RESISTIVITY
 TEND.LBS    45 635 01 00:   TENSION FROM DENSITY LOG
 DEN .G/C3   45 350 01 00:   BULK DENSITY
 CORR.G/C3   45 356 01 00:   DENSITY CORRECTION
 CNC .DEC    42 890 01 00:   NEUTRON PORISITY LIMESTONE
 CALD.IN     45 280 60 00:   CALIPER FROM DENSITY LOG
~PARAMETER INFORMATION
#MNEM.UNIT          VALUE    DESCRIPTION
#----------   ------------   ------------------------------
 EKB .F         4983.0000:   Kelly bushing
 EGL .F         4971.0000:   Ground level
 TD  .F         3082.0000:   Total depth
 DATE.        12-MAR-1985:   Date logged
 CLNT.            A2DTECH:   Client Code
 SL  . 568' FNL AND 829' FEL:   Surface Location
 PD  .                 GL:   Permanent Datum
 EPD .F              4971:   Elevation Permanent Datum
 LMF .                 KB:   Log Measured From
 DMF .                 KB:   Drilling Measured From
 DD  .F              3080:   Depth driller
 DL  .F              3082:   Depth logger
 BLI .F              3080:   Bottom log interval
 TLI .F              2100:   Top log interval
 CS1 .IN            8.625:   Casing size
 CBD1.      8.625" @ 311':   Casing driller 1
 BS1 .IN            7.875:   Bit size
 DFT .            KCL GEL:   Type fluid in hole
 DFD .                9.1:   Density
 DFV .                 38:   Viscosity
 DFPH.                  8:   pH
 DFL .               10.4:   Fluid loss
 MSS .           FLOWLINE:   Source of sample
 RMS .OHMM            .47:   Rm
 MST .F                60:   Rm Meas. temp.
 RMF .OHMM            .35:   Rmf
 MFST.F                61:   Rmf Meas. temp.
 RMC .OHMM            .53:   Rmc
 MCST.F                61:   Rmc Meas. temp.
 MFSS.               CLAC:   Source Rmf.
 RMB .OHMM           .209:   Rm. at BHT
 BHT .F               134:   BHT.
 TCS .HRS               3:   Time Circ. stopped
 MRT .F               134:   Maximum recorded temp.
 LUN .               6234:   Logging unit number
 LUL .               CLTE:   Logging unit location
 ENGI.      MACK/ EDWARDS:   Recorded By
 WITN.             STRONG:   Witnessed by
 PWI .                  -:   Primary Well Identifier
 ORIG.           5" PRINT:   Origin of data
 UWI .     49025110160000:   Unique Well ID
 DICO. A2D TECHNOLOGIES, INC.:   Digitizing Company
 DAPD.F                12:   Feet Above Permanent Datum
 BSD1.F              3080:   Depth drilled with bit1
 MCSS.               CALC:   Source Rmc.
~OTHER INFORMATION
~A    DEPT      GRR       SPR       TENR       RFOC       RILD       RILM       TEND        DEN       CORR        CNC       CALD   
# ...
 2867.0000   112.9080   -48.9130     6.2050     3.3030     2.4440     2.6530   -13.0870     2.4220    -0.0160     0.3040     8.7070
 2867.5000   111.3380   -48.9160     9.2240     3.2820     2.4440     2.6780    -9.4840     2.4270    -0.0210     0.3000     8.7070
 2868.0000   113.1180   -48.9920    12.3760     3.2450     2.4440     2.6490    -9.3670     2.4310    -0.0080     0.2960     8.7060
 2868.5000   114.9540   -49.0700     6.8320     3.2130     2.4440     2.6230   -21.0260     2.4190    -0.0090     0.2820     8.7060
 2869.0000   115.3960   -49.1470     1.0310     3.2400     2.4440     2.5850   -32.6860     2.4080    -0.0180     0.2760     8.7050
 2869.5000   112.2120   -49.2250    -4.7700     3.2620     2.4020     2.5270   -44.3450     2.4020    -0.0270     0.2820     8.7050
 2870.0000   109.3050   -49.3020    -7.0210     3.2730     2.3460     2.4690   -40.1610     2.4080    -0.0350     0.2920     8.7040
 2870.5000   110.6660   -49.3790    -6.2740     3.2090     2.2900     2.4110   -32.5380     2.4130    -0.0320     0.3000     8.7040
 2871.0000   113.6500   -49.4570    -5.5270     3.0900     2.2340     2.3520   -25.8940     2.4160    -0.0250     0.3000     8.7030
 2871.5000   119.2590   -49.5340    -4.7790     2.9710     2.1780     2.2940   -22.7970     2.4110    -0.0210     0.3000     8.7030
 2872.0000   123.0480   -49.6120    -4.0320     2.8530     2.1340     2.2310   -19.7000     2.4070    -0.0280     0.2990     8.7020
 2872.5000   126.2210   -49.6900    -3.2850     2.7340     2.1480     2.2670   -16.6030     2.4020    -0.0220     0.2970     8.7020
 2873.0000   125.8050   -49.6830    -2.5380     2.6050     2.1630     2.3350   -13.5050     2.4020    -0.0080     0.2950     8.7010
 2873.5000   120.5290   -49.6580    -1.7910     2.6050     2.1780     2.4030   -10.4080     2.4070     0.0060     0.2970     8.7010
 2874.0000   115.1820   -49.6330    -1.0440     2.8560     2.2030     2.4920    -7.3110     2.4180     0.0140     0.2960     8.7000
 2874.5000   109.7990   -49.6070    -0.2970     3.0600     2.3110     2.5900    -9.8470     2.4280    -0.0260     0.2840     8.7000
 2875.0000   107.0710   -49.5820     0.4500     3.2430     2.4190     2.6880   -13.7590     2.4350    -0.0510     0.2820     8.6990
 2875.5000   108.3100   -49.5570     1.1970     3.2920     2.5270     2.7770   -17.6710     2.4410    -0.0460     0.2930     8.6990
 2876.0000   110.0120   -49.5320     1.9440     3.3330     2.6600     2.8860   -21.5830     2.4470    -0.0300     0.3030     8.6980
 2876.5000   111.7550   -49.5040     0.9740     3.3430     2.8180     2.9840   -25.4950     2.4550    -0.0140     0.2940     8.6980
 2877.0000   112.4490   -49.4250    -4.2160     3.3530     2.9760     3.0830   -29.4070     2.4640     0.0190     0.2730     8.6980
 2877.5000   112.4200   -49.3420    -9.4060     3.3620     3.1340     3.1820   -33.3190     2.4750     0.0640     0.2650     8.7020
 2878.0000   111.4510   -49.2600   -14.5960     3.5030     3.3810     3.2810   -36.4950     2.4690     0.0470     0.2690     8.7060
 2878.5000   111.9440   -49.1780   -17.3270     3.6650     3.6710     3.4830   -36.4950     2.4620     0.0020     0.2630     8.7090
 2879.0000   110.8230   -49.0960   -17.3270     3.8920     3.9610     3.8010   -36.4950     2.4660    -0.0160     0.2540     8.7130
 2879.5000   107.8270   -49.0130   -17.3270     4.2530     4.2510     4.1180   -36.4950     2.4790    -0.0280     0.2570     8.7160
 2880.0000   102.4860   -48.9230   -17.3270     4.5670     4.5410     4.4360   -36.4950     2.4940    -0.0290     0.2610     8.7200
 2880.5000   101.1920   -49.1290   -17.3270     4.8000     4.7560     4.5580   -36.4950     2.5090     0.0100     0.2560     8.7240
 2881.0000   102.2500   -49.4010   -17.3270     4.9780     4.4570     4.5860   -36.4950     2.5240     0.0470     0.2470     8.7270
 2881.5000   104.3160   -49.6760   -17.3270     5.2580     3.8920     4.1280   -36.4950     2.5350     0.0440     0.2380     8.7310
 2882.0000   106.3200   -49.8960   -17.3270     6.4820     3.3270     3.4230   -36.4950     2.5420     0.0110     0.2350     8.7340
 2882.5000   111.4650   -49.3510   -17.3270     7.3680     2.7620     2.7190   -36.4950     2.5230    -0.0100     0.2470     8.7370
 2883.0000   130.2390   -48.7790   -17.3270     6.9920     2.3980     2.3080   -36.4950     2.5050     0.0110     0.2800     8.7430
 2883.5000   159.9110   -48.2110   -16.5350     4.4750     2.2910     2.0000   -36.4950     2.5170     0.1100     0.3110     8.7480
 2884.0000   191.8130   -47.6410   -13.1340     2.5150     2.2520     2.0280   -36.4950     2.5230     0.2510     0.3170     8.7530
 2884.5000   191.1020   -47.0580    -9.7340     1.7440     2.3360     2.0940   -36.4950     2.4820     0.2730     0.2790     8.7200
 2885.0000   169.5530   -47.0910    -6.3330     1.7440     2.4190     2.1590   -36.4950     2.4740     0.1740     0.2690     8.6520
 2885.5000   146.5950   -47.2830    -2.9330     2.7080     2.4730     2.5670   -36.4950     2.4290     0.0710     0.2640     8.5830
 2886.0000   130.1120   -47.4810     0.4680     3.4970     2.4890     3.0510   -36.4950     2.4380     0.0050     0.2590     8.5670
 2886.5000   125.4810   -47.6790     2.0060     4.0190     2.6070     3.5340   -36.7830     2.4620     0.0120     0.2550     8.5780
 2887.0000   118.2850   -47.8800     0.8590     4.3810     3.2110     4.0010   -37.5950     2.4860     0.0180     0.2460     8.5880
 2887.5000   110.7320   -47.9250    -0.2880     4.8880     3.8640     4.4460   -38.4070     2.5100     0.0150     0.2390     8.5990
 2888.0000   103.2320   -47.9900    -1.4340     5.0370     4.2480     4.7840   -39.2200     2.5200     0.0160     0.2420     8.5980
 2888.5000    99.1690   -48.0580    -2.5810     5.1860     4.6330     4.9630   -40.0320     2.5320     0.0200     0.2460     8.5960
 2889.0000    97.9010   -48.1260    -3.7280     5.3340     4.8820     5.1420   -40.8440     2.5350     0.0110     0.2470     8.5940
 2889.5000    96.6430   -48.1940    -4.8750     5.4830     5.0930     5.3210   -41.6570     2.5260    -0.0050     0.2340     8.5920
 2890.0000    92.6850   -48.2620    -6.0210     5.6440     5.3040     5.5030   -42.4690     2.5140    -0.0210     0.2280     8.5900
 2890.5000    89.6180   -48.3300    -7.1680     5.8610     5.6050     5.6180   -43.2810     2.5010    -0.0300     0.2310     8.5880
 2891.0000    91.4790   -48.3980    -6.4700     6.0840     5.5970     5.6400   -44.0940     2.4990    -0.0330     0.2350     8.5860
 2891.5000    98.3030   -48.4660    -5.2380     6.0600     5.5830     5.6620   -44.9060     2.5050    -0.0170     0.2330     8.5840
 2892.0000   110.7390   -48.5340    -4.0050     6.0180     5.5680     5.6850   -45.7180     2.5100    -0.0010     0.2300     8.5820
 2892.5000   117.9460   -48.6020    -2.7720     5.9740     5.5540     5.7080   -45.6660     2.5130     0.0040     0.2270     8.5810
 2893.0000   115.8460   -48.6690    -1.5400     5.8640     5.4860     5.7630   -39.8360     2.5080    -0.0160     0.2300     8.5790
 2893.5000   113.3790   -48.7170    -0.3070     5.6220     5.3960     5.8210   -34.0060     2.5000    -0.0290     0.2330     8.5770
 2894.0000   114.9220   -48.7130     0.9260     5.2580     5.3050     5.8790   -28.1760     2.4920    -0.0250     0.2370     8.5750
 2894.5000   117.7200   -48.5260     2.1580     5.2100     5.2100     5.9360   -32.5390     2.4870     0.0060     0.2320     8.5730
 2895.0000   120.6950   -48.3200    -1.3810     5.7470     5.2480     5.9850   -40.7980     2.4970     0.0280     0.2260     8.5710
 2895.5000   120.7820   -48.1150    -6.5710     6.4050     5.2990     6.0290   -49.0570     2.5070     0.0190     0.2220     8.5690
 2896.0000   119.0270   -47.9090   -11.7610     7.0400     5.3500     5.9580   -56.3560     2.5170     0.0100     0.2220     8.5670
 2896.5000   117.1750   -47.7250   -17.3270     6.9260     5.4040     5.8260   -52.2300     2.5160     0.0000     0.2230     8.5650
 2897.0000   115.2660   -47.8860   -14.4680     6.7710     5.3600     5.6940   -47.7250     2.5150    -0.0180     0.2250     8.5630
