~VERSION INFORMATION
 VERS.                2.0:   CWLS LOG ASCII STANDARD - VERSION 2.0
 WRAP.                 NO:   ONE LINE PER DEPTH STEP
~WELL INFORMATION
#MNEM.UNIT      DATA TYPE    INFORMATION
#----------   ------------   ------------------------------
 STRT.F           27.5000:   START DEPTH
 STOP.F         5889.0000:   STOP DEPTH
 STEP.F            0.5000:   STEP LENGTH
 NULL.          -999.2500:   NO VALUE
 COMP.   LAWRENCE ALLISON:   COMPANY
 WELL. LAWRENCE "X" #25-11:   WELL
 FLD .        N.P.R NO. 3:   FIELD
 LOC .      S11 T38N R78W:   LOCATION
 CNTY.            NATRONA:   COUNTY
 STAT.            WYOMING:   STATE
 CTRY. UNITED STATES OF AMERICA:   COUNTRY
 SRVC.      DRESSER ATLAS:   SERVICE COMPANY
 DATE.        09-FEB-1983:   LOGDATE
 API .     49025109170000:   API NUMBER
~CURVE INFORMATION
#MNEM.UNIT       API CODE    CURVE DESCRIPTION
#----------   ------------   ------------------------------
 DEPT.F                  :   
 CN  .DEC    42 890 03 00:   NEUTRON POROSITY
 GRD .GAPI   45 310 01 00:   GAMMA RAY FROM DENSITY LOG
 CORR.G/C3   45 356 01 00:   DENSITY CORRECTION
 DEN .G/C3   45 350 01 00:   BULK DENSITY
 CALD.IN     45 280 60 00:   CALIPER FROM DENSITY LOG
 TEND.LBS    45 635 01 00:   TENSION FORM DENSITY LOG
 GRS .GAPI   60 310 01 00:   GAMMA RAY FROM SONIC LOG
 TENS.LBS    60 635 01 00:   TENSION FROM SONIC
 DT  .US/F   60 520 00 00:   DELTA TIME
 SPR .MV     11 010 01 00:   SPONTANEOUS POTENTIAL FROM RES.
 RD  .OHMM   11 220 10 00:   RESISTIVITY DEEP
 RS  .OHMM   11 220 09 00:   RESISTIVITY SHALLOW
 RMLL.OHMM   11 270 04 00:   MICRO LATEROLOG
 TENR.LBS    11 635 01 00:   TENSION FROM RES.
~PARAMETER INFORMATION
#MNEM.UNIT          VALUE    DESCRIPTION
#----------   ------------   ------------------------------
 EKB .F         5196.0000:   Kelly bushing
 EGL .F         5186.0000:   Ground level
 TD  .F         5883.0000:   Total depth
 CLNT.            A2DTECH:   Client Code
 SL  . 1989' FSL & 1148' FWL:   Surface Location
 PD  .                 GL:   Permanent Datum
 EPD .F              5186:   Elevation Permanent Datum
 LMF .                 KB:   Log Measured From
 DMF .                 KB:   Drilling Measured From
 DAPD.F                10:   Feet Above Permanent Datum
 DATE.        09-FEB-1983:   Date Logged [DD-MMM-YYYY]
 DD  .F              5883:   Depth driller
 DL  .F              5882:   Depth logger
 BLI .F              5871:   Bottom log interval
 TLI .F               700:   Top log interval
 CS1 .IN            9.625:   Casing size
 CBD1.      9.625" @ 701':   Casing driller 1
 CBL1.F               700:   Casing logger 1
 BS1 .IN             8.75:   Bit size
 BSD1.F              5883:   Depth drilled with bit1
 DFT .    HEC/DRISPAC/KCL:   Type fluid in hole
 DFD .                  9:   Density
 DFV .                 35:   Viscosity
 DFPH.                  8:   pH
 DFL .                6.4:   Fluid loss
 MSS .           FLOWLINE:   Source of sample
 RMS .OHMM           0.23:   Rm
 MST .F                50:   Rm Meas. temp.
 RMF .OHMM           0.17:   Rmf
 MFST.F                54:   Rmf Meas. temp.
 MFSS.               MEAS:   Source Rmf.
 BHT .F               176:   BHT.
 TCS .HRS              10:   Time Circ. stopped
 MRT .F               176:   Maximum recorded temp.
 LUN .               6274:   Logging unit number
 LUL .               GLTE:   Logging unit location
 ENGI.          TOLLEFSON:   Recorded By
 WITN.           JENNINGS:   Witnessed by
 ORIG.           5" PRINT:   Origin of data
 UWI .     49025109170000:   Unique Well ID
 DICO. A2D TECHNOLOGIES, INC.:   Digitizing Company
 RMC .OHMM           0.41:   Rmc
 MCST.F                54:   Rmc Meas. temp.
 MCSS.               MEAS:   Source Rmc.
~OTHER INFORMATION
~A  DEPTH       CN        GRD       CORR        DEN       CALD       TEND        GRS       TENS         DT        SPR         RD         RS       RMLL       TENR
# ...
 4143.5000     0.2393   128.6486     0.0989     2.4360    10.3777   -30.3377    93.4548   -75.6809    82.3347   -84.5541     5.0509     4.5746     2.7550   -58.5342
 4144.0000     0.2492   127.3747     0.0924     2.4480    10.3734   -23.2923    93.7538   -75.8699    80.4574   -84.5563     5.5689     4.7702     5.8138   -58.6059
 4144.5000     0.2562   125.6240     0.0742     2.4675    10.3684   -16.2243    87.6244   -76.0590    79.4803   -84.8511     6.0549     4.9399     6.8724   -51.1182
 4145.0000     0.2479   123.5018     0.0621     2.4850    10.3605    -9.1518    85.5843   -76.2481    79.6284   -84.8497     6.3152     4.9753     6.6229   -51.2078
 4145.5000     0.2283   121.9884     0.0500     2.4960    10.3528     9.5420    87.3497   -76.4372    80.1517   -85.1489     6.0599     4.9077     5.5679   -51.2821
 4146.0000     0.2301   121.0837     0.0318     2.5005    10.3451    39.8572    89.6211   -76.6264    81.2751   -85.1471     5.5778     4.7083     4.7791   -51.3692
 4146.5000     0.2388   125.0520     0.0301     2.4973    10.3373    70.1278    94.3774   -77.1686    83.4487   -85.1456     5.2061     4.3629     4.1592   -51.4409
 4147.0000     0.2391   128.4092     0.0285     2.4876    10.3301   100.3984   102.1580   -84.8926    85.3973   -85.1439     4.8253     4.0993     4.1624   -43.9532
 4147.5000     0.2389   133.2885     0.0224     2.4792    10.3300   130.9908   107.3681   -84.5215    85.9211   -84.9923     4.4726     3.7986     4.3907   -44.0428
 4148.0000     0.2410   136.6458     0.0099     2.4746    10.3300   163.1559   110.1986   -69.6124    85.5436   -84.9909     4.3215     3.6951     4.5116   -44.1325
 4148.5000     0.2488   138.4885    -0.0019     2.4731    10.3300   121.2586   108.1404   -54.8780    85.1666   -84.8393     4.3538     3.7218     4.4781   -44.2042
 4149.0000     0.2603   138.7940     0.0100     2.4730    10.3300    55.6773   106.3879   -55.0681    85.0147   -84.8376     4.4164     3.8009     4.3838   -36.7164
 4149.5000     0.2591   136.9783     0.0279     2.4744    10.3301    -5.5777   105.5467   -62.8215    84.9378   -84.8361     4.5113     3.9089     4.4157   -36.8061
 4150.0000     0.2516   135.4650     0.0338     2.4797    10.3294   -11.7876   105.2632   -70.5748    84.7109   -84.6596     4.6401     3.9920     4.6285   -36.8778
 4150.5000     0.2471   135.1689     0.0352     2.4856    10.3174   -17.7187   104.3948   -85.8930    84.1838   -84.5330     4.8674     4.1234     4.7539   -36.9532
 4151.0000     0.2489   136.0913     0.0381     2.4895    10.3099   -23.5532   103.2340  -108.7752    83.7318   -84.2312     4.9681     4.2790     4.9177   -37.0286
 4151.5000     0.2460   135.1887     0.0425     2.4930    10.3100   -29.4371   101.7809  -116.5289    83.1987   -84.0793     4.9657     4.3531     5.1580   -37.1096
 4152.0000     0.2427   134.2841     0.0452     2.4916    10.3100   -35.3177   106.7604  -109.1529    82.5356   -84.0779     4.9632     4.4149     5.3728   -37.1809
 4152.5000     0.2396   133.3774     0.0225     2.4891    10.3100   -41.2002   111.1552   -86.6490    82.5383   -83.9263     4.8930     4.3832     5.5196   -44.7964
 4153.0000     0.2358   132.4750     0.0133     2.4860    10.3100   -45.4183   112.9589   -79.2739    82.9196   -83.9249     4.8238     4.2901     5.0055   -44.8828
 4153.5000     0.2337   132.1793     0.0221     2.4882    10.3100   -45.4183   109.7109   -79.4651    84.5037   -83.9231     4.6902     4.0586     4.8653   -52.4957
 4154.0000     0.2328   135.8423     0.0385     2.4957    10.3100   -45.4183   107.9103   -79.6546    86.2450   -83.9217     4.5602     3.8384     5.1742   -52.5669
 4154.5000     0.2337   139.5040     0.0549     2.5009    10.3100   -45.4183   110.8981   -87.4083    87.1270   -83.9203     4.3725     3.6809     5.8975   -52.6395
 4155.0000     0.2383   141.3795     0.0547     2.4970    10.3100   -45.4183   110.0298   -95.1620    86.8828   -83.9189     4.2809     3.6292     5.9337   -52.7274
 4155.5000     0.2416   141.9566     0.0606     2.4879    10.3100   -45.4183   108.5766  -110.4799    86.4134   -83.9174     4.2497     3.6011     5.1265   -52.7987
 4156.0000     0.2467   140.7476     0.0665     2.4871    10.3100   -45.4183   105.6614  -110.6695    85.8737   -84.0890     4.2480     3.5770     4.2498   -52.8701
 4156.5000     0.2506   141.0629     0.0693     2.4886    10.3100   -45.4183   106.2551  -118.4231    85.1744   -84.2149     4.2459     3.5761     4.0459   -45.3997
 4157.0000     0.2531   142.5936     0.0691     2.4832    10.3100   -45.4183   111.5270  -118.6125    85.0100   -84.3636     4.3039     3.5259     3.9838   -37.9297
 4157.5000     0.2495   145.0398     0.0687     2.4779    10.3100   -44.3338   116.7990  -111.2330    85.5870   -84.5120     4.1267     3.4763     3.8751   -30.4596
 4158.0000     0.2444   146.8750     0.0507     2.4786    10.3100   -43.1928   118.2676   -96.2985    86.0185   -84.5102     4.0124     3.2198     3.7148   -22.9894
 4158.5000     0.2405   147.4924     0.0445     2.4793    10.3100   -42.0497   113.2803   -81.3540    87.2008   -84.6589     3.8707     2.9208     3.3462   -30.6200
 4159.0000     0.2372   147.8034     0.0429     2.4777    10.3100   -40.9075   106.4911   -73.9789    89.3590   -84.6575     3.6892     2.9404     2.8098   -39.2948
 4159.5000     0.2405   144.3518     0.0412     2.4716    10.3100   -39.7654    93.3281   -81.7383    90.6164   -84.8063     3.5870     2.9396     1.9473   -53.4049
 4160.0000     0.2502   131.0823     0.0591     2.4655    10.3100   -38.6238    87.7389   -81.9276    91.4233   -84.8048     3.4396     2.9183     0.9216   -53.4762
 4160.5000     0.2541   119.5232     0.0634     2.4602    10.3100   -37.4832    88.1095   -89.6813    93.0100   -84.8030     3.3208     2.8181     0.6839   -61.0890
 4161.0000     0.2562   113.4436     0.0723     2.4571    10.3100   -36.3344    89.2456  -104.9994    94.8061   -84.8016     3.1190     2.6284     0.5869   -61.5995
 4161.5000     0.2589   112.8432     0.0753     2.4539    10.3100   -34.8985    89.5409  -112.7531    96.5272   -84.8002     2.9092     2.4686     0.5149   -68.7909
 4162.0000     0.2743   113.1931     0.0611     2.4554    10.3100   -32.4511    88.0000  -128.0710    97.4237   -84.7988     2.8091     2.4171     0.4474   -68.8622
 4162.5000     0.2821   114.6894     0.0538     2.4606    10.3099   -30.0038    86.3303  -135.8249    97.9455   -84.4967     2.7694     2.4163     0.4143   -68.9336
 4163.0000     0.2873   116.5246     0.0746     2.4643    10.3055   -27.5564    89.0081  -136.0143    98.0182   -84.4953     2.7875     2.4157     0.6099   -76.5464
 4163.5000     0.2918   119.5774     0.0790     2.4658    10.2960   -25.1091    91.6360  -136.2036    97.6396   -84.3437     2.8644     2.4830     0.8979   -69.0762
 4164.0000     0.2942   123.8479     0.0758     2.4785    10.2861   -22.6617    93.3727  -136.3932    96.7983   -84.3423     2.9847     2.5884     1.4666   -61.6060
 4164.5000     0.2933   126.5984     0.0636     2.4988    10.2757   -20.2144    92.1398  -136.5735    95.5512   -84.3408     3.1101     2.7348     1.7423   -61.6952
 4165.0000     0.2888   125.6938     0.0755     2.5078    10.2652   -17.7670    89.5614   180.9443    92.6303   -84.4896     3.3104     2.8902     1.6470   -54.2232
 4165.5000     0.2766   123.5716     0.0873     2.5130    10.2547   -15.5378    90.4415   173.1906    89.7094   -84.4878     3.5690     3.0123     1.7515   -54.2987
 4166.0000     0.2606   122.9693     0.0992     2.5249    10.2501   -21.5353    90.7414   188.1296    87.0551   -84.4865     3.8234     3.1834     2.0101   -54.3854
 4166.5000     0.2549   124.8192     0.1051     2.5339    10.2500   -27.0418    90.4474   197.2130    88.0266   -84.4850     3.9841     3.3444     2.2932   -54.4495
 4167.0000     0.2519   126.3395     0.0974     2.5414    10.2500   -32.5484    90.1579   317.9345    88.7732   -84.4835     4.0380     3.4581     2.6651   -54.5281
 4167.5000     0.2520   125.1305     0.0912     2.5488    10.2500   -38.0549    89.2836   338.8475    89.8196   -84.4818     4.0364     3.4570     2.7385   -62.1418
