~VERSION INFORMATION
 VERS.                2.0:   CWLS LOG ASCII STANDARD - VERSION 2.0
 WRAP.                 NO:   ONE LINE PER DEPTH STEP
~WELL INFORMATION
#MNEM.UNIT      DATA TYPE    INFORMATION
#----------   ------------   ------------------------------
 STRT.F          200.0000:   START DEPTH
 STOP.F         3060.0000:   STOP DEPTH
 STEP.F            0.5000:   STEP LENGTH
 NULL.          -999.2500:   NO VALUE
 COMP.    FENIX & SCISSON:   COMPANY
 WELL. FENIX NPR 3 "AX" #58-21:   WELL
 FLD .      NPR - WILDCAT:   FIELD
 LOC .      S21 T39N R78W:   LOCATION
 CNTY.            NATRONA:   COUNTY
 STAT.            WYOMING:   STATE
 CTRY. UNITED STATES OF AMERICA:   COUNTRY
 SRVC.              WELEX:   SERVICE COMPANY
 DATE.        12-JUN-1977:   LOGDATE
 API .     49025103790000:   API NUMBER
~CURVE INFORMATION
#MNEM.UNIT       API CODE    CURVE DESCRIPTION
#----------   ------------   ------------------------------
 DEPT.F                  :   
 CALD.IN     45 280 60 00:   CALIPER FROM DENSITY LOG
 GRD .GAPI   45 310 01 00:   GAMMA RAY FROM DENSITY LOG
 CORR.G/C3   45 356 01 00:   DENSITY CORRECTION
 RHOB.G/C3   45 350 01 00:   BULK DENSITY
 SPR .MV     07 010 01 00:   SPONTANEOUS POTENTIAL
 ILD .OHMM   07 120 46 00:   DEEP INDUCTION RESISTIVITY
 GURD.OHMM   07 220 05 00:   GUARD LOG RESISTIVITY
 ILM .OHMM   07 120 44 00:   INDUCTION LOG MEDIUM RESISTIVITY
 DT  .US/F   60 520 00 00:   DELTA TIME
 SPHI.DEC    60 890 00 00:   SONIC POROSITY
~PARAMETER INFORMATION
#MNEM.UNIT          VALUE    DESCRIPTION
#----------   ------------   ------------------------------
 EKB .F         5016.0000:   Kelly bushing
 EGL .F         5006.0000:   Ground level
 EDF .F            0.0000:   Drilling floor
 EPD .F            0.0000:   Permanent datum
 TD  .F         3062.0000:   Total depth
 DATE.        12-JUN-1977:   Date logged
 CLNT.            A2DTECH:   Client Code
 SL  . 280' FSL & 2160' FEL:   Surface Location
 PD  .                 GL:   Permanent Datum
 DD  .F              3060:   Depth driller
 DL  .F              3062:   Depth logger
 BLI .F              3060:   Bottom log interval
 TLI .F              2450:   Top log interval
 CS1 .IN            8.625:   Casing size
 CBD1.      8.625" @ 200':   Casing driller 1
 CBL1.F               218:   Casing logger 1
 BS1 .IN            7.875:   Bit size
 BSD1.F              3060:   Depth drilled with bit1
 DFT .            KCL/MUD:   Type fluid in hole
 DFD .                8.7:   Density
 DFV .                 33:   Viscosity
 DFPH.                7.5:   pH
 DFL .                 36:   Fluid loss
 MSS .           FLOWLINE:   Source of sample
 TCS .HRS             4.5:   Time Circ. stopped
 MRT .F               110:   Maximum recorded temp.
 LUN .               8611:   Logging unit number
 LUL .           GILLETTE:   Logging unit location
 ENGI.            C. DOAK:   Recorded By
 WITN.            RHOADES:   Witnessed by
 ORIG.           5" PRINT:   Origin of data
 UWI .     49025103790000:   Unique Well ID
 DICO. A2D TECHNOLOGIES, INC.:   Digitizing Company
 DAPD.                 10:   Feet Above Permanent Datum
 RMS .OHMM            1.3:   Rm
 MST .F                84:   Rm Meas. temp.
 RMF .OHMM            .52:   Rmf
 MFST.F                84:   Rmf Meas. temp.
 MFSS.               FANN:   Source Rmf.
 RMC .OHMM           1.43:   Rmc
 MCST.F                84:   Rmc Meas. temp.
 MCSS.                KIT:   Source Rmc.
 RMB .OHMM            .99:   Rm. at BHT
 BHT .F               110:   BHT.
~OTHER INFORMATION
~A   DEPT     CALD         GRD      CORR       RHOB        SPR        ILD       GURD        ILM         DT       SPHI   
# ...
  803.0000     9.4450    93.0440     0.0430     2.5430   -64.3930     9.1020    10.5930    10.4180  -999.2500  -999.2500
  803.5000     9.4430    93.4690     0.0460     2.5460   -63.8710     8.9750    10.6170    10.3400  -999.2500  -999.2500
  804.0000     9.4400    94.0480     0.0400     2.5330   -64.0430     9.0070    10.6930    10.2620  -999.2500  -999.2500
  804.5000     9.4380    94.7700     0.0350     2.5190   -64.2500     9.0430    10.7680    10.2080  -999.2500  -999.2500
  805.0000     9.4360    95.4600     0.0300     2.5040   -64.5000     9.0780    10.8440    10.2450  -999.2500  -999.2500
  805.5000     9.4340    96.1590     0.0240     2.4900   -64.5500     9.1130    10.9200    10.3160  -999.2500  -999.2500
  806.0000     9.4320    96.8530     0.0200     2.4790   -64.2550     9.1480    10.9910    10.3880  -999.2500  -999.2500
  806.5000     9.4300    97.5330     0.0160     2.4660   -63.9580     9.1840    10.9910    10.4590  -999.2500  -999.2500
  807.0000     9.4280    98.2710     0.0130     2.4540   -63.9180     9.2190    10.9910    10.5300  -999.2500  -999.2500
  807.5000     9.4260    98.3550     0.0090     2.4420   -64.1690     9.2540    10.9910    10.6020  -999.2500  -999.2500
  808.0000     9.4240    99.0590     0.0050     2.4320   -64.3700     9.2900    10.9910    10.6730  -999.2500  -999.2500
  808.5000     9.4220    99.1900     0.0020     2.4370   -64.5980     9.3250    10.9910    10.7450  -999.2500  -999.2500
  809.0000     9.4200    98.7660     0.0030     2.4410   -64.4370     9.3600    11.2100    10.8170  -999.2500  -999.2500
  809.5000     9.4210    98.2660     0.0050     2.4390   -64.2220     9.3960    11.1830    10.8880  -999.2500  -999.2500
  810.0000     9.4240    97.7610     0.0060     2.4360   -63.9950     9.4310    11.1890    10.9600  -999.2500  -999.2500
  810.5000     9.4270    97.5740     0.0080     2.4380   -63.8380     9.4670    11.1930    10.9920  -999.2500  -999.2500
  811.0000     9.4300    96.4950     0.0100     2.4480   -63.8360     9.5020    11.2880    10.9570  -999.2500  -999.2500
  811.5000     9.4330    95.2950     0.0120     2.4570   -63.8330     9.5370    11.3670    10.9090  -999.2500  -999.2500
  812.0000     9.4360    94.0280     0.0130     2.4610   -63.8340     9.5720    11.4450    10.8620  -999.2500  -999.2500
  812.5000     9.4390    93.6600     0.0110     2.4570   -63.8350     9.6090    11.5220    10.8150  -999.2500  -999.2500
  813.0000     9.4420    93.5760     0.0080     2.4540   -63.8390     9.6610    11.6150    10.7670  -999.2500  -999.2500
  813.5000     9.4450    93.3470     0.0040     2.4490   -63.9230     9.6210    11.5230    10.7200  -999.2500  -999.2500
  814.0000     9.4480    93.1230     0.0000     2.4420   -64.0110     9.5370    11.4200    10.6730  -999.2500  -999.2500
  814.5000     9.4510    92.9100    -0.0030     2.4340   -64.1010     9.4530    11.3160    10.6260  -999.2500  -999.2500
  815.0000     9.4540    92.9170    -0.0070     2.4250   -64.1890     9.3690    11.1950    10.5790  -999.2500  -999.2500
  815.5000     9.4580    93.4200    -0.0110     2.4170   -64.2790     9.2850    11.1710    10.5320  -999.2500  -999.2500
  816.0000     9.4610    93.9160    -0.0140     2.4080   -64.3670     9.2010    11.1150    10.4850  -999.2500  -999.2500
  816.5000     9.4640    94.3960    -0.0140     2.4060   -64.4580     9.1170    11.0590    10.4380  -999.2500  -999.2500
  817.0000     9.4670    94.4000    -0.0100     2.4120   -64.5460     9.0330    10.9910    10.3990  -999.2500  -999.2500
  817.5000     9.4700    92.9810    -0.0050     2.4200   -64.6180     8.9490    11.0890    10.3500  -999.2500  -999.2500
  818.0000     9.4730    92.9610    -0.0010     2.4280   -64.5800     8.8650    11.3430    10.3100  -999.2500  -999.2500
  818.5000     9.4760    93.7970     0.0040     2.4360   -64.5460     8.6500    11.2100    10.2700  -999.2500  -999.2500
  819.0000     9.4790    94.5480     0.0080     2.4440   -64.5060     8.6600    10.9580    10.2300  -999.2500  -999.2500
  819.5000     9.4820    95.9130     0.0100     2.4490   -64.4690     8.6780    10.7900    10.1890  -999.2500  -999.2500
  820.0000     9.4850    95.8120     0.0090     2.4520   -64.4310     8.6960    10.8230    10.1480  -999.2500  -999.2500
  820.5000     9.4880    95.2990     0.0060     2.4560   -64.3940     8.7140    10.8590    10.1080  -999.2500  -999.2500
  821.0000     9.4910    94.7070     0.0090     2.4590   -64.3560     8.7320    10.8940    10.0670  -999.2500  -999.2500
  821.5000     9.4940    94.2200     0.0130     2.4630   -64.3180     8.7500    10.9290    10.0260  -999.2500  -999.2500
  822.0000     9.4970    93.7410     0.0180     2.4680   -64.2830     8.7690    10.9650     9.9860  -999.2500  -999.2500
  822.5000     9.4960    94.4280     0.0220     2.4750   -64.2370     8.7870    10.9910     9.9450  -999.2500  -999.2500
  823.0000     9.4850    95.1130     0.0270     2.4810   -64.2870     8.8110    10.8940     9.9050  -999.2500  -999.2500
  823.5000     9.4740    95.8320     0.0310     2.4870   -64.4000     8.7030    10.7820     9.8640  -999.2500  -999.2500
  824.0000     9.4630    96.6020     0.0360     2.4930   -64.5020     8.5360    10.6700     9.6610  -999.2500  -999.2500
  824.5000     9.4520    96.5300     0.0380     2.4890   -64.6040     8.3370    10.5580     9.6680  -999.2500  -999.2500
  825.0000     9.4410    95.8560     0.0270     2.4860   -64.7070     8.3710    10.4000     9.6560  -999.2500  -999.2500
  825.5000     9.4300    95.2560     0.0210     2.4820   -64.8130     8.4540    10.4870     9.6620  -999.2500  -999.2500
  826.0000     9.4190    94.6610     0.0230     2.4820   -64.9120     8.5370    10.6330     9.6630  -999.2500  -999.2500
  826.5000     9.4080    94.0330     0.0250     2.4850   -65.0100     8.6200    10.7790     9.6610  -999.2500  -999.2500
  827.0000     9.3970    93.2840     0.0270     2.4870   -64.9580     8.7020    10.9250     9.6610  -999.2500  -999.2500
  827.5000     9.3860    92.3320     0.0290     2.4900   -64.9000     8.7850    10.9910     9.6610  -999.2500  -999.2500
  828.0000     9.3790    92.1260     0.0310     2.4930   -64.8360     8.8680    10.9910     9.6610  -999.2500  -999.2500
  828.5000     9.3820    92.9760     0.0330     2.4960   -64.7760     8.9510    10.8770     9.6610  -999.2500  -999.2500
  829.0000     9.3850    93.8530     0.0320     2.4960   -64.7150     8.9750    10.7540     9.6610  -999.2500  -999.2500
  829.5000     9.3880    94.7620     0.0270     2.4940   -64.6530     8.9300    10.6320     9.6610  -999.2500  -999.2500
  830.0000     9.3910    95.6740     0.0220     2.4910   -64.5930     8.8800    10.5930     9.6610  -999.2500  -999.2500
  830.5000     9.3940    96.0170     0.0170     2.4830   -64.5310     8.8310    10.5930     9.6610  -999.2500  -999.2500
  831.0000     9.3970    95.0940     0.0120     2.4760   -64.4690     8.7810    10.7240     9.6620  -999.2500  -999.2500
  831.5000     9.4000    94.4830     0.0070     2.4730   -64.4110     8.7310    10.9200     9.6540  -999.2500  -999.2500
  832.0000     9.4030    93.2120     0.0070     2.4790   -64.3430     8.6820    11.3130     9.6350  -999.2500  -999.2500
  832.5000     9.4060    91.4690     0.0090     2.4820   -64.2890     8.6320    13.2140     9.6180  -999.2500  -999.2500
  833.0000     9.4090    89.6570     0.0110     2.4760   -64.2530     8.5820    10.5930     9.6000  -999.2500  -999.2500
  833.5000     9.4120    88.8910     0.0140     2.4700   -64.5490     8.5330    10.3930     9.5820  -999.2500  -999.2500
  834.0000     9.4140    88.9610     0.0020     2.4640   -64.8360     8.4920    10.3760     9.5640  -999.2500  -999.2500
  834.5000     9.4170    90.0600     0.0020     2.4610   -65.1340     8.4620    10.3580     9.5460  -999.2500  -999.2500
  835.0000     9.4200    91.3270     0.0040     2.4650   -65.4030     8.4230    10.3410     9.5280  -999.2500  -999.2500
  835.5000     9.4230    93.6190     0.0070     2.4690   -65.3530     8.3840    10.3230     9.5110  -999.2500  -999.2500
  836.0000     9.4260    95.8370     0.0090     2.4720   -65.1110     8.3450    10.3060     9.4930  -999.2500  -999.2500
