~VERSION INFORMATION
 VERS.                2.0:   CWLS LOG ASCII STANDARD - VERSION 2.0
 WRAP.                 NO:   ONE LINE PER DEPTH STEP
~WELL INFORMATION
#MNEM.UNIT      DATA TYPE    INFORMATION
#----------   ------------   ------------------------------
 STRT.F          192.0000:   START DEPTH
 STOP.F         3016.0000:   STOP DEPTH
 STEP.F            0.5000:   STEP LENGTH
 NULL.          -999.2500:   NO VALUE
 COMP. FENIX & SCISSON U.S. NAVY:   COMPANY
 WELL.  FENIX "AX" #81-33:   WELL
 FLD .              NPR-3:   FIELD
 LOC .      S33 T39N R78W:   LOCATION
 CNTY.            NATRONA:   COUNTY
 STAT.            WYOMING:   STATE
 CTRY. UNITED STATES OF AMERICA:   COUNTRY
 SRVC.              WELEX:   SERVICE COMPANY
 DATE.        12-MAY-1977:   LOGDATE
 API .     49025109850000:   API NUMBER
~CURVE INFORMATION
#MNEM.UNIT       API CODE    CURVE DESCRIPTION
#----------   ------------   ------------------------------
 DEPT.F                  :   
 SPR .MV     07 010 01 00:   SPONTANEOUS POTENTIAL
 RILM.OHMM   07 120 44 00:   INDUCTION LOG MEDIUM RESISTIVITY
 RILD.OHMM   07 120 46 00:   DEEP INDUCTION RESISTIVITY
 SGRD.OHMM   07 220 05 00:   SHALLOW GUARD LOG RESISTIVITY
 NPHI.DEC    42 890 03 00:   NEUTRON POROSITY SANDSTONE
 GRD .GAPI   45 310 01 00:   GAMMA RAY FROM DENSITY LOG
 CALD.IN     45 280 60 00:   CALIPER FROM DENSITY LOG
 RHOB.G/C3   45 350 01 00:   BULK DENSITY
 DCOR.G/C3   45 356 01 00:   DENSITY CORRECTION
~PARAMETER INFORMATION
#MNEM.UNIT          VALUE    DESCRIPTION
#----------   ------------   ------------------------------
 EKB .F         5114.0000:   Kelly bushing
 EGL .F         5100.0000:   Ground level
 EDF .F         5112.0000:   Drilling floor
 TD  .F         3014.0000:   Total depth
 DATE.        12-MAY-1977:   Date logged
 CLNT.            A2DTECH:   Client Code
 SL  . 660' FEL & 660' FNL:   Surface Location
 PD  .                 GL:   Permanent Datum
 EPD .F              5100:   Elevation Permanent Datum
 LMF .                 KB:   Log Measured From
 DMF .                 KB:   Drilling Measured From
 DD  .F              3000:   Depth driller
 DL  .F              3014:   Depth logger
 BLI .F              3012:   Bottom log interval
 TLI .F              1500:   Top log interval
 CS1 .IN            8.625:   Casing size
 CBD1.      8.625" @ 217':   Casing driller 1
 CBL1.F               209:   Casing logger 1
 BS1 .IN            7.875:   Bit size
 BSD1.F              3000:   Depth drilled with bit1
 DFT .            KCL MUD:   Type fluid in hole
 DFD .                  9:   Density
 DFV .                 33:   Viscosity
 DFPH.                7.5:   pH
 DFL .                7.8:   Fluid loss
 MSS .           FLOWLINE:   Source of sample
 RMS .OHMM           0.69:   Rm
 MST .F                68:   Rm Meas. temp.
 RMF .OHMM           0.66:   Rmf
 MFST.F                68:   Rmf Meas. temp.
 RMC .OHMM           1.27:   Rmc
 MCST.F                68:   Rmc Meas. temp.
 MFSS.                 BK:   Source Rmf.
 MCSS.                 BK:   Source Rmc.
 RMB .OHMM           0.39:   Rm. at BHT
 BHT .F               118:   BHT.
 TCS .HRS               6:   Time Circ. stopped
 MRT .F               118:   Maximum recorded temp.
 LUN .               9685:   Logging unit number
 LUL .           BRIGHTON:   Logging unit location
 ENGI.          T. JOYNER:   Recorded By
 WITN.            K. JAPP:   Witnessed by
 ORIG.           5" PRINT:   Origin of data
 UWI .     49025109850000:   Unique Well ID
 DICO. A2D TECHNOLOGIES, INC.:   Digitizing Company
~OTHER INFORMATION
~A   DEPT      SPR       RILM       RILD       SGRD       NPHI         GRD        CALD       RHOB     DCOR   
# ...
 2783.5000   -25.9820     6.0820     4.7620     8.1520     0.2860   149.2010     8.6410     2.6070     0.0030
 2784.0000   -25.9790     5.8840     4.7110     8.1150     0.2710   149.6470     8.6460     2.6040    -0.0020
 2784.5000   -25.9800     5.8090     4.6800     7.8230     0.2850   149.9690     8.6510     2.6020     0.0010
 2785.0000   -25.9180     5.7320     4.6530     7.4080     0.2890   149.7580     8.6550     2.6010     0.0040
 2785.5000   -25.8130     5.6100     4.6260     7.0530     0.2880   149.5590     8.6580     2.6000     0.0060
 2786.0000   -25.7070     5.4890     4.5490     6.7290     0.2830   149.3570     8.6530     2.5950     0.0060
 2786.5000   -25.6010     5.3840     4.4500     6.7850     0.2830   148.9400     8.6470     2.5910     0.0030
 2787.0000   -25.4950     5.3290     4.4170     6.8510     0.2810   147.6030     8.6410     2.5940    -0.0010
 2787.5000   -25.3890     5.2630     4.3690     6.9170     0.2810   146.0780     8.6360     2.5980    -0.0040
 2788.0000   -25.2830     5.2020     4.3940     6.9830     0.2790   144.5510     8.6300     2.6020    -0.0030
 2788.5000   -25.1770     5.3380     4.4490     7.0490     0.2740   143.0250     8.6240     2.6060     0.0020
 2789.0000   -25.0710     5.4460     4.5260     7.1110     0.2720   141.4990     8.6190     2.6100     0.0080
 2789.5000   -24.9650     5.5480     4.6620     7.4300     0.2730   139.9710     8.6130     2.6150     0.0110
 2790.0000   -24.8590     5.8330     4.7980     7.8420     0.2660   138.4420     8.6070     2.6170     0.0050
 2790.5000   -24.7530     6.1010     4.9340     8.5700     0.2640   136.9280     8.6020     2.6150     0.0000
 2791.0000   -24.6470     6.4210     5.0610     9.2980     0.2590   135.4580     8.5960     2.6130     0.0030
 2791.5000   -24.5780     6.7480     5.3460    10.0250     0.2590   135.1890     8.5910     2.6180     0.0060
 2792.0000   -24.5300     7.0690     5.6140    10.5580     0.2580   136.1440     8.5850     2.6230     0.0090
 2792.5000   -24.4820     7.2430     5.8820    10.2360     0.2510   137.0740     8.5790     2.6270     0.0120
 2793.0000   -24.4340     7.3960     5.9810     9.9810     0.2520   138.0060     8.5740     2.6250     0.0150
 2793.5000   -24.3860     7.5040     6.0550     9.7270     0.2520   138.9410     8.5680     2.6240     0.0130
 2794.0000   -24.3380     7.5840     6.1340     9.5430     0.2520   139.8730     8.5620     2.6160     0.0070
 2794.5000   -24.2900     7.7240     6.1110     9.6980     0.2530   140.8030     8.5570     2.6080     0.0020
 2795.0000   -24.2420     7.6280     6.0800     9.8100     0.2580   141.4430     8.5510     2.6000    -0.0030
 2795.5000   -24.2160     7.4270     6.0490     9.8640     0.2550   140.9510     8.5460     2.5950    -0.0090
 2796.0000   -24.2170     7.0460     6.0180     9.9000     0.2540   139.7190     8.5400     2.5900    -0.0050
 2796.5000   -24.1290     7.0940     5.9870     9.4900     0.2550   138.5020     8.5340     2.5860     0.0010
 2797.0000   -24.0010     7.2430     5.9340     9.1980     0.2540   137.9090     8.5290     2.5840    -0.0020
 2797.5000   -23.8730     7.1430     5.8580     8.9480     0.2540   138.9090     8.5230     2.5840    -0.0070
 2798.0000   -23.7460     6.9290     5.7810     9.1980     0.2540   139.8550     8.5170     2.5860    -0.0130
 2798.5000   -23.6220     6.9910     5.7050     9.1570     0.2510   140.8020     8.5120     2.5900    -0.0090
 2799.0000   -23.4600     7.0730     5.6420     9.1140     0.2470   141.8150     8.5060     2.5940    -0.0030
 2799.5000   -23.3040     7.1550     5.6120     9.6320     0.2450   140.6250     8.5000     2.6000     0.0030
 2800.0000   -23.1460     7.2360     5.5810     9.9920     0.2410   138.7690     8.4900     2.6060     0.0130
 2800.5000   -22.9470     7.2980     5.5480     9.9920     0.2400   136.6530     8.4780     2.6120     0.0260
 2801.0000   -22.6100     7.1950     5.6350     9.9920     0.2400   134.6350     8.4660     2.6180     0.0390
 2801.5000   -22.2640     7.4450     5.7320    10.0330     0.2400   132.6060     8.4550     2.6230     0.0520
 2802.0000   -21.8250     7.0460     5.8280    10.0910     0.2330   130.4300     8.4440     2.6250     0.0660
 2802.5000   -21.3580     7.2900     5.9240    10.1500     0.2260   127.5580     8.4180     2.6260     0.0620
 2803.0000   -20.8900     7.7970     6.0270    10.4670     0.2190   124.7610     8.3890     2.6210     0.0570
 2803.5000   -20.4260     8.6460     6.4920    11.0120     0.2160   121.9740     8.3590     2.6110     0.0530
 2804.0000   -19.6300     9.4940     6.9880    12.0800     0.2120   119.2240     8.3290     2.5960     0.0490
 2804.5000   -18.7230    10.3420     7.6000    13.6980     0.2100   115.3270     8.3000     2.5810     0.0460
 2805.0000   -17.7610    11.1900     8.4240    16.2500     0.2080   111.1740     8.2700     2.5670     0.0430
 2805.5000   -16.4690    12.0380     9.5860    19.5170     0.2050   107.0060     8.2400     2.5520     0.0430
 2806.0000   -15.1710    12.7870    11.0100    22.7830     0.2010   102.8560     8.2110     2.5370     0.0460
 2806.5000   -13.8560    13.3660    12.3850    26.2300     0.1960    98.7240     8.1820     2.5280     0.0500
 2807.0000   -13.0410    13.9450    13.6820    26.0300     0.1960    95.3190     8.1640     2.5220     0.0540
 2807.5000   -12.1460    14.2550    14.9790    25.3180     0.1940    93.0660     8.1470     2.5170     0.0580
 2808.0000   -11.2290    13.7590    15.7730    22.1350     0.1890    91.6570     8.1300     2.5060     0.0650
 2808.5000   -10.3100    12.9800    16.5650    18.1380     0.1930    90.4760     8.1130     2.4950     0.0720
 2809.0000    -9.5730    11.9100    16.4490    16.6550     0.1960    89.2940     8.0960     2.4830     0.0790
 2809.5000    -8.8960    11.9930    16.3060    16.4140     0.1950    87.3310     8.0780     2.4720     0.0700
 2810.0000    -8.3060    11.6810    16.1620    17.0380     0.1990    84.3840     8.0610     2.4620     0.0580
 2810.5000    -8.2770    12.0080    16.0180    18.1710     0.1960    81.4500     8.0440     2.4530     0.0510
 2811.0000    -8.2320    11.7130    15.8380    19.3040     0.1930    79.2200     8.0450     2.4480     0.0450
 2811.5000    -8.1830    11.9830    16.2630    20.7700     0.1920    77.7930     8.0490     2.4430     0.0390
 2812.0000    -8.1430    12.3440    15.9670    20.5050     0.1850    76.3660     8.0520     2.4400     0.0330
 2812.5000    -8.3030    11.8980    16.9070    19.9740     0.1850    74.9420     8.0560     2.4430     0.0350
 2813.0000    -8.4720    12.5450    17.8070    19.4150     0.1810    73.4850     8.0600     2.4550     0.0450
 2813.5000    -8.6410    13.3040    18.7080    19.7260     0.1790    72.8700     8.0630     2.4660     0.0560
 2814.0000    -8.8090    14.7190    19.6080    21.4490     0.1790    72.5130     8.0670     2.4690     0.0530
 2814.5000    -8.9770    16.2370    20.2900    23.0720     0.1800    72.1690     8.0700     2.4670     0.0480
 2815.0000    -9.1450    17.7560    20.9390    24.8220     0.1790    71.8190     8.0740     2.4600     0.0420
 2815.5000    -9.3130    19.2740    21.5880    24.1850     0.1780    71.4660     8.0780     2.4540     0.0360
 2816.0000    -9.4850    20.6540    22.2370    23.7070     0.1770    71.2080     8.0810     2.4480     0.0340
 2816.5000    -9.4320    18.0010    22.4350    23.6840     0.1740    71.6750     8.0850     2.4470     0.0320
 2817.0000    -9.3420    15.8670    22.7810    23.6060     0.1750    72.2150     8.0890     2.4520     0.0300
 2817.5000    -9.2490    16.2630    23.1960    23.4900     0.1760    72.7300     8.0920     2.4570     0.0230
 2818.0000    -9.1560    15.6760    24.4220    24.7540     0.1790    73.2420     8.0960     2.4620     0.0230
 2818.5000    -9.0650    16.8720    25.6470    27.2170     0.1750    73.7570     8.0990     2.4670     0.0290
 2819.0000    -8.9730    16.2630    26.5660    29.6800     0.1750    74.2710     8.1060     2.4690     0.0340
 2819.5000    -8.9230    16.8940    25.2790    31.5270     0.1770    74.7850     8.1160     2.4650     0.0350
