~VERSION INFORMATION
 VERS.                2.0:   CWLS LOG ASCII STANDARD - VERSION 2.0
 WRAP.                 NO:   ONE LINE PER DEPTH STEP
~WELL INFORMATION
#MNEM.UNIT      DATA TYPE    INFORMATION
#----------   ------------   ------------------------------
 STRT.F          520.0000:   START DEPTH
 STOP.F         3092.0000:   STOP DEPTH
 STEP.F            0.5000:   STEP LENGTH
 NULL.          -999.2500:   NO VALUE
 COMP.    FENIX & SCISSON:   COMPANY
 WELL. FENIX 87 "AX" #3-3:   WELL
 FLD .              N P R:   FIELD
 LOC .       S3 T38N R78W:   LOCATION
 CNTY.            NATRONA:   COUNTY
 STAT.            WYOMING:   STATE
 CTRY. UNITED STATES OF AMERICA:   COUNTRY
 SRVC.              WELEX:   SERVICE COMPANY
 DATE.        30-OCT-1980:   LOGDATE
 API .     49025108510000:   API NUMBER
~CURVE INFORMATION
#MNEM.UNIT       API CODE    CURVE DESCRIPTION
#----------   ------------   ------------------------------
 DEPT.F                  :   
 CALD.IN     45 280 60 00:   CALIPER FROM DENSITY LOG
 GRD .GAPI   45 310 01 00:   GAMMA RAY FROM DENSITY LOG
 RHOB.G/C3   45 350 01 00:   BULK DENSITY
 CORR.G/C3   45 356 01 00:   DENSITY CORRECTION
 SPR .MV     07 010 01 00:   SPONTANEOUS POTENTIAL
 ILD .OHMM   07 120 46 00:   DEEP INDUCTION RESISTIVITY
 ILM .OHMM   07 120 44 00:   INDUCTION LOG MEDIUM RESISTIVITY
 SGRD.OHMM   07 220 05 00:   SHALLOW SHORT GUARD RESISTIVITY
~PARAMETER INFORMATION
#MNEM.UNIT          VALUE    DESCRIPTION
#----------   ------------   ------------------------------
 EKB .F         5131.0000:   Kelly bushing
 EGL .F         5121.0000:   Ground level
 TD  .F         3095.0000:   Total depth
 DATE.        30-OCT-1980:   Date logged
 CLNT.            A2DTECH:   Client Code
 SL  . 910' FWL & 95' FEL:   Surface Location
 PD  .                 GL:   Permanent Datum
 EPD .F              5121:   Elevation Permanent Datum
 LMF .                 KB:   Log Measured From
 DMF .                 KB:   Drilling Measured From
 DD  .F              3095:   Depth driller
 DL  .F              3094:   Depth logger
 BLI .F              3092:   Bottom log interval
 TLI .F               525:   Top log interval
 CS1 .IN            9.625:   Casing size
 CBD1.      9.625" @ 525':   Casing driller 1
 CBL1.F               525:   Casing logger 1
 BS1 .IN            7.875:   Bit size
 DFT .          DISPERSED:   Type fluid in hole
 DFD .                  9:   Density
 DFV .                 40:   Viscosity
 DFPH.                 10:   pH
 DFL .                  8:   Fluid loss
 MSS .             MUDPIT:   Source of sample
 RMS .OHMM           2.40:   Rm
 MST .F                68:   Rm Meas. temp.
 MFST.F                68:   Rmf Meas. temp.
 RMC .OHMM            2.8:   Rmc
 MCST.F                68:   Rmc Meas. temp.
 MFSS.F              MEAS:   Source Rmf.
 RMB .OHMM           1.36:   Rm. at BHT
 BHT .F               120:   BHT.
 TCS .HRS             5.5:   Time Circ. stopped
 MRT .F               120:   Maximum recorded temp.
 LUN .               1891:   Logging unit number
 LUL .             CASPER:   Logging unit location
 ENGI.          PFERIMMER:   Recorded By
 WITN.              FIVAS:   Witnessed by
 ORIG.           5" PRINT:   Origin of data
 UWI .     49025108510000:   Unique Well ID
 DICO. A2D TECHNOLOGIES, INC.:   Digitizing Company
 DAPD.F                10:   Feet Above Permanent Datum
 BSD1.F              3095:   Depth drilled with bit1
 RMF .OHMM           1.92:   Rmf
 MCSS.               MEAS:   Source Rmc.
~OTHER INFORMATION
~A   DEPT     CALD        GRD       RHOB       CORR        SPR          ILD        ILM      SGRD  
# ...
 2221.0000     8.9520   104.9300     2.4980     0.0330   -25.4390     2.6370     6.2880     6.5430
 2221.5000     8.9710   104.2690     2.5020     0.0410   -25.4390     2.6220     6.2660     7.1990
 2222.0000     8.9890   103.5680     2.4930     0.0490   -25.4390     2.6080     6.2660     6.7090
 2222.5000     9.0070   102.7540     2.4830     0.0470   -25.4390     2.6030     6.3250     5.7660
 2223.0000     9.0260   101.9510     2.4750     0.0410   -25.4390     2.5790     6.4040     6.9100
 2223.5000     9.0230   102.3450     2.4630     0.0360   -25.4390     2.5790     6.5140     8.9430
 2224.0000     9.0110   102.7990     2.4530     0.0300   -25.4390     2.6300     6.6240    10.1360
 2224.5000     8.9990   103.2260     2.4730     0.0250   -25.4390     2.6740     6.7330     8.7480
 2225.0000     8.9880   103.6540     2.4950     0.0190   -25.4390     2.7190     6.7470     7.6110
 2225.5000     8.9760   103.8800     2.4950     0.0200   -25.4390     2.7630     6.8100     6.4730
 2226.0000     8.9640   103.0850     2.4930     0.0230   -25.4390     2.8080     6.9280     5.3050
 2226.5000     8.9530   102.2970     2.4930     0.0250   -25.4390     2.8520     7.0540     6.9780
 2227.0000     8.9410   101.5080     2.4930     0.0270   -25.4390     2.8970     7.1800     9.1220
 2227.5000     8.9290   100.7180     2.4910     0.0290   -25.4390     2.9410     7.3060     9.8580
 2228.0000     8.9170    99.9290     2.4890     0.0310   -25.4390     2.9860     7.4320     8.7420
 2228.5000     8.9120   100.2780     2.4790     0.0330   -25.4390     3.0300     7.5390     9.0910
 2229.0000     8.9230   100.9050     2.4600     0.0360   -25.4450     3.0750     7.5230     9.5720
 2229.5000     8.9350   101.0400     2.4420     0.0380   -25.4700     3.1190     7.4930    10.1360
 2230.0000     8.9460   100.3450     2.4230     0.0360   -25.4950     3.1900     7.4630     9.0680
 2230.5000     8.9580    99.8890     2.3960     0.0310   -25.5200     3.1700     7.4330     8.0440
 2231.0000     8.9700    99.5430     2.4420     0.0260   -25.5450     3.1410     7.4040     8.4560
 2231.5000     8.9820   100.0550     2.4800     0.0200   -25.5690     3.1110     7.3740     9.5100
 2232.0000     8.9940   100.7510     2.4890     0.0150   -25.5940     3.0810     7.3440     9.9500
 2232.5000     9.0060   101.3140     2.4850     0.0110   -25.6190     3.0510     7.2790     7.3870
 2233.0000     9.0170   100.3400     2.4810     0.0130   -25.6430     3.0210     7.2660     5.7130
 2233.5000     9.0290    99.3150     2.4790     0.0150   -25.6680     2.9920     7.2670     8.2940
 2234.0000     9.0410    99.3590     2.4720     0.0180   -25.6930     2.9620     7.2820    10.3320
 2234.5000     9.0530    99.8220     2.4610     0.0200   -25.7170     2.9320     7.2960    11.2210
 2235.0000     9.0650   100.1880     2.4460     0.0220   -25.7420     2.8820     7.3120     9.8590
 2235.5000     9.0770    98.7730     2.4110     0.0240   -25.7660     2.8040     7.3230     8.8660
 2236.0000     9.0870    96.9360     2.3970     0.0260   -25.7900     2.7460     7.3390     7.8720
 2236.5000     9.0730    95.0920     2.3570     0.0290   -25.8220     2.6890     6.8750     6.9340
 2237.0000     9.0610    93.3650     2.3940     0.0310   -25.9760     2.6320     6.6030     6.3830
 2237.5000     9.0450    93.5590     2.4710     0.0330   -25.9150     2.5740     6.3830     5.8310
 2238.0000     9.0280    95.1960     2.4810     0.0350   -25.7020     2.5170     6.2660     5.2800
 2238.5000     9.0120    96.8370     2.4670     0.0380   -25.4900     2.4850     6.3410     4.6610
 2239.0000     8.9960    96.8920     2.4570     0.0360   -25.2770     2.4630     6.4030     5.7250
 2239.5000     8.9790    96.1600     2.4460     0.0300   -25.0590     2.4170     6.4640     7.7170
 2240.0000     8.9630    95.3890     2.4260     0.0250   -25.0480     2.3690     6.5020     9.7100
 2240.5000     8.9510    94.6240     2.4170     0.0200   -25.1150     2.3050     6.2090    10.6150
 2241.0000     8.9560    95.0090     2.4300     0.0170   -25.3070     2.2410     5.8510    10.6150
 2241.5000     8.9650    96.5510     2.4380     0.0220   -25.4990     2.1770     5.4980     8.0480
 2242.0000     8.9740    98.0730     2.4760     0.0440   -25.7700     2.1130     5.1460     5.9830
 2242.5000     8.9840    99.5880     2.4700     0.0410   -26.0120     2.0490     4.7940     3.8390
 2243.0000     8.9930   100.7230     2.4620     0.0370   -25.9420     1.9840     4.5340     4.7920
 2243.5000     9.0020   101.7050     2.4530     0.0330   -25.8710     1.9200     4.6310     4.2420
 2244.0000     9.0120   103.7470     2.4340     0.0290   -25.8280     1.8560     4.7480     3.7330
 2244.5000     9.0210   105.7500     2.4170     0.0250   -25.8200     1.7920     4.7920     6.7470
 2245.0000     9.0300   107.3760     2.3990     0.0210   -25.8110     1.7490     4.7040     5.4830
 2245.5000     9.0400   108.7530     2.3990     0.0170   -25.8020     1.7330     4.5360     4.0580
 2246.0000     9.0490   110.1230     2.4420     0.0130   -25.7940     1.7170     4.3690     5.6600
 2246.5000     9.0590   111.4990     2.4720     0.0110   -25.7850     1.7170     4.3290     4.9200
 2247.0000     9.0680   111.5970     2.4590     0.0130   -25.7760     1.7330     4.4620     4.0150
 2247.5000     9.0580   110.3230     2.4750     0.0160   -25.7680     1.7170     4.7480     3.5320
 2248.0000     9.0460   109.0950     2.5080     0.0180   -25.7590     1.7820     5.0350     4.0220
 2248.5000     9.0350   107.8680     2.5190     0.0200   -25.7510     1.8150     5.3210     5.2580
 2249.0000     9.0230   106.6430     2.5250     0.0280   -25.7420     1.9110     5.6070     5.9830
 2249.5000     9.0120   105.5190     2.5350     0.0370   -25.7330     2.0400     5.8930     4.3290
 2250.0000     9.0000   104.6410     2.5190     0.0470   -25.7250     2.1700     6.1790     5.1410
 2250.5000     8.9880   103.7680     2.5280     0.0550   -25.7160     2.3000     6.4650     6.3420
 2251.0000     8.9770   103.3590     2.5390     0.0540   -25.7080     2.4300     6.7510     7.8230
 2251.5000     8.9650   103.2970     2.5430     0.0530   -25.6990     2.5600     7.0370     7.0550
 2252.0000     8.9530   103.2430     2.5270     0.0520   -25.6900     2.6900     7.3230     6.2660
 2252.5000     8.9420   103.1920     2.5160     0.0510   -25.6820     2.8200     7.5390     7.3880
 2253.0000     8.9460   103.1380     2.5060     0.0480   -25.6730     2.9500     7.5260     8.4880
 2253.5000     8.9520   102.9120     2.4960     0.0440   -25.6650     3.0120     7.4780     9.5880
 2254.0000     8.9530   101.6490     2.4790     0.0400   -25.6560     3.0550     7.4290    10.3250
 2254.5000     8.9540   100.3870     2.4620     0.0360   -25.6470     3.0980     7.3800     8.7360
 2255.0000     8.9550    99.1270     2.4450     0.0320   -25.6390     3.1410     7.3320     7.6090
 2255.5000     8.9560    97.8130     2.4380     0.0280   -25.6760     3.1840     7.2830     7.6090
 2256.0000     8.9570    97.8930     2.4310     0.0240   -25.9170     3.2270     7.2660     8.1480
 2256.5000     8.9580    98.6480     2.4220     0.0200   -26.1540     3.2700     7.2660     8.5020
 2257.0000     8.9590    99.4140     2.4220     0.0160   -26.3890     3.3130     7.5990     8.6240
 2257.5000     8.9610   100.1760     2.4470     0.0130   -26.3850     3.3110     7.9060     8.6610
 2258.0000     8.9620   100.9380     2.4630     0.0150   -26.3520     3.4370     8.2130     9.6030
 2258.5000     8.9630   101.7000     2.4850     0.0170   -26.3180     3.5470     8.5200    10.4250
 2259.0000     8.9640   102.4620     2.4990     0.0200   -26.2850     3.6580     8.8260    11.2470
 2259.5000     8.9650   103.2240     2.5080     0.0280   -26.2520     3.7680     9.1330    12.0690
 2260.0000     8.9660   103.9850     2.5140     0.0370   -26.2200     3.8780     9.4400    12.8920
 2260.5000     8.9670   104.7470     2.5080     0.0410   -26.1870     3.9890     9.7680    13.3760
 2261.0000     8.9680   105.5090     2.4980     0.0350   -26.1540     4.0990    10.0420    12.6540
