~VERSION INFORMATION
 VERS.                2.0:   CWLS LOG ASCII STANDARD - VERSION 2.0
 WRAP.                 NO:   ONE LINE PER DEPTH STEP
~WELL INFORMATION
#MNEM.UNIT      DATA TYPE    INFORMATION
#----------   ------------   ------------------------------
 STRT.F            0.5000:   START DEPTH
 STOP.F         3195.0000:   STOP DEPTH
 STEP.F            0.5000:   STEP LENGTH
 NULL.          -999.2500:   NO VALUE
 COMP.   TESORO PETROLEUM:   COMPANY
 WELL. TESORO NPR 3 "A" #15-10:   WELL
 FLD .        TEAPOT DOME:   FIELD
 LOC .      S10 T38N R78W:   LOCATION
 CNTY.            NATRONA:   COUNTY
 STAT.            WYOMING:   STATE
 CTRY. UNITED STATES OF AMERICA:   COUNTRY
 SRVC.       SCHLUMBERGER:   SERVICE COMPANY
 DATE.        03-JUL-1969:   LOGDATE
 API .     49025600130000:   API NUMBER
~CURVE INFORMATION
#MNEM.UNIT       API CODE    CURVE DESCRIPTION
#----------   ------------   ------------------------------
 DEPT.F                  :   
 SPR .MV     05 010 01 00:   SPONTANEOUS POTENTIAL FROM RES.
 ASN .OHMM   05 041 16 00:   AMPLIFIED SHORT NORMAL 16"
 ILD .OHMM   05 120 46 00:   INDUCTION LOG DEEP
 CALD.IN     45 280 60 00:   CALIPER FROM DENSITY LOG
 GRD .GAPI   45 310 01 00:   GAMMA RAY FROM DENSITY LOG
 RHOB.G/C3   45 350 01 00:   BULK DENSITY
~PARAMETER INFORMATION
#MNEM.UNIT          VALUE    DESCRIPTION
#----------   ------------   ------------------------------
 EKB .F         5250.0000:   Kelly bushing
 EGL .F         5237.0000:   Ground level
 EDF .F            0.0000:   Drilling floor
 TD  .F         3200.0000:   Total depth
 CLNT.            A2DTECH:   Client Code
 SL  . 990' FWL & 1980' FSL:   Surface Location
 PD  .                 GL:   Permanent Datum
 EPD .F              5237:   Elevation Permanent Datum
 LMF .                 KB:   Log Measured From
 DMF .                 KB:   Drilling Measured From
 DAPD.F                13:   Feet Above Permanent Datum
 DATE.        03-JUL-1969:   Date Logged [DD-MMM-YYYY]
 DD  .F              3200:   Depth driller
 DL  .F              3196:   Depth logger
 BLI .F              3195:   Bottom log interval
 TLI .F               676:   Top log interval
 CS1 .IN            10.75:   Casing size
 CBD1.      10.75" @ 675':   Casing driller 1
 CBL1.F               676:   Casing logger 1
 BS1 .IN            6.125:   Bit size
 BSD1.F              3200:   Depth drilled with bit1
 DFT .      FRESH GEL MUD:   Type fluid in hole
 DFD .                9.5:   Density
 DFV .                 46:   Viscosity
 DFPH.                9.5:   pH
 DFL .                6.4:   Fluid loss
 MSS .           FLOWLINE:   Source of sample
 RMS .OHMM           2.05:   Rm
 MST .F                76:   Rm Meas. temp.
 RMF .OHMM           1.49:   Rmf
 MFST.F                78:   Rmf Meas. temp.
 MFSS.               MEAS:   Source Rmf.
 RMB .OHMM           1.34:   Rm. at BHT
 BHT .F               116:   BHT.
 TCS .HRS               2:   Time Circ. stopped
 MRT .F               116:   Maximum recorded temp.
 LUN .               4507:   Logging unit number
 LUL .               CSPR:   Logging unit location
 ENGI.             KNOBEL:   Recorded By
 WITN.                MAY:   Witnessed by
 ORIG.        2" 5" PRINT:   Origin of data
 UWI .     49025600130000:   Unique Well ID
 DICO. A2D TECHNOLOGIES, INC.:   Digitizing Company
~OTHER INFORMATION
~A    DEPT     SPR          ASN      ILD       CALD        GRD       RHOB   
# ...
 1300.5000   -26.2647     8.7729     7.7048  -999.2500  -999.2500  -999.2500
 1301.0000   -26.2842     8.7735     7.7810  -999.2500  -999.2500  -999.2500
 1301.5000   -26.3047     8.7787     7.7817  -999.2500  -999.2500  -999.2500
 1302.0000   -26.3253     8.7593     7.7810  -999.2500  -999.2500  -999.2500
 1302.5000   -26.3459     8.7597     7.7058  -999.2500  -999.2500  -999.2500
 1303.0000   -26.3665     8.7303     7.7062  -999.2500  -999.2500  -999.2500
 1303.5000   -26.3874     8.7429     7.7066  -999.2500  -999.2500  -999.2500
 1304.0000   -26.4080     8.6700     7.6586  -999.2500  -999.2500  -999.2500
 1304.5000   -26.4090     8.5834     7.5563  -999.2500  -999.2500  -999.2500
 1305.0000   -26.3154     8.5574     7.5566  -999.2500  -999.2500  -999.2500
 1305.5000   -26.2236     8.5234     7.5571  -999.2500  -999.2500  -999.2500
 1306.0000   -26.1314     8.4703     7.5574  -999.2500  -999.2500  -999.2500
 1306.5000   -26.0363     8.4639     7.5578  -999.2500  -999.2500  -999.2500
 1307.0000   -26.0244     8.4555     7.5582  -999.2500  -999.2500  -999.2500
 1307.5000   -25.8459     8.4469     7.5585  -999.2500  -999.2500  -999.2500
 1308.0000   -25.8317     8.4645     7.5589  -999.2500  -999.2500  -999.2500
 1308.5000   -25.8350     8.4813     7.5593  -999.2500  -999.2500  -999.2500
 1309.0000   -25.8353     8.4853     7.4841  -999.2500  -999.2500  -999.2500
 1309.5000   -25.8117     8.5160     7.4090  -999.2500  -999.2500  -999.2500
 1310.0000   -25.7778     8.5409     7.4094  -999.2500  -999.2500  -999.2500
 1310.5000   -25.7433     8.5501     7.4098  -999.2500  -999.2500  -999.2500
 1311.0000   -25.7088     8.5824     7.4101  -999.2500  -999.2500  -999.2500
 1311.5000   -25.6733     8.6150     7.4105  -999.2500  -999.2500  -999.2500
 1312.0000   -25.6426     8.6579     7.4109  -999.2500  -999.2500  -999.2500
 1312.5000   -25.8057     8.6952     7.4113  -999.2500  -999.2500  -999.2500
 1313.0000   -25.9835     8.7413     7.4365  -999.2500  -999.2500  -999.2500
 1313.5000   -26.1605     8.8108     7.5631  -999.2500  -999.2500  -999.2500
 1314.0000   -26.3375     8.9016     7.6390  -999.2500  -999.2500  -999.2500
 1314.5000   -26.5153     8.9275     7.7149  -999.2500  -999.2500  -999.2500
 1315.0000   -26.6909     8.9785     7.7153  -999.2500  -999.2500  -999.2500
 1315.5000   -26.7694     9.0521     7.7157  -999.2500  -999.2500  -999.2500
 1316.0000   -26.5520     9.1635     7.6314  -999.2500  -999.2500  -999.2500
 1316.5000   -26.3457     9.2960     7.5253  -999.2500  -999.2500  -999.2500
 1317.0000   -26.1401     9.3200     7.4147  -999.2500  -999.2500  -999.2500
 1317.5000   -25.9324     9.3355     7.4151  -999.2500  -999.2500  -999.2500
 1318.0000   -25.8365     9.3624     7.3112  -999.2500  -999.2500  -999.2500
 1318.5000   -25.6383     9.3735     7.2647  -999.2500  -999.2500  -999.2500
 1319.0000   -25.6372     9.4014     7.2652  -999.2500  -999.2500  -999.2500
 1319.5000   -25.6385     9.4296     7.2655  -999.2500  -999.2500  -999.2500
 1320.0000   -25.6376     9.4914     7.2810  -999.2500  -999.2500  -999.2500
 1320.5000   -25.6778     9.6229     7.3418  -999.2500  -999.2500  -999.2500
 1321.0000   -25.7292     9.7926     7.4177  -999.2500  -999.2500  -999.2500
 1321.5000   -25.7809     9.0783     7.5174  -999.2500  -999.2500  -999.2500
 1322.0000   -25.8325     9.3055     7.5710  -999.2500  -999.2500  -999.2500
 1322.5000   -25.8841     9.4286     7.7210  -999.2500  -999.2500  -999.2500
 1323.0000   -25.9358     9.5589     7.7538  -999.2500  -999.2500  -999.2500
 1323.5000   -25.9879     9.6863     7.8727  -999.2500  -999.2500  -999.2500
 1324.0000   -26.0312     9.6890     7.8731  -999.2500  -999.2500  -999.2500
 1324.5000   -26.0098     9.7657     7.9146  -999.2500  -999.2500  -999.2500
 1325.0000   -26.4251     9.8428     8.0249  -999.2500  -999.2500  -999.2500
 1325.5000   -26.5318     9.8452     8.0253  -999.2500  -999.2500  -999.2500
 1326.0000   -26.6226     9.8473     8.0258  -999.2500  -999.2500  -999.2500
 1326.5000   -26.6218     9.8496     8.0261  -999.2500  -999.2500  -999.2500
 1327.0000   -26.6209     9.8518     8.0264  -999.2500  -999.2500  -999.2500
 1327.5000   -26.6245     9.8544     8.0269  -999.2500  -999.2500  -999.2500
 1328.0000   -26.6039     9.9631     8.0634  -999.2500  -999.2500  -999.2500
 1328.5000   -26.4333    10.0933     8.1786  -999.2500  -999.2500  -999.2500
 1329.0000   -26.3606    10.3101     8.2546  -999.2500  -999.2500  -999.2500
 1329.5000   -26.4392    10.5451     8.3304  -999.2500  -999.2500  -999.2500
 1330.0000   -26.4235    10.7086     8.4290  -999.2500  -999.2500  -999.2500
 1330.5000   -26.4248    10.7657     8.4823  -999.2500  -999.2500  -999.2500
 1331.0000   -26.4188    10.6931     8.4827  -999.2500  -999.2500  -999.2500
 1331.5000   -26.2513    10.6954     8.4830  -999.2500  -999.2500  -999.2500
 1332.0000   -26.2240    10.6976     8.4834  -999.2500  -999.2500  -999.2500
 1332.5000   -26.2278    10.7749     8.4838  -999.2500  -999.2500  -999.2500
 1333.0000   -26.2282    10.7770     8.4841  -999.2500  -999.2500  -999.2500
 1333.5000   -26.2261    10.7792     8.4845  -999.2500  -999.2500  -999.2500
 1334.0000   -26.2313    10.7815     8.4849  -999.2500  -999.2500  -999.2500
 1334.5000   -26.0117    10.7837     8.4853  -999.2500  -999.2500  -999.2500
 1335.0000   -26.2361    10.7859     8.5121  -999.2500  -999.2500  -999.2500
 1335.5000   -26.3382    10.7882     8.5616  -999.2500  -999.2500  -999.2500
 1336.0000   -26.5611    10.7907     8.6375  -999.2500  -999.2500  -999.2500
 1336.5000   -26.6295    10.7926     8.6378  -999.2500  -999.2500  -999.2500
 1337.0000   -26.7970    10.7949     8.6510  -999.2500  -999.2500  -999.2500
 1337.5000   -26.8264    10.7973     8.7897  -999.2500  -999.2500  -999.2500
 1338.0000   -26.8363    10.8463     8.8776  -999.2500  -999.2500  -999.2500
 1338.5000   -27.0069    10.9017     9.0060  -999.2500  -999.2500  -999.2500
 1339.0000   -27.1638    10.9606     9.3950  -999.2500  -999.2500  -999.2500
 1339.5000   -27.0165    11.1807     9.8486  -999.2500  -999.2500  -999.2500
 1340.0000   -27.0224    11.3973    10.3322  -999.2500  -999.2500  -999.2500
 1340.5000   -27.0703    11.7617    11.1053  -999.2500  -999.2500  -999.2500
 1341.0000   -27.1163    12.2352    11.9645  -999.2500  -999.2500  -999.2500
 1341.5000   -27.1622    12.6707    12.3448  -999.2500  -999.2500  -999.2500
 1342.0000   -27.2080    12.9361    12.6028  -999.2500  -999.2500  -999.2500
 1342.5000   -27.2539    13.0676    12.8720  -999.2500  -999.2500  -999.2500
 1343.0000   -27.2997    13.3671    13.1465  -999.2500  -999.2500  -999.2500
 1343.5000   -27.3456    13.5841    13.3512  -999.2500  -999.2500  -999.2500
 1344.0000   -27.3914    13.6707    13.4773  -999.2500  -999.2500  -999.2500
 1344.5000   -27.4372    13.6731    13.4778  -999.2500  -999.2500  -999.2500
 1345.0000   -27.4832    13.6751    13.4781  -999.2500  -999.2500  -999.2500
 1345.5000   -27.5292    13.5819    13.4550  -999.2500  -999.2500  -999.2500
 1346.0000   -27.5741    13.5300    13.1768  -999.2500  -999.2500  -999.2500
 1346.5000   -27.5778    13.3825    13.0917  -999.2500  -999.2500  -999.2500
 1347.0000   -27.5084    13.2794    12.9856  -999.2500  -999.2500  -999.2500
 1347.5000   -27.4401    13.1537    12.8758  -999.2500  -999.2500  -999.2500
 1348.0000   -27.3715    13.0152    12.5741  -999.2500  -999.2500  -999.2500
 1348.5000   -27.3029    12.8621    12.4698  -999.2500  -999.2500  -999.2500
 1349.0000   -27.2344    12.7016    12.2523  -999.2500  -999.2500  -999.2500
 1349.5000   -27.1659    12.4978    11.8954  -999.2500  -999.2500  -999.2500
 1350.0000   -27.0973    12.3507    11.7447  -999.2500  -999.2500  -999.2500
 1350.5000   -27.0288    12.2028    11.5785  -999.2500  -999.2500  -999.2500
 1351.0000   -26.9602    12.0489    11.4434  -999.2500  -999.2500  -999.2500
 1351.5000   -26.8927    11.9082    11.3217  -999.2500  -999.2500  -999.2500
 1352.0000   -26.8199    11.7974    11.1692  -999.2500  -999.2500  -999.2500
