~VERSION INFORMATION
 VERS.                2.0:   CWLS LOG ASCII STANDARD - VERSION 2.0
 WRAP.                 NO:   ONE LINE PER DEPTH STEP
~WELL INFORMATION
#MNEM.UNIT      DATA TYPE    INFORMATION
#----------   ------------   ------------------------------
 STRT.F            0.0000:   START DEPTH
 STOP.F         3040.0000:   STOP DEPTH
 STEP.F            0.5000:   STEP LENGTH
 NULL.          -999.2500:   NO VALUE
 COMP.    FENIX & SCISSON:   COMPANY
 WELL.  FENIX "AX" #43-28:   WELL
 FLD .             TEAPOT:   FIELD
 LOC .      S28 T39N R78W:   LOCATION
 CNTY.            NATRONA:   COUNTY
 STAT.            WYOMING:   STATE
 CTRY. UNITED STATES OF AMERICA:   COUNTRY
 SRVC.              WELEX:   SERVICE COMPANY
 DATE.        20-JUL-1980:   LOGDATE
 API .     49025108450000:   API NUMBER
~CURVE INFORMATION
#MNEM.UNIT       API CODE    CURVE DESCRIPTION
#----------   ------------   ------------------------------
 DEPT.F                  :   
 GRD .GAPI   45 310 01 00:   GAMMA RAY FROM DENSITY LOG
 CALD.IN     45 280 60 00:   CALIPER FROM DENSITY LOG
 RHOB.G/C3   45 350 01 00:   BULK DENSITY
 CORR.G/C3   45 356 01 00:   DENSITY CORRECTION
 SPR .MV     07 010 01 00:   SPONTANEOUS POTENTIAL
 ILD .OHMM   07 120 46 00:   DEEP INDUCTION RESISTIVITY
 ILM .OHMM   07 120 44 00:   INDUCTION LOG MEDIUM RESISTIVITY
 SGRD.OHMM   07 220 05 00:   SHALLOW SHORT GUARD RESISTIVITY
 NEUT.CPS    35 330 30 00:   NEUTRON
~PARAMETER INFORMATION
#MNEM.UNIT          VALUE    DESCRIPTION
#----------   ------------   ------------------------------
 EKB .F         5042.0000:   Kelly bushing
 EGL .F         5032.0000:   Ground level
 EDF .F            0.0000:   Drilling floor
 TD  .F         3038.0000:   Total depth
 DATE.        20-JUL-1980:   Date logged
 CLNT.            A2DTECH:   Client Code
 SL  . 1500' FNL & 2500' FWL:   Surface Location
 PD  .                 GL:   Permanent Datum
 EPD .F              5032:   Elevation Permanent Datum
 LMF .                 KB:   Log Measured From
 DMF .                 KB:   Drilling Measured From
 DD  .F              3000:   Depth driller
 DL  .F              3038:   Depth logger
 BLI .F              3036:   Bottom log interval
 TLI .F               432:   Top log interval
 CS1 .IN            8.625:   Casing size
 CBD1.      8.625" @ 443':   Casing driller 1
 CBL1.F               432:   Casing logger 1
 BS1 .IN            7.875:   Bit size
 BSD1.F              3000:   Depth drilled with bit1
 DFT .     WATER BASE MUD:   Type fluid in hole
 DFD .                9.3:   Density
 DFV .                 45:   Viscosity
 DFPH.                  9:   pH
 DFL .                  8:   Fluid loss
 MSS .                PIT:   Source of sample
 RMS .OHMM           0.85:   Rm
 MST .F                75:   Rm Meas. temp.
 RMF .OHMM           0.68:   Rmf
 MFST.F                75:   Rmf Meas. temp.
 RMC .OHMM           1.02:   Rmc
 MCST.F                75:   Rmc Meas. temp.
 MFSS.               MEAS:   Source Rmf.
 MCSS.               MEAS:   Source Rmc.
 RMB .OHMM           0.57:   Rm. at BHT
 BHT .F               112:   BHT.
 TCS .HRS               3:   Time Circ. stopped
 MRT .F               112:   Maximum recorded temp.
 LUN .               9865:   Logging unit number
 LUL .             CASPER:   Logging unit location
 ENGI.            TOTHILL:   Recorded By
 WITN.           DINSMORE:   Witnessed by
 ORIG.     2.5", 5" PRINT:   Origin of data
 UWI .     49025108450000:   Unique Well ID
 DICO. A2D TECHNOLOGIES, INC.:   Digitizing Company
~OTHER INFORMATION
~A    DEPT     GRD       CALD       RHOB       CORR        SPR        ILD        ILM       SGRD        NEUT  
# ...
 2664.5000    80.9470     9.3610     2.5110     0.0440   -19.9000     5.9840     6.0110     7.0850   274.2470
 2665.0000    80.8710     9.3720     2.5170     0.0440   -19.8470     5.9020     5.8510     6.6340   285.8210
 2665.5000    81.5510     9.3840     2.5230     0.0440   -19.8020     5.8210     5.6910     6.1820   256.5420
 2666.0000    82.2150     9.3950     2.5290     0.0450   -19.7570     5.7680     5.5310     5.7310   260.0670
 2666.5000    82.3560     9.3940     2.5310     0.0410   -19.7020     5.7680     5.3710     4.9780   273.9710
 2667.0000    82.4770     9.3930     2.5280     0.0360   -19.6790     5.2320     5.2110     5.2070   262.7690
 2667.5000    82.5370     9.3920     2.5290     0.0280   -19.5930     4.5020     5.0700     5.9000   250.7030
 2668.0000    82.2490     9.3900     2.5200     0.0200   -19.5180     3.7070     5.5450     6.5940   291.2640
 2668.5000    81.7460     9.3890     2.5100     0.0120   -18.0870     3.7070     6.0960     6.9350   285.1080
 2669.0000    80.5450     9.3880     2.5010     0.0030   -17.4140     4.5130     5.0700     6.8770   270.3100
 2669.5000    79.3250     9.3860     2.5030    -0.0020   -17.1970     5.5590     3.9680     6.8250   278.3810
 2670.0000    79.2860     9.3850     2.5030    -0.0080   -17.2060     5.3350     3.1900     6.6840   292.0310
 2670.5000    80.0150     9.3830     2.4910    -0.0180   -17.1860     5.0260     3.5690     6.4120   280.7270
 2671.0000    80.8090     9.3820     2.4860    -0.0250   -17.1980     5.0310     3.9470     6.1020   265.9290
 2671.5000    81.6140     9.3810     2.4940    -0.0190   -17.2020     5.2290     4.4570     5.7920   258.8260
 2672.0000    81.5380     9.3790     2.5040    -0.0110   -17.1600     5.4580     4.2390     5.5590   230.4980
 2672.5000    81.3770     9.3780     2.5140    -0.0030   -17.6030     4.8870     3.9180     6.9350   251.6000
 2673.0000    80.6590     9.3770     2.5220    -0.0020   -18.6090     4.8870     5.1650     6.0960   303.3480
 2673.5000    79.3520     9.3750     2.5260    -0.0020   -19.6040     5.0550     4.7310     6.9350   278.3580
 2674.0000    78.0710     9.3730     2.5290     0.0010   -19.9870     5.2570     4.3760     5.3680   294.7480
 2674.5000    76.8150     9.3720     2.5410     0.0150   -19.9540     5.4580     5.2670     2.8640   313.6820
 2675.0000    75.7880     9.3700     2.5470     0.0180   -19.9580     5.7640     6.3620     7.7450   293.2130
 2675.5000    74.7660     9.3680     2.5560     0.0250   -19.9630     6.0680     7.4650     8.7820   270.7870
 2676.0000    73.7460     9.3660     2.5680     0.0310   -19.9530     6.3730     7.3290     9.4850   250.0000
 2676.5000    72.7260     9.3640     2.5670     0.0270   -19.9760     6.6840     7.6450     9.4850   271.6830
 2677.0000    72.2070     9.3630     2.5620     0.0220   -19.7920     6.8150     8.3370     9.1340   252.4880
 2677.5000    72.4420     9.3610     2.5580     0.0230   -19.4400     6.9500     7.1950     8.7740   274.8570
 2678.0000    73.4200     9.3590     2.5550     0.0260   -19.1230     7.0640     7.3020     8.4140   296.1230
 2678.5000    74.3770     9.3570     2.5550     0.0250   -18.7910     7.0860     7.4140     8.0550   297.1280
 2679.0000    75.3280     9.3600     2.5550     0.0220   -18.6220     7.1050     7.4650     7.5690   283.9900
 2679.5000    76.1490     9.3690     2.5510     0.0180   -18.4540     7.1240     7.4650     6.9350   275.0090
 2680.0000    76.5440     9.3770     2.5430     0.0160   -18.2980     7.1430     7.4650     6.9350   257.1680
 2680.5000    76.8990     9.3850     2.5430     0.0170   -18.1290     7.1620     7.4650     7.4450   265.3940
 2681.0000    76.5890     9.3940     2.5450     0.0180   -17.9650     7.1950     7.4650     7.9000   276.7060
 2681.5000    76.2770     9.4020     2.5470     0.0200   -17.8190     7.1490     7.4650     8.0360   274.1030
 2682.0000    76.1540     9.4100     2.5490     0.0210   -17.6020     6.9950     7.3340     8.3800   265.2380
 2682.5000    76.7370     9.4190     2.5510     0.0200   -17.9660     6.8410     7.1880     8.8110   275.4650
 2683.0000    77.3040     9.4270     2.5470     0.0120   -18.6480     6.6860     7.0420     8.8110   272.5080
 2683.5000    77.8690     9.4350     2.5390     0.0030   -19.2660     6.5320     6.8700     8.7040   266.7090
 2684.0000    78.4330     9.4430     2.5310    -0.0050   -19.8920     6.3780     6.6250     8.6500   286.6610
 2684.5000    78.9960     9.4500     2.5300    -0.0060   -20.3560     6.3250     6.4420     5.1650   270.7250
 2685.0000    79.7320     9.4570     2.5310    -0.0030   -20.3120     6.3250     6.5830     6.8080   294.7950
 2685.5000    80.4930     9.4650     2.5380     0.0010   -20.2410     6.3250     6.9000     7.4930   273.8900
 2686.0000    79.4800     9.4720     2.5450     0.0050   -20.1550     6.3250     7.2170     8.5680   242.0960
 2686.5000    77.4260     9.4790     2.5410     0.0050   -20.0660     6.3250     7.4490     8.9750   261.1990
 2687.0000    75.9330     9.4870     2.5390     0.0040   -20.0160     6.3250     7.3740     8.5610   284.4240
 2687.5000    74.7800     9.4940     2.5440     0.0040   -19.6910     6.3250     7.3000     8.0530   309.5020
 2688.0000    74.7980     9.4890     2.5430     0.0030   -19.1690     6.3250     7.2260     7.6040   303.0080
 2688.5000    76.1000     9.4850     2.5360     0.0040   -18.6810     6.5120     7.1950     7.6040   292.3280
 2689.0000    76.6230     9.4800     2.5370     0.0050   -18.2000     6.7010     7.2980     7.7450   281.4920
 2689.5000    76.5940     9.4750     2.5460     0.0140   -17.7070     6.8900     7.5710     8.1160   265.4790
 2690.0000    75.5180     9.4710     2.5520     0.0220   -17.5370     6.9550     7.8440     8.7630   273.0160
 2690.5000    74.3870     9.4660     2.5570     0.0260   -17.4830     6.9820     8.1170     9.3120   288.8520
 2691.0000    73.6550     9.4610     2.5610     0.0290   -17.4200     7.0080     8.1850     9.2410   309.1340
 2691.5000    73.9260     9.4570     2.5630     0.0290   -17.3600     7.0350     8.1850     9.0380   297.6100
 2692.0000    74.2640     9.4570     2.5590     0.0260   -17.3020     7.0640     8.1180     8.8350   278.4400
 2692.5000    74.8910     9.4610     2.5530     0.0230   -17.2150     7.0060     8.0260     8.6320   294.2950
 2693.0000    75.5450     9.4650     2.5490     0.0190   -17.4510     6.9450     7.9340     8.4420   309.5740
 2693.5000    76.1960     9.4700     2.5520     0.0150   -18.3390     6.8830     7.7950     8.2830   324.8910
 2694.0000    76.6510     9.4740     2.5540     0.0110   -19.1730     6.8220     7.6080     8.1240   310.4330
 2694.5000    76.7130     9.4780     2.5480     0.0110   -19.9160     6.7600     7.4220     7.9650   314.3790
 2695.0000    76.7810     9.4820     2.5400     0.0070   -19.7970     6.6980     7.2360     7.8050   326.8930
 2695.5000    76.8500     9.4860     2.5310    -0.0010   -19.6760     6.6370     7.0640     7.6460   289.0930
 2696.0000    76.9120     9.4900     2.5260    -0.0080   -19.5230     6.5750     7.0640     7.4650   278.1720
 2696.5000    76.6110     9.4960     2.5340    -0.0040   -19.3870     6.5130     7.2520     7.4650   265.8060
 2697.0000    76.2780     9.5090     2.5450     0.0000   -19.2480     6.4420     7.8890     7.8540   273.4520
 2697.5000    75.9460     9.5220     2.5510     0.0030   -19.1080     6.5530     7.8260     8.1850   285.6140
 2698.0000    75.6140     9.5340     2.5530     0.0030   -18.9620     6.6830     7.6850     8.0360   299.7030
 2698.5000    75.2820     9.5470     2.5540     0.0010   -18.8470     6.8140     7.6040     8.0360   310.6680
 2699.0000    74.9500     9.5600     2.5520    -0.0020   -18.5320     6.9440     7.8300     8.1850   317.1090
 2699.5000    74.4220     9.5730     2.5490    -0.0050   -18.0590     7.0750     8.1940     8.4250   323.8160
 2700.0000    73.8160     9.5860     2.5460    -0.0040   -17.6390     7.2060     8.3370     8.6660   309.1680
 2700.5000    73.2090     9.5920     2.5500     0.0020   -17.2280     7.3360     8.3950     8.8110   280.7730
