~VERSION INFORMATION
 VERS.                2.0:   CWLS LOG ASCII STANDARD - VERSION 2.0
 WRAP.                 NO:   ONE LINE PER DEPTH STEP
~WELL INFORMATION
#MNEM.UNIT      DATA TYPE    INFORMATION
#----------   ------------   ------------------------------
 STRT.F          230.0000:   START DEPTH
 STOP.F         3480.0000:   STOP DEPTH
 STEP.F            0.5000:   STEP LENGTH
 NULL.          -999.2500:   NO VALUE
 COMP.    FENIX & SCISSON:   COMPANY
 WELL. FENIX NPR 3 "AX" #33-15:   WELL
 FLD .                NPR:   FIELD
 LOC .      S15 T38N R78W:   LOCATION
 CNTY.            NATRONA:   COUNTY
 STAT.            WYOMING:   STATE
 CTRY. UNITED STATES OF AMERICA:   COUNTRY
 SRVC.       SCHLUMBERGER:   SERVICE COMPANY
 DATE.        19-MAR-1981:   LOGDATE
 API .     49025108760000:   API NUMBER
~CURVE INFORMATION
#MNEM.UNIT       API CODE    CURVE DESCRIPTION
#----------   ------------   ------------------------------
 DEPT.F                  :   
 TENR.LBS    07 635 01 00:   TENSION
 SFL .OHMM   07 220 01 00:   SHALLOW FOCUSED LOG RESISTIVITY
 ILM .OHMM   07 120 44 00:   INDUCTION LOG MEDIUM RESISTIVITY
 ILD .OHMM   07 120 46 00:   INDUCTION LOG DEEP RESISTIVITY
 SPR .MV     07 010 01 00:   SPONTANEOUS POTENTIAL
 CALD.IN     45 280 60 00:   CALIPER FROM DENSITY LOG
 GRD .GAPI   45 310 01 00:   GAMMA RAY FROM DENSITY LOG
 CORR.G/C3   45 356 01 00:   DENSITY CORRECTION
 RHOB.G/C3   45 350 01 00:   BULK DENSITY
~PARAMETER INFORMATION
#MNEM.UNIT          VALUE    DESCRIPTION
#----------   ------------   ------------------------------
 EKB .F         5286.0000:   Kelly bushing
 EGL .F         5276.0000:   Ground level
 EDF .F            0.0000:   Drilling floor
 TD  .F         3500.0000:   Total depth
 DATE.        19-MAR-1981:   Date logged
 CLNT.            A2DTECH:   Client Code
 SL  . 1545' FNL & 1467' FWL:   Surface Location
 PD  .                 GL:   Permanent Datum
 EPD .F              5276:   Elevation Permanent Datum
 LMF .                 KB:   Log Measured From
 DMF .                 KB:   Drilling Measured From
 DAPD.F                10:   Feet Above Permanent Datum
 DD  .F              3500:   Depth driller
 DL  .F              3476:   Depth logger
 BLI .F              3470:   Bottom log interval
 TLI .F               234:   Top log interval
 CS1 .IN            8.625:   Casing size
 CBD1.      8.625" @ 250':   Casing driller 1
 CBL1.F               234:   Casing logger 1
 BS1 .IN            7.875:   Bit size
 BSD1.F              3500:   Depth drilled with bit1
 DFT .                FGM:   Type fluid in hole
 DFD .                8.9:   Density
 DFV .                 39:   Viscosity
 DFPH.                9.5:   pH
 DFL .                 10:   Fluid loss
 MSS .               TANK:   Source of sample
 RMS .OHMM           2.26:   Rm
 MST .F                54:   Rm Meas. temp.
 RMF .OHMM           1.60:   Rmf
 MFST.F                54:   Rmf Meas. temp.
 MFSS.               MEAS:   Source Rmf.
 RMB .OHMM            .87:   Rm. at BHT
 BHT .F               140:   BHT.
 TCS .HRS            1030:   Time Circ. stopped
 TLAB.HRS            1300:   Time logger at bottom
 MRT .F               140:   Maximum recorded temp.
 LUN .               8039:   Logging unit number
 LUL .               CSPR:   Logging unit location
 ENGI.           C. PFARR:   Recorded By
 WITN.           R. SCOTT:   Witnessed by
 ORIG.     2.5", 5" PRINT:   Origin of data
 UWI .     49025108760000:   Unique Well ID
 DICO. A2D TECHNOLOGIES, INC.:   Digitizing Company
~OTHER INFORMATION
~A   DEPT     TENR          SFL      ILM        ILD        SPR         CALD       GRD      CORR         RHOB 
# ...
 1945.5000  1184.7390     9.7830     7.1320     7.6280   -35.2060     8.6610   100.8250     0.0700     2.5520
 1946.0000  1184.7390    10.4550     7.1980     7.7170   -35.1110     8.6410   100.4500     0.0660     2.5480
 1946.5000  1184.7390    10.8500     7.1510     7.8060   -35.1210     8.6220   104.0250     0.0650     2.5490
 1947.0000  1184.7390    10.3710     7.0580     7.8940   -35.1190     8.6020   107.7820     0.0660     2.5580
 1947.5000  1184.7390     9.8480     6.9650     7.8430   -35.1180     8.5830   111.4880     0.0670     2.5670
 1948.0000  1184.7390     9.3250     6.8720     7.7410   -35.1190     8.5640   113.9180     0.0670     2.5670
 1948.5000  1184.7390     8.8030     6.7790     7.6390   -35.1190     8.5580   115.4650     0.0670     2.5630
 1949.0000  1184.7390     8.3710     6.5790     7.5370   -35.1190     8.5540   114.3300     0.0660     2.5590
 1949.5000  1184.7390     8.3710     6.6270     7.4340   -35.1480     8.5510   113.1840     0.0610     2.5560
 1950.0000  1184.7390     8.3710     6.7550     7.2550   -35.1850     8.5470   110.8610     0.0560     2.5520
 1950.5000  1184.7390     8.9920     6.8820     7.3190   -35.2220     8.5440   108.1060     0.0450     2.5560
 1951.0000  1184.7390     9.5110     7.0100     7.4450   -35.2590     8.5400   105.2510     0.0430     2.5610
 1951.5000  1184.7390    10.0300     7.1080     7.5720   -35.2960     8.5370   105.1710     0.0460     2.5660
 1952.0000  1184.7390    10.8500     7.1630     7.6990   -35.3330     8.5330   106.9610     0.0480     2.5580
 1952.5000  1184.7390    10.6090     7.2170     7.7980   -35.3700     8.5300   108.7390     0.0420     2.5490
 1953.0000  1184.7390    10.0330     7.2170     7.8590   -35.4060     8.5260   110.5090     0.0390     2.5410
 1953.5000  1184.7390     9.4580     7.2170     7.9180   -35.4440     8.5230   112.2510     0.0370     2.5410
 1954.0000  1184.7390     9.0150     7.2170     7.9180   -35.4800     8.5200   113.5760     0.0370     2.5460
 1954.5000  1184.7390     9.1830     7.2170     7.9180   -35.5140     8.5200   113.9740     0.0400     2.5530
 1955.0000  1184.7390     9.7910     7.2170     7.9180   -35.5150     8.5200   113.4590     0.0420     2.5580
 1955.5000  1184.7390    10.3780     7.2170     7.9180   -35.5160     8.5200   112.4920     0.0420     2.5610
 1956.0000  1184.7390    11.0530     7.2170     7.9180   -35.5160     8.5200   110.3330     0.0420     2.5570
 1956.5000  1184.7390    10.7890     7.2170     7.9180   -35.5150     8.5200   106.9130     0.0520     2.5580
 1957.0000  1184.7390    10.2020     7.1960     7.9170   -35.5160     8.5200   106.0260     0.0490     2.5590
 1957.5000  1184.7390     9.3220     7.1770     7.9170   -35.5180     8.5200   105.5300     0.0450     2.5570
 1958.0000  1184.7390     9.3300     7.1580     7.8950   -35.5570     8.5200   104.4470     0.0370     2.5560
 1958.5000  1184.7390     9.8900     7.1380     7.8740   -35.5940     8.5200   101.4530     0.0270     2.5610
 1959.0000  1184.7390    10.2630     7.1180     7.8520   -35.6330     8.5200   103.4560     0.0320     2.5690
 1959.5000  1184.7390    10.0010     7.0990     7.8310   -35.6710     8.5200   108.4370     0.0380     2.5760
 1960.0000  1184.7390     9.6990     7.0870     7.8090   -35.7100     8.5200   113.5190     0.0460     2.5820
 1960.5000  1184.7390     9.3980     7.0940     7.7880   -35.7480     8.5200   115.4220     0.0550     2.5850
 1961.0000  1184.7390     9.1830     7.1010     7.7750   -35.7860     8.5200   113.3700     0.0610     2.5880
 1961.5000  1184.7390     9.1830     7.1080     7.7830   -35.8250     8.5200   109.4920     0.0640     2.5910
 1962.0000  1184.7390     9.4550     7.1150     7.7900   -35.8630     8.5200   105.6570     0.0650     2.5880
 1962.5000  1184.7390     9.7030     7.1220     7.7980   -35.9000     8.5200   103.5370     0.0510     2.5760
 1963.0000  1184.7390    10.0750     7.1290     7.8060   -35.9350     8.5200   103.3930     0.0470     2.5710
 1963.5000  1184.7390     9.7080     7.1360     7.8140   -36.0060     8.5200   103.3840     0.0420     2.5690
 1964.0000  1184.7390     9.7950     7.1430     7.8210   -36.0760     8.5200   103.9890     0.0370     2.5680
 1964.5000  1184.7390    10.0740     7.1500     7.8290   -36.1500     8.5200   105.0260     0.0380     2.5720
 1965.0000  1184.7390    10.2630     7.1580     7.8370   -36.2160     8.5200   105.2880     0.0460     2.5830
 1965.5000  1184.7390    10.0210     7.1650     7.8450   -36.2890     8.5200   105.6900     0.0530     2.5910
 1966.0000  1184.7390     9.7580     7.1720     7.8520   -36.1420     8.5200   107.1590     0.0610     2.5850
 1966.5000  1184.7390     9.5300     7.1790     7.8600   -35.8970     8.5200   109.4120     0.0540     2.5700
 1967.0000  1184.7390     9.9470     7.1860     7.8680   -35.6570     8.5200   110.2690     0.0450     2.5560
 1967.5000  1184.7390    10.2630     7.1930     7.8760   -35.4200     8.5200   109.5770     0.0360     2.5510
 1968.0000  1184.7390     9.9910     7.2000     7.8830   -35.1790     8.5200   107.6630     0.0280     2.5550
 1968.5000  1184.7390     9.5580     7.2080     7.8920   -34.9410     8.5200   107.2800     0.0210     2.5730
 1969.0000  1184.7390     9.6150     7.2160     7.8980   -34.7010     8.5200   109.3890     0.0160     2.5700
 1969.5000  1184.7390     9.7280     7.1920     7.9070   -34.4620     8.5200   109.9860     0.0110     2.5570
 1970.0000  1184.7390     9.8400     7.1420     7.9150   -34.2270     8.5200   107.3990     0.0060     2.5420
 1970.5000  1184.7390     9.8900     7.0920     7.8900   -33.9800     8.5200   104.5560     0.0150     2.5510
 1971.0000  1184.7390     9.7310     7.0430     7.8340   -34.0120     8.5200   104.8030     0.0300     2.5670
 1971.5000  1184.7390     9.5950     6.9940     7.7800   -34.2710     8.5200   107.0240     0.0400     2.5810
 1972.0000  1184.7390     9.4580     6.9450     7.7270   -34.5180     8.5200   109.2910     0.0500     2.5860
 1972.5000  1184.7390     9.3220     6.8960     7.6730   -34.7640     8.5200   110.5830     0.0560     2.5900
 1973.0000  1184.7390     9.1830     6.8270     7.6190   -35.0190     8.5200   111.6130     0.0500     2.5830
 1973.5000  1184.7390     9.3550     6.8570     7.5650   -35.2640     8.5200   112.6230     0.0390     2.5750
 1974.0000  1184.7390     9.1830     6.9090     7.4900   -35.4970     8.5200   112.5220     0.0280     2.5590
 1974.5000  1184.7390     9.4440     6.9600     7.5230   -35.5680     8.5200   108.2120     0.0170     2.5570
 1975.0000  1184.7390     9.8900     7.0120     7.5800   -35.6780     8.5200   105.2910     0.0180     2.5630
 1975.5000  1184.7390     9.8900     7.0630     7.6370   -35.7730     8.5200   105.8190     0.0220     2.5690
 1976.0000  1184.7390     9.6180     7.1150     7.6930   -35.8790     8.5200   107.8300     0.0240     2.5660
 1976.5000  1184.7390     9.5300     7.1670     7.7500   -35.8620     8.5200   110.0180     0.0210     2.5640
 1977.0000  1184.7390     9.7440     7.2170     7.8060   -35.6200     8.5200   112.1540     0.0170     2.5650
 1977.5000  1184.7390    10.0070     7.1720     7.8630   -35.3860     8.5200   112.8890     0.0150     2.5710
 1978.0000  1184.7390    10.2630     7.1280     7.9180   -35.1450     8.5200   113.4560     0.0190     2.5810
 1978.5000  1184.7390    10.1350     7.0830     7.8490   -34.9060     8.5200   111.2160     0.0250     2.5920
 1979.0000  1186.5950     9.9310     7.0380     7.7810   -34.6670     8.5200   108.2200     0.0310     2.5990
 1979.5000  1188.8350     9.7260     6.9940     7.7130   -34.4270     8.5200   106.5490     0.0320     2.5940
 1980.0000  1191.0750     9.5300     6.9490     7.6460   -34.1900     8.5200   104.8200     0.0300     2.5870
 1980.5000  1193.3149     9.3520     6.9050     7.5780   -33.9490     8.5200   106.4680     0.0260     2.5750
 1981.0000  1195.5560     9.1820     6.8600     7.5110   -33.7070     8.5200   109.2590     0.0210     2.5640
 1981.5000  1197.7960     9.0110     6.7020     7.4430   -33.5330     8.5200   113.6120     0.0180     2.5560
