~VERSION INFORMATION
 VERS.                2.0:   CWLS LOG ASCII STANDARD - VERSION 2.0
 WRAP.                 NO:   ONE LINE PER DEPTH STEP
~WELL INFORMATION
#MNEM.UNIT      DATA TYPE    INFORMATION
#----------   ------------   ------------------------------
 STRT.F           72.5000:   START DEPTH
 STOP.F         2820.0000:   STOP DEPTH
 STEP.F            0.5000:   STEP LENGTH
 NULL.          -999.2500:   NO VALUE
 COMP.          INTEX OIL:   COMPANY
 WELL. INTEX OIL AX N. P. R. #51-29:   WELL
 FLD .             TEAPOT:   FIELD
 LOC .      S29 T39N R78W:   LOCATION
 CNTY.            NATRONA:   COUNTY
 STAT.            WYOMING:   STATE
 CTRY. UNITED STATES OF AMERICA:   COUNTRY
 SRVC.       SCHLUMBERGER:   SERVICE COMPANY
 DATE.        01-MAY-1966:   LOGDATE
 API .     49025094920000:   API NUMBER
~CURVE INFORMATION
#MNEM.UNIT       API CODE    CURVE DESCRIPTION
#----------   ------------   ------------------------------
 DEPT.F                  :   
 GRD .GAPI   45 310 01 00:   GAMMA RAY FROM DENSITY LOG
 CALD.IN     45 280 60 00:   CALIPER FROM DENSITY LOG
 RHOB.G/C3   45 350 01 00:   BULK DENSITY
 CORR.G/C3   45 356 01 00:   DENSITY CORRECTION
 SPR .MV     07 010 01 00:   SPONTANEOUS POTENTIAL
 ASN .OHMM   05 041 16 00:   AMPLIFIED SHORT NORMAL 16"
 ILD .OHMM   05 120 46 00:   DEEP INDUCTION RESISTIVITY
 DT  .US/F   60 520 00 00:   DELTA TIME
~PARAMETER INFORMATION
#MNEM.UNIT          VALUE    DESCRIPTION
#----------   ------------   ------------------------------
 EKB .F         5007.3000:   Kelly bushing
 EGL .F         4997.0000:   Ground level
 EDF .F            0.0000:   Drilling floor
 TD  .F         2799.0000:   Total depth
 DATE.        01-MAY-1966:   Date logged
 CLNT.            A2DTECH:   Client Code
 PD  .                 GL:   Permanent Datum
 EPD .F              4997:   Elevation Permanent Datum
 LMF .                 KB:   Log Measured From
 DMF .                 KB:   Drilling Measured From
 DAPD.F              10.3:   Feet Above Permanent Datum
 DD  .F              2798:   Depth driller
 DL  .F              2799:   Depth logger
 BLI .F              2798:   Bottom log interval
 TLI .F                88:   Top log interval
 CS1 .IN            10.75:   Casing size
 CBD1.       10.75" @ 30':   Casing driller 1
 BS1 .IN            7.875:   Bit size
 BSD1.F              2798:   Depth drilled with bit1
 DFT .           CHEM/OIL:   Type fluid in hole
 DFD .                9.5:   Density
 DFV .                 46:   Viscosity
 DFPH.                7.2:   pH
 DFL .                7.0:   Fluid loss
 MSS .         CIRCULATED:   Source of sample
 RMS .OHMM           2.28:   Rm
 MST .F                68:   Rm Meas. temp.
 RMF .OHMM           1.32:   Rmf
 MFST.F                72:   Rmf Meas. temp.
 MFSS.                 FP:   Source Rmf.
 RMB .OHMM           1.52:   Rm. at BHT
 BHT .F               102:   BHT.
 TCS .HRS             1.5:   Time Circ. stopped
 MRT .F               102:   Maximum recorded temp.
 LUN .               4507:   Logging unit number
 LUL .               CSPR:   Logging unit location
 ENGI.               HAUG:   Recorded By
 WITN.      TUTTLE/HUDSON:   Witnessed by
 ORIG.           5" PRINT:   Origin of data
 UWI .     49025094920000:   Unique Well ID
 DICO. A2D TECHNOLOGIES, INC.:   Digitizing Company
~OTHER INFORMATION
~A   DEPT      GRD       CALD       RHOB       CORR        SPR        ASN        ILD         DT   
# ...
 2340.5000   119.2880     8.8430     2.5090    -0.0160   -36.3450    10.4370     7.4440    80.9810
 2341.0000   119.4640     8.8410     2.5060    -0.0120   -36.3310    10.4190     7.4080    80.8560
 2341.5000   119.6580     8.8390     2.5030    -0.0050   -36.2960    10.4130     7.4370    80.7310
 2342.0000   119.9510     8.8370     2.5000     0.0010   -36.2740    10.3930     7.5200    81.0060
 2342.5000   119.6670     8.8360     2.5070     0.0060   -36.2630    10.3520     7.6150    81.5060
 2343.0000   119.0860     8.8340     2.5170     0.0080   -36.2480    10.3300     7.6980    81.6840
 2343.5000   117.7870     8.8320     2.5270     0.0100   -36.2260    10.4000     7.7870    80.7060
 2344.0000   115.2560     8.8350     2.5370     0.0240   -36.2070    10.6080     7.9250    79.2660
 2344.5000   112.8710     8.8420     2.5450     0.0140   -36.1900    10.9270     8.1330    77.8570
 2345.0000   110.5470     8.8480     2.5460     0.0070   -36.1720    11.2460     8.3630    77.5250
 2345.5000   109.8950     8.8540     2.5410     0.0000   -36.1540    11.4390     8.5010    77.3690
 2346.0000   110.1730     8.8600     2.5370    -0.0070   -36.1370    11.4580     8.4600    77.2120
 2346.5000   111.1290     8.8670     2.5310    -0.0030   -36.1190    11.3640     8.2670    77.1600
 2347.0000   114.6650     8.8690     2.5370     0.0030   -36.0970    11.2370     8.0350    77.2310
 2347.5000   116.8410     8.8600     2.5490    -0.0050   -36.0800    11.0840     7.8450    77.3030
 2348.0000   119.3040     8.8520     2.5630     0.0090   -36.0690    10.8600     7.6740    78.1330
 2348.5000   121.0940     8.8430     2.5570     0.0030   -36.0500    10.5720     7.4640    79.3330
 2349.0000   122.0850     8.8330     2.5410    -0.0030   -36.0010    10.3090     7.2250    80.5340
 2349.5000   122.0910     8.8430     2.5270    -0.0110   -35.8950    10.1610     7.0380    81.7340
 2350.0000   120.2970     8.8640     2.5140    -0.0110   -35.7180  -999.2500     6.9560    82.9340
 2350.5000   118.6520     8.8830     2.4960    -0.0180   -35.4970  -999.2500     6.9510    83.0960
 2351.0000   116.9330     8.9050     2.5000    -0.0180   -35.3220  -999.2500     6.9530    82.7110
 2351.5000   115.6800     8.8960     2.5090    -0.0110   -35.3010  -999.2500     6.9320    82.3260
 2352.0000   116.8890     8.8570     2.5070    -0.0170   -35.4630  -999.2500     6.9050    81.8990
 2352.5000   117.6190     8.8230     2.5030    -0.0150   -35.7170  -999.2500     6.8910    81.7000
 2353.0000   117.0530     8.7880     2.5050    -0.0100   -35.9260  -999.2500     6.8800    81.7000
 2353.5000   115.3650     8.7520     2.5070    -0.0140   -36.0180  -999.2500     6.8590    81.7000
 2354.0000   113.4680     8.7170     2.5140    -0.0190   -36.0220  -999.2500     6.8360    81.0870
 2354.5000   111.7420     8.6820     2.5230    -0.0150   -36.0130  -999.2500     6.8270    80.4640
 2355.0000   111.7240     8.6700     2.5180    -0.0070   -36.0310  -999.2500     6.8190    79.8410
 2355.5000   111.6000     8.6710     2.5060    -0.0100   -36.0440  -999.2500     6.7730    79.2190
 2356.0000   112.4410     8.6710     2.4960    -0.0060   -35.9870  -999.2500     6.6660    79.0310
 2356.5000   114.4340     8.6710     2.4990    -0.0150   -35.8390  -999.2500     6.5240    80.0090
 2357.0000   116.4410     8.6710     2.5020    -0.0130   -35.6520  -999.2500     6.3910    80.6570
 2357.5000   118.2970     8.6710     2.5060    -0.0100   -35.4870     9.6620     6.2740    81.0040
 2358.0000   120.4160     8.6710     2.5040    -0.0100   -35.3320     9.4150     6.1370    82.0890
 2358.5000   119.3470     8.6700     2.4960    -0.0080   -35.1520     9.2220     5.9770    83.1910
 2359.0000   118.1000     8.6740     2.4900    -0.0110   -34.9750     9.0830     5.8450    82.8690
 2359.5000   115.8810     8.6350     2.4860    -0.0110   -34.8910     8.9930     5.7920    82.5140
 2360.0000   115.2090     8.5600     2.4900    -0.0070   -34.9430     8.9380     5.8030    82.1590
 2360.5000   116.3870     8.4910     2.4970    -0.0030   -35.0780     8.8880     5.8050    82.7140
 2361.0000   117.5260     8.4190     2.5030    -0.0030   -35.2180     8.8210     5.7500    81.9980
 2361.5000   117.6090     8.3510     2.5120    -0.0100   -35.3350     8.7620     5.6440    83.1030
 2362.0000   115.9610     8.2750     2.5070    -0.0160   -35.4430     8.7330     5.5270    81.9910
 2362.5000   114.5620     8.2700     2.4930    -0.0220   -35.5530     8.6900     5.4290    82.7930
 2363.0000   113.1190     8.2680     2.4810    -0.0240   -35.6750     8.5500     5.3520    81.0040
 2363.5000   114.1200     8.2700     2.4670    -0.0210   -35.8130     8.2890     5.2780    82.4000
 2364.0000   115.2950     8.2690     2.4530    -0.0240   -35.9380     7.9790     5.1980    84.6630
 2364.5000   116.3930     8.2690     2.4570    -0.0190   -35.9780     7.8030     5.1140    85.6060
 2365.0000   117.0610     8.2690     2.4850    -0.0140   -35.8890     7.7240     5.0420    85.5070
 2365.5000   117.8510     8.2690     2.5110    -0.0140   -35.7160     7.7210     5.0330    85.0940
 2366.0000   117.9180     8.2690     2.4960    -0.0190   -35.5470     8.1150     5.1110    83.0910
 2366.5000   117.4560     8.2690     2.4730    -0.0250   -35.4150     8.3260     5.1970    84.1730
 2367.0000   115.5860     8.2690     2.5020    -0.0270   -35.2820     8.3190     5.1730    84.7810
 2367.5000   112.6510     8.2690     2.4840    -0.0210   -35.1170     8.4690     5.1170    85.0290
 2368.0000   113.6460     8.2700     2.4640    -0.0160   -34.9530     8.3900     5.3130    85.8110
 2368.5000   115.4120     8.2690     2.4930    -0.0100   -34.8720     8.5760     5.8560    85.9700
 2369.0000   116.1780     8.2660     2.4870    -0.0100   -34.9210     8.7460     6.4880    86.6730
 2369.5000   111.7480     8.2300     2.4730    -0.0130   -35.0480     8.8870     7.0580    87.5650
 2370.0000    99.3570     8.1980     2.4590    -0.0150   -35.1480    10.6720     7.9110    87.4650
 2370.5000    88.6140     8.1640     2.4460    -0.0140   -35.2520    12.4490     9.4220    84.8130
 2371.0000    76.7890     8.1310     2.3870    -0.0140   -35.6090    14.3100    11.4540    82.8850
 2371.5000    64.6870     8.0990     2.3530    -0.0070   -36.4150    18.4360    13.8160    80.9570
 2372.0000    62.3450     8.0690     2.3490     0.0020   -37.4330    21.9680    16.7770    79.0290
 2372.5000    61.5780     8.0600     2.3530     0.0020   -38.1190    24.7050    21.1370    78.3200
 2373.0000    61.8320     8.0520     2.3650     0.0020   -38.2350    26.8700    26.2380    78.0220
 2373.5000    62.1550     8.0450     2.3670     0.0050   -38.1680    27.2560    29.4610    77.9220
 2374.0000    63.3730     8.0370     2.3460     0.0100   -38.4450    27.9150    29.6220    78.4190
 2374.5000    64.4760     8.0300     2.3620     0.0350   -39.0760    28.4450    27.9040    77.8230
 2375.0000    66.8670     8.0220     2.3950     0.0690   -39.5900    27.9530    25.8040    78.0720
 2375.5000    68.7350     8.0150     2.4070     0.0650   -39.6660    27.4610    23.6500    78.4190
 2376.0000    73.8430     8.0070     2.3860     0.0420   -39.4950    26.6730    21.3520    77.8230
 2376.5000    82.7890     8.0000     2.3750     0.0220   -39.4780    25.6770    19.3000    78.5190
 2377.0000    89.7880     7.9920     2.3790     0.0030   -39.6660    24.3110    17.7250    78.6180
 2377.5000    97.0610     7.9880     2.3940     0.0010   -39.6380    23.5990    16.2230    78.7180
 2378.0000   101.1600     8.0010     2.4160     0.0100   -38.9750    22.4460    14.7470    78.6180
 2378.5000   101.6590     8.0130     2.4330     0.0090   -37.7820    21.2930    13.8190    77.4440
 2379.0000   100.5260     8.0260     2.4250     0.0060   -36.6160    20.1770    13.3210    76.2700
 2379.5000    99.7930     8.0380     2.4180     0.0150   -35.8960    18.2090    12.6280    75.7360
 2380.0000   100.4310     8.0520     2.4550     0.0370   -35.5700    17.8760    11.9510    75.9340
 2380.5000   100.8020     8.0610     2.4470     0.0470   -35.3810    18.0780    11.5220    76.4050
