~VERSION INFORMATION
 VERS.                2.0:   CWLS LOG ASCII STANDARD - VERSION 2.0
 WRAP.                 NO:   ONE LINE PER DEPTH STEP
~WELL INFORMATION
#MNEM.UNIT      DATA TYPE    INFORMATION
#----------   ------------   ------------------------------
 STRT.F           15.0000:   START DEPTH
 STOP.F         3245.5000:   STOP DEPTH
 STEP.F            0.5000:   STEP LENGTH
 NULL.          -999.2500:   NO VALUE
 COMP. LAWRENCE ALLISON AND ASSOCIATES:   COMPANY
 WELL. LAWRENCE ALLISON 11 X34 #3-3:   WELL
 FLD .             NPR #3:   FIELD
 LOC .       S3 T38N R78W:   LOCATION
 CNTY.            NATRONA:   COUNTY
 STAT.            WYOMING:   STATE
 CTRY. UNITED STATES OF AMERICA:   COUNTRY
 SRVC.      DRESSER ATLAS:   SERVICE COMPANY
 DATE.        23-MAY-1985:   LOGDATE
 API .     49025110530000:   API NUMBER
~CURVE INFORMATION
#MNEM.UNIT       API CODE    CURVE DESCRIPTION
#----------   ------------   ------------------------------
 DEPT.F                  :   
 SPR .MV     07 010 01 00:   SPONTANEOUS POTENTIAL
 GRR .GAPI   07 310 01 00:   GAMMA RAY FROM RESISTIVITY
 SFL .OHMM   07 220 01 00:   SHALLOW FOCUSED LOG RES.
 ILD .OHMM   07 120 46 00:   INDUCTION LOG DEEP RESISTIVITY
 ILM .OHMM   07 120 44 00:   INDUCTION LOG MEDIUM RESISTIVITY
 TENR.LBS    07 635 01 00:   TENSION
 CALR.IN     07 280 01 00:   CALIPER FROM RESISTIVITY
 RHOB.G/C3   45 350 01 00:   BULK DENSITY
 CORR.G/C3   45 356 01 00:   DENSITY CORRECTION
 CNC .DEC    42 890 03 00:   NEUTRON POROSITY SANDSTONE
~PARAMETER INFORMATION
#MNEM.UNIT          VALUE    DESCRIPTION
#----------   ------------   ------------------------------
 EKB .F         5099.0000:   Kelly bushing
 EGL .F         5087.0000:   Ground level
 EDF .F            0.0000:   Drilling floor
 EPD .F         5087.0000:   Permanent datum
 TD  .F         3240.0000:   Total depth
 DATE.         2-MAY-1985:   Date logged
 CLNT.            A2DTECH:   Client Code
 PD  .                 GL:   Permanent Datum
 DD  .F              3239:   Depth driller
 DL  .F              3242:   Depth logger
 BLI .F              3240:   Bottom log interval
 TLI .F                15:   Top log interval
 CS1 .IN            8.625:   Casing size
 CBD1.      8.625" @ 487':   Casing driller 1
 CBL1.F               487:   Casing logger 1
 BSD1.F              3239:   Depth drilled with bit1
 DFT .            KCL GEL:   Type fluid in hole
 ENGI.      MACK. EDWARDS:   Recorded By
 WITN.         MR. STRONG:   Witnessed by
 ORIG.           5" PRINT:   Origin of data
 UWI .     49025110530000:   Unique Well ID
 DICO. A2D TECHNOLOGIES, INC.:   Digitizing Company
 DAPD.IN               12:   Feet Above Permanent Datum
 BS1 .              7.875:   Bit size
 DFD .                9.1:   Density
 DFV .                 35:   Viscosity
 DFPH.                  8:   pH
 DFL .                9.8:   Fluid loss
 MSS .           FLOWLINE:   Source of sample
 RMS .OHMM            .27:   Rm
 MST .F                68:   Rm Meas. temp.
 RMF .OHMM             .2:   Rmf
 MFST.F                68:   Rmf Meas. temp.
 MFSS.               MEAS:   Source Rmf.
 RMC .OHMM            .34:   Rmc
 MCST.F                68:   Rmc Meas. temp.
 MCSS.               CALC:   Source Rmc.
 RMB .OHMM            .15:   Rm. at BHT
 BHT .F               126:   BHT.
 TCS .HRS               3:   Time Circ. stopped
 MRT .F               126:   Maximum recorded temp.
 LUN .               6274:   Logging unit number
 LUL .               GLTE:   Logging unit location
~OTHER INFORMATION
~A   DEPT      SPR        GRR        SFL        ILD        ILM       TENR       CALR       RHOB       CORR        CNC   
# ...
 2460.5000   -58.3511    81.4944     7.2486     6.9870     6.3739   -50.5056     9.9826     2.5320     0.0183     0.2623
 2461.0000   -58.4967    82.9885     7.2493     6.8608     6.1449   -50.5106     9.9715     2.5330     0.0422     0.2587
 2461.5000   -58.5393    85.3755     7.1183     6.7365     6.0339   -50.5148     9.9636     2.5370     0.0542     0.2559
 2462.0000   -58.5353    88.0602     6.7373     6.6149     6.0345   -40.5436     9.9640     2.5391     0.0308     0.2536
 2462.5000   -58.7298    90.1496     6.4954     6.4951     6.0353   -40.5480     9.9642     2.5391     0.0069     0.2540
 2463.0000   -58.7258    89.2626     6.3777     6.2617     5.9260   -40.5524     9.9648     2.5381    -0.0110     0.2548
 2463.5000   -58.7219    85.6969     6.3783     6.1486     5.7131   -40.5567     9.9652     2.5411    -0.0010     0.2525
 2464.0000   -58.7179    84.8099     6.9927     6.0372     5.7136   -40.5611     9.9458     2.5471     0.0345     0.2503
 2464.5000   -58.9132    84.2194     6.8661     5.8203     5.6104   -50.5398     9.9855     2.5491     0.0669     0.2516
 2465.0000   -58.7084    87.5005     6.2646     5.7150     5.5089   -40.5698     9.9861     2.5472     0.0569     0.2644
 2465.5000   -59.1053    89.8876     5.9296     5.6118     5.4094   -50.5481     9.9865     2.5422     0.0390     0.2726
 2466.0000   -59.1005    90.4888     6.0400     5.5103     5.2148   -50.5523     9.9869     2.5392     0.0267     0.2859
 2466.5000   -59.0958    91.3876     6.2669     5.4105     5.1207   -50.5565     9.9871     2.5422     0.0188     0.2911
 2467.0000   -59.0910    93.7746     6.0414     5.4113     5.0280   -50.5606     9.9482     2.5462     0.0347     0.2859
 2467.5000   -59.0879    95.8629     5.5122     5.4118     5.1219   -50.5648     9.9288     2.5473     0.0452     0.2744
 2468.0000   -59.2815    97.3582     5.3140     5.4126     5.1224   -50.5690     9.8895     2.5393     0.0372     0.2640
 2468.5000   -58.8807    94.3865     5.6157     5.5134     5.3147   -40.6004     9.8899     2.5333     0.0153     0.2616
 2469.0000   -58.6807    88.7386     6.0442     5.8264     5.5140   -40.6048     9.8114     2.5264    -0.0066     0.2604
 2469.5000   -58.6740    85.4705     6.3874     6.0449     5.8271   -40.6091     9.8118     2.5234    -0.0185     0.2581
 2470.0000   -59.0673    85.1788     6.5063     6.2719     5.9356   -40.6135     9.8119     2.5224    -0.0125     0.2537
 2470.5000   -58.6665    82.8037     6.7506     6.3887     6.2726   -40.6179     9.7731     2.5264    -0.0009     0.2473
 2471.0000   -58.8609    81.3214     6.8763     6.6286     6.3894   -40.6222     9.7537     2.5304     0.0072     0.2481
 2471.5000   -58.8570    80.4344     7.1341     6.8771     6.3903   -40.6266     9.7540     2.5275    -0.0024     0.2489
 2472.0000   -59.0515    80.7404     7.2673     6.8777     6.5093   -40.6310     9.7269     2.5255    -0.0003     0.2450
 2472.5000   -59.0475    81.9345     7.2680     6.8786     6.5102   -40.6353     9.6956     2.5255    -0.0007     0.2446
 2473.0000   -59.0443    84.0239     7.0069     6.8796     6.5108   -40.6397     9.6960     2.5255    -0.0166     0.2486
 2473.5000   -59.0396    84.9215     7.0075     6.8802     6.5117   -40.6441     9.6768     2.5216    -0.0325     0.2510
 2474.0000   -58.6380    81.9523     7.0085     6.8811     6.5123   -50.6190     9.6576     2.5206    -0.0245     0.2490
 2474.5000   -59.4309    79.2807     7.0094     6.8818     6.3947   -30.6825     9.6181     2.5286    -0.0061     0.2450
 2475.0000   -58.6309    80.7736     7.1399     6.8827     6.3953   -30.6879     9.5986     2.5376     0.0218     0.2442
 2475.5000   -58.6269    82.8630     7.1405     6.7581     6.3962   -30.6925     9.5744     2.5546     0.0378     0.2446
 2476.0000   -58.4245    84.3571     7.1415     6.7590     6.2804   -30.6971     9.5601     2.5626     0.0458     0.2586
 2476.5000   -58.2222    85.5536     7.0126     6.7596     6.2813   -30.7016     9.5210     2.5646     0.0439     0.2697
 2477.0000   -58.2182    86.4525     7.0132     6.6376     6.2818   -30.7062     9.5210     2.5596     0.0320     0.2674
 2477.5000   -58.0731    86.7560     7.0141     6.6382     6.2827   -30.7107     9.5217     2.5526     0.0101     0.2574
 2478.0000   -58.0119    86.4643     7.0148     6.6391     6.3997   -30.7153     9.5024     2.5527     0.0061     0.2478
 2478.5000   -57.8095    83.7915     7.0157     6.6397     6.6399   -30.7199     9.5225     2.5527     0.0101     0.2367
 2479.0000   -57.6071    81.4176     7.2790     6.7636     6.7635   -30.7244     9.4781     2.5547     0.0182     0.2315
 2479.5000   -57.4047    79.3400     7.4142     6.8895     6.8897   -30.7290     9.4245     2.5567     0.0262     0.2295
 2480.0000   -57.0031    77.5601     7.5525     7.0181     7.0179   -30.7336     9.4447     2.5587     0.0182     0.2303
 2480.5000   -56.9990    78.1614     7.5532     7.0187     7.1489   -30.7381     9.4052     2.5488     0.0043     0.2356
 2481.0000   -56.9984    80.8460     7.4168     7.0197     7.1495   -30.7427     9.3912     2.5398    -0.0036     0.2423
 2481.5000   -57.1936    81.7449     7.4178     7.0203     7.0205   -30.7472     9.3866     2.5398     0.0004     0.2383
 2482.0000   -57.5826    80.2638     7.4185     7.0212     7.0211   -30.7518     9.3870     2.5468     0.0005     0.2336
 2482.5000   -57.5786    78.1851     7.2845     6.8942     6.6459   -30.7564     9.3874     2.5528     0.0145     0.2332
 2483.0000   -57.7731    78.7863     7.2852     6.7697     6.4070   -40.7279     9.3877     2.5559     0.0105     0.2507
 2483.5000   -57.9676    81.4710     7.0236     6.6473     6.2913   -40.7322     9.3684     2.5559    -0.0014     0.2515
 2484.0000   -58.3605    88.0237     6.7711     6.5273     6.1775   -30.7700     9.3687     2.5479    -0.0094     0.2503
 2484.5000   -58.5549    87.4356     6.4095     6.5279     6.0660   -20.8083     9.3840     2.5390    -0.0113     0.2480
 2485.0000   -58.5510    85.6557     6.6497     6.4101     6.0666   -10.8469     9.3696     2.5380     0.0095     0.2448
 2485.5000   -58.7470    84.4711     6.7734     6.4106     6.0674   -10.8518     9.3897     2.5460     0.0302     0.2416
 2486.0000   -58.9399    84.1794     6.7743     6.2950     5.9577    -0.8910     9.3704     2.5540     0.0446     0.2563
 2486.5000   -58.9367    83.5900     6.6518     6.2955     5.9585   -10.8617     9.3708     2.5600     0.0427     0.2643
 2487.0000   -58.9320    83.5960     6.4130     6.1819     5.8507   -10.8667     9.3711     2.5540     0.0049     0.2627
 2487.5000   -58.9288    84.1972     6.4136     6.1825     5.8515     9.0587     9.3715     2.5481     0.0009     0.2552
 2488.0000   -58.9241    85.0960     6.2978     6.1833     5.8521     9.0533     9.3721     2.5351    -0.0031     0.2432
 2488.5000   -58.9209    85.1020     6.2984     6.1839     5.8529    28.9775     9.3723     2.5292    -0.0010     0.2361
 2489.0000   -59.3130    84.2150     6.2993     6.0723     5.8534    19.0072     9.3727     2.5342    -0.0010     0.2440
 2489.5000   -59.3099    83.3280     6.5353     6.0729     5.7478    28.9660     9.3731     2.5372     0.0011     0.2456
 2490.0000   -59.3051    81.5481     6.6572     6.0737     5.7483    38.9244     9.3735     2.5382     0.0011     0.2385
 2490.5000   -58.9051    81.8517     6.6578     6.0743     5.7492    28.9545     9.3739     2.5362     0.0231     0.2377
 2491.0000   -58.9003    83.0482     6.3022     6.0751     5.6452    38.9125     9.3743     2.5352     0.0231     0.2385
 2491.5000   -58.8972    83.6494     6.1882     5.9653     5.5433    38.9066     9.3747     2.5323     0.0152     0.2421
 2492.0000   -58.2972    83.9530     5.9661     5.6470     5.4431    -0.9529     9.3751     2.5313     0.0092     0.2521
 2492.5000   -58.0948    85.4471     5.8582     5.6473     5.4438    28.9315     9.3755     2.5263     0.0053     0.2632
 2493.0000   -58.0908    87.2389     5.8590     5.5452     5.3457     8.9998     9.3956     2.5204    -0.0126     0.2648
 2493.5000   -57.8884    87.2448     5.8595     5.4449     5.2490     8.9945     9.3960     2.5134    -0.0106     0.2616
