~VERSION INFORMATION
 VERS.                2.0:   CWLS LOG ASCII STANDARD - VERSION 2.0
 WRAP.                 NO:   ONE LINE PER DEPTH STEP
~WELL INFORMATION
#MNEM.UNIT      DATA TYPE    INFORMATION
#----------   ------------   ------------------------------
 STRT.F         2200.0000:   START DEPTH
 STOP.F         2735.0000:   STOP DEPTH
 STEP.F            0.5000:   STEP LENGTH
 NULL.          -999.2500:   NO VALUE
 COMP.          U.S. NAVY:   COMPANY
 WELL.       U.S. #403-20:   WELL
 FLD .        TEAPOT DOME:   FIELD
 LOC .      S20 T39N R78W:   LOCATION
 CNTY.            NATRONA:   COUNTY
 STAT.            WYOMING:   STATE
 CTRY. UNITED STATES OF AMERICA:   COUNTRY
 SRVC.         MCCULLOUGH:   SERVICE COMPANY
 DATE.        28-SEP-1965:   LOGDATE
 API .     49025095330000:   API NUMBER
~CURVE INFORMATION
#MNEM.UNIT       API CODE    CURVE DESCRIPTION
#----------   ------------   ------------------------------
 DEPT.F                  :   
 GR  .GAPI   30 310 01 00:   GAMMA RAY
 CALI.IN     70 280 01 00:   CALIPER
~PARAMETER INFORMATION
#MNEM.UNIT          VALUE    DESCRIPTION
#----------   ------------   ------------------------------
 EKB .F            0.0000:   Kelly bushing
 EGL .F            0.0000:   Ground level
 EDF .F            0.0000:   Drilling floor
 TD  .F         2749.0000:   Total depth
 DATE.        28-SEP-1965:   Date logged
 CLNT.            A2DTECH:   Client Code
 PD  .                 GL:   Permanent Datum
 EPD .F                 0:   Elevation Permanent Datum
 LMF .                 GL:   Log Measured From
 DMF .                 GL:   Drilling Measured From
 DD  .F              2749:   Depth driller
 DL  .F              2731:   Depth logger
 BLI .F              2729:   Bottom log interval
 TLI .F              2200:   Top log interval
 CS1 .IN           5.3125:   Casing size
 CBD1.    5.3125" @ 2720':   Casing driller 1
 BS1 .IN                5:   Bit size
 BSD1.F              2749:   Depth drilled with bit1
 DFT .              WATER:   Type fluid in hole
 TCS .HRS               1:   Time Circ. stopped
 LUN .               2146:   Logging unit number
 ENGI.        FITZSIMMOMS:   Recorded By
 ORIG.           5" PRINT:   Origin of data
 UWI .     49025095330000:   Unique Well ID
 DICO. A2D TECHNOLOGIES, INC.:   Digitizing Company
~OTHER INFORMATION
~A  DEPT         GR      CALI   
# ...
 2443.0000    56.0450     6.6870
 2443.5000    54.8040     6.6470
 2444.0000    53.9840     6.6280
 2444.5000    55.0490     6.6280
 2445.0000    54.5210     6.6280
 2445.5000    53.2940     6.6290
 2446.0000    52.7540     6.6300
 2446.5000    58.1760     6.6310
 2447.0000    56.7650     6.6320
 2447.5000    60.0590     6.6340
 2448.0000    62.4510     6.6350
 2448.5000    67.5120     6.6360
 2449.0000    66.2280     6.6370
 2449.5000    64.9280     6.6370
 2450.0000    64.1200     6.6370
 2450.5000    64.7640     6.6370
 2451.0000    68.8760     6.6370
 2451.5000    66.6060     6.6370
 2452.0000    62.8280     6.6370
 2452.5000    61.7470     6.6370
 2453.0000    64.5670     6.6370
 2453.5000    63.4160     6.6370
 2454.0000    63.1210     6.6370
 2454.5000    67.6470     6.6370
 2455.0000    72.0450     6.6370
 2455.5000    73.4050     6.6370
 2456.0000    70.1930     6.6370
 2456.5000    62.9370     6.6370
 2457.0000    67.8530     6.6370
 2457.5000    70.9570     6.6370
 2458.0000    69.1240     6.6370
 2458.5000    67.7750     6.6370
 2459.0000    65.6940     6.6370
 2459.5000    69.4580     6.6370
 2460.0000    66.1690     6.6370
 2460.5000    70.3690     6.6370
 2461.0000    71.3020     6.6370
 2461.5000    68.2610     6.6420
 2462.0000    67.3240     6.6500
 2462.5000    71.0310     6.6570
 2463.0000    71.1250     6.6650
 2463.5000    64.1870     6.6720
 2464.0000    62.1400     6.6680
 2464.5000    60.2910     6.6370
 2465.0000    57.2170     6.6370
 2465.5000    58.8750     6.6370
 2466.0000    62.2090     6.6380
 2466.5000    61.4990     6.6390
 2467.0000    62.7300     6.6400
 2467.5000    65.8270     6.6410
 2468.0000    69.7380     6.6410
 2468.5000    73.0310     6.6420
 2469.0000    73.9260     6.6430
 2469.5000    73.4700     6.6440
 2470.0000    69.6250     6.6450
 2470.5000    71.9210     6.6460
 2471.0000    75.6510     6.6470
 2471.5000    76.7610     6.6470
 2472.0000    75.0480     6.6480
 2472.5000    66.8390     6.6490
 2473.0000    67.7230     6.6500
 2473.5000    66.9590     6.6510
 2474.0000    61.4900     6.6520
 2474.5000    56.4750     6.6530
 2475.0000    57.9690     6.6530
 2475.5000    59.0160     6.6540
 2476.0000    61.4310     6.6550
 2476.5000    62.5480     6.6560
 2477.0000    61.0360     6.6570
 2477.5000    63.5710     6.6590
 2478.0000    62.1150     6.6670
 2478.5000    65.2410     6.6750
 2479.0000    64.2050     6.6760
 2479.5000    63.2600     6.6570
 2480.0000    59.8620     6.6380
 2480.5000    62.9410     6.6370
 2481.0000    65.8250     6.6370
 2481.5000    61.0820     6.6370
 2482.0000    60.1770     6.6380
 2482.5000    65.1530     6.6400
 2483.0000    71.2560     6.6420
 2483.5000    72.7020     6.6450
 2484.0000    65.8330     6.6470
 2484.5000    59.7620     6.6470
 2485.0000    65.3130     6.6450
 2485.5000    75.8060     6.6290
 2486.0000    88.1710     6.5910
 2486.5000   100.3230     6.5330
 2487.0000    91.7660     6.6170
 2487.5000    80.4370     6.6560
 2488.0000    77.3440     6.6530
 2488.5000    83.5480     6.6500
 2489.0000    81.4700     6.6470
 2489.5000    72.4510     6.6050
 2490.0000    62.8860     6.4080
 2490.5000    68.5400     5.5600
 2491.0000    66.6130     5.1390
 2491.5000    66.9020     5.1350
 2492.0000    70.3800     5.1350
 2492.5000    71.8800     5.1370
 2493.0000    71.5970     5.1370
 2493.5000    68.1060     5.1380
 2494.0000    72.4550     5.1380
 2494.5000    70.1280     5.1390
 2495.0000    67.8660     5.1390
 2495.5000    69.7750     5.1390
 2496.0000    68.7940     5.1400
 2496.5000    67.8180     5.1400
 2497.0000    69.8600     5.1410
 2497.5000    68.3550     5.1410
 2498.0000    68.8890     5.1420
 2498.5000    66.0060     5.1420
 2499.0000    68.0830     5.1430
 2499.5000    67.8700     5.1430
 2500.0000    71.2320     5.1430
 2500.5000    72.6300     5.1440
 2501.0000    71.1740     5.1440
 2501.5000    69.6390     5.1450
 2502.0000    73.0710     5.1450
 2502.5000    69.2180     5.1440
 2503.0000    64.5460     5.1430
 2503.5000    66.9550     5.1410
 2504.0000    74.7980     5.1400
 2504.5000    72.8720     5.1390
 2505.0000    63.3190     5.1370
 2505.5000    65.8280     5.1360
 2506.0000    64.9070     5.1350
 2506.5000    65.9220     5.1330
 2507.0000    65.8840     5.1320
 2507.5000    65.0960     5.1300
 2508.0000    68.1600     5.1290
 2508.5000    73.5480     5.1280
 2509.0000    77.1430     5.1260
 2509.5000    76.9910     5.1250
 2510.0000    75.2570     5.1260
 2510.5000    70.3200     5.1250
 2511.0000    68.0660     5.1260
 2511.5000    68.7610     5.1260
 2512.0000    69.4740     5.1250
 2512.5000    69.2230     5.1250
 2513.0000    68.7780     5.1590
 2513.5000    71.9190     5.1950
 2514.0000    72.9450     5.1270
 2514.5000    75.5710     5.1250
 2515.0000    75.5540     5.1250
 2515.5000    73.1490     5.1260
 2516.0000    71.1270     5.1250
 2516.5000    70.3260     5.1250
 2517.0000    71.3720     5.1250
 2517.5000    70.8640     5.1250
 2518.0000    73.0880     5.1250
 2518.5000    75.7760     5.1250
 2519.0000    76.2070     5.1250
 2519.5000    69.8210     5.1250
 2520.0000    67.3540     5.1250
 2520.5000    58.6190     5.1250
 2521.0000    63.7630     5.1250
 2521.5000    68.9170     5.1250
 2522.0000    57.6900     5.1250
 2522.5000    59.4000     5.1250
 2523.0000    61.2740     5.1260
 2523.5000    67.4060     5.1260
 2524.0000    70.5430     5.1210
 2524.5000    70.0910     5.1150
 2525.0000    68.6870     5.1160
 2525.5000    69.9000     5.1170
 2526.0000    74.6960     5.1190
 2526.5000    67.6470     5.1200
 2527.0000    74.0430     5.1210
 2527.5000    71.0620     5.1220
 2528.0000    68.0990     5.1230
 2528.5000    84.9910     5.1240
 2529.0000    98.3310     5.1250
 2529.5000    96.7940     5.1260
 2530.0000    94.1290     5.1270
 2530.5000   104.1890     5.1280
 2531.0000   109.8350     5.1280
 2531.5000   114.7150     5.1290
 2532.0000   117.6580     5.1300
 2532.5000   111.5010     5.1300
 2533.0000   110.2360     5.1310
 2533.5000   119.8020     5.1320
 2534.0000   125.3590     5.1330
 2534.5000   119.7720     5.1330
 2535.0000   117.6140     5.1340
 2535.5000   118.1910     5.1350
 2536.0000   115.9390     5.1350
 2536.5000   119.0790     5.1570
 2537.0000   124.5400     5.1970
 2537.5000   124.1230     5.2140
 2538.0000   133.3420     5.1780
 2538.5000   131.4150     5.1550
 2539.0000   129.4560     5.1530
 2539.5000   128.3170     5.1500
 2540.0000   126.8540     5.1480
 2540.5000   129.1160     5.1450
 2541.0000   120.8500     5.1430
 2541.5000   103.8400     5.1400
 2542.0000    95.1380     5.1380
 2542.5000    98.7060     5.1350
 2543.0000   102.9310     5.1350
 2543.5000   102.2050     5.1350
 2544.0000   100.4680     5.1340
 2544.5000    96.8110     5.1340
 2545.0000    96.5640     5.1330
 2545.5000    93.2230     5.1330
 2546.0000    92.0790     5.1320
 2546.5000    88.9770     5.1320
 2547.0000    89.8660     5.1320
 2547.5000    90.7390     5.1310
 2548.0000    88.9190     5.1310
 2548.5000    91.8720     5.1300
 2549.0000    93.2170     5.1300
 2549.5000    93.0880     5.1300
 2550.0000    90.6820     5.1290
 2550.5000    85.2440     5.1290
 2551.0000    86.3450     5.1280
 2551.5000    84.4820     5.1280
 2552.0000    79.2550     5.1270
 2552.5000    72.0920     5.1270
 2553.0000    73.9640     5.1270
 2553.5000    76.0910     5.1260
 2554.0000    73.9010     5.1260
 2554.5000    76.3640     5.1250
 2555.0000    75.4950     5.1250
 2555.5000    79.8470     5.1250
 2556.0000    91.3000     5.1250
 2556.5000    98.9130     5.1250
 2557.0000   103.9600     5.1250
 2557.5000   103.2220     5.1250
 2558.0000   110.3360     5.1250
 2558.5000   109.0960     5.1260
 2559.0000   107.5110     5.1260
 2559.5000   109.3460     5.1260
 2560.0000   106.8840     5.1340
 2560.5000   112.0030     5.1640
 2561.0000   108.1610     5.1830
 2561.5000   102.7740     5.1610
 2562.0000   100.3500     5.1550
 2562.5000   101.9510     5.1550
 2563.0000   108.1550     5.1550
 2563.5000   106.1000     5.1550
 2564.0000   101.8580     5.1550
