~VERSION INFORMATION
 VERS.                2.0:   CWLS LOG ASCII STANDARD - VERSION 2.0
 WRAP.                 NO:   ONE LINE PER DEPTH STEP
~WELL INFORMATION
#MNEM.UNIT      DATA TYPE    INFORMATION
#----------   ------------   ------------------------------
 STRT.F          448.5000:   START DEPTH
 STOP.F         4490.5000:   STOP DEPTH
 STEP.F            0.5000:   STEP LENGTH
 NULL.          -999.2500:   NO VALUE
 COMP.  FENIX AND SCISSON:   COMPANY
 WELL. FENIX AND SCISSON NPR 3 #11-10:   WELL
 FLD .              NPR-3:   FIELD
 LOC .      S10 T38N R78W:   LOCATION
 CNTY.            NATRONA:   COUNTY
 STAT.            WYOMING:   STATE
 CTRY. UNITED STATES OF AMERICA:   COUNTRY
 SRVC.              WELEX:   SERVICE COMPANY
 DATE.        22-DEC-1978:   LOGDATE
 API .     49025107450000:   API NUMBER
~CURVE INFORMATION
#MNEM.UNIT       API CODE    CURVE DESCRIPTION
#----------   ------------   ------------------------------
 DEPT.F                  :   
 SPR .MV     07 010 01 00:   SPONTANEOUS POTENTIAL
 ILM .OHMM   07 120 44 00:   INDUCTION LOG MEDIUM
 ILD .OHMM   07 120 46 00:   DEEP RESISTIVITY
 SGRD.OHMM   07 220 01 00:   SHALLOW SHORT GUARD RESISTIVITY
 TENR.LBS    07 635 01 00:   TENSION FROM RESISTIVITY
 NPHI.DEC    42 890 03 00:   NEUTRON POROSITY SANDSTONE
 CALD.IN     45 280 60 00:   CALIPER FROM DENSITY LOG
 GRD .GAPI   45 310 01 00:   GAMMA RAY FROM DENSITY LOG
 RHOB.G/C3   45 350 01 00:   BULK DENSITY
 DRHO.G/C3   45 356 01 00:   DENSITY CORRECTION
 TEND.LBS    45 635 01 00:   TENSION FROM DENSITY
~PARAMETER INFORMATION
#MNEM.UNIT          VALUE    DESCRIPTION
#----------   ------------   ------------------------------
 EKB .F         5275.0000:   Kelly bushing
 EGL .F         5265.0000:   Ground level
 EDF .F            0.0000:   Drilling floor
 EPD .F         5265.0000:   Permanent datum
 TD  .F         4500.0000:   Total depth
 DATE.        22-DEC-1978:   Date logged
 CLNT.            A2DTECH:   Client Code
 SL  . 300' FNL & 500' FWL:   Surface Location
 DD  .F              4500:   Depth driller
 DL  .F              4481:   Depth logger
 BLI .F              4479:   Bottom log interval
 TLI .F               450:   Top log interval
 CS1 .IN            8.625:   Casing size
 CBD1.      8.625" @ 500':   Casing driller 1
 CBL1.F               473:   Casing logger 1
 BS1 .IN            7.875:   Bit size
 BSD1.F              4500:   Depth drilled with bit1
 DFT .               LSND:   Type fluid in hole
 DFD .                8.7:   Density
 DFV .                 49:   Viscosity
 DFPH.               11.0:   pH
 DFL .                7.6:   Fluid loss
 MSS .           FLOWLINE:   Source of sample
 RMS .OHMM            1.1:   Rm
 MST .F                86:   Rm Meas. temp.
 RMF .OHMM           0.73:   Rmf
 MFST.F                86:   Rmf Meas. temp.
 RMC .OHMM           1.68:   Rmc
 MCST.F                86:   Rmc Meas. temp.
 MFSS.               CALC:   Source Rmf.
 MCSS.               CALC:   Source Rmc.
 RMB .OHMM           0.72:   Rm. at BHT
 BHT .F               130:   BHT.
 TCS .HRS             3.5:   Time Circ. stopped
 MRT .F               130:   Maximum recorded temp.
 LUN .               9685:   Logging unit number
 LUL .             CASPER:   Logging unit location
 ENGI.            BENTSEN:   Recorded By
 WITN.           DINSMORE:   Witnessed by
 ORIG.           5" PRINT:   Origin of data
 UWI .     49025107450000:   Unique Well ID
 DICO. A2D TECHNOLOGIES, INC.:   Digitizing Company
~OTHER INFORMATION
~A  DEPTH      SPR        ILM        ILD       SGRD       TENR       NPHI       CALD        GRD       RHOB       DRHO       TEND
# ...
 3651.0000   -54.3496     6.7133     6.3124     7.8151  1449.5785     0.2270     9.6814   104.7882     2.4784    -0.0207  1855.1926
 3651.5000   -54.3393     6.7190     6.3618     8.1571  1451.4762     0.2281     9.6778   107.2723     2.4755    -0.0191  1853.3029
 3652.0000   -54.3289     6.7239     6.4123     8.3969  1453.3740     0.2328     9.6638   108.8932     2.4809    -0.0189  1851.4132
 3652.5000   -54.3185     6.6599     6.4633     8.5743  1455.2719     0.2392     9.6575   110.0502     2.4908    -0.0203  1849.5234
 3653.0000   -54.3081     6.5333     6.5091     8.6337  1457.1697     0.2423     9.6594   110.4814     2.4864    -0.0218  1847.6338
 3653.5000   -54.2978     6.4458     6.5141     8.2652  1459.0674     0.2440     9.6614   110.5082     2.4775    -0.0245  1845.7440
 3654.0000   -54.1763     6.3841     6.5020     7.7856  1460.9652     0.2444     9.6525   110.3994     2.4760    -0.0227  1843.8542
 3654.5000   -54.1268     6.3757     6.4048     7.4869  1462.8630     0.2431     9.6504   110.0314     2.4830    -0.0211  1841.9646
 3655.0000   -54.1169     6.3355     6.2626     7.3071  1464.7609     0.2415     9.6674   110.0167     2.4914    -0.0149  1840.0748
 3655.5000   -54.2551     6.2625     6.1028     7.2233  1466.6586     0.2416     9.6692   110.5109     2.4975    -0.0087  1838.1852
 3656.0000   -54.2451     6.1170     5.9778     7.1768  1468.5564     0.2443     9.7008   111.2549     2.5006    -0.0040  1836.2954
 3656.5000   -54.2351     5.9678     5.8845     7.1490  1470.4542     0.2495     9.7198   111.9988     2.5022    -0.0038  1834.4058
 3657.0000   -54.2252     5.8656     5.8311     7.1743  1472.3521     0.2547     9.7557   112.7427     2.5054    -0.0060  1832.5160
 3657.5000   -54.2148     5.8080     5.7697     7.2310  1474.2499     0.2584     9.8021   113.4107     2.5100    -0.0066  1830.6263
 3658.0000   -54.2044     5.7939     5.7330     7.3124  1476.1476     0.2618     9.8359   113.4358     2.5154    -0.0049  1828.7366
 3658.5000   -54.1941     5.7988     5.7161     7.4764  1478.0454     0.2658     9.8696   113.4609     2.5207    -0.0017  1826.8469
 3659.0000   -54.1837     5.8037     5.7204     7.6406  1479.9432     0.2687     9.9033   113.9331     2.5231     0.0000  1824.9572
 3659.5000   -54.1733     5.8354     5.7472     7.7878  1481.8411     0.2723     9.9297   114.2264     2.5217     0.0001  1823.0674
 3660.0000   -54.1630     5.8539     5.7689     7.9285  1483.7388     0.2750     9.9475   114.8808     2.5166    -0.0057  1821.1777
 3660.5000   -54.1526     5.8589     5.7733     7.8341  1485.6366     0.2776     9.9653   114.9528     2.5084    -0.0146  1819.2880
 3661.0000   -54.1422     5.8638     5.7510     7.5117  1487.5344     0.2800     9.9832   114.9152     2.4980    -0.0195  1817.3983
 3661.5000   -54.1318     5.8698     5.6868     7.2203  1489.4323     0.2823     9.9895   113.9859     2.4981    -0.0248  1815.5085
 3662.0000   -54.1215     5.9154     5.6103     7.0440  1491.3300     0.2796     9.9917   114.0647     2.4959    -0.0277  1813.6189
 3662.5000   -54.1111     5.9202     5.5055     6.9369  1493.2278     0.2760     9.9935   116.0865     2.4893    -0.0305  1811.7291
 3663.0000   -54.1007     5.8842     5.4464     6.9218  1495.1256     0.2744    10.0101   118.5028     2.4864    -0.0318  1809.8395
 3663.5000   -54.0904     5.8890     5.5263     7.0239  1497.0234     0.2749    10.0269   120.0914     2.4985    -0.0332  1807.9497
 3664.0000   -54.1664     5.8938     5.5687     7.2260  1498.8656     0.2731    10.0288   119.5395     2.5054    -0.0330  1806.0599
 3664.5000   -54.2178     5.8987     5.6504     7.6425  1496.3853     0.2703    10.0337   117.4566     2.5055    -0.0328  1804.1703
 3665.0000   -54.2074     5.9037     5.6942     7.7543  1493.9756     0.2662    10.0475   115.1534     2.5049    -0.0327  1802.2805
 3665.5000   -54.3020     5.9088     5.6980     7.3416  1491.5658     0.2621    10.0495   114.2843     2.5088    -0.0310  1800.3909
 3666.0000   -54.3348     5.9040     5.7418     7.2458  1489.1561     0.2596    10.0514   114.3094     2.5172    -0.0293  1798.5011
 3666.5000   -54.3244     5.8250     5.7460     7.9496  1486.7466     0.2586    10.0604   114.3570     2.5301    -0.0261  1796.6115
 3667.0000   -54.3124     5.7470     5.7106     8.1615  1484.3378     0.2597    10.0701   115.1465     2.5445    -0.0154  1794.7217
 3667.5000   -54.3025     5.6701     5.7148     7.3434  1481.9281     0.2624    10.0721   116.2155     2.5498    -0.0002  1792.8320
 3668.0000   -54.2917     5.6042     5.6297     6.8979  1479.5184     0.2664    10.0842   115.9984     2.5304     0.0075  1791.2651
 3668.5000   -54.2826     5.5689     5.5540     6.7856  1477.1086     0.2677    10.1020   114.1827     2.5087     0.0122  1790.2827
 3669.0000   -54.2726     5.5592     5.4874     6.8020  1474.6990     0.2655    10.1227   112.8746     2.4953     0.0078  1790.4385
 3669.5000   -54.2622     5.6039     5.4524     6.8692  1472.2893     0.2631    10.1394   112.3843     2.4946     0.0005  1790.5903
 3670.0000   -54.2519     5.6647     5.4177     6.9888  1475.9052     0.2626    10.1412   112.6342     2.5113    -0.0054  1790.7421
 3670.5000   -54.2415     5.7514     5.3832     7.1634  1482.5302     0.2666    10.1728   113.6400     2.5272    -0.0037  1790.8939
 3671.0000   -54.2311     5.8013     5.3360     7.3369  1480.1204     0.2721    10.1745   115.0082     2.5334     0.0055  1791.0457
 3671.5000   -54.2207     5.6870     5.2782     7.4700  1485.1309     0.2782    10.1615   116.7924     2.5350     0.0192  1791.1975
 3672.0000   -54.2104     5.4524     5.2144     7.4247  1490.3611     0.2854    10.1601   117.3182     2.5373     0.0269  1791.3492
 3672.5000   -54.2000     5.2274     5.0919     6.8885  1487.9513     0.2899    10.1508   116.0020     2.5375     0.0301  1791.5011
 3673.0000   -54.1896     5.0536     4.9852     5.9615  1485.5416     0.2925    10.1585   114.9093     2.5345     0.0286  1791.6528
 3673.5000   -54.1793     4.9151     4.8831     5.1540  1483.1320     0.2934    10.1763   114.4873     2.5271     0.0214  1791.8047
 3674.0000   -54.1689     4.7803     4.7672     5.3873  1480.7230     0.2894    10.1863   114.5298     2.5167     0.0125  1791.9564
 3674.5000   -54.1585     4.6721     4.6695     6.0294  1478.3137     0.2864    10.1971   114.7645     2.4995     0.0036  1792.1083
 3675.0000   -54.1481     4.6004     4.5936     5.9390  1475.9039     0.2839    10.2150   114.7914     2.4771    -0.0038  1792.2600
 3675.5000   -54.1378     4.5635     4.5318     5.5322  1473.4943     0.2820    10.2109   114.6940     2.4689    -0.0051  1792.4119
 3676.0000   -54.1274     4.4985     4.4708     5.3655  1471.0846     0.2807    10.1944   114.2429     2.4705    -0.0019  1792.5636
 3676.5000   -54.1170     4.5022     4.4107     5.4655  1483.2692     0.2798    10.1665   114.6286     2.4767     0.0043  1792.7155
 3677.0000   -54.1067     4.5372     4.3743     5.7378  1480.9324     0.2795    10.1683   116.5448     2.4835     0.0092  1792.8672
 3677.5000   -54.0963     4.5724     4.3409     5.9029  1478.5945     0.2797    10.1404   118.5989     2.4897     0.0152  1793.0190
 3678.0000   -54.0859     4.5762     4.3142     6.0308  1476.2565     0.2805    10.1422   120.2595     2.4943     0.0153  1793.1708
 3678.5000   -54.0735     4.6117     4.3174     6.0349  1473.9186     0.2811    10.1143   120.7914     2.4974     0.0139  1793.3226
 3679.0000   -54.0635     4.6155     4.3505     6.0391  1471.3866     0.2821    10.1131   120.4776     2.5005     0.0126  1793.4744
 3679.5000   -54.0536     4.5146     4.3537     5.8377  1469.2439     0.2836    10.0992   118.3902     2.5052     0.0113  1793.6262
 3680.0000   -54.1918     4.3596     4.3269     5.6004  1481.9661     0.2854    10.0906   117.7447     2.5203     0.0130  1793.7780
 3680.5000   -54.1818     4.2137     4.2411     5.3687  1479.5175     0.2877    10.0926   118.2169     2.5355     0.0177  1793.9298
 3681.0000   -54.1710     4.0982     4.1543     5.1498  1477.1079     0.2908    10.0945   119.6187     2.5476     0.0208  1794.0717
