~VERSION INFORMATION
 VERS.                2.0:   CWLS LOG ASCII STANDARD - VERSION 2.0
 WRAP.                 NO:   ONE LINE PER DEPTH STEP
~WELL INFORMATION
#MNEM.UNIT      DATA TYPE    INFORMATION
#----------   ------------   ------------------------------
 STRT.F          712.0000:   START DEPTH
 STOP.F         3352.0000:   STOP DEPTH
 STEP.F            0.5000:   STEP LENGTH
 NULL.          -999.2500:   NO VALUE
 COMP.    FENIX & SCISSON:   COMPANY
 WELL. FENIX & SCISSON "AX" #24-14:   WELL
 FLD .              NPR 3:   FIELD
 LOC .      S14 T38N R78W:   LOCATION
 CNTY.            NATRONA:   COUNTY
 STAT.            WYOMING:   STATE
 CTRY. UNITED STATES OF AMERICA:   COUNTRY
 SRVC.       SCHLUMBERGER:   SERVICE COMPANY
 DATE.        19-JUN-1981:   LOGDATE
 API .     49025108750000:   API NUMBER
~CURVE INFORMATION
#MNEM.UNIT       API CODE    CURVE DESCRIPTION
#----------   ------------   ------------------------------
 DEPT.F                  :   
 TENR.LBS    07 635 01 00:   TENSION
 ILD .OHMM   07 120 46 00:   DEEP INDUCTION RESISTIVITY
 SFL .OHMM   07 220 01 00:   SHALLOW FOCUSED LOG RESISTIVITY
 ILM .OHMM   07 120 44 00:   INDUCTION LOG MEDIUM RESISTIVITY
 SPR .MV     07 010 01 00:   SPONTANEOUS POTENTIAL
 TEND.LBS    45 635 01 00:   TENSION FROM DENSITY LOG
 DRHO.G/C3   45 356 01 00:   DENSITY CORRECTION
 CALD.IN     45 280 60 00:   CALIPER FROM DENSITY LOG
 GRD .GAPI   45 310 01 00:   GAMMA RAY FROM DENSITY LOG
 RHOB.G/C3   45 350 01 00:   BULK DENSITY
~PARAMETER INFORMATION
#MNEM.UNIT          VALUE    DESCRIPTION
#----------   ------------   ------------------------------
 EKB .F         5216.0000:   Kelly bushing
 EGL .F         5206.0000:   Ground level
 EDF .F         5215.0000:   Drilling floor
 EPD .F            0.0000:   Permanent datum
 TD  .F         3360.0000:   Total depth
 DATE.        19-JUN-1981:   Date logged
 CLNT.            A2DTECH:   Client Code
 SL  . 2413' FNL & 827' FWL:   Surface Location
 PD  .                 GL:   Permanent Datum
 DAPD.F                10:   Feet Above Permanent Datum
 DD  .F              3360:   Depth driller
 DL  .F              3348:   Depth logger
 BLI .F              3342:   Bottom log interval
 TLI .F               728:   Top log interval
 CS1 .IN            8.625:   Casing size
 CBD1.      8.625" @ 728':   Casing driller 1
 CBL1.F               728:   Casing logger 1
 BS1 .IN            7.875:   Bit size
 BSD1.F              3360:   Depth drilled with bit1
 DFT .                FGM:   Type fluid in hole
 DFD .                  9:   Density
 DFV .                 45:   Viscosity
 DFPH.                9.5:   pH
 DFL .                 10:   Fluid loss
 MSS .               TANK:   Source of sample
 RMS .OHMM           5.71:   Rm
 MST .F                68:   Rm Meas. temp.
 RMF .OHMM           1.27:   Rmf
 MFST.F                68:   Rmf Meas. temp.
 MFSS.               MEAS:   Source Rmf.
 RMB .OHMM           3.29:   Rm. at BHT
 BHT .F               118:   BHT.
 TCS .HRS            0800:   Time Circ. stopped
 TLAB.HRS            1130:   Time logger at bottom
 MRT .F               118:   Maximum recorded temp.
 LUN .               8039:   Logging unit number
 LUL .               CSPR:   Logging unit location
 ENGI.           G. PFARR:   Recorded By
 WITN.           R. SCOTT:   Witnessed by
 ORIG.           5" PRINT:   Origin of data
 UWI .     49025108750000:   Unique Well ID
 DICO. A2D TECHNOLOGIES, INC.:   Digitizing Company
~OTHER INFORMATION
~A   DEPT     TENR        ILD        SFL        ILM        SPR       TEND       DRHO       CALD         GRD      RHOB   
# ...
 1918.0000  1089.8680     7.0020     8.5440     6.3280   -51.7050  1109.2090     0.0150     8.5040   131.6190     2.5440
 1918.5000  1090.2930     7.0080     8.6830     6.3790   -51.8190  1109.6460     0.0100     8.5040   133.6600     2.5390
 1919.0000  1090.7180     6.9940     8.8100     6.4310   -51.9190  1110.0840     0.0070     8.5040   133.4730     2.5350
 1919.5000  1091.1429     7.2460     8.9380     6.4830   -52.0900  1110.5220     0.0040     8.5040   131.2390     2.5350
 1920.0000  1091.5680     7.5220     9.0650     6.5350   -51.8120  1110.9600     0.0010     8.5050   127.1910     2.5360
 1920.5000  1091.9940     7.5090     9.1930     6.5870   -51.7620  1111.3979     0.0040     8.5050   123.2440     2.5370
 1921.0000  1092.4189     7.4830     9.3530     6.7400   -51.6990  1111.8361     0.0000     8.5050   120.5400     2.5300
 1921.5000  1092.8440     7.4570     9.3100     6.7130   -52.0490  1112.2740    -0.0040     8.5050   120.7880     2.5240
 1922.0000  1093.2690     7.4300     9.1840     6.6590   -52.1700  1112.7111    -0.0080     8.5060   121.5320     2.5310
 1922.5000  1093.6940     7.4040     9.0570     6.6050   -51.8270  1113.1490    -0.0060     8.5070   123.6680     2.5390
 1923.0000  1094.1200     7.3590     8.9300     6.5510   -51.7330  1113.5870    -0.0030     8.5080   127.0140     2.5410
 1923.5000  1094.5450     7.3000     8.8040     6.4970   -51.6270  1114.0250    -0.0010     8.5090   129.5030     2.5370
 1924.0000  1094.9700     7.2410     8.7000     6.4430   -51.5270  1114.4630     0.0010     8.5100   128.5020     2.5270
 1924.5000  1095.3950     7.1820     8.8400     6.3890   -51.3990  1114.9010     0.0020     8.5110   125.4200     2.5160
 1925.0000  1095.8199     7.1230     8.7400     6.3350   -51.2890  1115.3390     0.0030     8.5120   123.8840     2.5150
 1925.5000  1096.2460     7.0640     8.6220     6.2820   -51.1730  1115.7760     0.0030     8.5130   123.8320     2.5300
 1926.0000  1096.6710     7.0050     8.4290     6.2680   -51.0530  1116.2140     0.0030     8.5140   124.2870     2.5540
 1926.5000  1097.0959     6.9460     8.2410     6.2540   -50.9990  1116.6520     0.0180     8.5150   125.1670     2.5760
 1927.0000  1097.5210     6.8770     8.3280     6.2390   -51.1220  1117.0900     0.0170     8.5150   125.9360     2.5750
 1927.5000  1097.9460     6.8870     8.4130     6.2250   -51.2410  1117.5280     0.0130     8.5160   126.1060     2.5550
 1928.0000  1098.3719     6.8980     8.5440     6.2110   -51.3650  1117.9659     0.0100     8.5170   125.5940     2.5390
 1928.5000  1098.7970     6.9090     8.5010     6.1970   -51.4880  1118.4041     0.0060     8.5180   124.5600     2.5260
 1929.0000  1099.2220     6.9200     8.4050     6.1830   -51.6080  1118.8409     0.0040     8.5190   124.1090     2.5250
 1929.5000  1099.6470     6.9310     8.3100     6.1690   -51.7420  1119.2791     0.0070     8.5200   125.1140     2.5340
 1930.0000  1100.0720     6.9430     8.1740     6.1550   -51.8680  1119.7170     0.0090     8.5210   128.0520     2.5470
 1930.5000  1100.4980     6.9540     7.9320     6.1400   -52.0120  1120.1550     0.0080     8.5220   131.0770     2.5540
 1931.0000  1100.9230     6.9650     7.6650     6.1270   -52.1620  1120.5930     0.0060     8.5230   131.9030     2.5530
 1931.5000  1101.3480     6.9760     7.7720     6.1130   -52.2650  1121.0310     0.0080     8.5240   130.0560     2.5530
 1932.0000  1101.7729     6.9880     7.8900     6.0990   -52.4830  1121.4690     0.0110     8.5240   124.4160     2.5560
 1932.5000  1102.1980     6.9990     8.1530     6.0850   -52.2860  1121.9070     0.0100     8.5270   121.7300     2.5600
 1933.0000  1102.6240     6.7350     8.5500     6.0710   -52.5590  1122.3440     0.0090     8.5300   122.7680     2.5560
 1933.5000  1103.0490     6.3660     8.9470     6.0590   -52.4970  1122.7820     0.0130     8.5330   124.9120     2.5530
 1934.0000  1103.4740     5.9960     9.5240     5.4980   -52.4680  1123.2200     0.0210     8.5360   123.3690     2.5490
 1934.5000  1103.8990     5.6260     8.6990     5.0050   -52.1760  1123.6580     0.0520     8.5400   121.2060     2.5400
 1935.0000  1104.3240     5.2420     7.1920     4.5110   -51.9000  1124.0959     0.0620     8.5430   120.1850     2.5220
 1935.5000  1104.7500     5.1300     5.6860     4.2110   -51.6210  1124.5341     0.0600     8.5420   121.1190     2.5050
 1936.0000  1105.1750     5.0140     4.1430     3.9960   -51.3390  1124.9720     0.0430     8.5330   121.4050     2.4860
 1936.5000  1105.6000     4.9650     5.0660     4.2020   -51.0590  1125.4091     0.0260     8.5230   118.5570     2.4920
 1937.0000  1106.0250     5.0560     6.0120     4.5590   -50.7760  1125.8470     0.0140     8.5140   114.8490     2.5110
 1937.5000  1106.4510     5.3800     6.9570     4.9650   -50.5020  1126.2850     0.0090     8.5050   116.0650     2.5360
 1938.0000  1106.8760     5.7070     7.9030     5.3550   -50.1930  1126.7230     0.0050     8.4950   118.8760     2.5530
 1938.5000  1107.3010     6.0350     9.0210     5.6800   -49.8390  1127.1610     0.0040     8.4860   123.4410     2.5520
 1939.0000  1107.7260     6.3620     8.8770     6.0050   -49.4530  1127.5990     0.0060     8.4760   125.3360     2.5460
 1939.5000  1108.1510     6.6890     8.7000     6.3300   -49.4190  1128.0370     0.0080     8.4660   126.4360     2.5370
 1940.0000  1108.5770     7.0160     8.5240     6.5350   -49.7700  1128.4740     0.0150     8.4850   127.0970     2.5260
 1940.5000  1109.0020     7.3930     8.4320     6.5850   -49.9490  1128.9120     0.0280     8.5100   125.6050     2.5220
 1941.0000  1109.4270     7.2840     8.5990     6.6320   -50.1060  1129.3500     0.0640     8.5350   123.2010     2.5340
 1941.5000  1109.8521     7.1570     8.7660     6.5790   -50.2500  1129.7880     0.1260     8.5600   121.2290     2.5760
 1942.0000  1110.2770     7.0290     8.9330     6.5300   -50.4060  1130.2260     0.2170     8.5830   120.4520     2.6020
 1942.5000  1110.7030     6.9010     9.1860     6.3470   -50.5590  1130.6639     0.2470     8.5350   118.3680     2.6060
 1943.0000  1111.1281     6.7730     8.8970     6.1000   -50.5860  1131.1021     0.2270     8.4840   115.8950     2.5760
 1943.5000  1111.5530     6.6320     8.2410     5.8530   -50.6010  1131.5389     0.1790     8.4340   115.2750     2.5230
 1944.0000  1111.9780     6.5010     7.5720     5.6060   -50.4670  1131.9771     0.1150     8.3860   116.7070     2.4730
 1944.5000  1112.4030     6.3560     6.8260     5.3380   -50.4670  1132.4150     0.0440     8.3840   119.5990     2.4640
 1945.0000  1112.8290     6.1690     6.1690     5.4730   -50.6000  1132.8530     0.0260     8.3840   120.5350     2.4830
 1945.5000  1113.2540     6.2130     6.1690     5.6220   -50.5860  1133.2910     0.0140     8.3840   121.7340     2.5060
 1946.0000  1113.6790     6.3470     6.8690     5.7710   -50.5620  1133.7290     0.0110     8.3830   123.4580     2.5290
 1946.5000  1114.1040     6.4820     7.6220     5.9200   -50.4170  1134.1670     0.0130     8.3830   125.9050     2.5400
 1947.0000  1114.5291     6.6160     8.8590     6.0680   -50.2650  1134.6040     0.0150     8.3820   127.8010     2.5430
 1947.5000  1114.9550     6.7510     8.8210     6.2170   -50.1120  1135.0420     0.0060     8.3820   131.6820     2.5390
 1948.0000  1115.3800     6.8860     8.7140     6.3090   -49.9630  1135.4800     0.0080     8.3810   135.4910     2.5350
 1948.5000  1115.8051     7.0200     8.6060     6.3580   -49.8120  1135.9180     0.0110     8.3810   137.2610     2.5340
 1949.0000  1116.2300     7.1300     8.4990     6.4060   -49.6600  1136.3560     0.0140     8.3800   134.7210     2.5340
 1949.5000  1116.6550     7.1530     8.3910     6.4550   -49.5110  1136.7939     0.0120     8.3800   131.5000     2.5330
 1950.0000  1117.0811     7.1720     8.5890     6.5130   -49.3560  1137.2321     0.0090     8.3790   129.4520     2.5400
 1950.5000  1117.5060     7.1920     8.7890     6.5030   -49.2120  1137.6689     0.0070     8.3790   127.4450     2.5470
 1951.0000  1117.9310     7.2110     9.0210     6.4910   -49.0440  1138.1071     0.0050     8.3780   124.7850     2.5490
