~VERSION INFORMATION
 VERS.                2.0:   CWLS LOG ASCII STANDARD - VERSION 2.0
 WRAP.                 NO:   ONE LINE PER DEPTH STEP
~WELL INFORMATION
#MNEM.UNIT      DATA TYPE    INFORMATION
#----------   ------------   ------------------------------
 STRT.F           63.5000:   START DEPTH
 STOP.F         4112.0000:   STOP DEPTH
 STEP.F            0.5000:   STEP LENGTH
 NULL.          -999.2500:   NO VALUE
 COMP. LAWRENCE-ALLISON & ASSOC:   COMPANY
 WELL. LAWRENCE "X" #34-34:   WELL
 FLD .           N.P.R.#3:   FIELD
 LOC .      S34 T39N R78W:   LOCATION
 CNTY.            NATRONA:   COUNTY
 STAT.            WYOMING:   STATE
 CTRY. UNITED STATES OF AMERICA:   COUNTRY
 SRVC.      DRESSER ATLAS:   SERVICE COMPANY
 DATE.        19-OCT-1983:   LOGDATE
 API .     49025109440000:   API NUMBER
~CURVE INFORMATION
#MNEM.UNIT       API CODE    CURVE DESCRIPTION
#----------   ------------   ------------------------------
 DEPT.F                  :   
 AC  .US/F   60 250 00 00:   ACCOUSTIC
 TENS.LBS    60 635 01 00:   TENSION FROM SONIC
 ILD .OHMM   07 120 46 00:   DEEP INDUCTION RESISTIVITY
 ILM .OHMM   07 120 44 00:   INDUCTION LOG MEDIUM RESISTIVITY
 RFOC.OHMM   07 220 04 00:   RESISTIVITY FOCUSED LOG RES.
 TENR.LBS    07 635 01 00:   TENSION FROM RESISTIVITY
 SPR .MV     07 010 01 00:   SPONTANEOUS POTENTIAL
 GRR .GAPI   07 310 01 00:   GAMMA RAY FROM RESISTIVITY
 CALD.IN     45 280 60 00:   CALIPER FROM DENSITY LOG
 RHOB.G/C3   45 350 01 00:   BULK DENSITY
 CORR.G/C3   45 356 01 00:   DENSITY CORRECTION
 TEND.LBS    45 635 01 00:   TENSION FROM DENSITY LOG
 NPHI.DEC    42 890 03 00:   NEUTRON POROSITY SANDSTONE
~PARAMETER INFORMATION
#MNEM.UNIT          VALUE    DESCRIPTION
#----------   ------------   ------------------------------
 EKB .F         5100.0000:   Kelly bushing
 EGL .F         5090.0000:   Ground level
 TD  .F         4107.0000:   Total depth
 DATE.        19-OCT-1983:   Date logged
 CLNT.            A2DTECH:   Client Code
 SL  . 1997' FNL & 1661' FWL:   Surface Location
 PD  .                 GL:   Permanent Datum
 EPD .F              5090:   Elevation Permanent Datum
 LMF .                 KB:   Log Measured From
 DMF .                 KB:   Drilling Measured From
 DAPD.F                10:   Feet Above Permanent Datum
 DD  .F              4107:   Depth driller
 DL  .F              4102:   Depth logger
 BLI .F              4100:   Bottom log interval
 CS1 .IN            9.625:   Casing size
 CBD1.      9.625" @ 695':   Casing driller 1
 CBL1.F               696:   Casing logger 1
 BS1 .IN            7.875:   Bit size
 BSD1.F              4107:   Depth drilled with bit1
 DFT .            GEL-KCL:   Type fluid in hole
 DFD .                  9:   Density
 DFV .                 43:   Viscosity
 DFPH.                  9:   pH
 DFL .                 11:   Fluid loss
 MSS .           FLOWLINE:   Source of sample
 RMS .OHMM          0.313:   Rm
 MST .F                72:   Rm Meas. temp.
 RMF .OHMM          0.265:   Rmf
 MFST.F                68:   Rmf Meas. temp.
 RMC .OHMM          0.598:   Rmc
 MCST.F                68:   Rmc Meas. temp.
 MFSS.               MEAS:   Source Rmf.
 MCSS.               MEAS:   Source Rmc.
 RMB .OHMM          0.173:   Rm. at BHT
 BHT .F               130:   BHT.
 TCS .HRS               4:   Time Circ. stopped
 MRT .F               130:   Maximum recorded temp.
 LUN .               6774:   Logging unit number
 LUL .               GLTE:   Logging unit location
 ENGI.           FAHLEING:   Recorded By
 WITN.           JENNINGS:   Witnessed by
 ORIG.           5" PRINT:   Origin of data
 UWI .     49025109440000:   Unique Well ID
 DICO. A2D TECHNOLOGIES, INC.:   Digitizing Company
~OTHER INFORMATION
~A   DEPT       AC       TENS        ILD        ILM       RFOC       TENR        SPR         GRR      CALD       RHOB       CORR       TEND       NPHI   
# ...
  921.5000  -999.2500  -999.2500     5.1390     5.0540     4.9170   -85.8770   -46.0850   111.4540    10.1180     2.5080     0.0430   -52.0280     0.2640
  922.0000  -999.2500  -999.2500     5.1360     5.0470     4.9120   -86.0340   -46.0460   114.7780    10.1190     2.5060     0.0500   -52.4320     0.2580
  922.5000  -999.2500  -999.2500     5.1340     5.0400     4.9060   -86.1920   -46.0080   114.6850    10.1210     2.5080     0.0570   -48.4510     0.2590
  923.0000  -999.2500  -999.2500     5.1320     5.0330     4.9000   -86.3500   -45.9700   109.5110    10.1220     2.5240     0.0650   -44.8330     0.2840
  923.5000  -999.2500  -999.2500     5.1300     5.0260     4.8940   -86.5070   -45.9310   104.4770    10.1230     2.5420     0.0720   -41.2140     0.2930
  924.0000  -999.2500  -999.2500     5.1270     5.0430     4.8880   -86.6650   -45.8950   101.1960    10.1240     2.5440     0.0780   -37.5960     0.2860
  924.5000  -999.2500  -999.2500     5.1250     5.0600     4.9100   -86.8220   -45.8600   101.4340    10.1250     2.5350     0.0750   -33.9770     0.2790
  925.0000  -999.2500  -999.2500     5.1210     5.0770     4.9400   -86.9800   -45.7760   103.3250    10.1260     2.5170     0.0690   -30.3590     0.2790
  925.5000  -999.2500  -999.2500     5.1300     5.0940     4.9690   -87.1380   -45.6180   105.3510    10.1270     2.5070     0.0620   -26.7400     0.2760
  926.0000  -999.2500  -999.2500     5.1740     5.1120     4.9980   -87.2950   -45.6080   106.7790    10.1280     2.5050     0.0560   -23.1220     0.2780
  926.5000  -999.2500  -999.2500     5.2180     5.1290     5.0270   -87.4530   -45.6090   108.1660    10.1290     2.5100     0.0500   -22.2340     0.2900
  927.0000  -999.2500  -999.2500     5.2620     5.1460     5.0560   -87.6110   -45.6090   109.5540    10.1310     2.5190     0.0450   -22.6300     0.3030
  927.5000  -999.2500  -999.2500     5.3060     5.1630     5.0730   -87.7680   -45.6090   110.9170    10.1350     2.5200     0.0430   -23.0260     0.2980
  928.0000  -999.2500  -999.2500     5.3500     5.1800     5.1500   -87.9260   -45.6100   111.0110    10.1520     2.5210     0.0420   -23.4220     0.2880
  928.5000  -999.2500  -999.2500     5.3940     5.1970     5.2260   -88.0840   -45.6090   110.4120    10.1690     2.5220     0.0410   -23.8170     0.2850
  929.0000  -999.2500  -999.2500     5.4380     5.2170     5.3010   -88.2410   -45.6100   110.5560    10.1870     2.5230     0.0360   -24.2130     0.2880
  929.5000  -999.2500  -999.2500     5.4820     5.2100     5.3770   -88.3990   -45.6140   110.7020    10.2000     2.5230     0.0310   -24.6090     0.2900
  930.0000  -999.2500  -999.2500     5.5260     5.2010     5.4660   -88.5570   -45.4030   109.6890    10.2120     2.5200     0.0260   -25.0050     0.2880
  930.5000  -999.2500  -999.2500     5.5690     5.1920     5.4400   -88.7140   -45.1110   108.6790    10.2250     2.5150     0.0210   -25.4010     0.2880
  931.0000  -999.2500  -999.2500     5.5800     5.1830     5.3960   -88.8720   -44.8170   107.6580    10.2370     2.5100     0.0220   -25.7960     0.2930
  931.5000  -999.2500  -999.2500     5.5900     5.1690     5.3530   -89.0290   -44.5240   106.6600    10.2490     2.5070     0.0240   -26.1920     0.2960
  932.0000  -999.2500  -999.2500     5.6000     5.1970     5.3100   -89.1870   -44.2300   106.2920    10.2620     2.5080     0.0350   -26.5880     0.2920
  932.5000  -999.2500  -999.2500     5.6100     5.2640     5.2660   -89.3450   -43.9370   107.7390    10.2740     2.5130     0.0370   -26.9840     0.2890
  933.0000  -999.2500  -999.2500     5.6200     5.3160     5.2230   -89.5020   -43.6440   109.1280    10.2860     2.5170     0.0370   -27.3790     0.2890
  933.5000  -999.2500  -999.2500     5.7740     5.3160     5.1800   -89.6600   -43.3500   110.5400    10.2990     2.5210     0.0360   -27.7750     0.2880
  934.0000  -999.2500  -999.2500     5.9570     5.3160     5.1260   -89.8180   -43.0470   111.9440    10.3110     2.5240     0.0270   -28.1710     0.2860
  934.5000  -999.2500  -999.2500     6.1390     5.4410     5.3050   -89.9750   -42.9700   108.4780    10.3240     2.5200     0.0350   -28.5670     0.2780
  935.0000  -999.2500  -999.2500     6.3220     5.7290     5.6180   -90.1330   -42.9680   104.4840    10.3360     2.5110     0.0450   -28.9620     0.2700
  935.5000  -999.2500  -999.2500     6.5050     6.0160     5.9310   -90.2910   -42.9680   100.4920    10.3480     2.5010     0.0780   -29.3580     0.2620
  936.0000  -999.2500  -999.2500     6.6880     6.3040     6.2290   -90.4480   -42.9680    96.5570    10.3610     2.4930     0.0770   -29.7540     0.2600
  936.5000  -999.2500  -999.2500     6.8710     6.4660     6.2460   -90.6060   -42.9680    94.2550    10.3730     2.5000     0.0620   -30.1500     0.2600
  937.0000  -999.2500  -999.2500     7.0540     6.5880     6.2610   -90.7630   -42.9680    96.5260    10.3750     2.5090     0.0420   -30.5460     0.2610
  937.5000  -999.2500  -999.2500     7.2360     6.7950     6.2760   -90.9210   -42.9680    98.6680    10.3770     2.5140     0.0330   -30.9410     0.2510
  938.0000  -999.2500  -999.2500     7.3620     7.1250     6.2920   -91.0790   -42.9680   100.7650    10.3790     2.5090     0.0230   -31.3370     0.2400
  938.5000  -999.2500  -999.2500     7.4560     7.4380     6.3070   -91.2360   -42.9680   101.6770    10.3800     2.5040     0.0240   -31.7330     0.2350
  939.0000  -999.2500  -999.2500     7.5160     7.3940     6.3230   -91.3940   -42.9680    99.1860    10.3820     2.5010     0.0620   -32.1680     0.2370
  939.5000  -999.2500  -999.2500     7.5350     7.3530     6.3380   -91.5520   -42.9680    96.6450    10.3830     2.5000     0.0710   -31.8060     0.2480
  940.0000  -999.2500  -999.2500     7.5530     7.3110     6.3940   -91.7090   -42.9680    92.0980    10.3850     2.4990     0.0590   -31.4030     0.2600
  940.5000  -999.2500  -999.2500     7.5720     7.2700     6.4970   -91.8670   -42.9680    91.3810    10.3870     2.4980     0.0090   -31.0000     0.2600
  941.0000  -999.2500  -999.2500     7.6050     7.2290     6.5990   -92.0250   -42.9680    93.1910    10.3880     2.4980    -0.0170   -30.5980     0.2530
  941.5000  -999.2500  -999.2500     7.6470     7.1650     6.7020   -92.1820   -42.9680    94.9270    10.3900     2.4970     0.0020   -30.1950     0.2490
  942.0000  -999.2500  -999.2500     7.6880     7.2090     6.8390   -92.3400   -42.9680    97.1940    10.3920     2.4950     0.0100   -29.7920     0.2480
  942.5000  -999.2500  -999.2500     7.7300     7.3010     6.7660   -92.4970   -42.9680    98.8390    10.3930     2.4840     0.0080   -29.3900     0.2500
  943.0000  -999.2500  -999.2500     7.7930     7.3690     6.7480   -92.6550   -42.9690    99.7200    10.3950     2.4740    -0.0010   -28.9870     0.2520
  943.5000  -999.2500  -999.2500     7.7210     7.3430     6.7290   -92.8130   -42.9690    99.5070    10.3970     2.4790    -0.0090   -28.5840     0.2600
  944.0000  -999.2500  -999.2500     7.5690     7.3230     6.7100   -92.9580   -43.0180    98.3060    10.3980     2.4950     0.0070   -28.1820     0.2660
  944.5000  -999.2500  -999.2500     7.3690     7.3030     6.6910   -91.8170   -43.1150    97.7110    10.4000     2.5030     0.0270   -27.7790     0.2600
  945.0000  -999.2500  -999.2500     7.5060     7.2830     6.6730   -90.7550   -43.2120    96.3160    10.4020     2.5080     0.0230   -27.3760     0.2520
  945.5000  -999.2500  -999.2500     7.7080     7.2630     6.6540   -89.6940   -43.3100    95.0020    10.4030     2.5000     0.0110   -26.9740     0.2440
  946.0000  -999.2500  -999.2500     7.9100     7.2320     6.6350   -88.6320   -43.4080    95.8860    10.4050     2.4930     0.0220   -26.5710     0.2390
  946.5000  -999.2500  -999.2500     8.0350     7.3230     6.6160   -87.5710   -43.5060    96.7750    10.4060     2.4870     0.0520   -26.1680     0.2400
  947.0000  -999.2500  -999.2500     8.0760     7.5100     6.5980   -86.5100   -43.6030    97.8650    10.4080     2.4850     0.1000   -25.7660     0.2460
