~VERSION INFORMATION
 VERS.                2.0:   CWLS LOG ASCII STANDARD - VERSION 2.0
 WRAP.                 NO:   ONE LINE PER DEPTH STEP
~WELL INFORMATION
#MNEM.UNIT      DATA TYPE    INFORMATION
#----------   ------------   ------------------------------
 STRT.F           40.0000:   START DEPTH
 STOP.F         3032.5000:   STOP DEPTH
 STEP.F            0.5000:   STEP LENGTH
 NULL.          -999.2500:   NO VALUE
 COMP.   TESORO PETROLEUM:   COMPANY
 WELL. TESORO NPR 3 "AX" #51-15:   WELL
 FLD .        TEAPOT DOME:   FIELD
 LOC .      S15 T38N R78W:   LOCATION
 CNTY.            NATRONA:   COUNTY
 STAT.            WYOMING:   STATE
 CTRY. UNITED STATES OF AMERICA:   COUNTRY
 SRVC.       SCHLUMBERGER:   SERVICE COMPANY
 DATE.        21-JUL-1969:   LOGDATE
 API .     49025100240000:   API NUMBER
~CURVE INFORMATION
#MNEM.UNIT       API CODE    CURVE DESCRIPTION
#----------   ------------   ------------------------------
 DEPT.F                  :   
 CALD.IN     45 280 60 00:   CALIPER FROM DENSITY LOG
 GRD .GAPI   45 310 01 00:   GAMMA RAY FROM DENSITY LOG
 RHOB.G/C3   45 350 01 00:   BULK DENSITY
 CORR.G/C3   45 356 01 00:   DENSITY CORRECTION
 GR  .GAPI   35 310 01 00:   GAMMA RAY FROM GAMMA RAY LOG
 SPR .MV     05 010 01 00:   SPONTANEOUS POTENTIAL
 ASN .OHMM   05 041 16 00:   AMPLIFIED SHORT NORMAL 16"
 ILD .OHMM   05 120 46 00:   DEEP INDUCTION RESISTIVITY
~PARAMETER INFORMATION
#MNEM.UNIT          VALUE    DESCRIPTION
#----------   ------------   ------------------------------
 EKB .F         5235.0000:   Kelly bushing
 EGL .F         5222.0000:   Ground level
 EDF .F            0.0000:   Drilling floor
 TD  .F         3027.0000:   Total depth
 DATE.        21-JUL-1969:   Date logged
 CLNT.            A2DTECH:   Client Code
 SL  . 2000' FEL & 660' FNL:   Surface Location
 PD  .                 GL:   Permanent Datum
 EPD .F              5222:   Elevation Permanent Datum
 LMF .                 KB:   Log Measured From
 DMF .                 KB:   Drilling Measured From
 DAPD.F                13:   Feet Above Permanent Datum
 DD  .F              3027:   Depth driller
 DL  .F              3025:   Depth logger
 BLI .F              3024:   Bottom log interval
 TLI .F              2604:   Top log interval
 CS1 .IN            10.75:   Casing size
 CBD1.      10.75" @ 622':   Casing driller 1
 BS1 .IN                9:   Bit size
 BSD1.F              3027:   Depth drilled with bit1
 DFT .          FRESH/GEL:   Type fluid in hole
 DFD .                9.7:   Density
 DFV .                 65:   Viscosity
 DFPH.                9.5:   pH
 DFL .                  7:   Fluid loss
 MSS .           FLOWLINE:   Source of sample
 RMS .OHMM           2.48:   Rm
 MST .F                80:   Rm Meas. temp.
 RMF .OHMM           2.80:   Rmf
 MFST.F                80:   Rmf Meas. temp.
 MFSS.               MEAS:   Source Rmf.
 RMB .OHMM           2.20:   Rm. at BHT
 BHT .F               106:   BHT.
 TCS .HRS               1:   Time Circ. stopped
 MRT .F               106:   Maximum recorded temp.
 LUN .               4507:   Logging unit number
 LUL .               CSPR:   Logging unit location
 ENGI.           CHAMPLIN:   Recorded By
 WITN.                MAY:   Witnessed by
 ORIG.           5" PRINT:   Origin of data
 UWI .     49025100240000:   Unique Well ID
 DICO. A2D TECHNOLOGIES, INC.:   Digitizing Company
~OTHER INFORMATION
~A   DEPT     CALD        GRD       RHOB       CORR         GR        SPR        ASN          ILD 
# ...
 1700.5000     9.3210    88.8290     2.5970     0.0170  -999.2500   -35.2360    10.5300     8.7890
 1701.0000     9.3300    90.7000     2.5780    -0.0070  -999.2500   -35.2270    10.4830     8.6650
 1701.5000     9.3390    92.3750     2.5820     0.0070  -999.2500   -35.2490    10.4370     8.5570
 1702.0000     9.3490    93.9880     2.5720     0.0270  -999.2500   -35.0690    10.3300     8.4420
 1702.5000     9.3540    95.4460     2.6160     0.0240  -999.2500   -34.7520    10.1490     8.3290
 1703.0000     9.3530    95.6980     2.6060     0.0260  -999.2500   -34.4700     9.9640     8.2160
 1703.5000     9.3530    95.9070     2.5950     0.0300  -999.2500   -34.1780     9.4180     8.1030
 1704.0000     9.3530    96.7670     2.6060     0.0320  -999.2500   -33.8880     9.2790     7.9900
 1704.5000     9.3530    99.1900     2.6370     0.0360  -999.2500   -33.5980     9.1870     7.8770
 1705.0000     9.3530   101.6560     2.6070     0.0390  -999.2500   -33.3080     9.1750     7.7640
 1705.5000     9.3530   102.5960     2.6070     0.0420  -999.2500   -33.0180     9.1330     7.6500
 1706.0000     9.3530   100.2200     2.6040     0.0450  -999.2500   -32.7250     9.1110     7.5360
 1706.5000     9.3530    98.7540     2.5930     0.0450  -999.2500   -32.4870     9.0300     7.4430
 1707.0000     9.3530   100.7110     2.5740     0.0400  -999.2500   -32.4370     8.9800     7.4220
 1707.5000     9.3530   102.4060     2.5800     0.0350  -999.2500   -32.3940     8.8910     7.4030
 1708.0000     9.3530   104.4980     2.5760     0.0300  -999.2500   -32.3550     8.7930     7.3870
 1708.5000     9.3530   104.6790     2.5960     0.0250  -999.2500   -32.3140     8.6820     7.3690
 1709.0000     9.3530   103.5850     2.6320     0.0200  -999.2500   -32.2740     8.6860     7.3520
 1709.5000     9.3540   102.8990     2.6190     0.0140  -999.2500   -32.2350     8.7020     7.3340
 1710.0000     9.3530   101.5220     2.5810     0.0150  -999.2500   -32.1970     8.7240     7.3170
 1710.5000     9.3580   104.2380     2.5620     0.0290  -999.2500   -32.1460     8.7380     7.2990
 1711.0000     9.3650   102.8470     2.5590     0.0500  -999.2500   -32.1410     8.7570     7.2820
 1711.5000     9.3730   102.4210     2.5680     0.0360  -999.2500   -31.8020     8.6930     7.2650
 1712.0000     9.3800   105.3270     2.5860    -0.0020  -999.2500   -30.9000     8.5720     7.2470
 1712.5000     9.3870   108.5920     2.5850     0.0080  -999.2500   -30.4980     8.5080     7.2300
 1713.0000     9.3930   109.3830     2.5760     0.0040  -999.2500   -31.0100     8.5110     7.2130
 1713.5000     9.3850   106.3050     2.5910     0.0030  -999.2500   -31.3510     8.5430     7.1950
 1714.0000     9.3780   100.5240     2.6140     0.0200  -999.2500   -31.4070     8.5980     7.1780
 1714.5000     9.3710    96.2730     2.6080     0.0360  -999.2500   -31.5030     8.6510     7.1610
 1715.0000     9.3630    93.8000     2.6000     0.0490  -999.2500   -31.5860     8.6600     7.1440
 1715.5000     9.3570    93.6820     2.6060     0.0510  -999.2500   -31.6710     8.6280     7.1270
 1716.0000     9.3580    98.2190     2.6430     0.0520  -999.2500   -31.7600     8.5520     7.1090
 1716.5000     9.4150   100.5080     2.6590     0.0440  -999.2500   -31.8430     8.4820     7.0920
 1717.0000     9.4630   100.2000     2.6530     0.0360  -999.2500   -31.9310     8.4420     7.0750
 1717.5000     9.5150   100.5870     2.6150     0.0300  -999.2500   -32.0300     8.4290     7.0560
 1718.0000     9.5670   101.2220     2.5880     0.0330  -999.2500   -31.8560     8.4580     7.0670
 1718.5000     9.6150   101.8780     2.5930     0.0590  -999.2500   -30.8340     8.4940     7.1560
 1719.0000     9.6700   102.1390     2.5780     0.0820  -999.2500   -30.5540     8.5700     7.2430
 1719.5000     9.6740   102.3210     2.5930     0.1080  -999.2500   -30.7030     8.6800     7.3340
 1720.0000     9.6740   102.5960     2.6270     0.1310  -999.2500   -30.8020     8.7770     7.4230
 1720.5000     9.6750   102.4490     2.6330     0.1490  -999.2500   -30.9120     8.8760     7.5130
 1721.0000     9.6740   101.3790     2.6370     0.1160  -999.2500   -30.8040     8.9290     7.6020
 1721.5000     9.6680    99.2370     2.6370     0.0890  -999.2500   -30.4780     8.9570     7.6920
 1722.0000     9.5830   102.7470     2.5920     0.0850  -999.2500   -30.1440     8.9860     7.7800
 1722.5000     9.5040   109.8600     2.5980     0.0920  -999.2500   -30.1850     8.9990     7.8710
 1723.0000     9.4200   113.1790     2.6080     0.0990  -999.2500   -30.3410     9.0120     7.9610
 1723.5000     9.3560   113.2130     2.6050     0.0980  -999.2500   -30.4880     9.0240     8.0280
 1724.0000     9.3570   109.6160     2.5840     0.0910  -999.2500   -30.8770     9.0380     7.9850
 1724.5000     9.3570   106.9870     2.5890     0.0830  -999.2500   -31.4220     9.0480     7.9460
 1725.0000     9.3600   106.9580     2.6040     0.0730  -999.2500   -31.7250     9.0660     7.9020
 1725.5000     9.3620   107.3340     2.5710     0.0630  -999.2500   -31.5960     9.0360     7.8620
 1726.0000     9.3640   109.2250     2.5590     0.0560  -999.2500   -31.4470     9.0200     7.8190
 1726.5000     9.3660   108.3750     2.5730     0.0500  -999.2500   -31.2920     9.0160     7.7780
 1727.0000     9.3680   107.6150     2.5820     0.0430  -999.2500   -31.1400     9.0110     7.7360
 1727.5000     9.3700   106.7810     2.5770     0.0330  -999.2500   -30.9890     9.0050     7.6950
 1728.0000     9.3720   105.7230     2.5950     0.0240  -999.2500   -30.7900     9.0010     7.6530
 1728.5000     9.3740   108.0580     2.6180     0.0140  -999.2500   -30.5470     8.9940     7.6380
 1729.0000     9.3770   108.8950     2.5970     0.0180  -999.2500   -30.2650     8.9920     7.6390
 1729.5000     9.3790   104.6190     2.5720     0.0230  -999.2500   -30.2010     8.9640     7.6390
 1730.0000     9.3810   100.7210     2.6180     0.0290  -999.2500   -30.5680     8.9190     7.6390
 1730.5000     9.3830    98.2930     2.6050     0.0360  -999.2500   -30.8690     8.8810     7.6390
 1731.0000     9.3850    98.9710     2.5930     0.0420  -999.2500   -31.2050     8.8400     7.6390
 1731.5000     9.3870   101.6480     2.6170     0.0490  -999.2500   -30.9520     8.8300     7.6390
 1732.0000     9.3890   101.5980     2.5910     0.0530  -999.2500   -30.3910     8.8320     7.6390
 1732.5000     9.3910    94.8720     2.5970     0.0600  -999.2500   -30.0800     8.9260     7.6400
 1733.0000     9.3930    96.2760     2.6000     0.0090  -999.2500   -30.0870     9.0260     7.6390
 1733.5000     9.3900   101.8760     2.5900     0.0140  -999.2500   -30.0390     9.0270     7.6390
 1734.0000     9.3860   106.4300     2.6300     0.0180  -999.2500   -30.0150     9.0270     7.6450
 1734.5000     9.3820   107.6170     2.6190     0.0270  -999.2500   -29.9830     9.0370     7.7040
 1735.0000     9.3780   108.8480     2.6070     0.0270  -999.2500   -29.9520     9.0680     7.7550
 1735.5000     9.3730   109.8530     2.5870     0.0280  -999.2500   -29.9210     9.1030     7.8090
 1736.0000     9.3690   110.9490     2.5940     0.0330  -999.2500   -29.8890     9.2010     7.8610
 1736.5000     9.3650   108.4750     2.5980     0.0470  -999.2500   -29.8580     9.2860     7.9150
 1737.0000     9.3610   105.5810     2.5900     0.0420  -999.2500   -29.8280     9.3820     7.9660
 1737.5000     9.3560   103.2410     2.5990     0.0280  -999.2500   -29.7950     9.4400     8.0210
 1738.0000     9.3520   108.0090     2.6060     0.0160  -999.2500   -29.7670     9.4590     8.0250
 1738.5000     9.3480   108.3330     2.6130     0.0040  -999.2500   -29.7340     9.4910     8.0030
 1739.0000     9.3440   105.7480     2.6190     0.0120  -999.2500   -29.8420     9.4850     7.9850
 1739.5000     9.3390   106.2490     2.5990     0.0340  -999.2500   -30.0090     9.4220     7.9670
 1740.0000     9.3350   104.0160     2.5590     0.0340  -999.2500   -30.1790     9.3650     7.9480
 1740.5000     9.3310   104.6160     2.5650     0.0340  -999.2500   -30.3400     9.2990     7.9300
