~VERSION INFORMATION
 VERS.                2.0:   CWLS LOG ASCII STANDARD - VERSION 2.0
 WRAP.                 NO:   ONE LINE PER DEPTH STEP
~WELL INFORMATION
#MNEM.UNIT      DATA TYPE    INFORMATION
#----------   ------------   ------------------------------
 STRT.F            0.0000:   START DEPTH
 STOP.F         5786.0000:   STOP DEPTH
 STEP.F            0.5000:   STEP LENGTH
 NULL.          -999.2500:   NO VALUE
 COMP. U.S. DEPARTMENT OF ENERGY:   COMPANY
 WELL. DEPARTMENT "X" #2-3:   WELL
 FLD .           N P R #3:   FIELD
 LOC .       S3 T38N R78W:   LOCATION
 CNTY.            NATRONA:   COUNTY
 STAT.            WYOMING:   STATE
 CTRY. UNITED STATES OF AMERICA:   COUNTRY
 SRVC.       BAKER HUHGES:   SERVICE COMPANY
 DATE.        14-JUL-2002:   LOGDATE
 API .     49025230540000:   API NUMBER
~CURVE INFORMATION
#MNEM.UNIT       API CODE    CURVE DESCRIPTION
#----------   ------------   ------------------------------
 DEPT.F                  :   
 TEND.LBS    45 635 01 00:   TENSION FROM DENSITY LOG
 CALD.IN     45 280 60 00:   CALIPER FROM DENSITY LOG
 ZCOR.G/C3   45 356 01 00:   DENSITY CORRECTION
 PE  .B/E    45 358 01 00:   PHOTOELECTRIC FACTOR
 ZDEN.G/C3   45 350 01 00:   BULK DENSITY
 CNCF.DEC    42 890 03 00:   NEUTRON POROSITY
 TENS.LBS    60 635 01 00:   TENSION FROM SONIC
 DT  .US/F   60 520 00 00:   DELTA TIME
 RD  .OHMM   11 220 10 00:   RESISTIVITY DEEP
 TENR.LBS    11 635 01 00:   TENSION FROM RES. LOG
 RS  .OHMM   11 220 09 00:   RESISTIVITY SHALLOW
 GRR .GAPI   11 310 01 00:   GAMMA RAY FROM RES.
 RMLL.OHMM   11 270 04 00:   MICRO LATEROLOG
 SPR .MV     11 010 01 00:   SPONTANEOUS POTENTIAL FROM RES.
~PARAMETER INFORMATION
#MNEM.UNIT          VALUE    DESCRIPTION
#----------   ------------   ------------------------------
 EKB .F         5164.7000:   Kelly bushing
 EGL .F         5154.7000:   Ground level
 EDF .F         5163.7000:   Drilling floor
 TD  .F         5773.0000:   Total depth
 DATE.        14-JUL-2002:   Date logged
 CLNT.            A2DTECH:   Client Code
 SL  . 838' FNL & 2128' FWL:   Surface Location
 PD  .                 GL:   Permanent Datum
 EPD .F            5154.7:   Elevation Permanent Datum
 LMF .                 KB:   Log Measured From
 DMF .                 KB:   Drilling Measured From
 DD  .F              5770:   Depth driller
 DL  .F              5773:   Depth logger
 BLI .F              5770:   Bottom log interval
 CS1 .IN            9.625:   Casing size
 CBD1.       9.625 @ 578':   Casing driller 1
 CBL1.F               578:   Casing logger 1
 BS1 .IN             8.75:   Bit size
 DFT .       GEL/CHEMICAL:   Type fluid in hole
 DFD .                  9:   Density
 DFV .                 45:   Viscosity
 DFPH.                8.5:   pH
 DFL .                9.6:   Fluid loss
 MSS .           FLOWLINE:   Source of sample
 RMS .OHMM          0.568:   Rm
 MST .F                91:   Rm Meas. temp.
 RMF .OHMM          0.490:   Rmf
 MFST.F                92:   Rmf Meas. temp.
 RMC .OHMM          1.072:   Rmc
 MCST.F                90:   Rmc Meas. temp.
 MFSS.               MEAS:   Source Rmf.
 RMB .OHMM          0.291:   Rm. at BHT
 BHT .F               184:   BHT.
 TCS .HRS               8:   Time Circ. stopped
 MRT .F               184:   Maximum recorded temp.
 LUN .            HL-6530:   Logging unit number
 LUL .             CASPER:   Logging unit location
 ENGI.           VERCIMAK:   Recorded By
 WITN.              HARDY:   Witnessed by
 ORIG.           5" PRINT:   Origin of data
 UWI .     49025230540000:   Unique Well ID
 DICO. A2D TECHNOLOGIES, INC.:   Digitizing Company
~OTHER INFORMATION
~A    DEPT    TEND       CALD       ZCOR         PE       ZDEN       CNCF       TENS         DT         RD       TENR         RS         GRR      RMLL        SPR   
# ...
 4018.0000    12.4210    10.2220     0.0160     3.4040     2.6000     0.2160    -7.0600    69.3840     5.5620    -1.9210     6.2520    79.5600     6.7540     5.6790
 4018.5000    -0.5530    10.2220     0.0140     3.4100     2.6010     0.2210    -6.2000    71.3990     5.6920    14.4710     6.1430    80.1350     5.8090     5.7000
 4019.0000   -13.5260    10.2220     0.0110     3.3950     2.6020     0.2230   -12.5250    73.9500     5.8630    12.0430     6.0270    80.3790     7.7960     5.7260
 4019.5000   -26.5000    10.2220     0.0090     3.3800     2.6050     0.2370   -18.8500    76.2410     5.6440     3.8590     6.0270    79.1280     6.7980     5.7530
 4020.0000   -39.4740    10.2220     0.0090     3.3650     2.6110     0.2750   -25.1750    81.0320     5.1910    -4.3250     5.8630    81.4090     3.4960     5.7780
 4020.5000   -52.4470    10.2220     0.0080     3.3500     2.6200     0.3000   -31.5010    80.5400     4.7390   -15.4690     5.4700    84.7270     1.0040     5.8040
 4021.0000   -65.4210    10.2220     0.0070     3.3340     2.6200     0.3120   -34.5690    79.9150     4.2870    -6.9190     5.1010    87.9400     0.9710     5.8300
 4021.5000   -78.3950    10.2220     0.0060     3.3190     2.6110     0.3080   -32.9160    79.2890     3.8340    -5.4890     4.7310    89.1760     0.9500     5.8560
 4022.0000   -96.1690    10.2220     0.0080     3.3040     2.6030     0.2970   -27.8560    78.6270     3.4090    -5.4890     4.3610    89.1740     0.8080     5.8440
 4022.5000  -118.9230    10.2220     0.0200     3.2890     2.5980     0.2770   -19.0690    78.5990     3.3160    -5.4890     4.1340    89.6380     0.6340     5.7730
 4023.0000  -141.6770    10.2090     0.0310     3.2740     2.5940     0.2570    -3.2570    78.5690     3.3160     7.2190     4.0960    90.3970     0.5890     5.7050
 4023.5000   -77.6400    10.1930     0.0390     3.2590     2.5890     0.2380    12.5560    78.5400     3.3770    23.5860     4.3220    91.1430     0.7400     5.6640
 4024.0000     1.2400    10.1760     0.0460     3.2430     2.5950     0.2190    20.1400    76.3190     4.1500    34.4310     4.8540    90.5670     1.0120     5.2370
 4024.5000     2.6670    10.1620     0.0490     3.2280     2.6030     0.2020   -10.2200    73.8920     4.9650     7.7680     5.3850    89.8950     2.5520     4.7710
 4025.0000   -12.2730    10.1590     0.0430     3.2130     2.6120     0.1950   -40.5810    73.0660     5.7810   -20.8750     5.9170    89.2150     4.9690     4.2900
 4025.5000   -27.2120    10.1570     0.0210     3.1980     2.6110     0.1910   -64.6290    72.7810     6.3650   -35.4290     7.4450    89.8490     7.0480     4.2650
 4026.0000   -42.1520    10.1550     0.0190     3.1830     2.6110     0.1910   -60.0650    72.7890     6.3490   -25.4490     7.5140    90.6170     8.3900     4.2700
 4026.5000   -57.0910    10.1530     0.0230     3.1640     2.6160     0.1880   -54.4420    73.1160     6.3270   -35.4290     7.7030    91.3100     7.0370     4.2680
 4027.0000   -72.0300    10.1500     0.0270     3.1320     2.6250     0.1800   -48.8200    71.2700     6.3100   -31.1210     7.8680    88.0660     5.2020     4.0630
 4027.5000   -84.0710    10.1480     0.0300     3.0990     2.6250     0.1690   -44.5890    68.9300     6.9310   -27.0290     8.1320    84.4710     6.1800     2.7660
 4028.0000   -77.0290    10.1460     0.0190     3.0660     2.6150     0.1650   -44.5890    66.5890     7.5290   -35.4290     8.3900    80.9070     7.7240     1.5040
 4028.5000   -69.9860    10.1440     0.0110     3.0500     2.6000     0.1790   -44.5890    65.8020     8.0880   -35.4290     9.1050    77.9760     9.0490     0.2480
 4029.0000   -62.9430    10.1410     0.0300     3.0500     2.5970     0.1990   -44.5890    70.4510     8.1620   -38.6390     9.8170    76.6740    11.0260    -0.5780
 4029.5000   -55.9000    10.1390     0.0450     3.0500     2.5930     0.2180   -53.2310    74.1190     8.1620   -42.7310    10.1770    79.6340    12.6890     0.3700
 4030.0000   -57.0480    10.1370     0.0420     3.0500     2.5890     0.2330   -58.6170    77.7880     7.5500   -45.4090     8.7180    88.5310     6.1440     1.5350
 4030.5000   -59.3950    10.1350     0.0310     3.0620     2.5830     0.2420   -72.1110    80.6410     5.9930   -49.2510     7.4590    97.4850     1.1840     2.7130
 4031.0000   -61.7430    10.1330     0.0310     3.0790     2.5830     0.2200   -85.6050    80.9320     4.8340   -53.3430     6.0820    99.1980     1.1840     3.8880
 4031.5000   -64.0900    10.1300     0.0320     3.0960     2.5900     0.1610   -87.4560    76.4380     4.7450   -55.3890     5.8630    98.5150     2.5810     5.0590
 4032.0000   -44.8670    10.1280     0.0340     3.1140     2.6110     0.1210   -65.3180    71.8840     7.5350   -34.3060     8.2060    93.6860     4.0020     6.0460
 4032.5000   -12.0000    10.1260     0.0300     3.1340     2.6280     0.1010   -43.1800    67.3300    10.6690    -5.4890    11.6180    84.3270     6.1950     6.5950
 4033.0000    15.0000    10.1240     0.0150     3.1530     2.6340     0.1110   -24.5490    63.0560    14.4320   -13.5230    15.0290    75.1680    23.7070     6.8540
 4033.5000    -7.6350    10.1230     0.0160     3.1710     2.6310     0.1240   -28.2230    61.2310    14.1030   -25.7980    17.0280    69.1220    37.8860     6.9250
 4034.0000   -30.8350    10.1430     0.0180     3.1700     2.6270     0.1370   -33.0420    60.9820    13.3480   -38.0740    16.0460    67.8510    23.8960     7.0530
 4034.5000   -54.0350    10.1630     0.0190     3.1700     2.6200     0.1500   -37.8610    60.3640    12.5930   -44.6080    14.0710    67.2020    10.6560     7.2350
 4035.0000   -66.4440    10.1830     0.0150     3.1700     2.6050     0.1620   -42.6810    59.9900    11.8370   -42.6170    12.3440    68.3140    12.5130     7.4170
 4035.5000   -69.1830    10.2030     0.0110     3.1600     2.5950     0.1730   -44.5890    61.9420    11.0550   -40.6270    11.6900    69.7920    14.0390     7.5960
 4036.0000   -71.9220    10.2650     0.0120     3.1400     2.5880     0.1750   -54.6090    64.3520    10.4120   -38.6360    11.1270    72.0140    13.2640     7.7750
 4036.5000   -74.6610    10.3050     0.0130     3.1210     2.5890     0.1790   -50.1540    67.0510     9.4430   -36.6460    10.4610    75.6950     9.6310     7.9540
 4037.0000   -64.8350    10.3150     0.0170     3.1100     2.5940     0.1910   -44.7320    69.4210     8.3900   -34.6550     9.7540    79.3530     9.3690     8.0660
 4037.5000   -53.2350    10.3250     0.0190     3.1100     2.5940     0.2070   -39.3110    70.7240     8.0140   -32.6640     8.4680    81.6470     9.2580     7.9720
 4038.0000   -41.6350    10.3350     0.0130     3.1100     2.5860     0.2270   -33.8890    70.8400     7.9060   -30.6740     8.1530    82.6330     9.0310     7.9220
 4038.5000   -35.0000    10.3450     0.0200     3.1100     2.5750     0.2470   -28.4680    71.3130     7.4070   -28.6830     7.6690    82.8460     7.9940     8.2580
 4039.0000   -35.0000    10.3550     0.0420     3.1100     2.5680     0.2670   -24.5490    71.7130     6.7270   -26.6930     7.2430    82.1760     7.0640     8.4800
 4039.5000   -35.0000    10.3690     0.0580     3.1120     2.5560     0.2800   -24.5490    74.2510     6.0480   -24.7020     6.5770    81.6470     5.8130     8.5480
 4040.0000   -25.6140    10.3890     0.0040     3.0670     2.5270     0.2810   -24.5490    76.6030     4.9690   -22.7110     5.8720    83.8200     3.2520     8.6300
 4040.5000   -28.9750    10.4110    -0.0380     2.9050     2.4110     0.2820   -24.5490    78.9540     5.0150   -20.7210     5.4970    85.4190     0.7010     8.8890
 4041.0000   -32.3360    10.4310    -0.0530     2.7360     2.2490     0.3000   -24.5490    80.0500     5.1080   -18.7300     5.7530    85.7690     1.0850     9.4160
 4041.5000   -35.6980    10.5720     0.0090     2.6030     2.1550     0.3350   -24.5490    80.9320     5.1440   -16.7390     6.1380    84.2950     1.8750     9.9380
 4042.0000   -39.0590    10.9480     0.0960     2.6910     2.0640     0.3800   -24.5490    87.0070     5.1550    -5.4890     5.7190    81.6780     1.5780    10.4420
