~VERSION INFORMATION
 VERS.                2.0:   CWLS LOG ASCII STANDARD - VERSION 2.0
 WRAP.                 NO:   ONE LINE PER DEPTH STEP
~WELL INFORMATION
#MNEM.UNIT      DATA TYPE    INFORMATION
#----------   ------------   ------------------------------
 STRT.F            1.5000:   START DEPTH
 STOP.F          985.0000:   STOP DEPTH
 STEP.F            0.5000:   STEP LENGTH
 NULL.          -999.2500:   NO VALUE
 COMP.       FLUOR DANIEL:   COMPANY
 WELL.  FLUOR 41 "X" #1-2:   WELL
 FLD .          N.P.R. #3:   FIELD
 LOC .       S2 T38N R78W:   LOCATION
 CNTY.            NATRONA:   COUNTY
 STAT.            WYOMING:   STATE
 CTRY. UNITED STATES OF AMERICA:   COUNTRY
 SRVC.     ATLAS WIRELINE:   SERVICE COMPANY
 DATE.        09-AUG-1994:   LOGDATE
 API .     49025226450000:   API NUMBER
~CURVE INFORMATION
#MNEM.UNIT       API CODE    CURVE DESCRIPTION
#----------   ------------   ------------------------------
 DEPT.F                  :   
 GRR .GAPI   07 310 01 00:   GAMMA RAY FROM RESISTIVITY
 TENR.LBS    07 635 01 00:   TENSION FROM RESISTIVITY
 RILD.OHMM   07 120 46 00:   INDUCTION LOG DEEP RESISTIVITY
 RILM.OHMM   07 120 44 00:   INDUCTION LOG MEDIUM RESISTIVITY
~PARAMETER INFORMATION
#MNEM.UNIT          VALUE    DESCRIPTION
#----------   ------------   ------------------------------
 EKB .F         5143.0000:   Kelly bushing
 EGL .F         5133.0000:   Ground level
 EDF .F         5142.0000:   Drilling floor
 TD  .F          970.0000:   Total depth
 CLNT.            A2DTECH:   Client Code
 PD  .                 GL:   Permanent Datum
 EPD .F              5133:   Elevation Permanent Datum
 LMF .                 KB:   Log Measured From
 DMF .                 KB:   Drilling Measured From
 DAPD.F                10:   Feet Above Permanent Datum
 DATE.        09-AUG-1994:   Date Logged [DD-MMM-YYYY]
 DD  .F               970:   Depth driller
 DL  .F               970:   Depth logger
 BLI .F               962:   Bottom log interval
 TLI .F                 0:   Top log interval
 CS1 .IN            9.625:   Casing size
 CBD1.       9.625" @ 56':   Casing driller 1
 CBL1.F                59:   Casing logger 1
 BS1 .IN             8.75:   Bit size
 BSD1.F               970:   Depth drilled with bit1
 DFT .                AIR:   Type fluid in hole
 MRT .F                94:   Maximum recorded temp.
 LUN .            HL 6530:   Logging unit number
 LUL .             CASPER:   Logging unit location
 ENGI.      PAT RASMUSSEN:   Recorded By
 WITN.        GARY STRONG:   Witnessed by
 ORIG.           5" PRINT:   Origin of data
 UWI .     49025226450000:   Unique Well ID
 DICO. A2D TECHNOLOGIES, INC.:   Digitizing Company
 SL  . 173' FNL & 2204' FWL:   Surface Location
~OTHER INFORMATION
~A    DEPT      GRR      TENR       RILD       RILM   
# ...
  439.5000   132.9922   -31.9754     6.6449     6.6066
  440.0000   133.2928   -39.1566     6.6896     6.7445
  440.5000   137.6328   -38.7801     6.8286     6.8951
  441.0000   140.2673   -45.9530     6.9225     6.9812
  441.5000   136.6217   -45.5019     7.0178     7.0287
  442.0000   136.0119   -45.1410     7.1170     7.1256
  442.5000   136.0090   -44.7802     7.2627     7.2756
  443.0000   134.7921   -44.4193     7.3621     7.3754
  443.5000   132.8932   -44.0512     7.4121     7.4255
  444.0000   130.8402   -28.5471     7.5136     7.5283
  444.5000   127.4988   -28.1862     7.6170     7.6321
  445.0000   124.1575   -42.8856     7.7236     7.7378
  445.5000   122.0302   -57.5850     7.8280     7.8997
  446.0000   121.4203   -64.7590     7.8254     7.8428
  446.5000   123.3252   -56.8524     7.7693     7.7327
  447.0000   124.7529   -48.8820     7.7130     7.6241
  447.5000   123.8388   -40.9910     7.6042     7.5696
  448.0000   124.7463   -40.6302     7.4443     7.4633
  448.5000   128.6888   -32.7392     7.2885     7.2934
  449.0000   129.5964   -24.8482     7.1858     7.1046
  449.5000   129.2898   -24.4729     7.0352     7.0048
  450.0000   129.8933   -24.0362     6.9850     7.0524
  450.5000   131.0996   -31.2241     7.0290     7.0989
  451.0000   128.6607   -15.7248     7.0670     7.1957
  451.5000   126.8309   -37.7665     7.0262     7.1921
  452.0000   121.9662   -52.4974     7.0237     7.0896
  452.5000   120.1364   -51.9487     6.9721     7.0375
  453.0000   121.3577   -43.9759     6.9697     6.9859
  453.5000   122.2432   -34.8645     6.9674     6.9829
  454.0000   123.7496   -20.4015     7.0143     6.9800
  454.5000   129.2036   -19.9624     7.0113     7.0284
  455.0000   131.3214   -34.6934     7.0581     7.0723
  455.5000   127.6684   -49.2049     7.1294     7.1189
  456.0000   126.1421   -56.4058     7.1522     7.1153
  456.5000   127.3473   -40.7968     7.0502     7.1124
  457.0000   131.9069   -32.8277     7.0482     7.1098
  457.5000   134.9570   -24.8494     7.0455     7.1066
  458.0000   134.2988   -24.3098     7.0431     7.1037
  458.5000   130.3446   -31.5107     7.0899     7.1505
  459.0000   129.4253   -46.1319     7.1372     7.1475
  459.5000   129.7222   -45.5831     7.1845     7.2443
  460.0000   130.3203   -37.6140     7.2356     7.2414
  460.5000   127.8813   -37.1750     7.3819     7.3914
  461.0000   127.2655   -36.7360     7.4830     7.4929
  461.5000   130.0728   -36.2952     7.4285     7.4371
  462.0000   132.7106   -35.8434     7.2219     7.2802
  462.5000   132.6996   -35.3093     7.1196     7.1266
  463.0000   134.5117   -34.8702     6.9700     7.0234
  463.5000   136.0225   -26.9011     6.8235     6.8696
  464.0000   131.7626   -34.1020     6.7268     6.8256
  464.5000   128.4154   -33.5532     6.6314     6.7754
  465.0000   128.3865   -40.6627     6.6750     6.8207
  465.5000   132.1365   -40.2054     6.7670     6.8173
  466.0000   138.5614   -31.7275     6.5782     6.5353
  466.5000   140.2161   -24.1574     6.4400     6.4422
  467.0000   139.9016   -23.7183     6.4378     6.3504
  467.5000   138.6788   -23.2794     6.4356     6.3477
  468.0000   136.2420   -30.4802     6.4334     6.3446
  468.5000   134.4122   -37.5713     6.4312     6.3870
  469.0000   132.8859   -37.0226     6.3839     6.3838
  469.5000   132.2701   -36.5836     6.3817     6.3812
  470.0000   136.5908   -36.1446     6.3796     6.3786
  470.5000   137.7153   -35.6928     6.3774     6.3760
  471.0000   131.6344   -35.1568     6.4204     6.4181
  471.5000   131.0208   -27.1877     6.4177     6.4610
  472.0000   134.3482   -34.2788     6.5055     6.6002
  472.5000   136.7694   -33.8398     6.5488     6.8246
  473.0000   134.9375   -41.0407     6.6843     6.9176
  473.5000   133.7147   -32.9618     6.9189     6.9632
  474.0000   132.7668   -24.9927     7.1120     6.9604
  474.5000   131.2668   -24.5482     7.1599     7.0552
  475.0000   130.9567   -24.0964     7.2075     7.2014
  475.5000   132.7666   -31.2058     7.2555     7.2489
  476.0000   134.2752   -30.6570     7.2524     7.2459
  476.5000   133.9629   -30.2181     7.1996     7.1919
  477.0000   130.6157   -37.4189     7.1898     7.1890
  477.5000   126.0545   -36.8702     7.1442     7.1362
  478.0000   125.1351   -43.9759     7.0922     7.0345
  478.5000   125.4298   -43.5223     6.9917     6.9828
  479.0000   127.5432   -43.0723     6.8448     6.8833
  479.5000   129.3553   -42.5345     6.7949     6.8327
  480.0000   132.3814   -42.0955     6.6986     6.7353
  480.5000   134.4970   -26.5963     6.6964     6.7325
  481.0000   135.7043   -26.1573     6.6941     6.7292
  481.5000   135.0863   -25.7183     6.6913     6.7264
  482.0000   135.0774   -32.9191     6.7364     6.7237
  482.5000   135.0683   -32.3704     6.8280     6.7687
  483.0000   135.3632   -39.4615     6.8740     6.8133
  483.5000   137.1731   -23.9458     6.9675     6.9537
  484.0000   138.0770   -15.9931     7.1122     7.0978
  484.5000   133.2101   -30.6144     7.2096     7.2474
  485.0000   126.8279   -37.7055     7.3628     7.4035
  485.5000   127.4261   -29.6266     7.5123     7.6003
  486.0000   131.9696   -14.1274     7.7753     7.8121
  486.5000   132.2642   -21.2185     7.9923     7.9748
  487.0000   127.3973   -35.8397     8.0462     8.0273
  487.5000   124.9606   -35.3916     7.9869     7.9675
  488.0000   124.3448   -34.8520     7.9288     7.9089
  488.5000   124.6394   -26.8828     7.8164     7.7962
  489.0000   126.1480   -26.4438     7.6521     7.6797
  489.5000   128.2636   -26.0048     7.4836     7.3154
  490.0000   128.5584   -18.0357     7.1816     7.1113
  490.5000   129.7794   -17.5967     6.9819     6.8648
  491.0000   130.3615   -17.1577     6.6938     6.7200
  491.5000   129.7435   -16.7169     6.5991     6.6706
  492.0000   130.3416   -17.2697     6.5967     6.6679
  492.5000   132.1537   -23.3708     6.6406     6.7119
  493.0000   134.2693   -22.8916     6.6847     6.8049
  493.5000   134.8697   -30.0229     6.7762     6.8481
  494.0000   131.5202   -29.4742     6.9164     6.9408
  494.5000   124.2033   -36.5653     7.0117     6.9872
  495.0000   122.7014   -36.1263     7.1568     7.0824
  495.5000   127.8496   -35.6873     7.2547     7.2284
  496.0000   137.5525   -34.7396     7.3547     7.2768
  496.5000   138.7598   -27.1694     7.4548     7.3752
  497.0000   134.8034   -19.2003     7.4522     7.3722
  497.5000   133.8841   -26.4012     7.3979     7.3692
  498.0000   134.7857   -25.8524     7.4986     7.4178
  498.5000   135.9909   -32.9435     7.6019     7.6245
  499.0000   134.3794   -32.5045     7.5459     7.5677
  499.5000   129.9011   -39.6084     7.5433     7.5120
  500.0000   128.3749   -39.1566     7.5408     7.6327
  500.5000   131.4044   -31.3110     7.6736     7.7199
  501.0000   136.2543   -31.0197     7.8570     7.7713
  501.5000   137.1604   -30.7229     7.7998     7.7151
  502.0000   130.4762   -15.3042     7.6359     7.7130
  502.5000   129.5599   -30.1460     7.4754     7.6569
  503.0000   131.4194   -44.9150     7.3695     7.3926
  503.5000   134.4025   -44.5509     7.2146     7.2376
  504.0000   136.5210   -29.1994     7.1124     7.1354
  504.5000   139.8535   -21.3780     7.0606     7.0839
  505.0000   142.5790   -21.0843     7.1076     7.0820
  505.5000   141.9662   -28.3256     7.1046     7.0801
  506.0000   140.1393   -27.9616     7.0529     7.0777
  506.5000   137.4020   -35.2733     7.0505     7.0758
  507.0000   138.0394   -34.9092     7.0481     7.0739
  507.5000   141.3342   -42.2209     7.0950     7.1215
  508.0000   141.6332   -41.8568     7.0926     7.1195
  508.5000   138.5910   -41.5655     7.0897     7.1176
  509.0000   134.9432   -41.2651     7.1374     7.1655
  509.5000   135.5443   -33.3801     7.1344     7.1981
  510.0000   139.7873   -25.5587     7.1825     7.2622
  510.5000   140.3885   -25.2675     7.2302     7.2597
  511.0000   140.9894   -32.5791     7.2778     7.3090
  511.5000   137.3355   -39.8180     7.3261     7.3582
  512.0000   131.8715   -46.9879     7.3749     7.4077
