~VERSION INFORMATION
 VERS.                2.0:   CWLS LOG ASCII STANDARD - VERSION 2.0
 WRAP.                 NO:   ONE LINE PER DEPTH STEP
~WELL INFORMATION
#MNEM.UNIT      DATA TYPE    INFORMATION
#----------   ------------   ------------------------------
 STRT.F          204.0000:   START DEPTH
 STOP.F         3040.0000:   STOP DEPTH
 STEP.F            0.5000:   STEP LENGTH
 NULL.          -999.2500:   NO VALUE
 COMP.    FENIX & SCISSON:   COMPANY
 WELL.   FENIX "A" #47-21:   WELL
 FLD .            N P R 3:   FIELD
 LOC .      S21 T39N R78W:   LOCATION
 CNTY.            NATRONA:   COUNTY
 STAT.            WYOMING:   STATE
 CTRY. UNITED STATES OF AMERICA:   COUNTRY
 SRVC.              WELEX:   SERVICE COMPANY
 DATE.        20-JUN-1977:   LOGDATE
 API .     49025103820000:   API NUMBER
~CURVE INFORMATION
#MNEM.UNIT       API CODE    CURVE DESCRIPTION
#----------   ------------   ------------------------------
 DEPT.F                  :   
 SPR .MV     07 010 01 00:   SPONTANEOUS POTENTIAL
 ILM .OHMM   07 120 44 00:   INDUCTION LOG MEDIUM RESISTIVITY
 ILD .OHMM   07 120 46 00:   DEEP INDUCTION RESISTIVITY
 SGRD.OHMM   07 220 05 00:   SHALLOW GUARD LOG RESISTIVITY
 GRD .GAPI   45 310 01 00:   GAMMA RAY FROM DENSITY LOG
 CALD.IN     45 280 60 00:   CALIPER FROM DENSITY LOG
 RHOB.G/C3   45 350 01 00:   BULK DENSITY
 CORR.G/C3   45 356 01 00:   DENSITY CORRECTION
~PARAMETER INFORMATION
#MNEM.UNIT          VALUE    DESCRIPTION
#----------   ------------   ------------------------------
 EKB .F         5010.0000:   Kelly bushing
 EGL .F         5000.0000:   Ground level
 EDF .F            0.0000:   Drilling floor
 TD  .F         3050.0000:   Total depth
 DATE.        20-JUN-1977:   Date logged
 CLNT.            A2DTECH:   Client Code
 SL  . 990' FSL & 2310' FWL:   Surface Location
 PD  .                 GL:   Permanent Datum
 DD  .F              3050:   Depth driller
 DL  .F              3039:   Depth logger
 BLI .F              3037:   Bottom log interval
 CS1 .IN            8.625:   Casing size
 CBD1.      8.625" @ 210':   Casing driller 1
 CBL1.F               215:   Casing logger 1
 BS1 .IN            7.875:   Bit size
 DFT .                KCL:   Type fluid in hole
 DFD .                9.3:   Density
 DFV .                 35:   Viscosity
 DFPH.                7.5:   pH
 DFL .                7.2:   Fluid loss
 MSS .             MUDPIT:   Source of sample
 RMS .OHMM            .22:   Rm
 MST .F                80:   Rm Meas. temp.
 RMF .OHMM            .19:   Rmf
 MFST.F                80:   Rmf Meas. temp.
 RMC .OHMM            .35:   Rmc
 MCST.F                80:   Rmc Meas. temp.
 MFSS.               MEAS:   Source Rmf.
 RMB .OHMM            .15:   Rm. at BHT
 BHT .F               111:   BHT.
 TCS .HRS               4:   Time Circ. stopped
 MRT .F               111:   Maximum recorded temp.
 LUN .               8766:   Logging unit number
 LUL .             CAPSER:   Logging unit location
 ENGI.          T. JOYNER:   Recorded By
 WITN.         PETTINGILL:   Witnessed by
 ORIG.           5" PRINT:   Origin of data
 UWI .     49025103820000:   Unique Well ID
 DICO. A2D TECHNOLOGIES, INC.:   Digitizing Company
 DAPD.                 10:   Feet Above Permanent Datum
 BSD1.               3050:   Depth drilled with bit1
 MCSS.               MEAS:   Source Rmc.
 EPD .               5000:   Elevation Permanent Datum
 LMF .                 KB:   Log Measured From
 DMF .                 KB:   Drilling Measured From
 TLI .                215:   Top log interval
~OTHER INFORMATION
~A   DEPT      SPR        ILM        ILD       SGRD         GRD        CALD       RHOB      CORR  
# ...
 2634.0000   -46.7140     7.3390     5.4110     8.1980    90.3710     8.6870     2.4640     0.0130
 2634.5000   -46.7130     7.8920     5.9130    12.5840    89.9200     8.6770     2.4620     0.0130
 2635.0000   -46.7130     8.1390     6.3710    12.2030    89.4800     8.6690     2.4600     0.0130
 2635.5000   -46.7140     8.3480     6.8300    11.9110    89.0190     8.6580     2.4580     0.0130
 2636.0000   -46.7150     8.5560     7.2580    12.2430    88.5170     8.6590     2.4560     0.0120
 2636.5000   -46.8240     8.7640     7.5920     9.7340    87.2420     8.6610     2.4540     0.0120
 2637.0000   -47.1280     8.9730     7.9050    10.0280    85.9850     8.6630     2.4560     0.0120
 2637.5000   -47.4290     9.0880     8.3280    10.7670    84.5130     8.6660     2.4600     0.0130
 2638.0000   -47.7300     9.1540     8.2680    10.2850    84.3140     8.6680     2.4630     0.0130
 2638.5000   -48.0310     9.2200     8.1750    10.6800    85.7940     8.6700     2.4670     0.0130
 2639.0000   -48.3320     9.2970     8.0810    11.5780    87.1130     8.6730     2.4740     0.0130
 2639.5000   -48.6340     8.9600     7.9940    12.1710    88.5930     8.6750     2.4810     0.0130
 2640.0000   -48.9350     8.5550     7.9130    12.3560    89.3070     8.6780     2.4880     0.0130
 2640.5000   -49.2360     8.1490     7.6520    11.9980    88.8400     8.6800     2.4920     0.0130
 2641.0000   -49.5370     7.7440     7.2790    11.3820    87.9780     8.6820     2.4940     0.0130
 2641.5000   -49.8390     7.3380     6.9070    10.7670    86.4340     8.6850     2.4960     0.0130
 2642.0000   -50.1400     7.0720     6.6320    10.1330    84.8290     8.6870     2.4980     0.0130
 2642.5000   -50.4410     6.7440     6.5050     8.5390    86.3220     8.6900     2.5000     0.0130
 2643.0000   -50.7430     6.9010     6.3780     7.6680    88.0280     8.6920     2.5020     0.0130
 2643.5000   -51.0460     7.1690     6.3150     7.2580    89.8490     8.6940     2.5040     0.0140
 2644.0000   -51.0830     7.4370     6.2990     7.4930    91.6880     8.6980     2.5060     0.0140
 2644.5000   -51.0710     7.7040     6.2830     7.9020    92.5720     8.6880     2.5080     0.0140
 2645.0000   -51.0570     7.9720     6.2670     8.3280    92.5710     8.6680     2.5100     0.0140
 2645.5000   -51.0430     8.2520     6.4600    12.3680    91.8110     8.6490     2.5120     0.0140
 2646.0000   -51.0290     8.0430     6.6610    13.6680    90.5930     8.6260     2.5140     0.0140
 2646.5000   -51.0160     7.8240     6.8630    11.8450    89.5530     8.6320     2.5160     0.0140
 2647.0000   -51.0020     7.6040     6.9960     9.5570    88.5200     8.6660     2.5160     0.0140
 2647.5000   -50.9880     7.3850     6.6640     9.2500    87.4560     8.6930     2.5140     0.0140
 2648.0000   -50.9750     7.0610     6.4150     8.7990    86.4170     8.6570     2.5130     0.0140
 2648.5000   -50.9610     7.1560     6.0970     8.3320    85.3630     8.6240     2.5110     0.0140
 2649.0000   -50.9470     7.3920     6.1250     7.9090    84.3140     8.5820     2.5090     0.0150
 2649.5000   -50.9330     7.2650     6.1820     9.4700    83.2770     8.6050     2.5070     0.0150
 2650.0000   -50.9200     6.9960     6.2670     9.3140    82.1960     8.6380     2.5070     0.0160
 2650.5000   -50.9060     7.2290     6.3980     9.0920    81.2050     8.6720     2.5080     0.0170
 2651.0000   -50.8920     7.6980     6.5860     8.8710    80.0240     8.6960     2.5080     0.0170
 2651.5000   -50.8790     8.1680     6.7750     8.7190    80.2530     8.6950     2.5090     0.0180
 2652.0000   -50.8650     8.6380     6.9630     8.8110    80.6770     8.6900     2.5090     0.0180
 2652.5000   -50.8510     9.0450     7.1510     9.1600    81.8690     8.6840     2.5050     0.0180
 2653.0000   -50.8370     9.0090     7.3400    10.9640    83.2620     8.6790     2.5000     0.0160
 2653.5000   -50.8240     8.7820     7.5280    12.4700    84.5880     8.6740     2.4960     0.0140
 2654.0000   -50.8100     8.3660     7.6420    11.9110    84.8150     8.6680     2.4910     0.0130
 2654.5000   -50.7960     7.9550     7.7130    11.7280    85.0270     8.6660     2.4860     0.0110
 2655.0000   -50.7830     8.1100     7.7830    11.4120    85.1800     8.6540     2.4810     0.0100
 2655.5000   -50.7690     8.2640     7.8820    10.9470    85.3610     8.6880     2.4820     0.0080
 2656.0000   -50.7550     8.4190     7.8750    10.4830    85.6690     8.6820     2.4840     0.0060
 2656.5000   -50.7420     8.5730     7.8560    10.0850    86.5550     8.6690     2.4860     0.0050
 2657.0000   -50.7280     8.6620     7.8380    10.0050    87.4630     8.6530     2.4870     0.0040
 2657.5000   -50.7140     8.7010     7.8190    10.1770    88.3300     8.6410     2.4860     0.0040
 2658.0000   -50.6920     8.7410     7.8000    10.3560    89.2990     8.6240     2.4840     0.0030
 2658.5000   -50.9940     8.7990     7.7820    10.5730    89.3580     8.6230     2.4830     0.0030
 2659.0000   -51.3670     8.7110     7.7630    10.8660    89.3820     8.6400     2.4820     0.0020
 2659.5000   -51.7130     8.5420     7.7440    11.1590    89.3800     8.6510     2.4800     0.0020
 2660.0000   -51.7600     8.3730     7.6830    11.4810    89.0960     8.6690     2.4790     0.0020
 2660.5000   -51.8170     8.2040     7.6030    11.4150    88.0970     8.6810     2.4800     0.0010
 2661.0000   -51.8760     8.0350     7.5230    11.1940    87.1180     8.6800     2.4810     0.0010
 2661.5000   -51.9340     7.8100     7.4430    10.8170    86.2150     8.6090     2.4820     0.0000
 2662.0000   -51.9930     7.9470     7.3640     9.3160    85.5830     8.6320     2.4830     0.0000
 2662.5000   -52.0510     8.1510     7.2840     7.3920    85.0080     8.6560     2.4830    -0.0010
 2663.0000   -52.1090     8.3560     7.1910     9.4290    84.4200     8.6560     2.4830    -0.0010
 2663.5000   -52.1670     8.5600     7.2780    11.6940    83.8440     8.6350     2.4820    -0.0010
 2664.0000   -52.2250     8.7640     7.3820    11.4660    83.2690     8.6180     2.4820    -0.0010
 2664.5000   -52.2830     8.9690     7.4860    10.9300    82.6330     8.6790     2.4820    -0.0010
 2665.0000   -52.3410     9.1730     7.5900    10.3930    82.2420     8.6870     2.4820     0.0000
 2665.5000   -52.3990     9.3830     7.6930    10.1930    82.1420     8.6550     2.4810     0.0000
 2666.0000   -52.4570     9.4110     7.7970    10.0200    81.9690     8.6170     2.4810     0.0000
 2666.5000   -52.5160     9.4400     7.9010    10.1660    81.7960     8.6450     2.4810     0.0010
 2667.0000   -52.5740     9.4690     8.0050    10.5960    81.6410     8.6370     2.4810     0.0010
 2667.5000   -52.6320     9.4970     8.1090    11.0260    81.5140     8.5770     2.4810     0.0020
 2668.0000   -52.6900     9.5260     8.1790    11.4810    81.7010     8.5450     2.4810     0.0020
 2668.5000   -52.7480     9.5570     8.1950    11.0680    81.8650     8.6930     2.4830     0.0020
 2669.0000   -52.8060     9.4570     8.2100    11.1790    82.0450     8.6380     2.4870     0.0030
 2669.5000   -52.8640     9.3500     8.2260    11.3770    82.2180     8.5830     2.4910     0.0030
 2670.0000   -52.9220     9.2430     8.2410    11.3250    82.3920     8.5810     2.4930     0.0030
 2670.5000   -52.9810     9.1360     8.2520    11.2520    82.5670     8.6160     2.4930     0.0040
 2671.0000   -53.0380     9.0280     8.0700    11.1790    82.7410     8.6570     2.4930     0.0040
 2671.5000   -53.0890     8.9210     7.9300    10.9560    82.9170     8.6320     2.4930     0.0050
 2672.0000   -53.0880     8.8140     7.7890    10.7120    83.0860     8.5820     2.4940     0.0050
 2672.5000   -53.0880     8.7070     7.6480    10.4690    83.2690     8.5790     2.4970     0.0050
 2673.0000   -53.0880     8.5730     7.5080    10.2710    83.4410     8.6040     2.5000     0.0060
 2673.5000   -53.0880     8.6760     7.3670    10.2130    83.5910     8.6370     2.5030     0.0060
 2674.0000   -53.0880     8.8580     7.2580    10.1550    83.8540     8.6710     2.5060     0.0060
