~VERSION INFORMATION
 VERS.                2.0:   CWLS LOG ASCII STANDARD - VERSION 2.0
 WRAP.                 NO:   ONE LINE PER DEPTH STEP
~WELL INFORMATION
#MNEM.UNIT      DATA TYPE    INFORMATION
#----------   ------------   ------------------------------
 STRT.F           10.0000:   START DEPTH
 STOP.F         5812.0000:   STOP DEPTH
 STEP.F            0.5000:   STEP LENGTH
 NULL.          -999.2500:   NO VALUE
 COMP. LAWRENCE - ALLSISON:   COMPANY
 WELL. LAWRENCE "X" #11-11:   WELL
 FLD .              NPR 3:   FIELD
 LOC .      S11 T38N R78W:   LOCATION
 CNTY.            NATRONA:   COUNTY
 STAT.            WYOMING:   STATE
 CTRY. UNITED STATES OF AMERICA:   COUNTRY
 SRVC.      DRESSER ATLAS:   SERVICE COMPANY
 DATE.        12-NOV-1982:   LOGDATE
 API .     49025109160000:   API NUMBER
~CURVE INFORMATION
#MNEM.UNIT       API CODE    CURVE DESCRIPTION
#----------   ------------   ------------------------------
 DEPT.F                  :   
 TEND.LBS    45 635 01 00:   TENSION FROM DENSITY LOG
 CALD.IN     45 280 60 00:   CALIPER FROM DENSITY LOG
 CORR.G/C3   45 356 01 00:   DENSITY CORRECTION
 RHOB.G/C3   45 350 01 00:   BULK DENSITY
 CN  .DEC    42 890 03 00:   COMPENSATED NEUTRON POROSITY SANDSTONE
 AC  .US/F   60 520 00 00:   ACOUSTIC
 TENS.LBS    60 635 01 00:   TENSION FROM SONIC
 GRR .GAPI   11 310 01 00:   GAMMA RAY FROM RESISTIVITY
 RD  .OHMM   11 220 10 00:   RESISTIVITY DEEP
 RMLL.OHMM   11 270 04 00:   RESISTIVITY MICROLATEROLOG
 RS  .OHMM   11 220 09 00:   RESISTIVITY SHALLOW
 SPR .MV     11 010 01 00:   SPONTANEOUS POTENTIAL FROM RESISTIVITY
 TENR.LBS    11 635 01 00:   TENSION FROM RESISTIVITY
~PARAMETER INFORMATION
#MNEM.UNIT          VALUE    DESCRIPTION
#----------   ------------   ------------------------------
 EKB .F         5160.0000:   Kelly bushing
 EGL .F         5150.0000:   Ground level
 EDF .F            0.0000:   Drilling floor
 TD  .F         5800.0000:   Total depth
 CLNT.            A2DTECH:   Client Code
 SL  . 660' FNL & 660' FWL:   Surface Location
 PD  .                 GL:   Permanent Datum
 EPD .F              5150:   Elevation Permanent Datum
 LMF .                 KB:   Log Measured From
 DMF .                 KB:   Drilling Measured From
 DAPD.F                10:   Feet Above Permanent Datum
 DATE.        12-NOV-1982:   Date Logged [DD-MMM-YYYY]
 DD  .F              5800:   Depth driller
 DL  .F              5795:   Depth logger
 BLI .F              5702:   Bottom log interval
 TLI .F                 0:   Top log interval
 CS1 .IN            9.625:   Casing size
 CBD1.      9.625" @ 664':   Casing driller 1
 CBL1.F               660:   Casing logger 1
 BS1 .IN             8.75:   Bit size
 BSD1.F              5800:   Depth drilled with bit1
 DFT .                KCL:   Type fluid in hole
 DFD .                8.6:   Density
 DFV .                 45:   Viscosity
 DFPH.                8.5:   pH
 DFL .                7.8:   Fluid loss
 MSS .           FLOWLINE:   Source of sample
 RMS .OHMM           0.32:   Rm
 MST .F                92:   Rm Meas. temp.
 RMF .OHMM           0.26:   Rmf
 MFST.F                90:   Rmf Meas. temp.
 MFSS.               MEAS:   Source Rmf.
 RMB .OHMM           0.19:   Rm. at BHT
 BHT .F               160:   BHT.
 TCS .HRS               3:   Time Circ. stopped
 MRT .F               160:   Maximum recorded temp.
 LUN .               6270:   Logging unit number
 LUL .              WLSTN:   Logging unit location
 ENGI.            QUICKEL:   Recorded By
 WITN.             STRONG:   Witnessed by
 ORIG.        2" 5" PRINT:   Origin of data
 UWI .     49025109160000:   Unique Well ID
 DICO. A2D TECHNIOLOGIES,INC.:   Digitizing Company
 RMC .OHMM           0.40:   Rmc
 MCST.F                92:   Rmc Meas. temp.
 MCSS.               CALC:   Source Rmc.
~OTHER INFORMATION
~A  DEPTH     TEND       CALD       CORR       RHOB         CN         AC       TENS        GRR         RD       RMLL         RS        SPR       TENR
# ...
  660.0000   -48.8506    10.9940     0.2532     2.3789     0.4312    93.4195   -58.5471    84.8581  -999.2500  -999.2500  -999.2500  -999.2500  -999.2500
  660.5000   -66.2345    11.3824     0.2368     2.3720     0.4363    92.7451   -58.4095    83.6732 24506.3125     6.9500     7.5188   -51.4845   -52.3274
  661.0000   -77.4099    11.6697     0.2367     2.3704     0.4270    92.4467   -58.2719    81.5632 24508.0059     6.7134     8.8257   -52.2477   -52.2539
  661.5000   -84.7912    11.7544     0.2381     2.3914     0.4068    92.9045   -58.1228    78.3088 24509.7109     6.5755     9.3963   -52.8561   -52.1803
  662.0000   -88.4703    11.7684     0.2411     2.4297     0.3821    93.7384   -57.9955    75.6247 24511.7168     6.6217     9.5275   -53.4221   -52.1067
  662.5000   -92.1035    11.7823     0.2500     2.4425     0.3527    94.5723   -57.8547    75.9392 24513.3789     6.3081     9.2645   -54.1655   -52.0331
  663.0000   -92.0115    11.7963     0.2792     2.4289     0.3545    94.8783   -61.6711    80.1516 24515.0430     5.6401    10.2131   -55.3594   -51.9596
  663.5000   -91.9195    11.7800     0.2964     2.3762     0.3551    94.2793   -65.0913    85.5635 24516.7051     4.2091    10.8734   -56.2530   -63.3240
  664.0000   -91.8276    11.7790     0.2994     2.3536     0.3527    92.7753   -61.1655    88.8765 24518.3691     3.6463    11.1798   -57.1466   -63.1222
  664.5000   -87.9873    11.6982     0.2782     2.3415     0.3476    91.5479   -61.0279    92.4917 24519.9414     4.9148    10.4573   -58.0401   -63.0327
  665.0000   -83.8340    11.3426     0.2149     2.3550     0.3330    90.5090   -57.1366    93.7057 24521.6953     5.8872     8.8182   -59.0839   -59.1883
  665.5000   -68.4662    10.9224     0.1365     2.3976     0.3195    90.4503   -49.4915    90.7218 24523.3594     6.8589     8.6955   -59.8273   -59.1148
  666.0000   -38.9629    10.7268     0.1002     2.4391     0.2884    90.6820   -49.3538    87.7342 24525.0586     6.9553     8.8167   -60.2833   -59.0412
  666.5000   -27.6265    10.6809     0.0731     2.4699     0.2824    90.7617   -56.7237    90.1513 24527.1035     6.8597     7.7758   -60.7117   -58.9676
  667.0000   -27.5345    10.6799     0.0520     2.4834     0.2883    90.5398   -56.5861    93.4642 24528.7676     6.8129     7.3023   -60.8564   -58.8940
  667.5000   -31.1907    10.6939     0.0398     2.4909     0.2921    89.8653   -59.3014    93.1790 24530.1777     6.8133     7.4559   -60.9992   -55.0497
  668.0000   -34.8698    10.6928     0.0307     2.4916     0.2882    89.9451   -63.8184    90.1951 24532.0957     6.8138     7.6125   -61.1420   -51.2054
  668.5000   -38.5260    10.6942     0.0216     2.4901     0.2786    90.5527   -63.6464    90.2099 24533.7598     6.8617     7.8818   -61.1329   -43.5897
  669.0000   -42.1821    10.7058     0.0245     2.4847     0.2786    91.0095   -52.2475    91.4273 24535.4238     6.8147     8.5146   -61.1256   -43.5143
  669.5000   -38.3190    10.7045     0.0425     2.4779     0.2780    91.1646   -52.1099    92.3414 24537.0898     6.7680     9.1950   -61.1183   -43.4248
  670.0000   -34.4789    10.7337     0.0333     2.4719     0.2765    91.3198   -52.9279    93.8553 24538.7539     6.8157     9.0582   -61.1109   -43.3512
  670.5000   -34.3869    10.7324     0.0091     2.4688     0.2738    92.0032   -55.6228    95.9688 24540.4180     6.9115     8.6861   -61.1036   -43.2777
  671.0000   -34.2954    10.7314    -0.0090     2.4680     0.2711    92.2337   -51.6971    94.7840 24542.1270     6.9601     8.4464   -60.9459   -43.2041
  671.5000   -34.2016    10.7304    -0.0211     2.4687     0.2691    92.6905   -51.5672    92.3998 24544.1641     7.0090     8.3286   -60.9370   -46.9196
  672.0000   -37.8591    10.7443    -0.0303     2.4717     0.2703    93.7506   -51.4264    90.6153 24545.8301     6.9129     8.2124   -60.9297   -50.6168
  672.5000   -34.0142    10.7431    -0.0168     2.4799     0.2741    93.9059   -55.0380    91.2296 24547.4941     6.8655     8.2116   -60.9223   -46.7541
  673.0000   -33.9041    10.7421     0.0160     2.5032     0.2791    93.7343   -54.8986    91.5623 24549.1602     6.8660     8.2107   -60.9159   -50.4525
  673.5000   -33.8121    10.7563     0.0748     2.5287     0.2812    92.9351   -54.7579    92.5096 24550.8262     6.9626     8.4421   -60.9077   -50.3771
  674.0000   -29.9720    10.7550     0.1228     2.5370     0.2740    92.0344   -54.5907    95.1750 24552.3711     7.0115     8.9313   -60.9004   -54.5760
  674.5000   -29.8800    10.7540     0.1017     2.5101     0.2707    91.7371   -58.2413    96.6867 24554.1562     7.0608     9.2507   -60.8931   -57.7720
  675.0000   -29.7880    10.7679     0.0609     2.4850     0.2713    91.3643   -58.0693    96.1038 24555.8223     7.1105     9.3699   -60.8857   -61.4692
  675.5000   -33.4672    10.7669     0.0488     2.4804     0.2710    90.4636   -57.9316    94.6191 24557.4961     7.1605     9.3687   -60.8784   -61.3772
  676.0000   -37.1233    10.7809     0.0426     2.4796     0.2701    89.8646   -61.5822    94.0304 24559.2051     7.0623     9.3678   -61.1892   -57.5329
  676.5000   -33.2602    10.7796     0.0411     2.4773     0.2717    89.6427   -61.4102    93.1484 24561.2383     7.0139     9.3668   -61.7628   -53.6886
  677.0000   -29.4201    10.7786     0.0380     2.4743     0.2729    89.5714   -61.2800    91.6644 24562.9043     7.0144     9.4316   -62.6564   -49.8443
  677.5000   -25.5800    10.7926     0.0349     2.4796     0.2735    89.5759   -61.6097    90.1498 24564.5703     7.0653     9.2999   -62.9512   -53.5445
  678.0000   -29.2362    10.7915     0.0318     2.4907     0.2709    89.5802   -60.9973    88.6477 20501.6484     8.0382     9.2782   -63.2442   -49.6971
  678.5000   -32.8923    10.8055     0.0302     2.4997     0.2645    89.6663   -57.1040    86.9142     5.5057     8.6400     9.1691   -63.5372   -49.6229
  679.0000   -32.1084    10.8195     0.0316     2.5019     0.2618    89.9158   -52.6470    86.9288     8.8367     8.4625     9.1682   -63.8302   -53.8219
  679.5000   -25.1891    10.8484     0.0348     2.5011     0.2679    90.4992   -45.5351    88.7425     9.4740     8.0060     9.1673   -64.1216   -60.7886
  680.0000   -25.0971    10.8920     0.0600     2.4995     0.2736    91.3330   -45.3975    91.7556     9.7420     7.2651     9.1663   -64.2643   -64.4858
  680.5000   -25.0051    10.9212     0.0644     2.4994     0.2739    91.7144   -45.2599    93.5656     9.9481     7.0178     9.1654   -64.4070   -64.3938
  681.0000   -28.6843    10.9352     0.0402     2.4949     0.2718    92.3221   -45.1223    92.0846    10.0182     6.8261     9.2286   -64.3994   -64.3202
  681.5000   -32.3404    10.9491     0.0100     2.4799     0.2728    93.8347   -41.2309    91.4993    10.1592     6.7794     9.1633   -64.3905   -60.4759
  682.0000   -39.7447    10.9329    -0.0081     2.4588     0.2942    94.4423   -44.8814    91.8261    10.1599     6.6401     8.6653   -64.0829   -56.6316
  682.5000   -43.4008    10.9319    -0.0263     2.4580     0.2931    95.0499   -44.7094    93.0285    10.2316     6.5468     8.0247   -63.9254   -52.7873
  683.0000   -32.0415    10.9458    -0.0084     2.4662     0.2808    95.2051   -44.5718    92.7427    10.4482     6.4973     7.9128   -63.7679   -52.7137
  683.5000   -20.7051    10.9446    -0.0054     2.4677     0.2777    94.9831   -44.4342    92.4574    10.3045     6.4596     7.9120   -63.6105   -56.5367
  684.0000   -16.8650    10.9585     0.0155     2.4646     0.2906    94.3087   -44.2943    92.4757    10.3052     6.4154     7.9112   -63.6031   -63.8788
  684.5000   -20.5212    10.9575     0.0335     2.4608     0.3024    93.5526   -44.1535    93.9895    10.3779     6.4159     7.9657   -63.4457   -63.7868
  685.0000   -28.2350    10.9565     0.0289     2.4683     0.3196    93.4123   -43.9870    92.8047    10.5975     6.5060     8.0206   -63.1380   -67.5024
  685.5000   -39.0778    10.9707     0.0183     2.4690     0.3428    93.4931   -43.8493    90.4205    10.7467     6.7362     8.0759   -62.8303   -71.1995
