~VERSION INFORMATION
 VERS.                2.0:   CWLS LOG ASCII STANDARD - VERSION 2.0
 WRAP.                 NO:   ONE LINE PER DEPTH STEP
~WELL INFORMATION
#MNEM.UNIT      DATA TYPE    INFORMATION
#----------   ------------   ------------------------------
 STRT.F          906.0000:   START DEPTH
 STOP.F         3426.0000:   STOP DEPTH
 STEP.F            0.5000:   STEP LENGTH
 NULL.          -999.2500:   NO VALUE
 COMP.    FENIX & SCISSON:   COMPANY
 WELL. FENIX NPR 3 "AX" #46-11:   WELL
 FLD .                NPR:   FIELD
 LOC .      S11 T38N R78W:   LOCATION
 CNTY.            NATRONA:   COUNTY
 STAT.            WYOMING:   STATE
 CTRY. UNITED STATES OF AMERICA:   COUNTRY
 SRVC.       SCHLUMBERGER:   SERVICE COMPANY
 DATE.        16-MAY-1981:   LOGDATE
 API .     49025108720000:   API NUMBER
~CURVE INFORMATION
#MNEM.UNIT       API CODE    CURVE DESCRIPTION
#----------   ------------   ------------------------------
 DEPT.F                  :   
 SPR .MV     07 010 01 00:   SPONTANEOUS POTENTIAL
 ILD .OHMM   07 120 46 00:   INDUCTION LOG DEEP RESISTIVITY
 SFL .OHMM   07 220 01 00:   SHALLOW FOCUSED LOG RESISTIVITY
 TENR.LBS    07 635 01 00:   TENSION
 ILM .OHMM   07 120 44 00:   INDUCTION LOG MEDIUM RESISTIVITY
 CALD.IN     45 280 60 00:   CALIPER FROM DENSITY LOG
 GRD .GAPI   45 310 01 00:   GAMMA RAY FROM DENSITY LOG
 RHOB.G/C3   45 350 01 00:   BULK DENSITY
 TEND.LBS    45 635 01 00:   TENSION FROM DENSITY LOG
 CORR.G/C3   45 356 01 00:   DENSITY CORRECTION
~PARAMETER INFORMATION
#MNEM.UNIT          VALUE    DESCRIPTION
#----------   ------------   ------------------------------
 EKB .F         5199.0000:   Kelly bushing
 EGL .F         5189.0000:   Ground level
 EDF .F            0.0000:   Drilling floor
 TD  .F         3422.0000:   Total depth
 DATE.        16-MAY-1981:   Date logged
 CLNT.            A2DTECH:   Client Code
 SL  . 1867' FSL & 2100' FWL:   Surface Location
 PD  .                 GL:   Permanent Datum
 EPD .F              5189:   Elevation Permanent Datum
 LMF .                 KB:   Log Measured From
 DMF .                 KB:   Drilling Measured From
 DAPD.F                10:   Feet Above Permanent Datum
 DD  .F              3421:   Depth driller
 DL  .F              3422:   Depth logger
 BLI .F              3416:   Bottom log interval
 TLI .F               926:   Top log interval
 CS1 .IN            8.625:   Casing size
 CBD1.      8.625" @ 925':   Casing driller 1
 CBL1.F               926:   Casing logger 1
 BS1 .IN            7.875:   Bit size
 BSD1.F              3421:   Depth drilled with bit1
 DFT .                FGM:   Type fluid in hole
 DFD .                8.5:   Density
 DFV .                 60:   Viscosity
 DFPH.                  9:   pH
 DFL .                 12:   Fluid loss
 MSS .               PITS:   Source of sample
 RMS .OHMM           1.17:   Rm
 MST .F                73:   Rm Meas. temp.
 RMF .OHMM           1.03:   Rmf
 MFST.F                73:   Rmf Meas. temp.
 MFSS.               MEAS:   Source Rmf.
 RMB .OHMM            .71:   Rm. at BHT
 BHT .F               120:   BHT.
 TCS .HRS            1200:   Time Circ. stopped
 TLAB.HRS            1745:   Time logger at bottom
 MRT .F               120:   Maximum recorded temp.
 LUN .               8133:   Logging unit number
 LUL .               CSPR:   Logging unit location
 ENGI.             TAYLOR:   Recorded By
 WITN.              RIVAS:   Witnessed by
 ORIG.           5" PRINT:   Origin of data
 UWI .     49025108720000:   Unique Well ID
 DICO. A2D TECHNOLOGIES, INC.:   Digitizing Company
~OTHER INFORMATION
~A   DEPT      SPR        ILD        SFL       TENR        ILM       CALD         GRD        RHOB     TEND        CORR  
# ...
 2212.5000   -22.3340     7.1950     9.3310   872.3480     7.0400     8.1180   149.7540     2.4990   916.9990     0.0050
 2213.0000   -22.3600     7.2500     9.1420   872.4040     7.0860     8.1180   150.1810     2.4910   916.8960     0.0010
 2213.5000   -22.3830     7.3050     9.1010   872.4590     7.1570     8.1170   151.5310     2.4820   916.7920    -0.0030
 2214.0000   -22.4080     7.3600     9.1010   872.5150     7.2290     8.1170   152.8960     2.4800   916.6880    -0.0030
 2214.5000   -22.4320     7.4150     9.3510   872.5700     7.3010     8.1170   154.1830     2.4770   916.5840    -0.0010
 2215.0000   -22.4570     7.4700     9.5680   872.6260     7.3730     8.1160   153.9870     2.4820   916.4810     0.0060
 2215.5000   -22.4810     7.5240     9.7840   872.6810     7.4450     8.1160   152.7790     2.4910   916.3770     0.0120
 2216.0000   -22.5050     7.5790    10.0010   872.7370     7.5170     8.1150   151.6070     2.5000   916.2730     0.0190
 2216.5000   -22.5300     7.6340    10.1760   872.7920     7.5890     8.1150   151.0810     2.5090   916.1690     0.0200
 2217.0000   -22.5540     7.6890    10.2440   872.8480     7.6610     8.1150   151.3100     2.5120   916.0660     0.0200
 2217.5000   -22.5780     7.7440    10.3120   872.9030     7.7330     8.1140   152.5220     2.5080   915.9620     0.0150
 2218.0000   -22.6030     7.7990    10.3800   872.9590     7.8050     8.1140   153.4900     2.5000   915.8580     0.0100
 2218.5000   -22.6270     7.8530    10.4480   873.0140     7.8770     8.1130   154.1520     2.4950   915.7550     0.0060
 2219.0000   -22.6510     7.9080    10.5160   873.0700     7.9490     8.1130   154.8080     2.4930   915.6510     0.0080
 2219.5000   -22.6770     7.9630    10.5830   873.1250     8.0210     8.1130   155.4640     2.4900   915.5470     0.0100
 2220.0000   -22.6990     8.0180    10.6510   873.1810     8.0930     8.1120   155.4570     2.4800   915.4430     0.0050
 2220.5000   -22.7230     8.0730    10.7190   873.2360     8.1540     8.1120   154.5000     2.4700   915.3400    -0.0020
 2221.0000   -22.6720     8.1280    10.7870   873.2920     8.0870     8.1120   151.3190     2.4650   915.2360    -0.0080
 2221.5000   -22.6120     8.1540    10.8550   873.3470     7.9960     8.1110   148.8560     2.4720   915.1320    -0.0080
 2222.0000   -22.5490     8.1540    10.9300   873.4030     7.9050     8.1110   148.3820     2.4790   915.0280    -0.0010
 2222.5000   -22.4890     8.1540    10.8960   873.4580     7.8150     8.1100   149.4090     2.4860   914.9250     0.0050
 2223.0000   -22.4290     8.1540    10.8260   873.5140     7.7240     8.1100   151.5960     2.4800   914.8210     0.0010
 2223.5000   -22.3640     8.1540    10.7560   873.5690     7.6330     8.1100   153.7630     2.4750   914.7170    -0.0030
 2224.0000   -22.3290     7.9060    10.2590   873.6250     7.5420     8.1090   155.4330     2.4700   914.6140    -0.0070
 2224.5000   -22.3330     7.6700     9.1010   873.6810     7.4520     8.1090   157.9960     2.4690   914.5100    -0.0080
 2225.0000   -22.3320     7.5780     9.1010   873.7360     7.3060     8.1080   156.4970     2.4720   914.4060    -0.0070
 2225.5000   -22.3320     7.5780     9.6980   873.7920     7.3330     8.1080   153.4870     2.4810   914.3020    -0.0050
 2226.0000   -22.3320     7.6660    10.4480   873.8470     7.4040     8.1080   150.4300     2.4810   914.1990    -0.0030
 2226.5000   -22.3320     7.7550    10.9300   873.9030     7.4750     8.1070   147.3010     2.4780   914.0950    -0.0030
 2227.0000   -22.3320     7.8440    10.6720   873.9580     7.5460     8.1070   147.8460     2.4790   913.9910    -0.0030
 2227.5000   -22.3320     7.9330    10.4000   874.0140     7.6170     8.1060   148.6220     2.4820   913.8880    -0.0010
 2228.0000   -22.3320     8.0220    10.1580   874.0690     7.6880     8.1060   148.6430     2.4830   913.7840     0.0010
 2228.5000   -22.3320     8.1110    10.5370   874.1250     7.7590     8.1060   146.6790     2.4790   913.6800     0.0040
 2229.0000   -22.3320     8.2000    10.7810   874.1800     7.8290     8.1050   144.6990     2.4760   913.5760     0.0030
 2229.5000   -22.3320     8.2900    11.0570   874.2360     7.9000     8.1050   147.0580     2.4760   913.4730     0.0010
 2230.0000   -22.3320     8.3790    11.3340   874.2910     7.9710     8.1040   154.4900     2.4750   913.3690     0.0000
 2230.5000   -22.3320     8.4680    11.5470   874.3470     8.0420     8.1040   161.6510     2.4760   913.2650     0.0010
 2231.0000   -22.3320     8.5570    11.5470   874.4020     8.1130     8.1040   164.9510     2.4850   913.1610     0.0050
 2231.5000   -22.3320     8.6460    11.5470   874.4580     8.1840     8.1030   160.4110     2.4940   913.0580     0.0090
 2232.0000   -22.3320     8.7350    11.5470   874.5130     8.2550     8.1030   156.6690     2.4930   912.9540     0.0100
 2232.5000   -22.3320     8.7740    11.5470   874.5690     8.3260     8.1020   154.9350     2.4890   912.8500     0.0050
 2233.0000   -22.3320     8.7030    11.5470   874.6240     8.3960     8.1020   154.1360     2.4850   912.7470     0.0010
 2233.5000   -22.3320     8.6420    11.5470   874.6800     8.4580     8.1020   152.1630     2.4880   912.6430     0.0030
 2234.0000   -22.3320     8.5820    11.5470   874.7350     8.3580     8.1010   150.1420     2.4900   912.5390     0.0050
 2234.5000   -22.3320     8.5210    11.5470   874.7910     8.2180     8.1010   152.0300     2.4830   912.4350    -0.0030
 2235.0000   -22.3320     8.4600    11.1570   874.8460     8.0790     8.1000   154.4600     2.4730   912.3320    -0.0050
 2235.5000   -22.3320     8.3990    10.8020   874.9020     8.0060     8.1000   156.4160     2.4690   912.2280    -0.0050
 2236.0000   -22.3320     8.3050    10.1580   874.9570     8.0060     8.1000   152.2580     2.4770   912.1240    -0.0010
 2236.5000   -22.3320     8.3170    10.4080   875.0130     8.0060     8.0990   145.9130     2.4850   912.0200     0.0050
 2237.0000   -22.3320     8.3440    10.9770   875.0680     8.0060     8.0990   147.5700     2.4920   911.9170     0.0090
 2237.5000   -22.3320     8.3710    11.5470   875.1240     8.0060     8.0980   151.5900     2.4860   911.8130     0.0040
 2238.0000   -22.3320     8.3990    11.5470   875.1790     8.1260     8.0980   155.6450     2.4800   911.7090    -0.0010
 2238.5000   -22.3320     8.4260    11.4530   875.2350     8.2470     8.0980   159.7360     2.4730   911.6060    -0.0050
 2239.0000   -22.3320     8.4530    11.2020   875.2900     8.3670     8.0970   160.4490     2.4670   911.5020    -0.0040
 2239.5000   -22.3320     8.4800    10.9510   875.3460     8.4870     8.0970   159.0940     2.4620   911.3980    -0.0020
 2240.0000   -22.3320     8.5070    10.7310   875.4010     8.6080     8.0960   157.1690     2.4740   911.2940     0.0020
 2240.5000   -22.3320     8.5340    11.0440   875.4570     8.7280     8.0960   155.2560     2.4890   911.1910     0.0060
 2241.0000   -22.3320     8.5600    11.3230   875.5120     8.9090     8.0960   153.4180     2.5020   911.0870     0.0060
 2241.5000   -22.3320     8.5890    11.6010   875.5680     8.9040     8.0950   152.4560     2.5010   910.9830     0.0050
 2242.0000   -22.3320     8.6140    11.9770   875.6230     8.7910     8.0950   151.5430     2.4950   910.8800     0.0040
 2242.5000   -22.3320     8.5150    11.8030   875.6790     8.6780     8.0940   151.2370     2.4900   910.7760     0.0020
 2243.0000   -22.3320     8.4200    11.5360   875.7340     8.5650     8.0940   151.9030     2.4850   910.6720     0.0010
 2243.5000   -22.3320     8.3260    11.2680   875.7900     8.4520     8.0940   153.0020     2.4850   910.5680     0.0000
 2244.0000   -22.3320     8.2310    11.0000   875.8450     8.3390     8.0930   154.1080     2.4900   910.4650     0.0010
 2244.5000   -22.3320     8.1540    10.7330   875.9010     8.1540     8.0930   155.2030     2.4950   910.3610     0.0050
 2245.0000   -22.3320     8.1850    10.3450   875.9570     8.1690     8.0920   155.9960     2.5000   910.2570     0.0120
 2245.5000   -22.3320     8.2120    10.5090   876.0120     8.2110     8.0920   155.7350     2.4980   910.1530     0.0180
