~VERSION INFORMATION
 VERS.                2.0:   CWLS LOG ASCII STANDARD - VERSION 2.0
 WRAP.                 NO:   ONE LINE PER DEPTH STEP
~WELL INFORMATION
#MNEM.UNIT      DATA TYPE    INFORMATION
#----------   ------------   ------------------------------
 STRT.F          212.0000:   START DEPTH
 STOP.F         3042.0000:   STOP DEPTH
 STEP.F            0.5000:   STEP LENGTH
 NULL.          -999.2500:   NO VALUE
 COMP.    FENIX & SCISSON:   COMPANY
 WELL.   FENIX "A" #74-28:   WELL
 FLD .             NPR #3:   FIELD
 LOC .      S28 T39N R78W:   LOCATION
 CNTY.            NATRONA:   COUNTY
 STAT.            WYOMING:   STATE
 CTRY. UNITED STATES OF AMERICA:   COUNTRY
 SRVC.              WELEX:   SERVICE COMPANY
 DATE.        03-AUG-1977:   LOGDATE
 API .     49025104080000:   API NUMBER
~CURVE INFORMATION
#MNEM.UNIT       API CODE    CURVE DESCRIPTION
#----------   ------------   ------------------------------
 DEPT.F                  :   
 SPR .MV     07 010 01 00:   SPONTANEOUS POTENTIAL
 ILD .OHMM   07 120 46 00:   INDUCTION LOG DEEP RESISTIVITY
 ILM .OHMM   07 120 44 00:   INDUCTION LOG MEDIUM RESISTIVITY
 SFLU.OHMM   07 220 01 00:   SPHERICALLY FOCUSED LOG UNAVERAGED RESISTIVITY
 CALD.IN     45 280 60 00:   CALIPER FROM DENSITY LOG
 GRD .GAPI   45 310 01 00:   GAMMA RAY FROM DENSITY LOG
 CORR.G/C3   45 356 01 00:   DENSITY CORRECTION
 RHOB.G/C3   45 350 01 00:   BULK DENSITY
~PARAMETER INFORMATION
#MNEM.UNIT          VALUE    DESCRIPTION
#----------   ------------   ------------------------------
 EKB .F         5050.0000:   Kelly bushing
 EGL .F         5040.0000:   Ground level
 EDF .F            0.0000:   Drilling floor
 TD  .F         3044.0000:   Total depth
 DATE.        03-AUG-1977:   Date logged
 CLNT.            A2DTECH:   Client Code
 SL  . 2310' FNL & 930' FEL:   Surface Location
 PD  .                 GL:   Permanent Datum
 EPD .F              5040:   Elevation Permanent Datum
 LMF .                 KB:   Log Measured From
 DMF .                 KB:   Drilling Measured From
 DAPD.F                10:   Feet Above Permanent Datum
 DD  .F              3044:   Depth driller
 DL  .F              3044:   Depth logger
 BLI .F              3042:   Bottom log interval
 TLI .F               238:   Top log interval
 CS1 .IN            8.625:   Casing size
 CBD1.      8.625" @ 220':   Casing driller 1
 CBL1.F               238:   Casing logger 1
 BS1 .IN            7.875:   Bit size
 BSD1.F              3044:   Depth drilled with bit1
 DFT .            KCL MUD:   Type fluid in hole
 DFV .                 35:   Viscosity
 DFPH.               10.5:   pH
 DFL .                7.2:   Fluid loss
 MSS .           FLOWLINE:   Source of sample
 RMS .OHMM           1.13:   Rm
 MST .F                84:   Rm Meas. temp.
 RMF .OHMM           0.77:   Rmf
 MFST.F                70:   Rmf Meas. temp.
 MFSS.           FANN KIT:   Source Rmf.
 MCSS.           FANN KIT:   Source Rmc.
 RMB .OHMM            .82:   Rm. at BHT
 BHT .F               118:   BHT.
 TCS .HRS               7:   Time Circ. stopped
 MRT .F               116:   Maximum recorded temp.
 LUN .               8611:   Logging unit number
 LUL .             CASPER:   Logging unit location
 ENGI.            C. DOAK:   Recorded By
 WITN.      W. PETTINGILL:   Witnessed by
 ORIG.         2.5" PRINT:   Origin of data
 UWI .     49025104080000:   Unique Well ID
 DICO. A2D TECHNOLOGIES, INC.:   Digitizing Company
~OTHER INFORMATION
~A   DEPT      SPR        ILD        ILM       SFLU         CALD       GRD       CORR        RHOB 
# ...
 2075.0000   -48.8600     6.3540     8.2490    11.9770     8.1920   123.3460     0.0410     2.4920
 2075.5000   -48.8880     6.3540     9.3990    12.3220     8.2010   122.9930     0.0380     2.4790
 2076.0000   -48.9160     6.3540     8.9110    12.6660     8.2030   122.6760     0.0350     2.4750
 2076.5000   -48.9440     6.5150     8.0970    10.9200     8.2080   122.3650     0.0330     2.4690
 2077.0000   -48.9720     6.7160     8.3340     9.7560     8.2120   122.0560     0.0310     2.4750
 2077.5000   -48.9980     6.9170     8.8880    11.3160     8.2160   121.8040     0.0290     2.4770
 2078.0000   -49.0000     7.1170     8.7470    12.6150     8.2200   121.1230     0.0260     2.4770
 2078.5000   -49.0000     7.3180     8.5120    13.5220     8.2240   119.5330     0.0290     2.4770
 2079.0000   -49.0000     7.5190     8.2770    13.9040     8.2320   117.9900     0.0370     2.4780
 2079.5000   -49.0000     7.8010     8.0410    12.7210     8.2670   116.4750     0.0430     2.4850
 2080.0000   -49.0000     7.7580     7.9040    11.5390     8.3040   116.1620     0.0500     2.4930
 2080.5000   -49.0000     7.6870     7.8310    13.5090     8.2470   118.4940     0.0560     2.5020
 2081.0000   -49.0000     7.6170     7.7580    14.2230     8.1900   120.9150     0.0570     2.5070
 2081.5000   -49.0000     7.5460     7.6860    14.3180     8.1240   123.5140     0.0550     2.4930
 2082.0000   -49.0000     7.4750     7.6560    14.4320     8.1790   125.9570     0.0530     2.4770
 2082.5000   -49.0000     7.4040     7.9470    14.1840     8.2920   127.8260     0.0510     2.4730
 2083.0000   -49.0000     7.3760     8.3100    13.5650     8.3340   125.2800     0.0540     2.4790
 2083.5000   -49.0000     7.3760     8.6730    12.9460     8.2570   123.3960     0.0650     2.4990
 2084.0000   -49.0000     7.3760     9.0360    12.2030     8.1950   122.9720     0.0770     2.5120
 2084.5000   -49.0000     7.3760     9.3990    13.6470     8.1270   122.6450     0.0720     2.5060
 2085.0000   -49.0000     7.3760     9.5280    13.3690     8.1090   122.4130     0.0660     2.4910
 2085.5000   -49.0000     7.3760     9.7420    12.9050     8.1130   121.0200     0.0590     2.4850
 2086.0000   -48.9990     7.3760     9.9560    13.8040     8.1160   119.4320     0.0530     2.4970
 2086.5000   -49.0110     7.3760    10.1690    14.7040     8.1180   119.4520     0.0540     2.5130
 2087.0000   -49.0420     7.3760    10.5120    14.5110     8.1210   121.7260     0.0630     2.5260
 2087.5000   -49.0720     7.2560    10.4170    14.3190     8.1230   123.8610     0.0710     2.5370
 2088.0000   -49.1010     7.1060    10.1810    14.1660     8.1260   126.0410     0.0800     2.5360
 2088.5000   -49.1310     6.9560     9.9450    12.9880     8.1280   128.2780     0.0880     2.5340
 2089.0000   -49.1610     6.8060     9.7560    12.2030     8.1310   128.5090     0.0970     2.5320
 2089.5000   -49.1910     6.6560     9.7560    12.6660     8.1330   126.8820     0.1050     2.5250
 2090.0000   -49.2210     6.5960     9.7560    12.1640     8.1360   125.3770     0.1140     2.5110
 2090.5000   -49.2510     6.5800     9.7560    11.3260     8.1390   123.7650     0.1220     2.4980
 2091.0000   -49.2810     6.5660     9.7560    11.5770     8.1410   123.6250     0.1300     2.4730
 2091.5000   -49.3100     6.5530     9.7560    11.9960     8.1440   125.0100     0.1400     2.4490
 2092.0000   -49.3400     6.5400     9.7560    12.4150     8.1470   126.3080     0.1350     2.4210
 2092.5000   -49.3700     6.5270     9.7560    12.6960     8.1460   127.6800     0.1200     2.3560
 2093.0000   -49.4000     6.5130     9.7560    12.7710     8.1720   127.9790     0.1100     2.3290
 2093.5000   -49.4300     6.5000     9.3980    12.8450     8.2160   127.5880     0.1090     2.3160
 2094.0000   -49.4600     6.4870     9.1000    12.9050     8.2550   126.0250     0.1070     2.4200
 2094.5000   -49.4900     6.4740     8.8010    12.3090     8.2960   123.6900     0.1080     2.3970
 2095.0000   -49.5190     6.4740     8.5630    11.8120     8.3040   121.5190     0.0860     2.3820
 2095.5000   -49.5490     6.4460     8.5230    11.3150     8.2760   119.3280     0.0460     2.3840
 2096.0000   -49.5790     6.4260     8.4900    10.8220     8.2490   117.6580     0.0340     2.4200
 2096.5000   -49.6090     6.4040     8.4570    10.3320     8.2230   117.5430     0.0380     2.4540
 2097.0000   -49.6390     6.3810     8.4240     9.9400     8.1960   117.3800     0.0400     2.4680
 2097.5000   -49.6690     6.3600     8.2650    11.0080     8.1690   117.2700     0.0420     2.4650
 2098.0000   -49.6980     6.3380     7.9170    12.4320     8.1490   117.1470     0.0420     2.4650
 2098.5000   -49.7280     6.3150     7.5700    12.2030     8.1480   117.0070     0.0410     2.4650
 2099.0000   -49.7590     6.2940     7.2220    11.5570     8.1450   116.8580     0.0400     2.4630
 2099.5000   -49.7860     6.2720     6.8740    10.9110     8.1430   115.9620     0.0390     2.4690
 2100.0000   -49.8300     6.2500     6.5960    10.9110     8.1410   114.8120     0.0380     2.4860
 2100.5000   -49.8870     6.2370     6.4810    10.9110     8.1390   113.6830     0.0460     2.4990
 2101.0000   -49.9400     6.1410     6.3370    10.9110     8.1360   112.5300     0.0560     2.5070
 2101.5000   -49.9940     6.0440     6.1930    10.5430     8.1340   111.4170     0.0620     2.5090
 2102.0000   -50.0480     5.9470     6.0500     8.8880     8.1320   110.4750     0.0610     2.5090
 2102.5000   -50.1020     5.8500     5.8970     9.4610     8.1300   111.4780     0.0600     2.4930
 2103.0000   -50.1560     5.7530     5.9670    10.9110     8.1270   112.8740     0.0590     2.4910
 2103.5000   -50.2100     5.6560     6.0960    10.4740     8.1250   114.2080     0.0580     2.4900
 2104.0000   -50.2640     5.5590     6.2250    10.1270     8.1230   115.8240     0.0590     2.4890
 2104.5000   -50.3180     5.4620     6.3550    11.9770     8.1210   114.5570     0.0590     2.4940
 2105.0000   -50.3710     5.3730     6.4740    11.1520     8.1180   111.8490     0.0600     2.5100
 2105.5000   -50.4250     5.2930     6.3630     9.2260     8.1160   109.2040     0.0600     2.5260
 2106.0000   -50.4790     5.2190     6.1990     9.9400     8.1140   108.3080     0.0610     2.5240
 2106.5000   -50.5330     5.1450     6.0080     8.4040     8.1120   109.3080     0.0610     2.5210
 2107.0000   -50.5870     5.0710     6.0080     8.7210     8.1090   110.1240     0.0620     2.5130
 2107.5000   -50.6410     4.9970     5.8250     9.5760     8.1080   110.5970     0.0570     2.4960
 2108.0000   -50.6950     4.8940     5.6470     8.5350     8.1080   111.1790     0.0470     2.4790
 2108.5000   -50.7490     4.9320     5.5770     7.5150     8.1090   111.5720     0.0380     2.4670
 2109.0000   -50.8030     4.9940     5.7720     7.5150     8.1090   113.7260     0.0290     2.4660
 2109.5000   -50.8570     5.0570     5.9350     7.5150     8.1100   117.9980     0.0260     2.4630
 2110.0000   -50.9090     5.1190     6.0980     9.1460     8.1110   122.1930     0.0290     2.4700
 2110.5000   -50.9690     5.1820     6.2370    11.2670     8.1120   122.5430     0.0330     2.4790
 2111.0000   -51.0060     5.2440     6.0050    12.6660     8.1130   122.8530     0.0370     2.4880
 2111.5000   -51.0530     5.2730     5.8030    12.0220     8.1140   122.9790     0.0410     2.4960
 2112.0000   -51.1120     5.1350     5.6020    10.8080     8.1150   123.1440     0.0450     2.5040
 2112.5000   -51.1710     5.0120     5.4000     9.5940     8.1160   124.0730     0.0460     2.5060
 2113.0000   -51.2280     4.8890     5.1760     8.6720     8.1160   125.7810     0.0420     2.5070
 2113.5000   -51.2880     4.7660     5.1570     7.8780     8.1170   127.3080     0.0390     2.5060
 2114.0000   -51.3440     4.6420     5.1180     7.0830     8.1180   126.7860     0.0360     2.4940
 2114.5000   -51.3950     4.5190     5.0800     6.0080     8.1190   127.2080     0.0340     2.4850
 2115.0000   -51.3700     4.3760     5.2730     6.6110     8.1200   128.9170     0.0370     2.4850
