~VERSION INFORMATION
 VERS.                2.0:   CWLS LOG ASCII STANDARD - VERSION 2.0
 WRAP.                 NO:   ONE LINE PER DEPTH STEP
~WELL INFORMATION
#MNEM.UNIT      DATA TYPE    INFORMATION
#----------   ------------   ------------------------------
 STRT.F          210.5000:   START DEPTH
 STOP.F         3234.0000:   STOP DEPTH
 STEP.F            0.5000:   STEP LENGTH
 NULL.          -999.2500:   NO VALUE
 COMP.    FENIX & SCISSON:   COMPANY
 WELL.   FENIX "A" #21-10:   WELL
 FLD .              NPR-3:   FIELD
 LOC .      S10 T38N R78W:   LOCATION
 CNTY.            NATRONA:   COUNTY
 STAT.            WYOMING:   STATE
 CTRY. UNITED STATES OF AMERICA:   COUNTRY
 SRVC.      DRESSER ATLAS:   SERVICE COMPANY
 DATE.        31-AUG-1977:   LOGDATE
 API .     49025104260000:   API NUMBER
~CURVE INFORMATION
#MNEM.UNIT       API CODE    CURVE DESCRIPTION
#----------   ------------   ------------------------------
 DEPT.F                  :   
 GRD .GAPI   45 310 01 00:   GAMMA RAY FROM DENSITY LOG
 CALD.IN     45 280 60 00:   CALIPER FROM DENSITY LOG
 RHOB.G/C3   45 350 01 00:   BULK DENSITY
 CORR.G/C3   45 356 01 00:   DENSITY CORRECTION
 SPR .MV     11 010 01 00:   SPONTANEOUS POTENTIAL
 LLS .OHMM   11 220 09 00:   LATEROLOG SHALLOW
 LLD .OHMM   11 220 10 00:   LATEROLOG DEEP
 TEND.LBS    45 635 01 00:   TENSION FROM DENSITY LOG
 TENR.LBS    07 635 01 00:   TENSION
~PARAMETER INFORMATION
#MNEM.UNIT          VALUE    DESCRIPTION
#----------   ------------   ------------------------------
 EKB .F         5258.0000:   Kelly bushing
 EGL .F         5248.0000:   Ground level
 EDF .F            0.0000:   Drilling floor
 TD  .F         3222.0000:   Total depth
 DATE.        31-AUG-1977:   Date logged
 CLNT.            A2DTECH:   Client Code
 SL  . 330' FNL & 990' FWL:   Surface Location
 PD  .                 GL:   Permanent Datum
 EPD .F              5248:   Elevation Permanent Datum
 LMF .                 KB:   Log Measured From
 DMF .                 KB:   Drilling Measured From
 DAPD.F                10:   Feet Above Permanent Datum
 DD  .F              3222:   Depth driller
 DL  .F              3219:   Depth logger
 BLI .F              3218:   Bottom log interval
 TLI .F               221:   Top log interval
 CS1 .IN             8.75:   Casing size
 CBD1.       8.75" @ 219':   Casing driller 1
 CBL1.F               221:   Casing logger 1
 BS1 .IN            7.875:   Bit size
 BSD1.F              3222:   Depth drilled with bit1
 DFT .                KCL:   Type fluid in hole
 DFD .                9.1:   Density
 DFV .                 36:   Viscosity
 DFPH.                 11:   pH
 DFL .                  8:   Fluid loss
 MSS .           FLOWLINE:   Source of sample
 RMS .OHMM           0.14:   Rm
 MST .F                72:   Rm Meas. temp.
 RMF .OHMM           0.08:   Rmf
 MFST.F                72:   Rmf Meas. temp.
 RMC .OHMM           0.20:   Rmc
 MCST.F                72:   Rmc Meas. temp.
 MFSS.               CALC:   Source Rmf.
 MCSS.               CALC:   Source Rmc.
 RMB .OHMM           0.08:   Rm. at BHT
 BHT .F               125:   BHT.
 TCS .HRS               3:   Time Circ. stopped
 MRT .F               125:   Maximum recorded temp.
 LUN .               6080:   Logging unit number
 LUL .              WLSTN:   Logging unit location
 ENGI.               RALL:   Recorded By
 WITN.         PETTINGILL:   Witnessed by
 ORIG.           5" PRINT:   Origin of data
 UWI .     49025104260000:   Unique Well ID
 DICO. A2D TECHNOLOGIES, INC.:   Digitizing Company
~OTHER INFORMATION
~A   DEPT      GRD       CALD       RHOB       CORR        SPR        LLS        LLD       TEND        TENR  
# ...
 1013.5000    81.8910    11.3490     2.4850     0.0230   -65.3060     8.2670     9.0770   404.9580   542.8590
 1014.0000    83.6290    11.3560     2.4870     0.0240   -65.2890     8.2440     9.0470   405.9410   543.1590
 1014.5000    84.3560    11.3640     2.4890     0.0240   -65.5590     8.1780     9.0250   405.9410   543.4590
 1015.0000    82.6020    11.3690     2.4900     0.0240   -65.8160     8.0900     8.8890   405.9410   543.7580
 1015.5000    81.3680    11.3780     2.4920     0.0250   -66.0770     8.0020     8.7620   405.9410   544.0580
 1016.0000    82.5770    11.4050     2.4930     0.0250   -66.3350     7.9400     8.6350   405.9410   544.3580
 1016.5000    83.7030    11.4320     2.4920     0.0260   -66.5930     7.8680     8.4650   405.9410   544.6570
 1017.0000    84.7230    11.4590     2.4920     0.0260   -66.8500     7.8680     8.4860   405.9410   544.9570
 1017.5000    86.0630    11.4860     2.4910     0.0240   -67.1000     7.8680     8.5270   405.9410   545.2560
 1018.0000    87.5660    11.5090     2.4900     0.0220   -67.3010     8.0110     8.5690   405.9410   545.5560
 1018.5000    86.9710    11.5080     2.4890     0.0200   -67.2970     8.0870     8.6100   405.9410   545.8560
 1019.0000    85.8570    11.5080     2.4890     0.0180   -67.2940     7.9720     8.6220   405.9410   546.1770
 1019.5000    84.7220    11.5080     2.4830     0.0160   -67.2010     7.8850     8.5430   405.9410   526.7470
 1020.0000    82.9800    11.5080     2.4770     0.0140   -66.7860     7.7980     8.4230   405.9410   527.3380
 1020.5000    80.8270    11.5080     2.4700     0.0120   -66.3790     7.7120     8.2940   405.9410   527.9290
 1021.0000    79.2850    11.5080     2.4660     0.0100   -65.9730     7.6550     8.2360   405.9410   528.5200
 1021.5000    79.8650    11.5080     2.4650     0.0080   -65.5650     7.7380     8.3130   405.9410   529.1120
 1022.0000    79.8850    11.5020     2.4650     0.0080   -65.1570     7.8100     8.4140   405.9410   529.7030
 1022.5000    79.8500    11.4950     2.4640     0.0070   -65.3280     7.8820     8.5160   405.9410   530.2940
 1023.0000    81.8630    11.4870     2.4640     0.0060   -65.6470     7.9540     8.6180   405.9410   530.8850
 1023.5000    83.8820    11.4800     2.4630     0.0050   -65.9680     8.0130     8.7010   386.1390   531.4760
 1024.0000    85.6970    11.4730     2.4630     0.0040   -66.2890     7.9660     8.5920   386.1390   532.0670
 1024.5000    82.7770    11.4680     2.4600     0.0040   -66.6100     7.9050     8.4990   386.1390   532.6580
 1025.0000    82.9750    11.4730     2.4570     0.0030   -66.8960     7.8450     8.4070   386.1390   533.2500
 1025.5000    83.3880    11.4790     2.4540     0.0020   -66.8730     7.7250     8.3120   386.1390   533.8410
 1026.0000    83.6690    11.4840     2.4510     0.0010   -66.8200     7.6550     8.3590   386.1390   534.4320
 1026.5000    83.9150    11.4890     2.4490     0.0000   -66.7670     7.6840     8.4170   386.1390   535.0230
 1027.0000    82.2480    11.4940     2.4500    -0.0010   -66.7120     7.7320     8.4750   386.1390   535.6140
 1027.5000    80.2620    11.5000     2.4520    -0.0010   -66.7030     7.7790     8.5330   386.1390   536.2050
 1028.0000    78.2480    11.5050     2.4530     0.0010   -66.8110     7.8260     8.6220   386.1390   536.7960
 1028.5000    76.3710    11.5100     2.4550     0.0020   -67.2130     7.8740     8.6220   386.1390   537.3870
 1029.0000    77.2220    11.5150     2.4560     0.0030   -67.6020     7.9210     8.6220   386.1390   537.9790
 1029.5000    78.1680    11.5210     2.4600     0.0040   -67.9990     7.9690     8.6220   386.1390   538.5700
 1030.0000    79.1030    11.5260     2.4630     0.0060   -68.0870     8.0130     8.6220   386.1390   539.1610
 1030.5000    80.0320    11.5310     2.4670     0.0070   -68.0110     7.8970     8.6220   386.1390   539.7520
 1031.0000    80.9580    11.5360     2.4710     0.0080   -67.7340     7.7880     8.6220   386.1390   540.3430
 1031.5000    81.9120    11.5420     2.4750     0.0090   -67.4690     7.6790     8.3430   386.1390   540.9340
 1032.0000    83.7160    11.5470     2.4780     0.0100   -67.2850     7.5690     8.0870   386.1390   541.5250
 1032.5000    85.4190    11.5480     2.4820     0.0120   -67.6130     7.4600     8.0950   386.1390   542.1160
 1033.0000    85.4700    11.5580     2.4860     0.0120   -68.0240     7.4480     8.1070   386.1390   542.7080
 1033.5000    85.4690    11.5680     2.4840     0.0120   -68.2920     7.4950     8.1180   386.1390   543.2990
 1034.0000    85.4130    11.5770     2.4830     0.0120   -68.2880     7.5160     8.1300   386.1390   543.8900
 1034.5000    84.1310    11.5870     2.4810     0.0120   -68.0940     7.4360     8.1420   386.1390   544.4810
 1035.0000    82.8340    11.5970     2.4800     0.0120   -67.7670     7.3470     8.1530   386.1390   545.0720
 1035.5000    81.4980    11.6070     2.4790     0.0120   -67.4850     7.2580     8.1610   385.1740   545.6630
 1036.0000    82.6630    11.6160     2.4800     0.0120   -67.5020     7.1690     7.9000   384.1900   546.1380
 1036.5000    85.1130    11.6260     2.4820     0.0120   -67.6630     7.0800     7.6690   383.2060   545.8450
 1037.0000    83.6100    11.6360     2.4790     0.0120   -67.9550     6.9860     7.5160   382.2210   545.5520
 1037.5000    81.3800    11.6450     2.4770     0.0120   -68.2140     6.9860     7.5970   381.2370   545.2590
 1038.0000    81.2610    11.6550     2.4750     0.0110   -68.4720     7.1610     7.7050   380.2530   544.9660
 1038.5000    81.1010    11.6650     2.4740     0.0110   -68.7300     7.3800     7.7960   379.2690   544.6730
 1039.0000    83.2580    11.6750     2.4730     0.0100   -68.9630     7.3720     7.9080   378.2840   544.3790
 1039.5000    85.8030    11.6840     2.4710     0.0090   -69.0840     7.3570     7.9780   377.3000   544.0860
 1040.0000    88.3360    11.6940     2.4680     0.0080   -69.0930     7.3420     8.0480   376.3160   543.7930
 1040.5000    90.3570    11.7040     2.4660     0.0080   -68.8550     7.3270     8.1180   375.3320   543.5000
 1041.0000    90.2180    11.7320     2.4640     0.0070   -68.5780     7.3120     8.1610   374.3480   543.2070
 1041.5000    88.5180    11.7700     2.4630     0.0060   -68.2980     7.2970     8.1540   373.3630   542.9140
 1042.0000    86.8410    11.8080     2.4640     0.0050   -68.0170     7.2820     8.1480   372.3790   542.6200
 1042.5000    85.1650    11.8460     2.4670     0.0050   -67.7350     7.2670     8.1420   371.3950   542.3270
 1043.0000    83.5070    11.8580     2.4690     0.0050   -67.8450     7.2520     8.1360   370.4110   542.0340
 1043.5000    82.1880    11.8420     2.4710     0.0060   -68.0760     7.2370     8.1290   369.4270   541.7410
 1044.0000    80.9360    11.8250     2.4730     0.0080   -68.3090     7.2220     8.1230   368.4420   541.4480
 1044.5000    80.3680    11.8090     2.4730     0.0090   -68.5420     7.2070     8.1170   367.4580   541.1550
 1045.0000    82.4120    11.7910     2.4740     0.0100   -68.7740     7.1920     8.1110   366.4740   540.8610
 1045.5000    84.4980    11.7930     2.4740     0.0120   -69.0100     7.1770     8.1050   368.8630   540.5680
 1046.0000    84.7380    11.8020     2.4740     0.0130   -68.9420     7.1620     8.0990   372.6830   540.2750
 1046.5000    84.3190    11.8110     2.4750     0.0140   -68.6200     7.1470     8.0930   376.5040   539.9820
 1047.0000    84.2620    11.8200     2.4750     0.0160   -68.3630     7.1320     8.0870   380.3240   539.6890
 1047.5000    85.0080    11.8290     2.4760     0.0170   -68.1030     7.1170     8.0870   384.1440   539.3960
 1048.0000    84.5120    11.8380     2.4780     0.0180   -67.8450     7.2600     8.1810   387.9640   539.1020
 1048.5000    82.6160    11.8470     2.4810     0.0200   -67.5860     7.4260     8.3810   391.7840   538.8090
 1049.0000    80.7230    11.8570     2.4850     0.0210   -67.3320     7.5920     8.5800   395.6050   538.5160
 1049.5000    78.8250    11.8660     2.4880     0.0220   -67.1200     7.7580     8.7800   399.4250   538.2230
