~VERSION INFORMATION
 VERS.                2.0:   CWLS LOG ASCII STANDARD - VERSION 2.0
 WRAP.                 NO:   ONE LINE PER DEPTH STEP
~WELL INFORMATION
#MNEM.UNIT      DATA TYPE    INFORMATION
#----------   ------------   ------------------------------
 STRT.F          200.0000:   START DEPTH
 STOP.F         3060.0000:   STOP DEPTH
 STEP.F            0.5000:   STEP LENGTH
 NULL.          -999.2500:   NO VALUE
 COMP.    FENIX & SCISSON:   COMPANY
 WELL. FENIX & SCISSON NPR "AX" #81-10:   WELL
 FLD .                NPR:   FIELD
 LOC .      S10 T38N R78W:   LOCATION
 CNTY.            NATRONA:   COUNTY
 STAT.            WYOMING:   STATE
 CTRY. UNITED STATES OF AMERICA:   COUNTRY
 SRVC.              WELEX:   SERVICE COMPANY
 DATE.        28-NOV-1977:   LOGDATE
 API .     49025104400000:   API NUMBER
~CURVE INFORMATION
#MNEM.UNIT       API CODE    CURVE DESCRIPTION
#----------   ------------   ------------------------------
 DEPT.F                  :   
 CALD.IN     45 280 60 00:   CALIPER FROM DENSITY LOG
 GRD .GAPI   45 310 01 00:   GAMMA RAY FROM DENSITY LOG
 RHOB.G/C3   45 350 01 00:   BULK DENSITY
 CORR.G/C3   45 356 01 00:   DENSITY CORRECTION
 TEND.LBS    45 635 01 00:   TENSION FROM DENSITY LOG
 NPHI.DEC    42 890 03 00:   NEUTRON POROSITY SANDSTONE
 SPR .MV     07 010 01 00:   SPONTANEOUS POTENTIAL
 IL  .OHMM   07 120 00 00:   INDUCTION LOG RES.
 ASGR.OHMM   07 221 05 00:   AMPLIFIED SHALLOW GUARD
 SNP .DEC    41 890 00 00:   SIDEWALL NEUTRON POROSITY
~PARAMETER INFORMATION
#MNEM.UNIT          VALUE    DESCRIPTION
#----------   ------------   ------------------------------
 EKB .F         5147.0000:   Kelly bushing
 EGL .F         5137.0000:   Ground level
 EDF .F            0.0000:   Drilling floor
 TD  .F         3058.0000:   Total depth
 DATE.        28-NOV-1977:   Date logged
 CLNT.            A2DTECH:   Client Code
 PD  .                 GL:   Permanent Datum
 EPD .F              5137:   Elevation Permanent Datum
 LMF .                 KB:   Log Measured From
 DMF .                 KB:   Drilling Measured From
 DD  .F              3055:   Depth driller
 DL  .F              3058:   Depth logger
 BLI .F              3055:   Bottom log interval
 TLI .F               200:   Top log interval
 CS1 .IN            8.625:   Casing size
 CBD1.      8.625" @ 205':   Casing driller 1
 CBL1.F               215:   Casing logger 1
 BSD1.F              3055:   Depth drilled with bit1
 DFT .            KCL/MUD:   Type fluid in hole
 ENGI.            BENTSEN:   Recorded By
 WITN.         HARRINGTON:   Witnessed by
 ORIG.           5" PRINT:   Origin of data
 UWI .     49025104400000:   Unique Well ID
 DICO. A2D TECHNOLOGIES, INC.:   Digitizing Company
 DAPD.                 10:   Feet Above Permanent Datum
 BS1 .IN            7.875:   Bit size
 DFD .                8.9:   Density
 DFV .                 35:   Viscosity
 MSS .           FLOWLINE:   Source of sample
 RMS .OHMM            .17:   Rm
 MST .F                75:   Rm Meas. temp.
 RMF .OHMM            .12:   Rmf
 MFST.F                75:   Rmf Meas. temp.
 MFSS.               FANN:   Source Rmf.
 RMC .OHMM            .50:   Rmc
 MCST.F                75:   Rmc Meas. temp.
 MCSS.                KIT:   Source Rmc.
 RMB .OHMM           .113:   Rm. at BHT
 BHT .F               113:   BHT.
 TCS .HRS             2.5:   Time Circ. stopped
 MRT .F               113:   Maximum recorded temp.
 LUN .               9685:   Logging unit number
 LUL .             CASPER:   Logging unit location
 SL  . 601' FNL & 200' FEL:   Surface Location
~OTHER INFORMATION
~A   DEPT       CALD      GRD       RHOB       CORR        TEND        NPHI       SPR        IL       ASGR        SNP   
# ...
 1339.0000     9.9590   109.9820     2.5560     0.0050   985.5640     0.1350   -79.9890     5.5600     6.0810  -999.2500
 1339.5000     9.9590   110.4710     2.5550     0.0070   985.5240     0.1290   -79.8520     5.5160     6.1540  -999.2500
 1340.0000     9.9600   111.0550     2.5550     0.0060   985.4840     0.1230   -79.7190     5.4720     6.3040  -999.2500
 1340.5000     9.9600   111.6420     2.5450     0.0060   985.4440     0.1190   -79.5850     5.4290     6.5100  -999.2500
 1341.0000     9.9600   112.2320     2.5310     0.0060   985.4040     0.1230   -79.4500     5.3850     6.3380  -999.2500
 1341.5000     9.9600   112.8410     2.5180     0.0060   985.3640     0.1270   -79.4560     5.3410     6.0980  -999.2500
 1342.0000     9.9600   112.9640     2.5170     0.0050   985.3240     0.1270   -79.4960     5.2980     6.0760  -999.2500
 1342.5000     9.9600   112.3960     2.5170     0.0050   985.2840     0.1270   -79.5370     5.2670     6.1200  -999.2500
 1343.0000     9.9600   111.8370     2.5240     0.0040   985.2440     0.1260   -79.5780     5.2480     6.1670  -999.2500
 1343.5000     9.9610   111.2860     2.5350     0.0040   985.2040     0.1260   -79.6180     5.2290     6.2130  -999.2500
 1344.0000     9.9610   110.7370     2.5450     0.0040   985.1640     0.1240   -79.6590     5.2110     6.2590  -999.2500
 1344.5000     9.9610   110.5620     2.5490     0.0030   985.1240     0.1210   -79.7000     5.1920     6.3060  -999.2500
 1345.0000     9.9610   110.8880     2.5480     0.0030   985.0840     0.1190   -79.7410     5.1730     6.2560  -999.2500
 1345.5000     9.9610   111.2090     2.5420     0.0020   985.0440     0.1200   -79.7810     5.1550     6.1370  -999.2500
 1346.0000     9.9610   111.4030     2.5360     0.0020   985.0040     0.1230   -79.8240     5.1360     6.1400  -999.2500
 1346.5000     9.9610   111.2680     2.5300     0.0020   984.9640     0.1280   -79.9390     5.1170     6.1220  -999.2500
 1347.0000     9.9620   111.1300     2.5250     0.0010   984.9240     0.1320   -80.0540     5.0980     6.0210  -999.2500
 1347.5000     9.9610   111.0090     2.5190     0.0010   984.8840     0.1320   -80.1700     5.0800     5.9240  -999.2500
 1348.0000     9.9580   111.0410     2.5130     0.0000   984.8440     0.1320   -80.2850     5.0500     5.8660  -999.2500
 1348.5000     9.9550   111.1390     2.5100     0.0000   984.8040     0.1350   -80.4000     5.0170     6.0510  -999.2500
 1349.0000     9.9520   111.2320     2.5200     0.0000   984.7640     0.1370   -80.5150     4.9840     5.9900  -999.2500
 1349.5000     9.9490   111.3250     2.5240    -0.0010   984.7240     0.1360   -80.6080     5.0270     5.9140  -999.2500
 1350.0000     9.9460   111.4190     2.5220    -0.0010   984.6840     0.1340   -80.5470     5.1240     5.8900  -999.2500
 1350.5000     9.9430   111.5120     2.5200    -0.0010   984.6440     0.1330   -80.4850     5.1380     6.0050  -999.2500
 1351.0000     9.9400   111.6050     2.5180     0.0000   984.6040     0.1320   -80.4230     4.9940     5.9130  -999.2500
 1351.5000     9.9370   111.7000     2.5160     0.0010   984.5640     0.1310   -80.3610     5.0040     5.8320  -999.2500
 1352.0000     9.9350   111.7910     2.5150     0.0030   984.5240     0.1310   -80.2990     5.0380     5.9000  -999.2500
 1352.5000     9.9320   111.4130     2.5250     0.0040   984.4840     0.1290   -80.2370     5.0720     5.9230  -999.2500
 1353.0000     9.9290   110.9580     2.5350     0.0050   984.4440     0.1280   -80.1750     5.1060     5.8330     0.2850
 1353.5000     9.9260   110.5020     2.5440     0.0060   984.4040     0.1260   -80.1130     5.1400     5.9050     0.2780
 1354.0000     9.9230   110.0450     2.5520     0.0070   984.3640     0.1260   -80.0510     5.1740     6.0110     0.2710
 1354.5000     9.9200   109.5960     2.5530     0.0080   984.3250     0.1270   -79.9890     5.2080     6.0590     0.2640
 1355.0000     9.9170   109.3540     2.5530     0.0090   984.2850     0.1270   -79.9270     5.2420     6.0390     0.2600
 1355.5000     9.9140   110.1110     2.5530     0.0110   984.2450     0.1260   -79.8660     5.2760     6.0010     0.2580
 1356.0000     9.9110   110.8740     2.5540     0.0120   984.2050     0.1260   -79.8350     5.3100     5.9630     0.2590
 1356.5000     9.9080   110.5180     2.5540     0.0130   984.1650     0.1240   -79.8930     5.3450     5.9250     0.2620
 1357.0000     9.9050   109.9020     2.5550     0.0140   984.1250     0.1240   -79.9490     5.3780     5.9370     0.2650
 1357.5000     9.9020   109.2760     2.5550     0.0150   984.0850     0.1250   -80.0050     5.3110     5.9630     0.2680
 1358.0000     9.8990   108.6610     2.5560     0.0160   984.0450     0.1270   -80.0600     5.2350     5.9900     0.2720
 1358.5000     9.8960   108.3900     2.5550     0.0170   984.0050     0.1290   -80.1160     5.1580     5.9920     0.2750
 1359.0000     9.8930   108.9680     2.5510     0.0190   983.9650     0.1290   -80.1710     5.0800     5.9790     0.2790
 1359.5000     9.8900   109.5170     2.5470     0.0200   983.9250     0.1340   -80.2200     5.0030     5.9660     0.2820
 1360.0000     9.8870   110.0640     2.5430     0.0200   983.8850     0.1370   -80.2190     4.9270     5.9880     0.2860
 1360.5000     9.8840   110.6120     2.5390     0.0190   983.8450     0.1380   -80.2190     4.8890     6.0370     0.2890
 1361.0000     9.8810   111.1560     2.5350     0.0180   983.8050     0.1360   -80.2190     4.9470     6.0800     0.2930
 1361.5000     9.8780   111.7030     2.5310     0.0160   983.7650     0.1340   -80.2190     4.9710     6.0540     0.2950
 1362.0000     9.8750   111.6830     2.5320     0.0150   983.7250     0.1360   -80.2190     4.9640     6.0220     0.2940
 1362.5000     9.8720   111.2780     2.5350     0.0140   983.6850     0.1370   -80.2190     4.9560     6.0570     0.2910
 1363.0000     9.8690   110.8730     2.5380     0.0130   983.6450     0.1380   -80.2190     4.9490     6.0920     0.2880
 1363.5000     9.8660   110.4640     2.5410     0.0120   983.6050     0.1380   -80.2190     4.9420     6.1090     0.2840
 1364.0000     9.8630   110.3830     2.5380     0.0100   983.5650     0.1390   -80.2190     4.9340     6.0470     0.2820
 1364.5000     9.8600   110.7690     2.5320     0.0090   983.5250     0.1360   -80.2190     4.9270     5.9860     0.2800
 1365.0000     9.8570   111.1500     2.5270     0.0080   983.4850     0.1330   -80.2190     4.9200     5.9960     0.2780
 1365.5000     9.8540   111.5340     2.5210     0.0070   983.4450     0.1310   -80.2190     4.9120     6.0590     0.2700
 1366.0000     9.8510   111.9280     2.5160     0.0050   983.4050     0.1280   -80.2190     4.9050     6.0360     0.2600
 1366.5000     9.8480   111.8540     2.5100     0.0040   983.3650     0.1260   -80.2170     4.8980     5.9510     0.2500
 1367.0000     9.8450   111.6690     2.5080     0.0030   983.3250     0.1300   -80.3050     4.8900     5.9210     0.2390
 1367.5000     9.8430   111.4790     2.5060     0.0020   983.2850     0.1330   -80.4260     4.8830     5.9910     0.2290
 1368.0000     9.8400   111.2900     2.5060     0.0010   983.2450     0.1320   -80.5480     4.8770     6.1120     0.2200
 1368.5000     9.8370   111.1000     2.5100    -0.0010   983.2050     0.1300   -80.6700     4.8380     6.1390     0.2110
 1369.0000     9.8340   110.8340     2.5140    -0.0020   983.1650     0.1300   -80.7950     4.7950     6.0590     0.2100
 1369.5000     9.8310   110.4990     2.5170    -0.0030   983.1250     0.1320   -80.7520     4.7520     5.9820     0.2110
 1370.0000     9.8280   110.1630     2.5210    -0.0030   983.0860     0.1350   -80.6770     4.7100     5.9050     0.2130
 1370.5000     9.8250   109.8270     2.5250    -0.0010   983.0460     0.1330   -80.6000     4.6910     5.8520     0.2140
 1371.0000     9.8220   109.4920     2.5250     0.0000   983.0060     0.1300   -80.5230     4.8060     5.9450     0.2130
 1371.5000     9.8190   109.1560     2.5240     0.0020   982.9660     0.1310   -80.4470     4.9200     6.0350     0.2130
 1372.0000     9.8160   108.8190     2.5230     0.0030   982.9260     0.1350   -80.3700     5.0340     5.9120     0.2130
