~VERSION INFORMATION
 VERS.                2.0:   CWLS LOG ASCII STANDARD - VERSION 2.0
 WRAP.                 NO:   ONE LINE PER DEPTH STEP
~WELL INFORMATION
#MNEM.UNIT      DATA TYPE    INFORMATION
#----------   ------------   ------------------------------
 STRT.F          250.5000:   START DEPTH
 STOP.F         2849.5000:   STOP DEPTH
 STEP.F            0.5000:   STEP LENGTH
 NULL.          -999.2500:   NO VALUE
 COMP. FENIX & SCISSON U.S. NAVY:   COMPANY
 WELL.   FENIX "A" #25-21:   WELL
 FLD .           N P R #3:   FIELD
 LOC .      S21 T39N R78W:   LOCATION
 CNTY.            NATRONA:   COUNTY
 STAT.            WYOMING:   STATE
 CTRY. UNITED STATES OF AMERICA:   COUNTRY
 SRVC.       SCHLUMBERGER:   SERVICE COMPANY
 DATE.        14-MAR-1977:   LOGDATE
 API .     49025103140000:   API NUMBER
~CURVE INFORMATION
#MNEM.UNIT       API CODE    CURVE DESCRIPTION
#----------   ------------   ------------------------------
 DEPT.F                  :   
 CALD.IN     45 280 60 00:   CALIPER FROM DENSITY LOG
 GRD .GAPI   45 310 01 00:   GAMMA RAY FROM DENSITY LOG
 RHOB.G/C3   45 350 01 00:   BULK DENSITY
 CORR.G/C3   45 356 01 00:   DENSITY CORRECTION
 SPR .MV     07 010 01 00:   SPONTANEOUS POTENTIAL
 LL8 .OHMM   07 220 08 00:   LATEROLOG-8 RES.
 ILM .OHMM   07 120 44 00:   INDUCTION LOG MEDIUM RESISTIVITY
 ILD .OHMM   07 120 46 00:   DEEP INDUCTION RESISTIVITY
~PARAMETER INFORMATION
#MNEM.UNIT          VALUE    DESCRIPTION
#----------   ------------   ------------------------------
 EKB .F         4963.0000:   Kelly bushing
 EGL .F         4953.0000:   Ground level
 EDF .F            0.0000:   Drilling floor
 TD  .F         2848.0000:   Total depth
 DATE.        14-MAR-1977:   Date logged
 CLNT.            A2DTECH:   Client Code
 SL  . 990' FWL & 2310' FSL:   Surface Location
 PD  .                 GL:   Permanent Datum
 DD  .F              2847:   Depth driller
 DL  .F              2848:   Depth logger
 BLI .F              2842:   Bottom log interval
 CS1 .IN            8.625:   Casing size
 CBD1.      8.625" @ 259':   Casing driller 1
 CBL1.F               261:   Casing logger 1
 BS1 .IN            7.875:   Bit size
 DFT .                KCL:   Type fluid in hole
 DFD .                9.2:   Density
 DFV .                 37:   Viscosity
 DFPH.                8.5:   pH
 DFL .                8.6:   Fluid loss
 MSS .           FLOWLINE:   Source of sample
 RMS .OHMM          0.226:   Rm
 MST .F                72:   Rm Meas. temp.
 RMF .OHMM          0.190:   Rmf
 MFST.F                72:   Rmf Meas. temp.
 MFSS.               MEAS:   Source Rmf.
 RMB .OHMM           .139:   Rm. at BHT
 BHT .F               117:   BHT.
 TCS .HRS            1800:   Time Circ. stopped
 MRT .F               117:   Maximum recorded temp.
 LUN .               5642:   Logging unit number
 LUL .               CSPR:   Logging unit location
 ENGI.         JIM MARTIN:   Recorded By
 WITN.               JAPP:   Witnessed by
 ORIG.           5" PRINT:   Origin of data
 UWI .     49025103140000:   Unique Well ID
 DICO. A2D TECHNOLOGIES, INC.:   Digitizing Company
 DAPD.                 10:   Feet Above Permanent Datum
 BSD1.               2847:   Depth drilled with bit1
 EPD .               4953:   Elevation Permanent Datum
 LMF .                 KB:   Log Measured From
 DMF .                 KB:   Drilling Measured From
 TLI .                261:   Top log interval
 TLAB.               2400:   Time logger at bottom
~OTHER INFORMATION
~A   DEPT     CALD         GRD      RHOB       CORR        SPR        LL8        ILM        ILD   
# ...
  574.5000     9.2790    86.5760     2.5170     0.0160   -58.4260     9.1970    10.2170    10.6980
  575.0000     9.2770    85.1060     2.5110     0.0200   -58.2850     9.2130    10.2170    10.6980
  575.5000     9.2750    89.3090     2.4970     0.0070   -58.0040     9.2290    10.2170    10.6980
  576.0000     9.2740    93.5540     2.4890     0.0050   -57.7600     9.2450    10.2170    10.6980
  576.5000     9.2720    97.7720     2.5050     0.0190   -58.8470     9.2610    10.2170    10.6980
  577.0000     9.2710   102.0230     2.4970     0.0140   -58.2730     9.2770    10.2170    10.6980
  577.5000     9.2690   104.2820     2.5020     0.0220   -57.7380     9.2920    10.2170    10.6980
  578.0000     9.2680   102.7250     2.5060     0.0140   -57.6940     9.3080    10.2170    10.6980
  578.5000     9.2660   100.5940     2.4970     0.0030   -57.6710     9.3240    10.2170    10.6980
  579.0000     9.2650    98.4340     2.4880     0.0030   -57.6460     9.3400    10.2170    10.6980
  579.5000     9.2630    96.2850     2.5120     0.0260   -57.6200     9.3560    10.2170    10.6980
  580.0000     9.2620    94.1320     2.5070     0.0160   -57.5930     9.3720    10.2170    10.6980
  580.5000     9.2600    93.8380     2.4970     0.0090   -57.5680     9.3880    10.2170    10.6980
  581.0000     9.2590    95.1210     2.4980     0.0190   -57.5630     9.4050    10.2170    10.6980
  581.5000     9.2570    96.3360     2.4930     0.0110   -57.8050     9.4410    10.2110    10.6980
  582.0000     9.2560    95.8170     2.4860     0.0030   -57.9790     9.4810    10.1680    10.6470
  582.5000     9.2540    91.5310     2.4790     0.0010   -58.4360     9.4920    10.1240    10.5760
  583.0000     9.2530    89.8780     2.4870     0.0080   -58.8960     9.1720    10.0810    10.5040
  583.5000     9.2510    87.5050     2.5020     0.0160   -59.3810     8.9280    10.0370    10.4330
  584.0000     9.2490    87.6430     2.5160     0.0230   -59.3230     8.6840     9.9930    10.3620
  584.5000     9.2480    89.7200     2.5300     0.0420   -59.0750     8.8250     9.9490    10.2910
  585.0000     9.2460    92.5990     2.5310     0.0290   -58.8210     9.0130     9.9060    10.2200
  585.5000     9.2450    94.7200     2.5200     0.0170   -58.5660     9.1490     9.8620    10.1480
  586.0000     9.2430    97.6050     2.5080     0.0090   -58.3130     9.1490     9.8090    10.0770
  586.5000     9.2420   100.2560     2.5030     0.0230   -58.0610     9.0240     9.7260    10.0060
  587.0000     9.2400    99.8120     2.5060     0.0180   -57.9760     8.9060     9.6440     9.9390
  587.5000     9.2390    98.2200     2.5090     0.0360   -58.0940     8.8050     9.5610     9.9530
  588.0000     9.2340    96.6360     2.5000     0.0110   -58.2110     8.7500     9.4790     9.9690
  588.5000     9.2190    96.7010     2.4780     0.0030   -58.3290     8.6950     9.3960     9.9850
  589.0000     9.2040    95.5690     2.4900    -0.0010   -58.4460     8.6410     9.3140    10.0020
  589.5000     9.1900    92.7690     2.4970     0.0040   -58.5330     8.5860     9.2330    10.0180
  590.0000     9.1790    91.3010     2.4910     0.0130   -58.5780     8.5000     9.3350    10.0310
  590.5000     9.1990    92.0000     2.4950    -0.0020   -58.6230     8.6300     9.4340     9.9720
  591.0000     9.2200    93.5660     2.5020    -0.0050   -58.6680     8.9420     9.4920     9.9160
  591.5000     9.2410    95.1480     2.5100     0.0090   -58.7180     9.0650     9.4170     9.8590
  592.0000     9.2620    94.7110     2.5170     0.0240   -58.9040     8.8980     9.3420     9.8020
  592.5000     9.2830    92.4970     2.5240     0.0290   -58.9120     8.7590     9.2680     9.7450
  593.0000     9.3040    93.8940     2.5220     0.0220   -58.9110     8.6200     9.1930     9.6880
  593.5000     9.3190    99.5100     2.5170     0.0180   -58.9110     8.4810     9.1190     9.6310
  594.0000     9.3230   101.8330     2.5120     0.0160   -58.9110     8.3910     9.0440     9.5740
  594.5000     9.3280   103.2160     2.5050     0.0220   -58.9110     8.3100     8.9820     9.4920
  595.0000     9.3330   102.2050     2.5050     0.0360   -58.9110     8.1930     8.7380     9.5970
  595.5000     9.3370    99.4130     2.5060     0.0290   -58.9110     8.3480     8.9470     9.7040
  596.0000     9.3440    98.5860     2.4980     0.0120   -58.9110     8.6280     9.1280     9.8110
  596.5000     9.3520    99.0930     2.4840    -0.0030   -58.9110     8.9080     9.3090     9.9180
  597.0000     9.3600    97.0970     2.4840     0.0030   -58.9110     9.1490     9.4900    10.0250
  597.5000     9.3680    94.0910     2.5110     0.0030   -58.9150     9.1850     9.6710    10.1320
  598.0000     9.3760    91.0520     2.5380     0.0180   -58.7420     9.2230     9.8510    10.2390
  598.5000     9.3840    87.7020     2.5370     0.0290   -58.5140     9.2620    10.0320    10.4390
  599.0000     9.3920    87.2940     2.5130     0.0140   -58.2840     9.3000    10.2130    10.7140
  599.5000     9.4000    89.6880     2.4990     0.0180   -58.0540     9.4060    10.3940    10.9880
  600.0000     9.4070    89.0850     2.5060     0.0090   -57.8240     9.5780    10.5750    11.2630
  600.5000     9.4150    86.6680     2.5210     0.0170   -57.5810     9.7500    10.7560    11.5370
  601.0000     9.4230    85.8470     2.5350     0.0310   -57.8130     9.9390    10.9360    11.7290
  601.5000     9.4310    85.1760     2.5410     0.0150   -58.1490     9.9390    11.0990    11.7290
  602.0000     9.4390    83.9270     2.5300     0.0230   -58.4810     9.9390    11.2020    11.7290
  602.5000     9.4470    82.6610     2.5290     0.0260   -58.8260     9.9390    11.0860    11.7290
  603.0000     9.4550    83.0730     2.5280     0.0190   -58.7750     9.9230    10.9970    11.7290
  603.5000     9.4630    85.8100     2.5200     0.0390   -58.1350     9.8710    10.9080    11.6220
  604.0000     9.4710    89.2380     2.5100     0.0260   -57.8150     9.8180    10.8190    11.6220
  604.5000     9.4750    89.9610     2.5050     0.0290   -57.6480     9.7660    10.7300    11.5150
  605.0000     9.4740    89.2220     2.5010     0.0210   -57.4890     9.7140    10.6410    11.4690
  605.5000     9.4730    89.3530     2.4990     0.0280   -57.3300     9.6610    10.5520    11.4020
  606.0000     9.4720    91.1970     2.5010     0.0320   -57.1710     9.6090    10.4630    11.3360
  606.5000     9.4710    93.1050     2.5040     0.0200   -57.0120     9.5570    10.3740    11.2700
  607.0000     9.4700    94.3130     2.5060     0.0160   -56.9480     9.5040    10.3110    11.2030
  607.5000     9.4700    92.3650     2.5030     0.0220   -56.9810     9.4520    10.2170    11.1370
  608.0000     9.4690    91.3550     2.4980     0.0150   -57.0130     9.4050    10.2170    11.0700
  608.5000     9.4680    95.2410     2.4930     0.0130   -57.0460     9.4190    10.2330    10.9970
  609.0000     9.4670    93.8490     2.4900     0.0110   -57.0830     9.4320    10.2850    10.9970
  609.5000     9.4660    91.3290     2.4850     0.0140   -57.1180     9.4450    10.3380    10.9970
  610.0000     9.4650    90.0490     2.4800     0.0120   -57.6750     9.4570    10.3910    10.9970
  610.5000     9.4640    88.6610     2.4850     0.0090   -58.7410     9.4700    10.4070    10.9970
  611.0000     9.4630    89.3080     2.4910     0.0150   -59.3680     9.4820    10.3200    10.9970
  611.5000     9.4620    91.0200     2.4970     0.0110   -58.7690     9.4930    10.2530    10.9150
  612.0000     9.4610    91.8380     2.5000     0.0120   -58.2110     9.4130    10.1860    10.7500
  612.5000     9.4610    88.6790     2.4960     0.0150   -58.1270     9.3430    10.1190    10.5850
  613.0000     9.4600    89.5300     2.4990     0.0240   -58.9180     9.2710    10.0520    10.5030
  613.5000     9.4590    90.6960     2.5040     0.0310   -59.0540     9.2000     9.9860    10.5940
  614.0000     9.4580    91.8650     2.4970     0.0270   -58.5600     9.1290     9.9390    10.6770
  614.5000     9.4570    93.0500     2.5020     0.0360   -58.0720     9.0650    10.0600    10.7600
