~VERSION INFORMATION
 VERS.                2.0:   CWLS LOG ASCII STANDARD - VERSION 2.0
 WRAP.                 NO:   ONE LINE PER DEPTH STEP
~WELL INFORMATION
#MNEM.UNIT      DATA TYPE    INFORMATION
#----------   ------------   ------------------------------
 STRT.F          218.5000:   START DEPTH
 STOP.F         3291.0000:   STOP DEPTH
 STEP.F            0.5000:   STEP LENGTH
 NULL.          -999.2500:   NO VALUE
 COMP.    FENIX & SCISSON:   COMPANY
 WELL.   FENIX SHX #63-23:   WELL
 FLD .  TEAPOT DOME NPR-3:   FIELD
 LOC .      S23 T38N R78W:   LOCATION
 CNTY.            NATRONA:   COUNTY
 STAT.            WYOMING:   STATE
 CTRY. UNITED STATES OF AMERICA:   COUNTRY
 SRVC.           BIRDWELL:   SERVICE COMPANY
 DATE.        08-JUL-1978:   LOGDATE
 API .     49025106600000:   API NUMBER
~CURVE INFORMATION
#MNEM.UNIT       API CODE    CURVE DESCRIPTION
#----------   ------------   ------------------------------
 DEPT.F                  :   
 GRD .GAPI   45 310 01 00:   GAMMA RAY FROM DENSITY LOG
 CALD.IN     45 280 60 00:   CALIPER FROM DENSITY LOG
 CORR.G/C3   45 356 01 00:   DENSITY CORRECTION
 RHOB.G/C3   45 350 01 00:   BULK DENSITY
 GR  .GAPI   35 310 01 00:   GAMMA RAY
 NEUT.NAPI   35 330 01 00:   NEUTRON
~PARAMETER INFORMATION
#MNEM.UNIT          VALUE    DESCRIPTION
#----------   ------------   ------------------------------
 EKB .F         5368.0000:   Kelly bushing
 EGL .F         5358.0000:   Ground level
 TD  .F         3299.0000:   Total depth
 CLNT.            A2DTECH:   Client Code
 PD  .                 GL:   Permanent Datum
 EPD .F              5358:   Elevation Permanent Datum
 LMF .                 KB:   Log Measured From
 DMF .                 KB:   Drilling Measured From
 DAPD.F                10:   Feet Above Permanent Datum
 DATE.        08-JUL-1978:   Date Logged [DD-MMM-YYYY]
 DD  .F              3299:   Depth driller
 DL  .F              3291:   Depth logger
 BLI .F              3291:   Bottom log interval
 TLI .F              1430:   Top log interval
 CS1 .IN            9.625:   Casing size
 CBD1.     9.625" @ 1450':   Casing driller 1
 CBL1.F              1442:   Casing logger 1
 BS1 .IN            8.750:   Bit size
 BSD1.F              3299:   Depth drilled with bit1
 DFT .          KCL WATER:   Type fluid in hole
 BHT .F               118:   BHT.
 TCS .HRS               2:   Time Circ. stopped
 MRT .F               118:   Maximum recorded temp.
 LUN .               2958:   Logging unit number
 LUL .               CASP:   Logging unit location
 ENGI.             MILLER:   Recorded By
 WITN.           MCGINLEY:   Witnessed by
 ORIG.           5" PRINT:   Origin of data
 UWI .     49025106600000:   Unique Well ID
 DICO. A2D TECHNOLOGIES, INC.:   Digitizing Company
 SL  . 1800' FNL & 1825' FEL:   Surface Location
~OTHER INFORMATION
~A   DEPT      GRD       CALD       CORR       RHOB          GR      NEUT   
# ...
 1882.5000    78.3125     9.2486     0.0714     2.5595  -999.2500  -999.2500
 1883.0000    78.9118     9.2473     0.0833     2.5765  -999.2500  -999.2500
 1883.5000    80.1168     9.2616     0.0894     2.5735  -999.2500  -999.2500
 1884.0000    80.7182     9.2904     0.0923     2.5853  -999.2500  -999.2500
 1884.5000    80.4035     9.3043     0.0953     2.5920  -999.2500  -999.2500
 1885.0000    80.0909     9.3335     0.1013     2.5809  -999.2500  -999.2500
 1885.5000    79.5979     9.3474     0.1073     2.5771  -999.2500  -999.2500
 1886.0000    78.2478     9.3458     0.1148     2.5638  -999.2500  -999.2500
 1886.5000    78.2391     9.3597     0.1253     2.5800  -999.2500  -999.2500
 1887.0000    79.2943     9.3581     0.1313     2.5933  -999.2500  -999.2500
 1887.5000    81.2614     9.3568     0.1282     2.5837  -999.2500  -999.2500
 1888.0000    82.4664     9.3403     0.1281     2.5868  -999.2500  -999.2500
 1888.5000    82.7639     9.3390     0.1281     2.5844  -999.2500  -999.2500
 1889.0000    81.2334     9.3529     0.1280     2.5829  -999.2500  -999.2500
 1889.5000    80.6168     9.3361     0.1277     2.5844  -999.2500  -999.2500
 1890.0000    80.6079     9.3195     0.1172     2.5888  -999.2500  -999.2500
 1890.5000    80.5974     9.3183     0.1095     2.5798  -999.2500  -999.2500
 1891.0000    80.5888     9.3166     0.1034     2.5776  -999.2500  -999.2500
 1891.5000    80.4282     9.3153     0.0973     2.5843  -999.2500  -999.2500
 1892.0000    80.2615     9.3140     0.0911     2.5961  -999.2500  -999.2500
 1892.5000    80.1070     9.3127     0.0864     2.5969  -999.2500  -999.2500
 1893.0000    80.5521     9.3114     0.0818     2.5744  -999.2500  -999.2500
 1893.5000    80.6976     9.3098     0.0757     2.5694  -999.2500  -999.2500
 1894.0000    80.8389     9.3085     0.0695     2.5679  -999.2500  -999.2500
 1894.5000    80.5241     9.3072     0.0679     2.5686  -999.2500  -999.2500
 1895.0000    79.9075     9.3059     0.0678     2.5730  -999.2500  -999.2500
 1895.5000    77.4673     9.3043     0.0678     2.5837  -999.2500  -999.2500
 1896.0000    75.6349     9.3186     0.0692     2.5900  -999.2500  -999.2500
 1896.5000    76.7511     9.3170     0.0676     2.5752  -999.2500  -999.2500
 1897.0000    79.8708     9.3157     0.0675     2.5685  -999.2500  -999.2500
 1897.5000    81.2300     9.3140     0.0690     2.5633  -999.2500  -999.2500
 1898.0000    80.6135     9.3127     0.0704     2.5788  -999.2500  -999.2500
 1898.5000    79.8450     9.3115     0.0734     2.5928  -999.2500  -999.2500
 1899.0000    79.5302     9.3254     0.0703     2.5788  -999.2500  -999.2500
 1899.5000    79.2176     9.3240     0.0656     2.5728  -999.2500  -999.2500
 1900.0000    77.2062     9.3227     0.0625     2.5780  -999.2500  -999.2500
 1900.5000    74.9408     9.3212     0.0649     2.5798  -999.2500  -999.2500
 1901.0000    74.3213     9.2891     0.0639     2.5779  -999.2500  -999.2500
 1901.5000    74.9176     9.2724     0.0593     2.5713  -999.2500  -999.2500
 1902.0000    77.0657     9.2557     0.0592     2.5550  -999.2500  -999.2500
 1902.5000    80.5145     9.2539     0.0591     2.5579  -999.2500  -999.2500
 1903.0000    82.1746     9.2525     0.0621     2.5638  -999.2500  -999.2500
 1903.5000    83.0748     9.2510     0.0650     2.5667  -999.2500  -999.2500
 1904.0000    82.9112     9.2344     0.0728     2.5697  -999.2500  -999.2500
 1904.5000    82.5956     9.2329     0.0740     2.5741  -999.2500  -999.2500
 1905.0000    82.2796     9.2311     0.0770     2.5704  -999.2500  -999.2500
 1905.5000    81.9615     9.2297     0.0799     2.5689  -999.2500  -999.2500
 1906.0000    81.7979     9.2130     0.0829     2.5748  -999.2500  -999.2500
 1906.5000    81.6343     9.2115     0.0875     2.5799  -999.2500  -999.2500
 1907.0000    81.7747     9.2100     0.0903     2.5806  -999.2500  -999.2500
 1907.5000    82.2240     9.2083     0.0842     2.5784  -999.2500  -999.2500
 1908.0000    83.2682     9.2224     0.0780     2.5717  -999.2500  -999.2500
 1908.5000    84.3204     9.2206     0.0764     2.5650  -999.2500  -999.2500
 1909.0000    83.8529     9.2039     0.0763     2.5754  -999.2500  -999.2500
 1909.5000    83.2333     9.2024     0.0746     2.5820  -999.2500  -999.2500
 1910.0000    82.7658     9.1854     0.0716     2.5849  -999.2500  -999.2500
 1910.5000    82.1964     9.1535     0.0701     2.5849  -999.2500  -999.2500
 1911.0000    81.8031     9.1673     0.0700     2.5849  -999.2500  -999.2500
 1911.5000    81.3611     9.2876     0.0684     2.5856  -999.2500  -999.2500
 1912.0000    81.0456     9.3935     0.0683     2.5841  -999.2500  -999.2500
 1912.5000    81.0310     9.4217     0.0698     2.5789  -999.2500  -999.2500
 1913.0000    81.3262     9.4199     0.0697     2.5789  -999.2500  -999.2500
 1913.5000    82.2235     9.4184     0.0711     2.5818  -999.2500  -999.2500
 1914.0000    83.7317     9.4170     0.0710     2.5944  -999.2500  -999.2500
 1914.5000    84.7839     9.4308     0.0709     2.5818  -999.2500  -999.2500
 1915.0000    85.8361     9.4445     0.0694     2.5736  -999.2500  -999.2500
 1915.5000    86.1284     9.4735     0.0662     2.5662  -999.2500  -999.2500
 1916.0000    86.1138     9.4869     0.0662     2.5625  -999.2500  -999.2500
 1916.5000    85.6463     9.5159     0.0646     2.5602  -999.2500  -999.2500
 1917.0000    84.7228     9.5297     0.0660     2.5602  -999.2500  -999.2500
 1917.5000    83.3434     9.5431     0.0675     2.5639  -999.2500  -999.2500
 1918.0000    82.7234     9.6482     0.0719     2.5705  -999.2500  -999.2500
 1918.5000    82.5573     9.4945     0.0764     2.5749  -999.2500  -999.2500
 1919.0000    82.5457     9.4782     0.0809     2.5757  -999.2500  -999.2500
 1919.5000    82.6889     9.5221     0.0854     2.5697  -999.2500  -999.2500
 1920.0000    83.8902     9.5203     0.0899     2.5638  -999.2500  -999.2500
 1920.5000    84.8042     9.5188     0.0928     2.5778  -999.2500  -999.2500
 1921.0000    85.9917     9.5329     0.0958     2.5793  -999.2500  -999.2500
 1921.5000    86.7399     9.5159     0.0927     2.5816  -999.2500  -999.2500
 1922.0000    87.7921     9.5145     0.0805     2.5681  -999.2500  -999.2500
 1922.5000    88.8443     9.5126     0.0773     2.5688  -999.2500  -999.2500
 1923.0000    89.2886     9.5112     0.0833     2.5725  -999.2500  -999.2500
 1923.5000    89.4289     9.5097     0.0863     2.5828  -999.2500  -999.2500
 1924.0000    86.9828     9.5083     0.0862     2.5917  -999.2500  -999.2500
 1924.5000    87.7310     9.4916     0.0846     2.5931  -999.2500  -999.2500
 1925.0000    89.5431     9.4746     0.0846     2.5865  -999.2500  -999.2500
 1925.5000    91.5072     9.4579     0.0829     2.5820  -999.2500  -999.2500
 1926.0000    93.4792     9.4412     0.0798     2.5731  -999.2500  -999.2500
 1926.5000    94.0646     9.4398     0.0767     2.5635  -999.2500  -999.2500
 1927.0000    94.8128     9.4383     0.0706     2.5561  -999.2500  -999.2500
 1927.5000    95.8650     9.4368     0.0689     2.5723  -999.2500  -999.2500
 1928.0000    94.3336     9.4353     0.0782     2.5819  -999.2500  -999.2500
 1928.5000    92.0423     9.4336     0.0825     2.5834  -999.2500  -999.2500
 1929.0000    91.2705     9.4474     0.0703     2.5811  -999.2500  -999.2500
 1929.5000    90.6484     9.4558     0.0611     2.5693  -999.2500  -999.2500
 1930.0000    90.6367     9.4617     0.0519     2.5619  -999.2500  -999.2500
 1930.5000    90.6251     9.4887     0.0457     2.5589  -999.2500  -999.2500
 1931.0000    90.7684     9.5021     0.0426     2.5463  -999.2500  -999.2500
 1931.5000    90.9067     9.5159     0.0425     2.5411  -999.2500  -999.2500
 1932.0000    91.8031     9.5144     0.0425     2.5529  -999.2500  -999.2500
 1932.5000    92.4023     9.4825     0.0445     2.5529  -999.2500  -999.2500
 1933.0000    92.2358     9.4503     0.0469     2.5538  -999.2500  -999.2500
 1933.5000    90.8563     9.4488     0.0514     2.5639  -999.2500  -999.2500
 1934.0000    89.6289     9.5691     0.0543     2.5683  -999.2500  -999.2500
