~VERSION INFORMATION
 VERS.                2.0:   CWLS LOG ASCII STANDARD - VERSION 2.0
 WRAP.                 NO:   ONE LINE PER DEPTH STEP
~WELL INFORMATION
#MNEM.UNIT      DATA TYPE    INFORMATION
#----------   ------------   ------------------------------
 STRT.F          150.0000:   START DEPTH
 STOP.F         2929.0000:   STOP DEPTH
 STEP.F            0.5000:   STEP LENGTH
 NULL.          -999.2500:   NO VALUE
 COMP.    FENIX & SCISSON:   COMPANY
 WELL.    FENIX AX #12-28:   WELL
 FLD .        TEAPOT DOME:   FIELD
 LOC .      S28 T39N R78W:   LOCATION
 CNTY.            NATRONA:   COUNTY
 STAT.            WYOMING:   STATE
 CTRY. UNITED STATES OF AMERICA:   COUNTRY
 SRVC.           BIRDWELL:   SERVICE COMPANY
 DATE.        06-JUN-1978:   LOGDATE
 API .     49025106420000:   API NUMBER
~CURVE INFORMATION
#MNEM.UNIT       API CODE    CURVE DESCRIPTION
#----------   ------------   ------------------------------
 DEPT.F                  :   
 SPR .MV     05 010 01 00:   SPONTANEOUS POTENTIAL
 SN  .OHMM   05 040 16 00:   SHORT NORMAL 16"
 ILD .OHMM   05 120 46 00:   INDUCTION LOG DEEP RESISTIVITY
 RHOB.G/C3   45 350 01 00:   BULK DENSITY
 CORR.G/C3   45 356 01 00:   DENSITY CORRECTION
 GRD .GAPI   45 310 01 00:   GAMMA RAY FROM DENSITY LOG
 CALD.IN     45 280 60 00:   CALIPER FROM DENSITY LOG
~PARAMETER INFORMATION
#MNEM.UNIT          VALUE    DESCRIPTION
#----------   ------------   ------------------------------
 EKB .F         5000.0000:   Kelly bushing
 EGL .F         4990.0000:   Ground level
 EDF .F            0.0000:   Drilling floor
 EPD .F         5005.0000:   Permanent datum
 TD  .F         2911.0000:   Total depth
 DATE.        06-JUN-1978:   Date logged
 CLNT.            A2DTECH:   Client Code
 SL  . 1250' FNL & 225' FWL:   Surface Location
 PD  .                 GL:   Permanent Datum
 LMF .                 KB:   Log Measured From
 DMF .                 KB:   Drilling Measured From
 DAPD.F                10:   Feet Above Permanent Datum
 DD  .F              2911:   Depth driller
 DL  .F              2912:   Depth logger
 BLI .F              2906:   Bottom log interval
 TLI .F               200:   Top log interval
 CS1 .IN            8.625:   Casing size
 CBD1.      8.625" @ 225':   Casing driller 1
 CBL1.F               225:   Casing logger 1
 BS1 .IN            7.875:   Bit size
 BSD1.F              2911:   Depth drilled with bit1
 DFT .       OIL BASE MUD:   Type fluid in hole
 DFD .                9.2:   Density
 DFV .                 35:   Viscosity
 DFPH.               10.5:   pH
 DFL .                  2:   Fluid loss
 TCS .HRS             3.5:   Time Circ. stopped
 LUN .               2958:   Logging unit number
 LUL .               CASP:   Logging unit location
 ENGI.            POINTER:   Recorded By
 WITN.           MCGINLEY:   Witnessed by
 ORIG.           5" PRINT:   Origin of data
 UWI .     49025106420000:   Unique Well ID
 DICO. A2D TECHNOLOGIES, INC.:   Digitizing Company
~OTHER INFORMATION
~A   DEPT      SPR         SN        ILD       RHOB       CORR         GRD      CALD   
# ...
 1105.5000   -33.0960     6.8930     5.8790     2.4970     0.1420    93.7020    10.4310
 1106.0000   -32.8710     6.8050     5.8650     2.4990     0.1440    92.9600    10.4340
 1106.5000   -32.2600     6.7170     5.8510     2.5000     0.1460    91.3840    10.4370
 1107.0000   -32.4280     6.6290     5.8360     2.4940     0.1480    89.8460    10.4400
 1107.5000   -32.5720     6.5410     5.8310     2.4900     0.1500    89.0720    10.4430
 1108.0000   -32.7130     6.5180     5.8260     2.4920     0.1550    90.0540    10.4460
 1108.5000   -32.7660     6.5180     5.8200     2.4920     0.1620    90.9980    10.4490
 1109.0000   -32.2690     6.5180     5.8150     2.4930     0.1670    91.9610    10.4590
 1109.5000   -31.8940     6.5180     5.8090     2.4930     0.1680    91.9750    10.4720
 1110.0000   -32.3140     6.5180     5.8040     2.4930     0.1680    91.3920    10.4850
 1110.5000   -32.7160     6.5180     5.7980     2.4870     0.1680    90.7900    10.4990
 1111.0000   -33.0450     6.5180     5.7920     2.4810     0.1690    90.4730    10.5120
 1111.5000   -33.0300     6.5180     5.7870     2.4740     0.1730    92.0300    10.5260
 1112.0000   -32.6810     6.5180     5.7770     2.4740     0.1780    93.1110    10.5390
 1112.5000   -32.0520     6.5180     5.7570     2.4810     0.1830    94.1830    10.5530
 1113.0000   -32.1980     6.5180     5.7360     2.4820     0.1850    93.9710    10.5660
 1113.5000   -32.6070     6.5180     5.7160     2.4870     0.1850    92.5550    10.5800
 1114.0000   -33.1470     6.5180     5.6950     2.4920     0.1850    91.1370    10.5960
 1114.5000   -33.6390     6.5100     5.6750     2.4870     0.1850    89.6890    10.6460
 1115.0000   -33.7690     6.4990     5.6540     2.4820     0.1900    89.3540    10.6960
 1115.5000   -33.4110     6.4880     5.6250     2.4760     0.1950    89.9640    10.7270
 1116.0000   -32.6110     6.4770     5.6360     2.4710     0.2070    90.5900    10.7260
 1116.5000   -32.6440     6.4660     5.6610     2.4760     0.2090    91.2240    10.7250
 1117.0000   -32.9020     6.4550     5.6860     2.4830     0.2110    91.8710    10.7240
 1117.5000   -33.1740     6.4440     5.7110     2.4880     0.2080    91.0110    10.7240
 1118.0000   -33.4120     6.4330     5.7300     2.4930     0.2040    90.0070    10.7230
 1118.5000   -32.8990     6.4220     5.7300     2.4910     0.2010    89.0980    10.7220
 1119.0000   -32.3570     6.4110     5.7300     2.4850     0.1970    91.5590    10.7220
 1119.5000   -31.8400     6.3990     5.7300     2.4790     0.1970    90.8900    10.7210
 1120.0000   -31.5260     6.3990     5.7300     2.4720     0.1970    90.2020    10.7200
 1120.5000   -31.9220     6.3990     5.7300     2.4780     0.1970    89.5340    10.7190
 1121.0000   -32.3100     6.3990     5.7300     2.4820     0.1960    89.0950    10.7190
 1121.5000   -32.7960     6.3990     5.7300     2.4710     0.1950    89.9450    10.7180
 1122.0000   -32.6840     6.3990     5.7300     2.4660     0.1940    90.7320    10.7170
 1122.5000   -32.5020     6.3990     5.7300     2.4810     0.1930    90.3740    10.7160
 1123.0000   -32.3230     6.3990     5.7300     2.4910     0.1990    88.3240    10.7160
 1123.5000   -32.3850     6.3990     5.7300     2.4980     0.2060    86.6310    10.7150
 1124.0000   -32.6340     6.3990     5.7150     2.5000     0.2120    85.9740    10.7140
 1124.5000   -32.8780     6.3990     5.6840     2.5020     0.2180    85.6210    10.7140
 1125.0000   -32.9600     6.3990     5.6520     2.5030     0.2180    85.9700    10.7130
 1125.5000   -32.5170     6.3970     5.6200     2.5000     0.2140    85.4620    10.7120
 1126.0000   -32.4860     6.3840     5.5880     2.4960     0.2080    83.0330    10.7110
 1126.5000   -32.5930     6.3700     5.5450     2.4780     0.2060    83.9610    10.7110
 1127.0000   -32.7010     6.3570     5.4920     2.4590     0.2080    85.1590    10.7100
 1127.5000   -32.8100     6.3430     5.4390     2.4490     0.2110    85.5960    10.7090
 1128.0000   -32.9200     6.1830     5.3860     2.4530     0.2130    84.6460    10.7080
 1128.5000   -33.0210     5.9450     5.3230     2.4580     0.2150    83.6380    10.7080
 1129.0000   -32.5840     5.9480     5.3270     2.4610     0.2170    82.6230    10.7040
 1129.5000   -32.0810     5.9530     5.3310     2.4580     0.2150    82.4350    10.6950
 1130.0000   -31.6760     5.9580     5.3360     2.4540     0.2130    83.7840    10.6870
 1130.5000   -31.8860     5.9630     5.3400     2.4460     0.2120    85.4840    10.6790
 1131.0000   -32.1000     5.9680     5.3450     2.4490     0.2070    87.1750    10.6700
 1131.5000   -32.3080     5.9730     5.3490     2.4520     0.2010    88.5330    10.6620
 1132.0000   -32.2480     5.9780     5.3540     2.4440     0.1990    88.9360    10.6540
 1132.5000   -31.7350     5.9830     5.3580     2.4460     0.2080    89.3480    10.6450
 1133.0000   -31.2710     5.9890     5.3620     2.4510     0.2160    88.7680    10.6370
 1133.5000   -31.6070     5.9940     5.3670     2.4560     0.2240    88.1120    10.6290
 1134.0000   -31.9670     5.9990     5.3710     2.4560     0.2320    87.4550    10.6200
 1134.5000   -32.3380     6.0090     5.4010     2.4560     0.2370    86.7950    10.6120
 1135.0000   -32.3630     6.0250     5.4380     2.4560     0.2360    86.2940    10.6030
 1135.5000   -32.2540     6.0400     5.4740     2.4610     0.2350    87.9530    10.5960
 1136.0000   -32.0190     6.0550     5.5110     2.4660     0.2330    89.5140    10.6240
 1136.5000   -31.7680     6.0550     5.5470     2.4660     0.2230    88.9050    10.7840
 1137.0000   -31.8750     6.0970     5.5740     2.4640     0.2150    88.2430    10.6580
 1137.5000   -32.2950     6.1580     5.5520     2.4630     0.2140    87.5490    10.6040
 1138.0000   -32.7180     6.2250     5.5340     2.4640     0.2140    88.1640    10.5000
 1138.5000   -33.1660     6.3020     5.5230     2.4660     0.2130    89.2390    10.3980
 1139.0000   -32.6680     6.3290     5.5860     2.4690     0.2130    90.3100    10.3560
 1139.5000   -31.9510     6.3560     5.5990     2.4690     0.2120    90.0260    10.3600
 1140.0000   -31.2760     6.3830     5.6120     2.4680     0.2120    89.6530    10.3650
 1140.5000   -31.5850     6.4040     5.6250     2.4670     0.2120    89.2850    10.3750
 1141.0000   -31.9260     6.4180     5.6240     2.4760     0.2110    88.9290    10.4720
 1141.5000   -32.2660     6.4320     5.6210     2.4860     0.2050    88.5510    10.5670
 1142.0000   -32.5940     6.4450     5.6190     2.4890     0.1980    89.4460    10.5670
 1142.5000   -31.9810     6.4580     5.6170     2.4870     0.1920    90.4790    10.5640
 1143.0000   -31.4040     6.4580     5.6140     2.4880     0.1860    91.5180    10.5610
 1143.5000   -31.2740     6.4450     5.6120     2.4920     0.1830    92.5580    10.5580
 1144.0000   -31.5420     6.4270     5.6100     2.4800     0.1790    93.6160    10.5550
 1144.5000   -31.9420     6.4080     5.6070     2.4910     0.1760    94.6180    10.5530
 1145.0000   -32.3560     6.3990     5.6050     2.4920     0.1750    91.6670    10.5500
 1145.5000   -32.3290     6.3400     5.6030     2.4800     0.1770    88.3670    10.5510
 1146.0000   -32.1890     6.3400     5.6010     2.4710     0.1810    85.6580    10.5600
 1146.5000   -32.0440     6.3400     5.5980     2.4690     0.1910    86.3590    10.5690
 1147.0000   -31.8950     6.3400     5.5960     2.4780     0.2010    85.4240    10.5780
 1147.5000   -32.1050     6.3400     5.5940     2.4810     0.2060    85.6350    10.5870
 1148.0000   -32.5190     6.3400     5.5910     2.4720     0.2060    86.6200    10.5960
 1148.5000   -32.9270     6.3400     5.5890     2.4750     0.2070    87.8900    10.6050
 1149.0000   -33.1440     6.3400     5.5870     2.4780     0.2080    89.1340    10.6150
 1149.5000   -32.7230     6.3400     5.5840     2.4810     0.2090    90.3850    10.6240
 1150.0000   -32.3230     6.3400     5.5820     2.4730     0.2100    90.9040    10.6330
 1150.5000   -32.0800     6.3390     5.5800     2.4650     0.2120    91.1240    10.6420
