~VERSION INFORMATION
 VERS.                2.0:   CWLS LOG ASCII STANDARD - VERSION 2.0
 WRAP.                 NO:   ONE LINE PER DEPTH STEP
~WELL INFORMATION
#MNEM.UNIT      DATA TYPE    INFORMATION
#----------   ------------   ------------------------------
 STRT.F          148.0000:   START DEPTH
 STOP.F         3394.0000:   STOP DEPTH
 STEP.F            0.5000:   STEP LENGTH
 NULL.          -999.2500:   NO VALUE
 COMP.    FENIX & SCISSON:   COMPANY
 WELL.  FENIX "AX" #28-10:   WELL
 FLD .        TEAPOT DOME:   FIELD
 LOC .      S10 T38N R78W:   LOCATION
 CNTY.            NATRONA:   COUNTY
 STAT.            WYOMING:   STATE
 CTRY. UNITED STATES OF AMERICA:   COUNTRY
 SRVC.       SCHLUMBERGER:   SERVICE COMPANY
 DATE.        03-MAR-1981:   LOGDATE
 API .     49025108680000:   API NUMBER
~CURVE INFORMATION
#MNEM.UNIT       API CODE    CURVE DESCRIPTION
#----------   ------------   ------------------------------
 DEPT.F                  :   
 SFL .OHMM   07 220 01 00:   SHALLOW FOCUSED LOG RESISTIVITY
 ILD .OHMM   07 120 46 00:   INDUCTION LOG DEEP RESISTIVITY
 ILM .OHMM   07 120 44 00:   INDUCTION LOG MEDIUM RESISTIVITY
 TENR.LBS    07 635 01 00:   TENSION
 SPR .MV     07 010 01 00:   SPONTANEOUS POTENTIAL
 CALD.IN     45 280 60 00:   CALIPER FROM DENSITY LOG
 GRD .GAPI   45 310 01 00:   GAMMA RAY FROM DENSITY LOG
 TEND.LBS    45 635 01 00:   TENSION FROM DENSITY LOG
 CORR.G/C3   45 356 01 00:   DENSITY CORRECTION
 RHOB.G/C3   45 350 01 00:   BULK DENSITY
~PARAMETER INFORMATION
#MNEM.UNIT          VALUE    DESCRIPTION
#----------   ------------   ------------------------------
 EKB .F         5241.0000:   Kelly bushing
 EGL .F         5231.0000:   Ground level
 EDF .F            0.0000:   Drilling floor
 TD  .F         3381.0000:   Total depth
 DATE.        03-MAR-1981:   Date logged
 CLNT.            A2DTECH:   Client Code
 SL  . 640' FSL & 720' FWL:   Surface Location
 PD  .                 GL:   Permanent Datum
 EPD .F              5231:   Elevation Permanent Datum
 LMF .                 KB:   Log Measured From
 DMF .                 KB:   Drilling Measured From
 DAPD.F                10:   Feet Above Permanent Datum
 DD  .F              3361:   Depth driller
 DL  .F              3381:   Depth logger
 BLI .F              3375:   Bottom log interval
 TLI .F               233:   Top log interval
 CS1 .IN            8.625:   Casing size
 CBD1.      8.625" @ 224':   Casing driller 1
 CBL1.F               233:   Casing logger 1
 BS1 .IN            7.875:   Bit size
 BSD1.F              3361:   Depth drilled with bit1
 DFT .           CHEM/GEL:   Type fluid in hole
 DFD .                  9:   Density
 DFV .                 40:   Viscosity
 DFPH.                8.5:   pH
 DFL .                 11:   Fluid loss
 MSS .           MUD/TANK:   Source of sample
 RMS .OHMM           2.52:   Rm
 MST .F                66:   Rm Meas. temp.
 RMF .OHMM            1.8:   Rmf
 MFST.F                67:   Rmf Meas. temp.
 MFSS.               MEAS:   Source Rmf.
 RMB .OHMM           1.47:   Rm. at BHT
 BHT .F               118:   BHT.
 TCS .HRS            0500:   Time Circ. stopped
 TLAB.HRS            0830:   Time logger at bottom
 MRT .F               118:   Maximum recorded temp.
 LUN .               8035:   Logging unit number
 LUL .               CSPR:   Logging unit location
 ENGI.            BEATTLE:   Recorded By
 WITN.              FIVAS:   Witnessed by
 ORIG.           5" PRINT:   Origin of data
 UWI .     49025108680000:   Unique Well ID
 DICO. A2D TECHNOLOGIES, INC.:   Digitizing Company
~OTHER INFORMATION
~A   DEPT      SFL        ILD        ILM       TENR        SPR         CALD       GRD      TEND       CORR       RHOB   
# ...
  617.0000     8.1410     7.5420     6.9450   274.3900   -13.0740     8.6720   116.4670   357.5500    -0.0010     2.4610
  617.5000     8.1790     7.4670     6.9340   274.3900   -13.1240     8.6740   117.9880   357.6290     0.0030     2.4720
  618.0000     8.2200     7.3930     6.9120   274.3900   -13.1750     8.6770   119.4590   357.7080     0.0130     2.4930
  618.5000     8.2200     7.3180     6.8910   274.3900   -13.2260     8.6790   119.4610   357.7870     0.0230     2.4920
  619.0000     8.0030     7.2430     6.8690   274.3900   -13.2770     8.6820   118.9410   357.8670     0.0200     2.4930
  619.5000     7.9180     7.2100     6.8480   274.3900   -13.3270     8.6840   118.3190   357.9460     0.0150     2.4860
  620.0000     7.8330     7.2100     6.8270   274.3900   -13.3790     8.6870   117.3460   358.0250     0.0080     2.4800
  620.5000     7.7480     7.2100     6.8060   274.3900   -13.4290     8.6890   117.2080   358.1040     0.0050     2.4770
  621.0000     7.6270     7.2100     6.7850   274.3900   -13.4790     8.6910   118.8620   358.1840     0.0080     2.4810
  621.5000     7.6830     7.2400     6.7640   274.3900   -13.5390     8.6940   118.6390   358.2630     0.0080     2.4820
  622.0000     7.7820     7.2710     6.7410   274.3900   -13.5050     8.6960   116.6180   358.3420     0.0030     2.4800
  622.5000     7.8820     7.3020     6.7160   274.3900   -13.3270     8.6990   113.9880   358.4220     0.0000     2.4780
  623.0000     7.9810     7.3330     6.6900   274.3900   -13.1610     8.7010   114.5830   358.5010    -0.0010     2.4810
  623.5000     8.0800     7.3870     6.8160   274.3900   -12.9910     8.7040   116.5180   358.5800     0.0010     2.4940
  624.0000     8.2200     7.4570     6.8870   274.3900   -12.8220     8.7060   117.4370   358.6590     0.0080     2.5050
  624.5000     8.1900     7.5270     6.9460   274.3900   -12.6530     8.7090   116.8850   358.7390     0.0160     2.5180
  625.0000     8.1390     7.5970     7.0050   274.3900   -12.4800     8.7120   117.6090   358.8180     0.0230     2.5180
  625.5000     8.0890     7.6270     7.0760   274.3900   -12.3520     8.7330   119.7050   358.8970     0.0220     2.5110
  626.0000     8.0380     7.4010     6.9500   274.3900   -12.3540     8.7550   121.7160   358.9760     0.0140     2.4980
  626.5000     7.9870     7.2130     6.7920   274.3900   -12.4240     8.7780   123.4950   359.0560     0.0070     2.4860
  627.0000     7.9370     7.0260     6.6350   274.3900   -12.4990     8.7910   124.7970   359.1350     0.0060     2.4790
  627.5000     7.9180     6.8380     6.4770   274.3900   -12.5750     8.7710   126.0580   359.2140     0.0160     2.4830
  628.0000     8.0670     6.6510     6.3200   274.3900   -12.6500     8.7510   124.4800   359.2930     0.0520     2.4850
  628.5000     7.2390     6.4630     6.1630   274.3900   -12.7250     8.7290   121.5340   359.3730     0.0610     2.4860
  629.0000     6.6570     6.2760     6.0050   274.3900   -12.8000     8.7090   119.0080   359.4520     0.0530     2.4770
  629.5000     6.3740     6.0920     5.8480   274.3900   -12.8760     8.6880   117.6050   359.5310     0.0360     2.4700
  630.0000     6.2070     5.9110     5.6890   274.3900   -12.9500     8.6670   121.3690   359.6100     0.0190     2.4800
  630.5000     7.3460     5.7300     5.5270   274.3900   -13.0280     8.6460   126.8690   359.6900     0.0120     2.4850
  631.0000     7.3460     5.5490     5.3660   274.3900   -13.1020     8.6250   132.4570   359.7690     0.0190     2.4770
  631.5000     6.6110     5.3680     5.2040   274.3900   -13.1480     8.6040   133.1020   359.8480     0.0280     2.4640
  632.0000     5.4790     5.1860     5.0520   274.3900   -12.9900     8.5830   130.8450   359.9270     0.0410     2.4490
  632.5000     4.1900     5.0710     5.0520   274.3900   -12.7710     8.5630   126.4550   360.0070     0.0480     2.4340
  633.0000     4.5650     5.1440     5.1660   274.3900   -12.7540     8.5420   122.7360   360.0860     0.0340     2.4330
  633.5000     5.2080     5.2180     5.4120   274.3900   -12.7510     8.5210   118.8070   360.1650     0.0240     2.4540
  634.0000     6.2550     5.2910     5.6580   274.3900   -12.7540     8.5000   115.2910   360.2440     0.0220     2.4730
  634.5000     7.2100     5.3440     5.9040   274.3900   -12.7550     8.4780   114.3580   360.3240     0.0240     2.4950
  635.0000     7.2100     5.6370     6.1500   274.3900   -12.7190     8.4770   116.2540   360.4030     0.0260     2.5040
  635.5000     7.1450     5.9720     6.3960   274.3900   -12.6360     8.4930   117.9440   360.4820     0.0270     2.5030
  636.0000     7.0840     6.3070     6.6420   274.3900   -12.5600     8.5080   117.4110   360.5610     0.0220     2.4960
  636.5000     7.0240     6.6420     6.8160   274.3900   -12.4820     8.5220   116.1530   360.6410     0.0170     2.4820
  637.0000     6.9450     6.9450     6.6590   274.3900   -12.3950     8.5370   114.9230   360.7200     0.0100     2.4710
  637.5000     7.2600     6.6240     6.3410   274.3900   -12.3680     8.5520   114.7600   360.7990     0.0070     2.4710
  638.0000     7.4850     6.3300     6.0220   274.3900   -12.4560     8.5660   116.0180   360.8780     0.0100     2.4780
  638.5000     7.4850     6.0370     5.7040   274.3900   -12.5340     8.5810   117.0120   360.9580     0.0240     2.4850
  639.0000     7.3110     5.7440     5.5480   274.3900   -12.6160     8.5960   117.6800   361.0370     0.0320     2.4940
  639.5000     6.6700     5.4500     4.9530   274.3900   -12.6980     8.6100   118.3730   361.1160     0.0680     2.4860
  640.0000     5.3780     5.1570     4.4180   274.3900   -12.7780     8.6260   119.0210   361.1950     0.1360     2.4580
  640.5000     3.4740     4.9400     4.2690   274.3900   -12.8610     8.6210   119.7380   361.2750     0.1160     2.3860
  641.0000     3.5620     4.8830     4.2690   274.3900   -12.9420     8.5780   119.5580   361.3540     0.0670     2.3110
  641.5000     4.4000     4.8260     4.4120   274.3900   -13.0200     8.5340   119.3720   361.4330     0.0160     2.3250
  642.0000     5.4890     4.7760     4.6090   274.3900   -13.1130     8.5000   117.8860   361.5120     0.0050     2.3740
  642.5000     6.5780     5.0570     4.8060   274.3900   -13.1610     8.4830   114.9830   361.5920     0.0160     2.4430
  643.0000     7.0760     5.3050     5.0030   274.3900   -13.1410     8.4630   114.1380   361.6710     0.0460     2.4900
  643.5000     6.4940     5.5520     5.1990   274.3900   -12.9480     8.4420   113.1730   361.7500     0.0670     2.4830
  644.0000     5.9790     5.8000     5.3960   274.3900   -12.7780     8.4230   112.4970   361.8290     0.0650     2.4640
  644.5000     6.3180     6.0470     5.6280   274.3900   -12.5910     8.4040   111.8240   361.9090     0.0400     2.4500
  645.0000     6.5660     6.2940     5.8560   274.3900   -12.4160     8.3810   115.0850   361.9880     0.0250     2.4760
  645.5000     7.0030     6.5420     6.0830   274.3900   -12.2380     8.3660   118.3510   362.0670     0.0310     2.5140
  646.0000     7.3800     6.7890     6.3110   274.3900   -12.0430     8.3170   117.9750   362.1470     0.0290     2.5090
  646.5000     7.7570     7.0550     6.5380   274.3900   -11.9510     8.3230   115.8620   362.2260     0.0250     2.5070
  647.0000     8.1350     7.3510     6.7660   274.3900   -12.0130     8.3370   112.8960   362.3050     0.0210     2.5020
  647.5000     8.2200     7.6470     6.9450   274.3900   -12.0570     8.3540   109.1680   362.3840     0.0190     2.5060
  648.0000     8.2200     7.7710     7.0760   274.3900   -12.1040     8.3680   107.0650   362.4640     0.0190     2.5120
  648.5000     8.2200     7.7710     7.3460   274.3900   -12.1540     8.3840   108.5660   362.5430     0.0250     2.5200
  649.0000     8.2200     7.7710     7.3460   274.3900   -12.2010     8.3890   110.0640   362.6220     0.0260     2.5160
  649.5000     8.2200     7.7710     7.3460   274.3900   -12.2490     8.3860   110.7320   362.7010     0.0200     2.5050
  650.0000     8.2200     7.7710     7.3460   274.3900   -12.2970     8.3850   109.9170   362.7810     0.0160     2.5020
