~VERSION INFORMATION
 VERS.                2.0:   CWLS LOG ASCII STANDARD - VERSION 2.0
 WRAP.                 NO:   ONE LINE PER DEPTH STEP
~WELL INFORMATION
#MNEM.UNIT      DATA TYPE    INFORMATION
#----------   ------------   ------------------------------
 STRT.F          640.0000:   START DEPTH
 STOP.F         2792.0000:   STOP DEPTH
 STEP.F            0.5000:   STEP LENGTH
 NULL.          -999.2500:   NO VALUE
 COMP.    FENIX & SCISSON:   COMPANY
 WELL.   FENIX SHX #41-11:   WELL
 FLD .        TEAPOT DOME:   FIELD
 LOC .      S11 T38N R78W:   LOCATION
 CNTY.            NATRONA:   COUNTY
 STAT.            WYOMING:   STATE
 CTRY. UNITED STATES OF AMERICA:   COUNTRY
 SRVC.           BIRDWELL:   SERVICE COMPANY
 DATE.        07-JUL-1979:   LOGDATE
 API .     49025107880000:   API NUMBER
~CURVE INFORMATION
#MNEM.UNIT       API CODE    CURVE DESCRIPTION
#----------   ------------   ------------------------------
 DEPT.F                  :   
 CALD.IN     45 280 60 00:   CALIPER FROM DENSITY LOG
 RHOB.G/C3   45 350 01 00:   BULK DENSITY
 CORR.G/C3   45 356 01 00:   DENSITY CORRECTION
 GRD .GAPI   45 310 01 00:   GAMMA RAY FROM DENSITY LOG
~PARAMETER INFORMATION
#MNEM.UNIT          VALUE    DESCRIPTION
#----------   ------------   ------------------------------
 EKB .F         5168.0000:   Kelly bushing
 EGL .F         5158.0000:   Ground level
 EDF .F            0.0000:   Drilling floor
 EPD .F            0.0000:   Permanent datum
 TD  .F         2801.0000:   Total depth
 DATE.        07-JUL-1979:   Date logged
 CLNT.            A2DTECH:   Client Code
 SL  . 95' FNL & 2414' FWL:   Surface Location
 PD  .                 GL:   Permanent Datum
 DAPD.F                10:   Feet Above Permanent Datum
 DD  .F              2801:   Depth driller
 DL  .F              2791:   Depth logger
 BLI .F              2790:   Bottom log interval
 TLI .F               640:   Top log interval
 CS1 .IN            9.625:   Casing size
 CBD1.      9.625" @ 909':   Casing driller 1
 CBL1.F               910:   Casing logger 1
 BS1 .IN             8.75:   Bit size
 BSD1.F              2801:   Depth drilled with bit1
 DFT .                AIR:   Type fluid in hole
 LUN .               2959:   Logging unit number
 LUL .             CASPER:   Logging unit location
 ENGI.         B. RULLINS:   Recorded By
 WITN.           GINSMORE:   Witnessed by
 ORIG.           5" PRINT:   Origin of data
 UWI .     49025107880000:   Unique Well ID
 DICO. A2D TECHNOLOGIES, INC.:   Digitizing Company
~OTHER INFORMATION
~A   DEPT     CALD       RHOB       CORR         GRD  
# ...
  932.0000    11.0240     2.4350     0.0080   129.9530
  932.5000    11.0190     2.4380     0.0060   129.2570
  933.0000    11.0040     2.4460     0.0050   130.4970
  933.5000    11.0450     2.4530     0.0260   134.1310
  934.0000    11.1000     2.4610     0.0480   135.0160
  934.5000    11.1560     2.4620     0.0630   129.7210
  935.0000    11.1640     2.4390     0.0530   126.0440
  935.5000    11.1640     2.4140     0.0460   125.5210
  936.0000    11.1630     2.4130     0.0770   126.7490
  936.5000    11.2120     2.4650     0.1070   128.4320
  937.0000    11.2780     2.4580     0.1060   130.1400
  937.5000    11.3440     2.4380     0.0300   131.8880
  938.0000    11.3700     2.4390     0.0050   131.1750
  938.5000    11.3830     2.4500     0.0470   130.8590
  939.0000    11.4060     2.4620     0.1050   132.5690
  939.5000    11.4040     2.4740     0.1240   132.8130
  940.0000    11.3900     2.4750     0.1010   130.5000
  940.5000    11.3870     2.4680     0.0720   127.3710
  941.0000    11.3750     2.4620     0.0430   124.2300
  941.5000    11.1410     2.4550     0.0150   121.0640
  942.0000    11.0830     2.4550     0.0140   119.9250
  942.5000    11.0250     2.4650     0.0330   120.7030
  943.0000    10.9750     2.4770     0.0520   121.6250
  943.5000    10.8970     2.4880     0.0710   120.4990
  944.0000    10.8180     2.4950     0.0630   119.3270
  944.5000    10.7380     2.4740     0.0300   119.1380
  945.0000    10.7200     2.4590     0.0040   119.6760
  945.5000    10.7150     2.4620     0.0040   122.5950
  946.0000    10.7110     2.4670     0.0070   125.5320
  946.5000    10.7060     2.4720     0.0120   122.7670
  947.0000    10.7010     2.4770     0.0180   121.8170
  947.5000    10.6960     2.4820     0.0230   123.7730
  948.0000    10.6910     2.4870     0.0280   123.7690
  948.5000    10.6860     2.4880     0.0270   121.3800
  949.0000    10.6810     2.4880     0.0220   119.0250
  949.5000    10.6760     2.4890     0.0170   116.6560
  950.0000    10.6720     2.4720     0.0120   115.5840
  950.5000    10.6670     2.4470     0.0070   116.0570
  951.0000    10.6620     2.4460     0.0040   117.8020
  951.5000    10.6570     2.4520     0.0040   118.9430
  952.0000    10.6520     2.4590     0.0060   119.3720
  952.5000    10.6470     2.4650     0.0080   123.4650
  953.0000    10.6420     2.4700     0.0110   123.6950
  953.5000    10.6370     2.4700     0.0130   121.4800
  954.0000    10.6320     2.4710     0.0150   120.0730
  954.5000    10.6270     2.4860     0.0180   120.8780
  955.0000    10.6240     2.4940     0.0180   121.9090
  955.5000    10.6270     2.4870     0.0100   120.8520
  956.0000    10.6300     2.4770     0.0000   117.0930
  956.5000    10.6340     2.4720    -0.0080   113.3830
  957.0000    10.6370     2.4750    -0.0070   110.4590
  957.5000    10.6400     2.4810     0.0010   110.3220
  958.0000    10.6440     2.4860     0.0080   114.0300
  958.5000    10.6470     2.4910     0.0150   118.4720
  959.0000    10.6500     2.4960     0.0160   119.9370
  959.5000    10.6540     2.4970     0.0160   120.9200
  960.0000    10.6570     2.4880     0.0160   122.2990
  960.5000    10.6610     2.4790     0.0090   121.4740
  961.0000    10.6640     2.4700     0.0030   120.5750
  961.5000    10.6670     2.4600    -0.0030   119.7350
  962.0000    10.6710     2.4560    -0.0080   117.0310
  962.5000    10.6740     2.4600    -0.0060   115.3790
  963.0000    10.6770     2.4710     0.0060   115.1520
  963.5000    10.6810     2.4790     0.0140   114.5480
  964.0000    10.6820     2.4790     0.0130   112.7820
  964.5000    10.6730     2.4800     0.0090   111.0190
  965.0000    10.6640     2.4800     0.0040   109.3320
  965.5000    10.6560     2.4810     0.0040   109.4830
  966.0000    10.6470     2.4810     0.0040   113.7930
  966.5000    10.6380     2.4830     0.0060   118.1330
  967.0000    10.6290     2.4860     0.0070   122.0560
  967.5000    10.6230     2.4890     0.0110   121.7370
  968.0000    10.6240     2.4920     0.0150   120.1130
  968.5000    10.6440     2.4950     0.0190   121.5460
  969.0000    10.6660     2.4970     0.0220   120.1790
  969.5000    10.6880     2.4920     0.0220   117.9940
  970.0000    10.7100     2.4870     0.0220   116.4950
  970.5000    10.7320     2.4820     0.0220   117.3720
  971.0000    10.7440     2.4770     0.0220   115.7700
  971.5000    10.7430     2.4720     0.0200   114.5800
  972.0000    10.7070     2.4710     0.0160   114.4490
  972.5000    10.6680     2.4730     0.0130   115.4290
  973.0000    10.6300     2.4820     0.0130   116.4130
  973.5000    10.5910     2.4910     0.0150   117.4580
  974.0000    10.5520     2.5000     0.0160   113.6540
  974.5000    10.5130     2.5010     0.0160   111.7810
  975.0000    10.4730     2.4960     0.0120   114.3070
  975.5000    10.4610     2.4920     0.0090   119.7030
  976.0000    10.4550     2.4960     0.0080   121.8920
  976.5000    10.4510     2.5050     0.0090   118.3940
  977.0000    10.4460     2.5060     0.0130   113.7210
  977.5000    10.4410     2.5050     0.0180   110.5490
  978.0000    10.4360     2.5030     0.0220   111.4730
  978.5000    10.4310     2.5050     0.0260   113.5300
  979.0000    10.4260     2.5100     0.0280   112.5210
  979.5000    10.4210     2.5120     0.0260   112.8100
  980.0000    10.4160     2.5100     0.0230   115.1190
  980.5000    10.4120     2.5060     0.0200   112.3450
  981.0000    10.4070     2.5020     0.0170   108.5890
  981.5000    10.4020     2.5000     0.0140   104.9650
  982.0000    10.4290     2.5040     0.0110   104.8220
  982.5000    10.4710     2.5080     0.0080   108.0970
  983.0000    10.5120     2.5040     0.0050   110.2130
  983.5000    10.5540     2.4970     0.0010   110.2840
  984.0000    10.5960     2.4960    -0.0020   109.9810
  984.5000    10.6240     2.4980    -0.0020   109.8440
  985.0000    10.6270     2.4960    -0.0020   113.2950
  985.5000    10.6370     2.4860     0.0000   117.7730
  986.0000    10.6480     2.4780     0.0020   117.6060
  986.5000    10.6580     2.4800     0.0020   116.1530
  987.0000    10.6680     2.4860     0.0020   116.4640
  987.5000    10.6780     2.4910     0.0020   118.8420
  988.0000    10.6890     2.4860     0.0020   121.1500
  988.5000    10.6990     2.4510     0.0060   123.4400
  989.0000    10.7090     2.4170     0.0250   125.4430
  989.5000    10.7210     2.3860     0.0740   124.9540
  990.0000    10.8070     2.3850     0.1530   123.3560
  990.5000    10.9950     2.4510     0.1540   121.7740
  991.0000    10.8510     2.4760     0.0900   121.5200
  991.5000    10.6450     2.4780     0.0200   122.7300
  992.0000    10.6420     2.4870     0.0060   124.4390
  992.5000    10.6430     2.4940     0.0060   126.1880
  993.0000    10.6430     2.4890     0.0050   126.9950
  993.5000    10.6430     2.4820     0.0050   124.5800
  994.0000    10.6430     2.4780     0.0040   121.5270
  994.5000    10.6430     2.4770     0.0060   119.7410
  995.0000    10.6430     2.4760     0.0100   120.2800
  995.5000    10.6430     2.4730     0.0120   123.5910
  996.0000    10.6430     2.4660     0.0100   127.8770
  996.5000    10.6430     2.4580     0.0070   129.4860
  997.0000    10.6430     2.4500     0.0040   127.6300
  997.5000    10.6430     2.4460     0.0010   127.5760
  998.0000    10.6430     2.4490    -0.0020   131.5070
  998.5000    10.6430     2.4570    -0.0040   132.0100
  999.0000    10.6430     2.4660    -0.0040   129.4220
  999.5000    10.6430     2.4760    -0.0020   125.3370
 1000.0000    10.6430     2.4850     0.0020   121.1300
 1000.5000    10.6430     2.4950     0.0070   119.9590
 1001.0000    10.6430     2.5010     0.0110   121.4330
 1001.5000    10.6430     2.4900     0.0120   123.1020
 1002.0000    10.6430     2.4770     0.0100   123.7970
 1002.5000    10.6430     2.4660     0.0060   121.4280
 1003.0000    10.6430     2.4690     0.0030   118.5640
 1003.5000    10.6300     2.4880     0.0030   116.3720
 1004.0000    10.6030     2.5060     0.0100   117.0170
 1004.5000    10.5760     2.5100     0.0130   117.9370
