~VERSION INFORMATION
 VERS.                2.0:   CWLS LOG ASCII STANDARD - VERSION 2.0
 WRAP.                 NO:   ONE LINE PER DEPTH STEP
~WELL INFORMATION
#MNEM.UNIT      DATA TYPE    INFORMATION
#----------   ------------   ------------------------------
 STRT.F          200.0000:   START DEPTH
 STOP.F         3160.0000:   STOP DEPTH
 STEP.F            0.5000:   STEP LENGTH
 NULL.          -999.2500:   NO VALUE
 COMP.    FENIX & SCISSON:   COMPANY
 WELL. FENIX NPR 3 "AX" #72-3:   WELL
 FLD .             TEAPOT:   FIELD
 LOC .       S3 T38N R78W:   LOCATION
 CNTY.            NATRONA:   COUNTY
 STAT.            WYOMING:   STATE
 CTRY. UNITED STATES OF AMERICA:   COUNTRY
 SRVC.           BIRDWELL:   SERVICE COMPANY
 DATE.        10-JAN-1978:   LOGDATE
 API .     49025105530000:   API NUMBER
~CURVE INFORMATION
#MNEM.UNIT       API CODE    CURVE DESCRIPTION
#----------   ------------   ------------------------------
 DEPT.F                  :   
 CALD.IN     45 280 60 00:   CALIPER FROM DENSITY LOG
 GRD .GAPI   45 310 01 00:   GAMMA RAY FROM DENSITY LOG
 DEN .LBS    45 635 01 00:   BUCK DENSITY
 CORR.G/C3   45 356 01 00:   DENSITY CORRECTION
 SPR .MV     07 010 01 00:   SPONTANEOUS POTENTIAL
 ILD .OHMM   07 120 46 00:   DEEP INDUCTION RESISTIVITY
 ILM .OHMM   07 120 44 00:   INDUCTION LOG MEDIUM RESISTIVITY
~PARAMETER INFORMATION
#MNEM.UNIT          VALUE    DESCRIPTION
#----------   ------------   ------------------------------
 EKB .F         5164.0000:   Kelly bushing
 EGL .F         5153.0000:   Ground level
 TD  .F         3157.0000:   Total depth
 DATE.        10-JAN-1978:   Date logged
 CLNT.            A2DTECH:   Client Code
 SL  . 900' FNL & 900' FEL:   Surface Location
 PD  .                 GL:   Permanent Datum
 EPD .F              5153:   Elevation Permanent Datum
 LMF .                 KB:   Log Measured From
 DMF .                 KB:   Drilling Measured From
 DAPD.F                11:   Feet Above Permanent Datum
 DD  .F              3156:   Depth driller
 DL  .F              3157:   Depth logger
 BLI .F              3157:   Bottom log interval
 TLI .F               200:   Top log interval
 CS1 .IN            8.625:   Casing size
 CBD1.      8.625" @ 222':   Casing driller 1
 CBL1.F               220:   Casing logger 1
 BS1 .IN            7.875:   Bit size
 BSD1.F              3156:   Depth drilled with bit1
 DFT .                KCL:   Type fluid in hole
 DFD .                8.5:   Density
 DFV .                 36:   Viscosity
 DFPH.                 10:   pH
 DFL .                8.8:   Fluid loss
 MSS .           FLOWLINE:   Source of sample
 RMS .OHMM            1.4:   Rm
 MST .F                66:   Rm Meas. temp.
 RMF .OHMM            .85:   Rmf
 MFST.F                74:   Rmf Meas. temp.
 RMC .OHMM            1.4:   Rmc
 MCST.F                72:   Rmc Meas. temp.
 MFSS.               MEAS:   Source Rmf.
 MCSS.               MEAS:   Source Rmc.
 RMB .OHMM            .83:   Rm. at BHT
 BHT .F               112:   BHT.
 TCS .HRS               4:   Time Circ. stopped
 MRT .F               112:   Maximum recorded temp.
 LUN .               2958:   Logging unit number
 LUL .             CASPER:   Logging unit location
 ENGI.            POINTER:   Recorded By
 WITN.         HARRINGTON:   Witnessed by
 ORIG.           5" PRINT:   Origin of data
 UWI .     49025105530000:   Unique Well ID
 DICO. A2D TECHNOLOGIES, INC.:   Digitizing Company
~OTHER INFORMATION
~A   DEPT     CALD        GRD          DEN     CORR        SPR        ILD        ILM   
# ...
  382.0000     9.9536    91.4329     2.3492     0.1176   -53.7449    10.2500     6.8682
  382.5000     9.9538    89.2610     2.3462     0.0916   -57.9190    10.2524     6.9981
  383.0000     9.9540    87.4842     2.3522     0.0937   -57.9089    10.2547     7.1298
  383.5000     9.9542    87.2886     2.4012     0.0977   -56.7028    10.3523     7.4681
  384.0000     9.9544    88.6740     2.4052     0.1057   -56.0951    10.4508     7.9683
  384.5000     9.9546    92.2333     2.4072     0.1077   -54.8906    10.8466     8.5019
  385.0000     9.9548    97.9666     2.4042     0.1077   -60.0600    10.9498     9.1554
  385.5000     9.9550   103.5023     2.4052     0.1078   -53.6753    10.9524     9.8591
  386.0000     9.9552   109.2328     2.4032     0.1138   -57.6514    11.0566     9.8614
  386.5000     9.9554   111.6064     2.4032     0.1198   -54.6532    11.1617     9.8637
  387.0000     9.9556   111.4107     2.4033     0.1218   -54.6431    11.1643     9.8659
  387.5000     9.9558   102.3244     2.4053     0.1158   -55.8275    11.2705     9.8682
  388.0000     9.9560    99.5596     2.4093     0.1099   -56.2159    11.2731     9.8705
  388.5000     9.9562    94.8184     2.4183     0.1079   -56.2058    11.2757     9.9643
  389.0000     9.9564    94.6227     2.4363     0.1079   -56.9926    11.2783     9.8750
  389.5000     9.9566    96.0082     2.4333     0.1059   -58.5730    11.2809     9.8773
  390.0000     9.9567    98.3817     2.4333     0.1060   -58.3677    11.2836     9.8796
  390.5000     9.9569   101.3482     2.4263     0.1060   -54.3735    11.2862     9.8819
  391.0000     9.9571   105.8953     2.4233     0.1000   -55.5579    11.2888     9.8842
  391.5000     9.9573   111.4309     2.4284     0.1000   -54.5518    11.2914     9.8864
  392.0000     9.9575   112.4211     2.4304     0.0981   -53.9441    11.2940     9.8887
  392.5000     9.9577   110.2491     2.4324     0.0961   -56.1253    11.1927     9.5317
  393.0000     9.9579   106.6937     2.4274     0.0961   -57.9089    10.9904     9.8933
  393.5000     9.9581   101.3600     2.4264     0.0941   -54.7108    10.9929     9.8956
  394.0000     9.9583    98.5928     2.4194     0.0901   -55.0959    10.9954     9.9896
  394.5000     9.9583    97.8043     2.4065     0.0922   -52.8978    10.9980    10.0845
  395.0000     9.9387    97.8062     2.4005     0.0942   -50.8956    11.0005    10.1804
  395.5000     9.9389    99.3893     2.3875     0.0942   -50.2900    11.0031     9.9965
  396.0000     9.9391   101.9624     2.3645     0.0982   -49.4798    11.0056     9.2873
  396.5000     9.9393   106.9052     2.3566     0.1022   -50.1186    10.9079     9.2050
  397.0000     9.9395   108.6859     2.3436     0.1063   -53.4471    10.8091     8.2412
  397.5000     9.9597   107.3044     2.3266     0.1203   -55.0335    10.6137     7.6565
  398.0000     9.9599   103.5514     2.3126     0.1423   -55.6191    10.3260     7.1133
  398.5000     9.9601    99.2035     2.2767     0.1703   -55.2106    10.2334     7.1150
  399.0000     9.9603    99.4027     2.2467     0.1623   -52.0124    10.2358     7.1163
  399.5000     9.9605   102.6642     2.2228     0.0784   -50.8071    10.2382     7.1183
  400.0000     9.9607   104.7428     2.2188     0.0744   -50.0030    10.2405     7.1859
  400.5000     9.9609   103.9803     2.3042     0.0828   -50.3492    10.2432     7.1027
  401.0000     9.9614    97.4400     2.3297     0.0925   -53.9732    10.2488     7.1711
  401.5000     9.9420    94.6765     2.3317     0.0985   -54.1639    10.3482     7.4444
  402.0000     9.9423    94.0870     2.3157     0.1085   -54.5559    10.2574     7.5168
  402.5000     9.9427    94.2880     2.3028     0.1206   -59.7256    10.3569     7.5199
  403.0000     9.9430    94.0938     2.2848     0.1406   -56.7340    10.2659     7.3173
  403.5000     9.9434    92.9113     2.2628     0.1566   -52.1466    10.2702     7.2530
  404.0000     9.9437    91.7288     2.2528     0.1666   -49.9494    10.2745     7.1231
  404.5000     9.9441    91.1392     2.2079     0.2046   -49.5460    10.2788     7.1261
  405.0000     9.9444    92.5261     2.1879     0.2266   -49.7389    10.2831     7.1291
  405.5000     9.9447    95.4943     2.1700     0.0808   -50.1309    10.2874     7.2860
  406.0000     9.9450    98.6603     2.1710     0.0629   -51.5186    10.3863     7.7754
  406.5000     9.9454   104.3942     2.1950     0.0609   -52.3088    10.6826     8.2969
  407.0000     9.9457   104.5940     2.5037     0.0609   -52.5016    10.6871     9.1026
  407.5000     9.9461    98.0776     2.3379     0.0610   -53.0926    10.7907     9.4488
  408.0000     9.9464    96.8951     2.3239     0.0650   -53.4854    10.6960     9.7180
  408.5000     9.9467    93.3405     2.2759     0.0770   -54.0776    10.7997     9.9031
  409.0000     9.9471    93.3439     2.2540     0.0871   -49.2924    10.7049     9.7262
  409.5000     9.9672    94.3356     2.2370     0.1071   -50.4795    10.4167     8.7912
  410.0000     9.9478    94.9321     2.1955     0.2030   -59.0335    10.4211     8.2449
  410.5000     9.9481    96.3192     2.1341     0.1231   -59.0283    10.4254     7.8042
  411.0000     9.9682    96.9156     2.1111     0.0832   -57.8262    10.3339     6.9251
  411.5000     9.9686    96.9191     2.1161     0.1112   -57.2225    10.2432     6.8645
  412.0000     9.9492    95.3411     2.3650     0.1532   -55.6233    10.2475     6.8674
  412.5000     9.9693    91.1931     2.3630     0.0953   -53.6273    10.2518     6.8703
  413.0000     9.9696    88.0336     2.2031     0.0913   -53.4202    10.2560     6.8732
  413.5000     9.9502    87.2462     2.2221     0.0574   -51.4244    10.2603     6.8129
  414.0000     9.9505    87.6449     2.3031     0.0554   -51.2202    10.3590     7.0720
  414.5000     9.9509    90.6136     2.3171     0.0515   -49.4214    10.3633     7.5469
  415.0000     9.9512    94.5708     2.4210     0.0595   -48.4198    10.3676     8.2029
  415.5000     9.9516    98.1320     2.4040     0.0735   -49.8091    10.8621     8.6733
  416.0000     9.9519   104.0663     2.3871     0.0776   -49.8016    10.9085     9.6926
  416.5000     9.9523   115.7331     2.3758     0.0876   -49.7953    10.9103    10.5152
  417.0000     9.9526   112.9698     2.3615     0.1016   -45.8073    10.9149    10.6164
  417.5000     9.9530   110.9941     2.3481     0.1137   -49.1869    10.9194    10.6208
  418.0000     9.9533   110.7999     2.3381     0.1397   -46.3920    10.9240    10.7239
  418.5000     9.9537   111.1989     2.3162     0.1737   -48.3760    11.0300    10.6297
  419.0000     9.9540   103.8887     2.2932     0.2017   -50.1606    11.1371    10.9331
  419.5000     9.9543    96.3808     2.2732     0.2097   -45.7773    11.1418    10.6385
  420.0000     9.9547    93.6163     2.2752     0.0918   -43.3855    11.1464    11.0438
  420.5000     9.9550    89.8631     2.3155     0.0799   -44.9679    11.1510    10.9468
  421.0000     9.9554    88.2847     2.5741     0.0759   -45.7589    11.1557    10.6519
  421.5000     9.9557    86.7063     2.5104     0.0720   -48.3397    11.1603    10.9559
  422.0000     9.9561    87.8960     2.4482     0.0680   -51.5185    11.1641    10.7589
  422.5000     9.9564    91.4583     2.4512     0.0620   -45.7404    11.2724    10.9642
  423.0000     9.9568    95.0207     2.4552     0.0581   -44.7393    11.3818    10.9687
  423.5000     9.9571    97.9893     2.4482     0.0561   -44.5341    11.4923    10.6732
  424.0000     9.9575   100.3655     2.4343     0.0561   -45.3238    11.4971    10.6777
  424.5000     9.9578   102.5424     2.4253     0.0502   -45.9145    11.5019    10.9825
  425.0000     9.9581   102.3474     2.4093     0.0322   -46.1073    11.5067    11.0891
  425.5000     9.9585   101.7577     2.3963     0.0123   -45.7032    11.5105    11.1967
  426.0000     9.9588   100.5748     2.3833    -0.0017   -45.4981    11.5163    11.3054
  426.5000     9.9592    97.4168     2.3594    -0.0196   -43.3035    11.6929    11.6280
  427.0000     9.9595    92.8729     2.3324    -0.0216   -43.0960    11.6978    11.9609
