~VERSION INFORMATION
 VERS.                2.0:   CWLS LOG ASCII STANDARD - VERSION 2.0
 WRAP.                 NO:   ONE LINE PER DEPTH STEP
~WELL INFORMATION
#MNEM.UNIT      DATA TYPE    INFORMATION
#----------   ------------   ------------------------------
 STRT.F          206.0000:   START DEPTH
 STOP.F         2974.0000:   STOP DEPTH
 STEP.F            0.5000:   STEP LENGTH
 NULL.          -999.2500:   NO VALUE
 COMP.    FENIX & SCISSON:   COMPANY
 WELL.    FENIX AX #32-21:   WELL
 FLD .                NPR:   FIELD
 LOC .      S21 T39N R78W:   LOCATION
 CNTY.            NATRONA:   COUNTY
 STAT.            WYOMING:   STATE
 CTRY. UNITED STATES OF AMERICA:   COUNTRY
 SRVC.              WELEX:   SERVICE COMPANY
 DATE.        29-JUL-1977:   LOGDATE
 API .     49025104050000:   API NUMBER
~CURVE INFORMATION
#MNEM.UNIT       API CODE    CURVE DESCRIPTION
#----------   ------------   ------------------------------
 DEPT.F                  :   
 SPR .MV     07 010 01 00:   SPONTANEOUS POTENTIAL
 RILM.OHMM   07 120 44 00:   INDUCTION LOG MEDIUM RESISTIVITY
 RILD.OHMM   07 120 46 00:   INDUCTION LOG DEEP RESISTIVITY
 SGRD.OHMM   07 220 05 00:   SHALLOW GUARD LOG RESISTIVITY
 CALD.IN     45 280 60 00:   CALIPER FROM DENSITY LOG
 RHOB.G/C3   45 350 01 00:   BULK DENSITY
 DCOR.G/C3   45 356 01 00:   DENSITY CORRECTION
 GRD .GAPI   45 310 01 00:   GAMMA RAY FROM DENSITY LOG
~PARAMETER INFORMATION
#MNEM.UNIT          VALUE    DESCRIPTION
#----------   ------------   ------------------------------
 EKB .F         4995.0000:   Kelly bushing
 EGL .F         4985.0000:   Ground level
 EDF .F            0.0000:   Drilling floor
 EPD .F         4985.0000:   Permanent datum
 TD  .F         2978.0000:   Total depth
 DATE.        29-JUL-1977:   Date logged
 CLNT.            A2DTECH:   Client Code
 SL  . 1040' FNL & 1500' FWL:   Surface Location
 PD  .                 GL:   Permanent Datum
 LMF .                 KB:   Log Measured From
 DMF .                 KB:   Drilling Measured From
 DAPD.F                10:   Feet Above Permanent Datum
 DD  .F              2972:   Depth driller
 DL  .F              2978:   Depth logger
 BLI .F              2976:   Bottom log interval
 TLI .F               120:   Top log interval
 CS1 .IN            8.625:   Casing size
 CBD1.      8.625" @ 205':   Casing driller 1
 CBL1.F               220:   Casing logger 1
 BS1 .IN            7.875:   Bit size
 BSD1.F              2972:   Depth drilled with bit1
 DFT .                KCL:   Type fluid in hole
 DFD .                9.2:   Density
 DFV .                 43:   Viscosity
 DFPH.                 10:   pH
 DFL .                  8:   Fluid loss
 MSS .            MUD PIT:   Source of sample
 RMS .OHMM            .21:   Rm
 MST .F                91:   Rm Meas. temp.
 RMF .OHMM            .18:   Rmf
 MFST.F                91:   Rmf Meas. temp.
 RMC .OHMM            .23:   Rmc
 MCST.F                91:   Rmc Meas. temp.
 MFSS.               MEAS:   Source Rmf.
 MCSS.               MEAS:   Source Rmc.
 RMB .OHMM            .17:   Rm. at BHT
 BHT .F               110:   BHT.
 TCS .HRS               3:   Time Circ. stopped
 MRT .F               110:   Maximum recorded temp.
 LUN .               9685:   Logging unit number
 LUL .             CASPER:   Logging unit location
 ENGI.   T JOYNER/ E HOCH:   Recorded By
 WITN.         PETTINGILL:   Witnessed by
 ORIG.     2.5", 5" PRINT:   Origin of data
 UWI .     49025104050000:   Unique Well ID
 DICO. A2D TECHNOLOGIES, INC.:   Digitizing Company
~OTHER INFORMATION
~A   DEPT      SPR       RILM       RILD       SGRD       CALD       RHOB       DCOR         GRD  
# ...
  368.0000   -79.1810     8.9260     7.1110     8.7940     9.2500     2.4430     0.0440   116.2620
  368.5000   -80.2770     9.2130     7.2200     9.2030     9.2360     2.4540     0.0490   114.8460
  369.0000   -81.3860     9.5580     7.3300     9.6030     9.2210     2.4660     0.0520   113.5870
  369.5000   -82.4340     9.8310     7.4390    10.0030     9.2240     2.4690     0.0480   112.2740
  370.0000   -83.9380    10.1030     7.5490    10.4800     9.2320     2.4650     0.0460   110.9660
  370.5000   -85.9900    10.2980     7.6580    10.4750     9.2410     2.4610     0.0430   109.6640
  371.0000   -87.6990    10.4610     7.7670    10.4660     9.2480     2.4630     0.0400   108.3530
  371.5000   -90.9300    10.6240     7.8770    10.4570     9.2590     2.4640     0.0370   107.0950
  372.0000   -94.8140    10.7860     7.9860    10.4480     9.2410     2.4660     0.0330   105.9910
  372.5000   -99.0500    10.9490     8.0960    10.4390     9.2050     2.4680     0.0330   104.9570
  373.0000  -999.2500    11.0790     8.0870    10.4300     9.1720     2.4690     0.0370   104.5590
  373.5000  -999.2500    11.0180     8.0790    10.4210     9.1390     2.4700     0.0400   104.5240
  374.0000  -999.2500    10.9660     8.0710    10.4120     9.1070     2.4700     0.0430   103.2410
  374.5000  -999.2500    10.9150     8.0630    10.4030     9.0720     2.4710     0.0460   101.9190
  375.0000  -999.2500    10.8630     8.0540    10.3940     9.0660     2.4760     0.0490   101.2460
  375.5000  -999.2500    10.8120     8.0460    10.3850     9.0800     2.4810     0.0530   101.0860
  376.0000  -999.2500    10.7600     8.0380    10.3760     9.0920     2.4820     0.0560   100.8890
  376.5000  -999.2500    10.7090     8.0300    10.3670     9.1050     2.4810     0.0590   100.6810
  377.0000  -999.2500    10.6580     8.0210    10.3580     9.1170     2.4800     0.0620   100.4710
  377.5000  -999.2500    10.6060     8.0130    10.3490     9.1290     2.4790     0.0640   100.3570
  378.0000  -999.2500    10.5550     8.0050    10.3400     9.1420     2.4770     0.0610    99.3200
  378.5000  -999.2500    10.5030     7.9970    10.3300     9.1550     2.4790     0.0590    97.5090
  379.0000  -999.2500    10.4120     7.9890    10.3220     9.1660     2.4830     0.0570    97.5680
  379.5000  -999.2500    10.2940     7.9800    10.3130     9.1790     2.4830     0.0550    97.9640
  380.0000  -999.2500    10.1770     7.9720    10.2980     9.1710     2.4770     0.0530    97.0920
  380.5000   -81.0480    10.0590     7.9640    10.2950     9.1610     2.4710     0.0510    98.4650
  381.0000   -67.3980     9.9180     7.9560    10.1030     9.1510     2.4650     0.0490    99.7760
  381.5000   -59.5590     9.5920     7.9470     9.7900     9.1410     2.4590     0.0470   100.7380
  382.0000   -58.4310     9.1860     7.7380     9.4760     9.1310     2.4610     0.0440   100.7890
  382.5000   -58.9420     8.7790     7.5280     9.1630     9.1210     2.4630     0.0480   100.9810
  383.0000   -59.2100     8.3720     7.3180     8.8500     9.1120     2.4650     0.0550   101.1530
  383.5000   -59.5740     7.9650     7.1080     8.5370     9.1010     2.4670     0.0620   101.2990
  384.0000   -59.5620     7.4870     6.8560     8.2230     9.1170     2.4700     0.0680   101.5730
  384.5000   -59.5630     6.9620     6.5760     7.9100     9.1370     2.4720     0.0750   101.9580
  385.0000   -59.5660     6.4360     6.2270     7.6590     9.1570     2.4740     0.0810   102.3390
  385.5000   -59.5010     5.9110     5.8770     7.0730     9.1770     2.4730     0.0880   102.7200
  386.0000   -59.3550     5.3750     5.5970     6.4870     9.1950     2.4580     0.0900   103.0980
  386.5000   -59.2290     4.8330     5.1260     6.0940     9.2170     2.4380     0.0920   103.4800
  387.0000   -59.1050     4.2900     4.7340     5.7010     9.1610     2.4210     0.0930   103.7870
  387.5000   -58.9320     3.7480     4.3410     4.9610     9.0900     2.3980     0.0950   104.1530
  388.0000   -58.9040     3.2050     3.9490     4.3450     9.0180     2.3710     0.0960   103.7060
  388.5000   -58.0960     2.8110     3.4000     3.7290     8.9380     2.3260     0.0930   103.0660
  389.0000   -57.6370     2.6750     3.6440     3.2170     8.9260     2.2810     0.0900   102.4180
  389.5000   -57.3310     3.1230     4.0500     3.5790     9.0180     2.2330     0.0890   101.8680
  390.0000   -57.0610     3.4960     4.4560     3.9410     9.0980     2.1880     0.0800    99.8880
  390.5000   -56.7820     3.8690     4.8620     5.5940     9.1850     2.1400     0.0700    98.6300
  391.0000   -56.8180     4.3200     5.2690     7.2470     9.2680     2.1200     0.0380   100.6020
  391.5000   -56.8460     4.7710     5.6750     7.8020     9.3310     2.1140     0.0050   100.9120
  392.0000   -56.8880     5.2210     6.0810     7.8630     9.2500     2.1840    -0.0050   102.2020
  392.5000   -56.9220     5.6720     6.4870     7.9230     9.1780     2.3780     0.0240   104.5040
  393.0000   -56.9600     6.1230     6.6600     8.1580     9.0940     2.4640     0.0500   106.7730
  393.5000   -56.9960     6.5730     6.8320     8.5100     9.0600     2.4730     0.0520   109.0660
  394.0000   -57.0330     7.1140     7.0050     8.8610     9.0690     2.4810     0.0530   110.3580
  394.5000   -57.0690     7.3170     7.1780     9.2120     9.0740     2.4910     0.0520   111.2270
  395.0000   -57.1060     7.5190     7.3290     9.1420     9.0790     2.5010     0.0520   111.7160
  395.5000   -57.1440     7.6750     7.5190     9.0440     9.0850     2.5020     0.0520   111.4340
  396.0000   -57.1670     7.8050     7.4900     9.0900     9.0900     2.4960     0.0520   111.1180
  396.5000   -57.1500     7.9350     7.4410     9.1670     9.0960     2.4890     0.0520   111.2940
  397.0000   -57.1340     8.0650     7.3930     9.2450     9.0960     2.4830     0.0520   112.0630
  397.5000   -57.1170     8.1940     7.3440     9.3220     9.0800     2.4780     0.0520   112.7760
  398.0000   -57.1000     8.2570     7.2950     9.3840     9.0650     2.4920     0.0550   113.4920
  398.5000   -57.0840     8.2750     7.2470     9.4420     9.0490     2.5060     0.0600   114.1760
  399.0000   -57.0670     8.2940     7.2350     9.4900     9.0330     2.5220     0.0640   114.3470
  399.5000   -57.0500     8.3120     7.2240     9.5390     9.0180     2.5340     0.0690   114.5870
  400.0000   -57.0330     8.3300     7.2130     9.5580     9.0020     2.5460     0.0740   114.1140
  400.5000   -57.0160     8.3480     7.2010     9.2120     8.9860     2.5440     0.0760   113.1520
  401.0000   -57.0000     8.3670     7.1900     9.2960     8.9800     2.5400     0.0730   112.2360
  401.5000   -56.9830     8.3850     7.1790     9.4400     8.9800     2.5390     0.0710   111.4240
  402.0000   -56.9660     8.4000     7.1670     9.5580     8.9800     2.5370     0.0700   110.1340
  402.5000   -56.9490     8.2180     7.1560     9.4990     8.9800     2.5300     0.0650   108.3520
  403.0000   -56.9330     8.0620     7.1450     9.4210     8.9800     2.5180     0.0580   108.2870
  403.5000   -56.9160     7.9060     7.1330     9.3420     8.9800     2.5030     0.0510   109.4010
  404.0000   -56.8990     7.7500     7.1160     9.2640     8.9800     2.4880     0.0440   110.5030
  404.5000   -56.8820     7.5190     7.1260     9.1210     8.9800     2.4740     0.0370   110.9570
  405.0000   -56.8650     7.5360     7.1630     8.8780     8.9800     2.4580     0.0320   111.5890
  405.5000   -56.8490     7.5670     7.1990     9.2760     8.9800     2.4590     0.0330   110.7280
  406.0000   -56.8320     7.5990     7.2360     9.6310     8.9800     2.4610     0.0290   109.1260
  406.5000   -56.8150     7.6310     7.2480     9.7820     8.9800     2.4640     0.0230   107.7990
  407.0000   -56.8000     7.6590     7.2470     9.8460     8.9800     2.4640     0.0210   106.3270
  407.5000   -56.7760     7.6050     7.2470     9.9180     8.9800     2.4630     0.0250   104.7320
  408.0000   -56.8260     7.5550     7.2470     9.8490     8.9800     2.4650     0.0280   104.5850
