~VERSION INFORMATION
 VERS.                2.0:   CWLS LOG ASCII STANDARD - VERSION 2.0
 WRAP.                 NO:   ONE LINE PER DEPTH STEP
~WELL INFORMATION
#MNEM.UNIT      DATA TYPE    INFORMATION
#----------   ------------   ------------------------------
 STRT.F            0.0000:   START DEPTH
 STOP.F         4134.5000:   STOP DEPTH
 STEP.F            0.5000:   STEP LENGTH
 NULL.          -999.2500:   NO VALUE
 COMP. LAWRENCE ALLISON & ASSOCIATES:   COMPANY
 WELL. LAWRENCE NPR 3 "X" #72-10:   WELL
 FLD .            WILDCAT:   FIELD
 LOC .      S10 T38N R78W:   LOCATION
 CNTY.            NATRONA:   COUNTY
 STAT.            WYOMING:   STATE
 CTRY. UNITED STATES OF AMERICA:   COUNTRY
 SRVC.      DRESSER ATLAS:   SERVICE COMPANY
 DATE.        29-JUL-1983:   LOGDATE
 API .     49025109390000:   API NUMBER
~CURVE INFORMATION
#MNEM.UNIT       API CODE    CURVE DESCRIPTION
#----------   ------------   ------------------------------
 DEPT.F                  :   
 CALD.IN     45 280 60 00:   CALIPER FROM DENSITY LOG
 DEN .G/C3   45 350 01 00:   BULK DENSITY
 CORR.G/C3   45 356 01 00:   DENSITY CORRECTION
 TEND.LBS    45 635 01 00:   TENSION FROM DENSITY LOG
 NPHI.DEC    42 890 03 00:   NEUTRON POROSITY SANDSTONE
 GRD .GAPI   45 310 01 00:   GAMMA RAY FROM DENSITY LOG
 SPR .MV     07 010 01 00:   SPONTANEOUS POTENTIAL
 RILD.OHMM   07 120 46 00:   DEEP INDUCTION RESISTIVITY
 RILM.OHMM   07 120 44 00:   INDUCTION LOG MEDIUM RESISTIVITY
 RFOC.OHMM   07 220 04 00:   RESISTIVITY FOCUSED LOG RES.
 TENR.LBS    07 635 01 00:   TENSION FROM RESISTIVITY
 AC  .US/F   60 250 00 00:   ACCOUSTIC
 TENS.LBS    60 635 01 00:   TENSION FROM SONIC
 GRR .GAPI   07 310 01 00:   GAMMA RAY FROM RESISTIVITY
~PARAMETER INFORMATION
#MNEM.UNIT          VALUE    DESCRIPTION
#----------   ------------   ------------------------------
 EKB .F         5182.0000:   Kelly bushing
 EGL .F         5172.0000:   Ground level
 EDF .F            0.0000:   Drilling floor
 TD  .F         4139.0000:   Total depth
 DATE.        29-JUL-1983:   Date logged
 CLNT.            A2DTECH:   Client Code
 SL  . 900' FNL & 900' FEL:   Surface Location
 PD  .                 GL:   Permanent Datum
 EPD .F              5172:   Elevation Permanent Datum
 LMF .                 KB:   Log Measured From
 DMF .                 KB:   Drilling Measured From
 DAPD.F                10:   Feet Above Permanent Datum
 DD  .F              4139:   Depth driller
 DL  .F              4134:   Depth logger
 BLI .F              4132:   Bottom log interval
 CS1 .IN            9.625:   Casing size
 CBD1.      9.625" @ 476':   Casing driller 1
 BS1 .IN            7.875:   Bit size
 BSD1.F              4139:   Depth drilled with bit1
 DFT .               LSND:   Type fluid in hole
 DFD .                6.6:   Density
 DFV .                 41:   Viscosity
 DFPH.                8.5:   pH
 DFL .                 10:   Fluid loss
 MSS .           FLOWLINE:   Source of sample
 RMS .OHMM            .27:   Rm
 MST .F                91:   Rm Meas. temp.
 RMF .OHMM            .19:   Rmf
 MFST.F                87:   Rmf Meas. temp.
 RMC .OHMM            .34:   Rmc
 MCST.F                87:   Rmc Meas. temp.
 MFSS.               MEAS:   Source Rmf.
 MCSS.               CALC:   Source Rmc.
 RMB .OHMM            .19:   Rm. at BHT
 BHT .F               130:   BHT.
 TCS .HRS               3:   Time Circ. stopped
 MRT .F               130:   Maximum recorded temp.
 LUN .               6274:   Logging unit number
 LUL .               GLTF:   Logging unit location
 ENGI.             RAUTIC:   Recorded By
 WITN.             STRONG:   Witnessed by
 ORIG.           5" PRINT:   Origin of data
 UWI .     49025109390000:   Unique Well ID
 DICO. A2D TECHNOLOGIES, INC.:   Digitizing Company
~OTHER INFORMATION
~A    DEPT    CALD        DEN       CORR       TEND       NPHI        GRD        SPR       RILD       RILM       RFOC       TENR         AC       TENS         GRR  
# ...
 2646.0000     8.9750     2.4620     0.0250   -99.3840     0.1850    80.2330   -26.4930    22.6420    20.0920    18.2280   -87.2020    75.7470   -80.3910    66.9050
 2646.5000     8.9760     2.4570     0.0230   -95.8780     0.1880    80.2670   -27.3280    22.0990    19.2550    18.4970   -92.8140    75.3870   -82.2140    71.8020
 2647.0000     8.9780     2.4520     0.0280   -92.3710     0.1910    80.5520   -28.1370    21.2470    18.4460    17.7000   -92.8140    75.0150   -82.4680    73.9130
 2647.5000     8.9800     2.4510     0.0360   -88.8650     0.1950    81.9460   -28.1130    20.3960    17.6930    16.9580   -90.6510    75.2790   -81.9130    73.7480
 2648.0000     8.9820     2.4590     0.0420   -85.3580     0.1980    87.6670   -28.1030    19.7410    16.9500    16.2150   -88.5930    75.5510   -81.3590    75.8710
 2648.5000     8.9840     2.4720     0.0190   -81.8520     0.2000    93.2890   -28.6100    19.1170    16.2060    15.6760   -86.5350    75.8140   -80.8040    79.1800
 2649.0000     8.9860     2.4820    -0.0070   -78.3460     0.2000    98.0200   -29.3600    18.4940    15.9670    15.5330   -84.4780    75.9900   -80.2490    86.1270
 2649.5000     8.9870     2.4860    -0.0180   -74.8390     0.1960    99.9760   -30.1140    17.8700    16.0180    15.6400   -82.4200    76.1600   -79.6950    89.8870
 2650.0000     8.9890     2.4870    -0.0110   -71.3330     0.1910   102.0070   -30.8690    17.1850    16.0750    15.7610   -80.3620    76.0390   -79.1400    89.2250
 2650.5000     8.9910     2.4870     0.0030   -67.8260     0.1860   104.0880   -31.6230    16.8720    16.2630    16.0660   -78.3050    75.7840   -78.5860    87.4420
 2651.0000     8.9930     2.4900     0.0170   -64.3200     0.1840   103.9570   -32.3770    16.8720    16.2630    16.5480   -76.2470    75.5300   -78.0310    87.1900
 2651.5000     8.9950     2.4940     0.0310   -63.4930     0.1840   102.1120   -33.1300    16.8720    16.0980    17.0310   -74.1900    75.2750   -76.9590    88.3640
 2652.0000     8.9960     2.5050     0.0450   -69.2490     0.1820   100.2220   -33.8890    16.8720    15.9740    17.3440   -72.8540    75.0050   -72.4100    89.5270
 2652.5000     8.9980     2.5150     0.0610   -75.0050     0.1770    99.9970   -34.6820    16.8720    15.8210    17.5040   -69.1310    74.9480   -67.8610    90.4420
 2653.0000     9.0000     2.5180     0.0820   -80.7600     0.1790   100.3200   -35.1190    17.0330    15.9190    17.3840   -65.2390    74.8920   -63.3120    89.4590
 2653.5000     9.0020     2.5100     0.0920   -86.5160     0.1820   100.6760   -35.4530    16.9720    16.0450    17.2590   -61.3470    74.8350   -58.7630    87.9190
 2654.0000     9.0040     2.4970     0.0740   -92.2710     0.1990   100.9390   -35.7090    16.9020    16.1710    17.1850   -57.4540    74.7790   -54.2140    87.6280
 2654.5000     9.0060     2.4840     0.0520   -98.0270     0.1970    98.5630   -36.0040    16.8770    16.2980    17.1850   -53.5620    74.7220   -53.5460    89.4670
 2655.0000     8.9970     2.4770     0.0360  -103.7830     0.1880    94.3330   -36.2380    16.8720    16.4240    17.8290   -49.7830    74.6650   -54.8200    88.8650
 2655.5000     8.9870     2.4770     0.0220  -109.5380     0.1780    90.4040   -36.4450    17.0830    16.5500    17.6440   -52.7590    74.5800   -56.0940    85.8760
 2656.0000     8.9760     2.4810     0.0200  -104.2890     0.1700    92.3080   -36.6600    17.3030    16.7180    17.5040   -55.7360    74.2800   -57.3680    82.8650
 2656.5000     8.9650     2.4860     0.0180   -86.2000     0.1690    98.0880   -36.8500    17.5040    16.3880    17.9080   -58.7120    73.9810   -58.6410    80.8890
 2657.0000     8.9540     2.4950     0.0160   -68.1100     0.1690   103.7780   -37.0510    17.1440    15.8980    18.3280   -61.6880    73.6810   -59.9150    82.7100
 2657.5000     8.9460     2.5040     0.0150   -62.6870     0.1730   108.7900   -37.2380    16.9170    15.4070    17.8290   -64.6650    73.8160   -61.1890    86.7010
 2658.0000     8.9460     2.5090     0.0130   -62.6870     0.1790   106.0780   -37.3270    16.6840    14.9170    17.9940   -67.6410    74.0710   -62.4630    90.5820
 2658.5000     8.9470     2.5060     0.0120   -62.6870     0.1780   100.9320   -38.9960    16.4060    14.3000    16.0930   -70.6180    74.3260   -63.7360    93.4350
 2659.0000     8.9560     2.5000     0.0100   -62.6870     0.1760    97.5980   -39.4400    16.1150    14.5600    14.6520   -73.5940    74.4900   -65.0100    90.9810
 2659.5000     8.9930     2.4920     0.0120   -71.6900     0.1770    91.8240   -39.6420    16.1860    14.9110    14.3000   -76.5700    74.2760   -66.2840    87.7140
 2660.0000     9.0280     2.4850     0.0150   -83.6080     0.1800    85.1860   -39.3500    16.2630    15.2610    15.9100   -77.6450    73.7660   -67.6820    84.4080
 2660.5000     9.0630     2.4790     0.0170   -95.5250     0.1820    78.5300   -38.9220    16.8060    15.6120    17.2940   -76.5200    73.2570   -57.6920    81.0880
 2661.0000     9.0880     2.4810     0.0200   -97.1610     0.1820    75.5490   -38.4700    17.3060    15.9630    18.6680   -75.3960    72.7170   -57.6920    80.1780
 2661.5000     9.0920     2.4890     0.0230   -83.5240     0.1790    82.8090   -38.0190    17.8070    16.3140    18.4940   -74.2710    72.6490   -57.6920    79.3610
 2662.0000     9.0980     2.4980     0.0260   -69.8880     0.1760    88.6590   -37.6340    17.9940    16.6650    18.3280   -73.1470    72.8240   -57.6920    80.1160
 2662.5000     9.1030     2.5030     0.0290   -70.8040     0.1740    91.2130   -37.6340    17.7480    17.0150    19.0140   -72.0230    73.1370   -57.5260    81.9140
 2663.0000     9.1060     2.4960     0.0230   -77.8390     0.1720    83.5980   -37.9900    17.6510    17.3440    18.7410   -70.8980    73.2170   -56.6770    83.0230
 2663.5000     9.1060     2.4870     0.0160   -84.8730     0.1680    78.7530   -38.4690    17.5540    17.2050    18.5230   -69.7740    72.8940   -55.8280    80.9560
 2664.0000     9.1070     2.4810     0.0160   -91.9080     0.1710    85.1920   -39.0030    17.5040    16.3950    19.1900   -68.6490    72.5020   -54.9780    78.9640
 2664.5000     9.1080     2.4870     0.0190   -72.5060     0.1770    93.5960   -39.5380    16.3690    15.4960    20.0920   -65.6190    72.3110   -54.1290    79.3950
 2665.0000     9.1080     2.4980     0.0110   -52.6970     0.1840    99.5560   -39.8980    15.3280    14.5970    18.1920   -58.1780    72.9740   -53.2800    83.0870
 2665.5000     9.1090     2.5070     0.0050   -52.8360     0.1800   104.8160   -40.0380    14.3390    13.6980    15.6120   -50.7370    73.7840   -52.4310    85.4630
 2666.0000     9.1090     2.5150     0.0180   -53.8840     0.1720   110.0100   -40.1740    13.3960    12.7990    13.3440   -42.9140    74.5950   -51.5820    87.4670
 2666.5000     9.1100     2.5200     0.0360   -54.9320     0.1750   115.1550   -40.6150    12.4530    11.9000    12.9000   -43.4290    75.4060   -50.7330    90.7200
 2667.0000     9.1110     2.5120     0.0320   -55.9800     0.1810   112.4280   -41.2610    11.5100    11.0010    12.4560   -43.9710    76.0410   -49.8830    93.8630
 2667.5000     9.1110     2.5030     0.0090   -57.0270     0.1790   108.6620   -41.8470    10.5580    10.2710    12.0080   -44.5130    76.1270   -49.0340    96.9960
 2668.0000     9.1120     2.4950    -0.0200   -58.0750     0.1750   106.4550   -42.4480    10.3180    10.2610    11.8700   -45.0550    76.1440   -48.1850    98.8150
 2668.5000     9.1130     2.5000    -0.0450   -59.1230     0.1720   104.9360   -43.1530    10.0810    10.2520    11.7980   -45.5970    76.1610   -48.3680    99.0890
 2669.0000     9.1130     2.5100    -0.0330   -60.1710     0.1680   107.6960   -43.6020     9.9000    10.2420    11.7270   -46.1390    76.1780   -49.9120    98.4320
 2669.5000     9.1140     2.5240    -0.0190   -61.2190     0.1680   107.5660   -43.4700     9.9920    10.2330    11.6560   -46.6810    76.1950   -51.4560    97.8030
 2670.0000     9.1150     2.5370     0.0330   -62.2670     0.1720   105.2380   -43.2020     9.9310    10.2230    11.5840   -47.2230    76.2140   -53.0000    97.0390
