~VERSION INFORMATION
 VERS.                2.0:   CWLS LOG ASCII STANDARD - VERSION 2.0
 WRAP.                 NO:   ONE LINE PER DEPTH STEP
~WELL INFORMATION
#MNEM.UNIT      DATA TYPE    INFORMATION
#----------   ------------   ------------------------------
 STRT.F           11.5000:   START DEPTH
 STOP.F         1726.0000:   STOP DEPTH
 STEP.F            0.5000:   STEP LENGTH
 NULL.          -999.2500:   NO VALUE
 COMP. LAWRENCE ALLISON & ASSOC WEST:   COMPANY
 WELL. LAWRENCE NPR 3 "X" #51-26:   WELL
 FLD .                NPR:   FIELD
 LOC .      S26 T38N R78W:   LOCATION
 CNTY.            NATRONA:   COUNTY
 STAT.            WYOMING:   STATE
 CTRY. UNITED STATES OF AMERICA:   COUNTRY
 SRVC.      DRESSER ATLAS:   SERVICE COMPANY
 DATE.        13-AUG-1983:   LOGDATE
 API .     49025109270000:   API NUMBER
~CURVE INFORMATION
#MNEM.UNIT       API CODE    CURVE DESCRIPTION
#----------   ------------   ------------------------------
 DEPT.F                  :   
 CALD.IN     45 280 60 00:   CALIPER FROM DENSITY LOG
 RHOB.G/C3   45 350 01 00:   BULK DENSITY
 CORR.G/C3   45 356 01 00:   DENSITY CORRECTION
 TEND.LBS    45 635 01 00:   TENSION FROM DENSITY LOG
 GRR .GAPI   07 310 01 00:   GAMMA RAY FROM RESISTIVITY
 RILD.OHMM   07 120 46 00:   INDUCTION LOG DEEP RESISTIVITY
 RILM.OHMM   07 120 44 00:   INDUCTION LOG MEDIUM RESISTIVITY
 TENR.LBS    07 635 01 00:   TENSION
~PARAMETER INFORMATION
#MNEM.UNIT          VALUE    DESCRIPTION
#----------   ------------   ------------------------------
 EKB .F         5455.0000:   Kelly bushing
 EGL .F         5444.0000:   Ground level
 EDF .F            0.0000:   Drilling floor
 EPD .F         5444.0000:   Permanent datum
 TD  .F         1726.0000:   Total depth
 DATE.        13-AUG-1983:   Date logged
 CLNT.            A2DTECH:   Client Code
 PD  .                 GL:   Permanent Datum
 LMF .                 KB:   Log Measured From
 DMF .                 KB:   Drilling Measured From
 DAPD.F                11:   Feet Above Permanent Datum
 DD  .F              1726:   Depth driller
 DL  .F              1724:   Depth logger
 BLI .F              1718:   Bottom log interval
 CBD1.F                47:   Casing driller 1
 CBL1.F                48:   Casing logger 1
 BS1 .IN            12.25:   Bit size
 BSD1.F              1726:   Depth drilled with bit1
 DFT .           AIR/FOAM:   Type fluid in hole
 TCS .HRS               1:   Time Circ. stopped
 MRT .F                85:   Maximum recorded temp.
 LUN .               6270:   Logging unit number
 LUL .              WLSTN:   Logging unit location
 ENGI.            QUICKEL:   Recorded By
 WITN.           JENNINGS:   Witnessed by
 ORIG.           5" PRINT:   Origin of data
 UWI .     49025109270000:   Unique Well ID
 DICO. A2D TECHNOLOGIES, INC.:   Digitizing Company
~OTHER INFORMATION
~A   DEPT     CALD       RHOB       CORR       TEND         GRR      RILD       RILM       TENR   
# ...
 1348.0000    13.3500     2.4890     0.0890   -48.4940   124.7400     6.5400     6.7400   -59.7570
 1348.5000    13.3480     2.4840     0.1020   -42.8830   129.6330     6.3690     6.5410   -59.8980
 1349.0000    13.3460     2.4780     0.0950   -37.2710   131.1130     6.1970     6.3420   -60.0390
 1349.5000    13.3460     2.4730     0.0840   -39.4520   130.8230     6.0180     6.1420   -60.1800
 1350.0000    13.3460     2.4680     0.0780   -42.6080   129.6970     5.9050     5.9630   -60.3210
 1350.5000    13.3460     2.4680     0.0720   -45.7640   128.5800     5.8540     5.9880   -60.4620
 1351.0000    13.3460     2.4690     0.0670   -48.9210   127.4650     5.8720     6.0160   -60.6030
 1351.5000    13.3460     2.4700     0.0620   -52.0770   126.3490     5.9060     6.0440   -60.7440
 1352.0000    13.3460     2.4700     0.0570   -55.2330   125.2330     5.9400     6.0720   -60.8850
 1352.5000    13.3460     2.4760     0.0580   -56.3050   124.1100     5.9740     6.1000   -61.0260
 1353.0000    13.3460     2.4810     0.0600   -55.5030   123.0290     6.0080     6.1280   -61.1680
 1353.5000    13.3460     2.4870     0.0810   -54.7010   122.9020     6.0420     6.1560   -61.3090
 1354.0000    13.3460     2.4810     0.1040   -53.9000   124.9240     6.0760     6.1840   -61.4500
 1354.5000    13.3460     2.4710     0.1240   -53.0980   126.6640     6.1110     6.2420   -61.5910
 1355.0000    13.3460     2.4620     0.1080   -52.2960   124.6290     6.1450     6.3230   -61.7320
 1355.5000    13.3460     2.4550     0.0870   -51.4950   122.7590     6.1790     6.4030   -61.8730
 1356.0000    13.3460     2.4530     0.0660   -50.6930   122.5140     6.2300     6.4840   -61.9150
 1356.5000    13.3460     2.4520     0.0470   -49.8920   123.7220     6.2870     6.5650   -61.8790
 1357.0000    13.3460     2.4500     0.0480   -49.0900   125.4450     6.3440     6.6450   -61.8420
 1357.5000    13.3460     2.4490     0.0520   -48.2880   127.1840     6.4010     6.7260   -61.8050
 1358.0000    13.3460     2.4510     0.0560   -47.4870   128.9240     6.4580     6.8060   -61.7680
 1358.5000    13.3460     2.4550     0.0350   -46.6870   129.8470     6.5150     6.9130   -61.7310
 1359.0000    13.3460     2.4590     0.0180   -46.6870   128.1850     6.5720     6.8960   -61.6940
 1359.5000    13.3460     2.4590     0.0150   -46.6870   126.0190     6.6010     6.8610   -61.6570
 1360.0000    13.3460     2.4550     0.0300   -46.6870   126.9130     6.6010     6.8270   -61.6200
 1360.5000    13.3460     2.4500     0.0480   -46.6870   128.4610     6.6010     6.7920   -61.5830
 1361.0000    13.3460     2.4460     0.0470   -46.6870   129.3030     6.5600     6.7570   -61.5460
 1361.5000    13.3460     2.4420     0.0380   -46.6870   128.3790     6.4890     6.7230   -61.5090
 1362.0000    13.3460     2.4380     0.0290   -46.6870   127.5110     6.4200     6.6880   -61.4730
 1362.5000    13.3460     2.4330     0.0200   -46.6870   126.9600     6.4800     6.6530   -61.4360
 1363.0000    13.3460     2.4300     0.0130   -46.6870   127.9440     6.5090     6.6190   -61.3990
 1363.5000    13.3460     2.4320     0.0160   -46.6870   129.5180     6.5530     6.6010   -61.3620
 1364.0000    13.3460     2.4350     0.0200   -46.6870   129.6790     6.6010     6.6190   -61.3250
 1364.5000    13.3460     2.4320     0.0250   -46.6870   128.0110     6.6010     6.6350   -61.2880
 1365.0000    13.3460     2.4260     0.0210   -46.6870   127.8770     6.5400     6.6520   -61.2510
 1365.5000    13.3460     2.4210     0.0180   -46.6870   129.9320     6.5400     6.6680   -61.2140
 1366.0000    13.3460     2.4220     0.0200   -46.6870   130.9000     6.5380     6.6850   -61.1770
 1366.5000    13.3460     2.4220     0.0240   -46.6870   129.3240     6.5270     6.7010   -61.1400
 1367.0000    13.3460     2.4220     0.0220   -46.6870   128.6170     6.5170     6.7180   -61.1030
 1367.5000    13.3460     2.4220     0.0160   -46.6870   130.9630     6.5060     6.7240   -61.0670
 1368.0000    13.3460     2.4220     0.0100   -46.6870   131.7040     6.4950     6.7090   -61.0300
 1368.5000    13.3460     2.4250     0.0090   -46.6870   130.6750     6.4850     6.6950   -60.9930
 1369.0000    13.3460     2.4440     0.0150   -46.6870   128.8340     6.4660     6.6820   -60.9560
 1369.5000    13.3460     2.4500     0.0210   -46.6870   126.5890     6.4240     6.6680   -60.9190
 1370.0000    13.3460     2.4550     0.0270   -46.6870   127.7250     6.3820     6.6350   -60.8820
 1370.5000    13.3460     2.4600     0.0330   -46.6870   130.4340     6.3400     6.5610   -60.8450
 1371.0000    13.3460     2.4710     0.0480   -46.6870   130.8910     6.2970     6.4880   -60.8080
 1371.5000    13.3460     2.4810     0.0700   -46.6870   130.1760     6.2550     6.4140   -60.7710
 1372.0000    13.3460     2.4880     0.0800   -46.6870   129.1650     6.2130     6.3410   -60.7340
 1372.5000    13.3460     2.4750     0.0680   -46.6870   128.7740     6.1710     6.2980   -60.6980
 1373.0000    13.3460     2.4640     0.0560   -46.6870   129.2550     6.1290     6.2800   -60.6610
 1373.5000    13.3460     2.4570     0.0450   -46.6870   129.7820     6.0870     6.2630   -60.6240
 1374.0000    13.3460     2.4600     0.0330   -46.6870   129.2870     6.0450     6.2450   -60.5870
 1374.5000    13.3460     2.4690     0.0480   -46.6870   126.2800     5.9540     6.1220   -60.5500
 1375.0000    13.3460     2.4770     0.0660   -46.6870   122.9510     5.7810     5.9780   -60.5130
 1375.5000    13.3460     2.4780     0.0770   -46.6870   120.9540     5.6090     5.7740   -60.4760
 1376.0000    13.3460     2.4790     0.0770   -46.6870   121.7860     5.4360     5.5710   -60.4390
 1376.5000    13.3460     2.4800     0.0770   -46.6870   124.4000     5.2630     5.3670   -60.4020
 1377.0000    13.3460     2.4770     0.0830   -46.6870   125.9850     5.0900     5.1630   -60.3650
 1377.5000    13.3460     2.4550     0.0800   -46.7130   127.2100     4.9170     4.9590   -60.3280
 1378.0000    13.3460     2.4410     0.0720   -46.8280   130.9260     4.7330     4.8120   -60.2920
 1378.5000    13.3460     2.4320     0.0630   -46.9430   135.0770     4.7100     4.7770   -60.2550
 1379.0000    13.3460     2.4310     0.0540   -47.0570   134.9250     4.6900     4.8700   -60.2180
 1379.5000    13.3460     2.4430     0.0640   -47.1720   130.7810     4.7330     4.9920   -60.1810
 1380.0000    13.3460     2.4540     0.0800   -47.2870   126.6080     4.8430     5.1140   -60.1440
 1380.5000    13.3460     2.4580     0.0980   -47.4020   122.3330     4.9790     5.2370   -60.1070
 1381.0000    13.3460     2.4440     0.0850   -47.5160   123.5800     5.1150     5.3590   -60.0700
 1381.5000    13.3460     2.4340     0.0630   -47.6310   126.4550     5.2520     5.4810   -60.0330
 1382.0000    13.3460     2.4280     0.0530   -47.7460   129.2620     5.3880     5.6030   -59.9960
 1382.5000    13.3460     2.4370     0.0440   -47.8610   129.4150     5.5240     5.7260   -59.9590
 1383.0000    13.3460     2.4450     0.0420   -47.9760   127.7070     5.6610     5.8540   -59.9220
 1383.5000    13.3460     2.4530     0.0480   -48.0900   125.8460     5.7550     5.8730   -59.8860
 1384.0000    13.3460     2.4590     0.0530   -48.2050   126.3210     5.8080     5.8940   -59.8490
 1384.5000    13.3460     2.4530     0.0670   -48.3200   129.5570     5.8610     5.9150   -59.8120
 1385.0000    13.3460     2.4470     0.0790   -48.4350   132.7330     5.9130     5.9350   -59.7750
 1385.5000    13.3460     2.4400     0.0600   -48.5490   133.8630     5.9630     5.9630   -59.7380
 1386.0000    13.3460     2.4480     0.0410   -48.6640   130.5870     5.9630     5.9420   -59.7010
 1386.5000    13.3460     2.4580     0.0260   -48.7790   126.9340     5.9630     5.9120   -59.6640
 1387.0000    13.3460     2.4710     0.0600   -48.8940   126.3500     5.9630     5.8810   -59.6270
 1387.5000    13.3460     2.4720     0.1070   -49.0090   131.9290     5.9210     5.8500   -59.5900
 1388.0000    13.3460     2.4670     0.0930   -49.1230   137.4020     5.8430     5.8190   -59.5530
