~VERSION INFORMATION
 VERS.                2.0:   CWLS LOG ASCII STANDARD - VERSION 2.0
 WRAP.                 NO:   ONE LINE PER DEPTH STEP
~WELL INFORMATION
#MNEM.UNIT      DATA TYPE    INFORMATION
#----------   ------------   ------------------------------
 STRT.F          484.0000:   START DEPTH
 STOP.F         4096.0000:   STOP DEPTH
 STEP.F            0.5000:   STEP LENGTH
 NULL.          -999.2500:   NO VALUE
 COMP.    FENIX & SCISSON:   COMPANY
 WELL. FENIX NPR "JX" #58-28:   WELL
 FLD .                NPR:   FIELD
 LOC .      S28 T39N R78W:   LOCATION
 CNTY.            NATRONA:   COUNTY
 STAT.            WYOMING:   STATE
 CTRY. UNITED STATES OF AMERICA:   COUNTRY
 SRVC.              WELEX:   SERVICE COMPANY
 DATE.        02-MAY-1978:   LOGDATE
 API .     49025107810000:   API NUMBER
~CURVE INFORMATION
#MNEM.UNIT       API CODE    CURVE DESCRIPTION
#----------   ------------   ------------------------------
 DEPT.F                  :   
 NPHI.DEC    42 890 03 00:   NEUTRON POROSITY SANDSTONE
 RHOB.G/C3   45 350 01 00:   BULK DENSITY
 CORR.G/C3   45 356 01 00:   DENSITY CORRECTION
 CALD.IN     45 280 60 00:   CALIPER FROM DENSITY LOG
 GRD .GAPI   45 310 01 00:   GAMMA RAY FROM DENSITY LOG
 SPR .MV     07 010 01 00:   SPONTANEOUS POTENTIAL
 ILD .OHMM   07 120 46 00:   DEEP INDUCTION RESISTIVITY
 SGRD.OHMM   07 220 05 00:   SHALLOW SHORT GUARD RESISTIVITY
 ILM .OHMM   07 120 44 00:   INDUCTION LOG MEDIUM RESISTIVITY
~PARAMETER INFORMATION
#MNEM.UNIT          VALUE    DESCRIPTION
#----------   ------------   ------------------------------
 EKB .F         5115.0000:   Kelly bushing
 EGL .F         5101.0000:   Ground level
 EDF .F            0.0000:   Drilling floor
 EPD .F         5101.0000:   Permanent datum
 TD  .F         4100.0000:   Total depth
 DATE.        02-MAY-1978:   Date logged
 CLNT.            A2DTECH:   Client Code
 SL  . 525' FSL & 2406' FEL:   Surface Location
 PD  .                 GL:   Permanent Datum
 DAPD.F                14:   Feet Above Permanent Datum
 DD  .F              4100:   Depth driller
 DL  .F              4098:   Depth logger
 BLI .F              4096:   Bottom log interval
 CS1 .IN            8.625:   Casing size
 CBD1.      8.625" @ 501':   Casing driller 1
 CBL1.F               500:   Casing logger 1
 BS1 .IN            7.875:   Bit size
 BSD1.F              4100:   Depth drilled with bit1
 DFT .            CHM GEL:   Type fluid in hole
 DFD .                9.4:   Density
 DFV .                 48:   Viscosity
 DFPH.                9.3:   pH
 DFL .                8.5:   Fluid loss
 MSS .           FLOWLINE:   Source of sample
 RMS .OHMM           1.24:   Rm
 MST .F                70:   Rm Meas. temp.
 RMF .OHMM            .57:   Rmf
 MFST.F                70:   Rmf Meas. temp.
 RMC .OHMM           1.48:   Rmc
 MCST.F                70:   Rmc Meas. temp.
 MFSS.               MEAS:   Source Rmf.
 MCSS.               MEAS:   Source Rmc.
 RMB .OHMM            .87:   Rm. at BHT
 BHT .F               123:   BHT.
 TCS .HRS               4:   Time Circ. stopped
 MRT .F               123:   Maximum recorded temp.
 LUN .               1892:   Logging unit number
 LUL .             CASPER:   Logging unit location
 ENGI.               REIN:   Recorded By
 WITN.           DINSMORE:   Witnessed by
 ORIG.         2.5" PRINT:   Origin of data
 UWI .     49025107810000:   Unique Well ID
 DICO. A2D TECHNOLOGIES, INC.:   Digitizing Company
 TLI .                500:   Top log interval
~OTHER INFORMATION
~A   DEPT       NPHI     RHOB       CORR       CALD         GRD       SPR        ILD       SGRD        ILM   
  484.0000     0.3130  -999.2500  -999.2500  -999.2500    54.1910  -999.2500  -999.2500  -999.2500  -999.2500
  484.5000     0.3150  -999.2500  -999.2500  -999.2500    53.6660  -999.2500  -999.2500  -999.2500  -999.2500
  485.0000     0.3130  -999.2500  -999.2500  -999.2500    53.1380  -999.2500  -999.2500  -999.2500  -999.2500
  485.5000     0.3130  -999.2500  -999.2500  -999.2500    50.7890  -999.2500  -999.2500  -999.2500  -999.2500
  486.0000     0.3160  -999.2500  -999.2500  -999.2500    48.4260  -999.2500  -999.2500  -999.2500  -999.2500
  486.5000     0.3170  -999.2500  -999.2500  -999.2500    49.6380  -999.2500  -999.2500  -999.2500  -999.2500
  487.0000     0.3190  -999.2500  -999.2500  -999.2500    52.5260  -999.2500  -999.2500  -999.2500  -999.2500
  487.5000     0.3210  -999.2500  -999.2500  -999.2500    54.1130  -999.2500  -999.2500  -999.2500  -999.2500
  488.0000     0.3210  -999.2500  -999.2500  -999.2500    53.1810  -999.2500  -999.2500  -999.2500  -999.2500
  488.5000     0.3210  -999.2500  -999.2500  -999.2500    51.9290  -999.2500  -999.2500  -999.2500  -999.2500
  489.0000     0.3210  -999.2500  -999.2500  -999.2500    50.4630  -999.2500  -999.2500  -999.2500  -999.2500
  489.5000     0.3220  -999.2500  -999.2500  -999.2500    49.2500  -999.2500  -999.2500  -999.2500  -999.2500
  490.0000     0.3240  -999.2500  -999.2500  -999.2500    47.8010  -999.2500  -999.2500  -999.2500  -999.2500
  490.5000     0.3260  -999.2500  -999.2500  -999.2500    48.4740  -999.2500  -999.2500  -999.2500  -999.2500
  491.0000     0.3270  -999.2500  -999.2500  -999.2500    49.3450  -999.2500  -999.2500  -999.2500  -999.2500
  491.5000     0.3280  -999.2500  -999.2500  -999.2500    50.3120  -999.2500  -999.2500  -999.2500  -999.2500
  492.0000     0.3270  -999.2500  -999.2500  -999.2500    51.2340  -999.2500  -999.2500  -999.2500  -999.2500
  492.5000     0.3260  -999.2500  -999.2500  -999.2500    51.7280  -999.2500  -999.2500  -999.2500  -999.2500
  493.0000     0.3290  -999.2500  -999.2500  -999.2500    50.9410  -999.2500  -999.2500  -999.2500  -999.2500
  493.5000     0.3310  -999.2500  -999.2500  -999.2500    50.1750  -999.2500  -999.2500  -999.2500  -999.2500
  494.0000     0.3290  -999.2500  -999.2500  -999.2500    49.3840  -999.2500  -999.2500  -999.2500  -999.2500
  494.5000     0.3270  -999.2500  -999.2500  -999.2500    48.5760  -999.2500  -999.2500  -999.2500  -999.2500
  495.0000     0.3240  -999.2500  -999.2500  -999.2500    47.8040  -999.2500  -999.2500  -999.2500  -999.2500
  495.5000     0.3220  -999.2500  -999.2500  -999.2500    47.0270  -999.2500  -999.2500  -999.2500  -999.2500
  496.0000     0.3180  -999.2500  -999.2500  -999.2500    46.1110  -999.2500  -999.2500  -999.2500  -999.2500
  496.5000     0.3140  -999.2500  -999.2500  -999.2500    46.6890  -999.2500  -999.2500  -999.2500  -999.2500
  497.0000     0.3100  -999.2500  -999.2500  -999.2500    48.7330  -999.2500  -999.2500  -999.2500  -999.2500
  497.5000     0.3060  -999.2500  -999.2500  -999.2500    50.6220  -999.2500  -999.2500  -999.2500  -999.2500
  498.0000     0.3020  -999.2500  -999.2500  -999.2500    52.3560  -999.2500  -999.2500  -999.2500  -999.2500
  498.5000     0.2990  -999.2500  -999.2500  -999.2500    54.6590  -999.2500  -999.2500  -999.2500  -999.2500
  499.0000     0.3000  -999.2500  -999.2500  -999.2500    57.3030  -999.2500  -999.2500  -999.2500  -999.2500
  499.5000     0.3000  -999.2500  -999.2500     9.1950    59.8020  -999.2500  -999.2500  -999.2500  -999.2500
  500.0000     0.2960  -999.2500  -999.2500     9.6570    62.2580    -5.3410  -999.2500  -999.2500  -999.2500
  500.5000     0.2910     2.2570  -999.2500    10.0520    64.8300    -9.4100  -999.2500  -999.2500  -999.2500
  501.0000     0.2870     2.2810     0.1100    10.1220    67.2590   -13.4800  -999.2500     3.8720  -999.2500
  501.5000     0.2830     2.2890     0.1130    10.1820    69.3720   -16.9980  -999.2500     4.1140  -999.2500
  502.0000     0.2830     2.2870     0.1170    10.2430    68.0620   -20.1190     0.6820     4.4570     0.6820
  502.5000     0.2850     2.2840     0.1130    10.3040    66.8820   -23.6840     0.5330     4.8620     0.5330
  503.0000     0.2870     2.2810     0.1090    10.3330    66.8030   -24.4650     0.2920     5.2670     0.2920
  503.5000     0.2890     2.2870     0.1040    10.3580    66.6360   -24.9060     0.3100     5.6720     0.3100
  504.0000     0.2900     2.3040     0.1130    10.3810    66.2650   -25.8410     0.4170     6.0770     0.4170
  504.5000     0.2900     2.3210     0.1170    10.4030    67.6610   -26.6920     0.7300     6.3000     0.7300
  505.0000     0.2890     2.3340     0.1260    10.4270    67.8380   -27.2730     1.0660     6.2020     1.0660
  505.5000     0.2890     2.3470     0.1340    10.4480    68.0070   -27.8920     6.6550     6.1050     2.5040
  506.0000     0.2910     2.3520     0.1430    10.4740    68.1710   -28.4900     6.5470     6.0070     6.2950
  506.5000     0.2910     2.3510     0.1510    10.5010    68.3410   -29.1090     6.3810     5.8460     6.0780
  507.0000     0.2880     2.3430     0.1610    10.6350    69.5090   -29.4250     6.2160     5.9490     5.8330
  507.5000     0.2860     2.3310     0.1650    10.7680    71.8290   -29.5020     5.9560     6.2470     5.6340
  508.0000     0.2830     2.3220     0.1690    10.9060    72.9430   -29.5970     5.9760     6.5330     5.6740
  508.5000     0.2810     2.3200     0.1660    11.0420    73.5210   -29.6950     6.0240     8.3080     5.7230
  509.0000     0.2780     2.3360     0.1620    11.1840    72.8220   -29.7860     6.0670     8.5480     5.7710
  509.5000     0.2750     2.3850     0.1580    11.3850    69.1320   -29.8800     6.0560     8.1710     5.8200
  510.0000     0.2720     2.4250     0.1550    11.5930    68.4930   -29.9780     6.0460     7.4360     5.8690
  510.5000     0.2680     2.4520     0.1510    11.8020    67.7470   -30.0640     6.0360     7.6750     5.9180
  511.0000     0.2630     2.4800     0.1450    11.9860    68.1720   -30.1480     6.0260     8.3080     5.9670
  511.5000     0.2590     2.5110     0.1360    12.0490    69.8390   -29.9660     6.0160     7.6850     6.0160
  512.0000     0.2560     2.5140     0.1270    12.1070    70.8030   -29.7770     6.0060     6.9810     6.0670
  512.5000     0.2530     2.5240     0.1170    12.1630    70.7210   -29.6070     5.9960     6.4130     6.0450
  513.0000     0.2520     2.5250     0.1080    12.2180    70.0880   -29.4000     5.9860     6.4820     6.0230
  513.5000     0.2540     2.5130     0.1000    12.2690    69.4720   -29.9670     5.9750     6.6450     6.0010
  514.0000     0.2550     2.5010     0.0900    12.2700    68.1700   -30.9170     5.9650     6.8080     5.9790
  514.5000     0.2570     2.4880     0.0790    12.2710    66.8810   -31.3140     5.9540     6.9710     5.9560
  515.0000     0.2580     2.4720     0.0680    12.2300    68.6950   -30.9470     6.0040     7.1660     6.0280
  515.5000     0.2590     2.4870     0.0570    12.1740    71.9410   -30.6640     6.0900     7.1810     6.1540
  516.0000     0.2590     2.5250     0.0520    12.1190    73.3210   -30.3730     6.1750     7.2000     6.2800
  516.5000     0.2590     2.5830     0.0550    12.0620    74.2000   -30.0670     6.2610     7.2200     6.4060
  517.0000     0.2580     2.5780     0.0570    12.0080    72.0240   -29.7740     6.3470     7.2390     6.5320
  517.5000     0.2580     2.5770     0.0600    11.9510    69.1710   -29.4750     6.4330     7.2580     6.6570
  518.0000     0.2570     2.5730     0.0620    11.9450    69.5160   -29.1770     6.5190     7.2780     6.7830
  518.5000     0.2570     2.5790     0.0640    11.9400    70.1190   -28.8790     6.6040     7.2990     6.9090
  519.0000     0.2540     2.5880     0.0670    11.9380    70.7530   -28.5820     6.6900     7.3670     7.0350
  519.5000     0.2540     2.5970     0.0690    11.9340    71.2710   -28.2850     6.7790     7.4440     7.1660
  520.0000     0.2530     2.6000     0.0710    11.9300    70.2070   -27.9880     6.7900     7.5200     7.1780
