~VERSION INFORMATION
 VERS.                2.0:   CWLS LOG ASCII STANDARD - VERSION 2.0
 WRAP.                 NO:   ONE LINE PER DEPTH STEP
~WELL INFORMATION
#MNEM.UNIT      DATA TYPE    INFORMATION
#----------   ------------   ------------------------------
 STRT.F           10.0000:   START DEPTH
 STOP.F         5812.0000:   STOP DEPTH
 STEP.F            0.5000:   STEP LENGTH
 NULL.          -999.2500:   NO VALUE
 COMP. LAWRENCE - ALLSISON:   COMPANY
 WELL. LAWRENCE "X" #11-11:   WELL
 FLD .              NPR 3:   FIELD
 LOC .      S11 T38N R78W:   LOCATION
 CNTY.            NATRONA:   COUNTY
 STAT.            WYOMING:   STATE
 CTRY. UNITED STATES OF AMERICA:   COUNTRY
 SRVC.      DRESSER ATLAS:   SERVICE COMPANY
 DATE.        12-NOV-1982:   LOGDATE
 API .     49025109160000:   API NUMBER
~CURVE INFORMATION
#MNEM.UNIT       API CODE    CURVE DESCRIPTION
#----------   ------------   ------------------------------
 DEPT.F                  :   
 TEND.LBS    45 635 01 00:   TENSION FROM DENSITY LOG
 CALD.IN     45 280 60 00:   CALIPER FROM DENSITY LOG
 CORR.G/C3   45 356 01 00:   DENSITY CORRECTION
 RHOB.G/C3   45 350 01 00:   BULK DENSITY
 CN  .DEC    42 890 03 00:   COMPENSATED NEUTRON POROSITY SANDSTONE
 AC  .US/F   60 520 00 00:   ACOUSTIC
 TENS.LBS    60 635 01 00:   TENSION FROM SONIC
 GRR .GAPI   11 310 01 00:   GAMMA RAY FROM RESISTIVITY
 RD  .OHMM   11 220 10 00:   RESISTIVITY DEEP
 RMLL.OHMM   11 270 04 00:   RESISTIVITY MICROLATEROLOG
 RS  .OHMM   11 220 09 00:   RESISTIVITY SHALLOW
 SPR .MV     11 010 01 00:   SPONTANEOUS POTENTIAL FROM RESISTIVITY
 TENR.LBS    11 635 01 00:   TENSION FROM RESISTIVITY
~PARAMETER INFORMATION
#MNEM.UNIT          VALUE    DESCRIPTION
#----------   ------------   ------------------------------
 EKB .F         5160.0000:   Kelly bushing
 EGL .F         5150.0000:   Ground level
 EDF .F            0.0000:   Drilling floor
 TD  .F         5800.0000:   Total depth
 CLNT.            A2DTECH:   Client Code
 SL  . 660' FNL & 660' FWL:   Surface Location
 PD  .                 GL:   Permanent Datum
 EPD .F              5150:   Elevation Permanent Datum
 LMF .                 KB:   Log Measured From
 DMF .                 KB:   Drilling Measured From
 DAPD.F                10:   Feet Above Permanent Datum
 DATE.        12-NOV-1982:   Date Logged [DD-MMM-YYYY]
 DD  .F              5800:   Depth driller
 DL  .F              5795:   Depth logger
 BLI .F              5702:   Bottom log interval
 TLI .F                 0:   Top log interval
 CS1 .IN            9.625:   Casing size
 CBD1.      9.625" @ 664':   Casing driller 1
 CBL1.F               660:   Casing logger 1
 BS1 .IN             8.75:   Bit size
 BSD1.F              5800:   Depth drilled with bit1
 DFT .                KCL:   Type fluid in hole
 DFD .                8.6:   Density
 DFV .                 45:   Viscosity
 DFPH.                8.5:   pH
 DFL .                7.8:   Fluid loss
 MSS .           FLOWLINE:   Source of sample
 RMS .OHMM           0.32:   Rm
 MST .F                92:   Rm Meas. temp.
 RMF .OHMM           0.26:   Rmf
 MFST.F                90:   Rmf Meas. temp.
 MFSS.               MEAS:   Source Rmf.
 RMB .OHMM           0.19:   Rm. at BHT
 BHT .F               160:   BHT.
 TCS .HRS               3:   Time Circ. stopped
 MRT .F               160:   Maximum recorded temp.
 LUN .               6270:   Logging unit number
 LUL .              WLSTN:   Logging unit location
 ENGI.            QUICKEL:   Recorded By
 WITN.             STRONG:   Witnessed by
 ORIG.        2" 5" PRINT:   Origin of data
 UWI .     49025109160000:   Unique Well ID
 DICO. A2D TECHNIOLOGIES,INC.:   Digitizing Company
 RMC .OHMM           0.40:   Rmc
 MCST.F                92:   Rmc Meas. temp.
 MCSS.               CALC:   Source Rmc.
~OTHER INFORMATION
~A  DEPTH     TEND       CALD       CORR       RHOB         CN         AC       TENS        GRR         RD       RMLL         RS        SPR       TENR
# ...
 5418.0000   -79.6852     9.5808     0.0237     2.8388     0.0472    49.8643   -50.4504    38.6809   929.0239   135.2907  1056.0311   -23.2348   -51.8086
 5418.5000   -79.5352     9.5802     0.0283     2.8748     0.0357    49.7885   -53.9896    26.6836  1313.2384   306.6621  1524.8470   -22.6295   -55.6106
 5419.0000   -79.3853     9.5796    -0.0042     2.8960     0.0309    49.7208   -49.9621    15.2870  1908.4921   560.6330  -999.2500   -22.1747   -57.5189
 5419.5000   -79.2074     9.5696    -0.0151     2.9066     0.0290    49.6490   -49.7429     9.5961  5818.9106   892.1877  -999.2500   -21.5597   -59.4497
 5420.0000   -75.3129     9.5556    -0.0135     2.9229     0.0290    49.8798   -49.5240     7.5050 21241.6621   923.6083  -999.2500   -21.0941   -55.7217
 5420.5000   -75.1667     9.5480    -0.0076     2.9356     0.0299    50.1851   -49.3243     8.4244 24734.8633   929.9717  -999.2500   -20.6590   -55.7679
 5421.0000   -71.2723     9.5473     0.0344     2.9566     0.0307    50.3396   -49.0991     9.9407 24730.6465   929.9071  -999.2500   -21.4091   -55.8049
 5421.5000   -63.6297     9.5467     0.0704     2.9641     0.0307    50.4187   -48.8738     9.9555 24051.7227   929.8428  -999.2500   -24.1170   -59.6070
 5422.0000   -67.2681     9.5461     0.0914     2.9588     0.0301    50.4224   -48.6478     9.9702 19809.6348   929.7783  -999.2500   -31.3429   -59.6440
 5422.5000   -74.5877     9.5456     0.0521     2.9295     0.0307    50.2701   -48.4234     9.9850 13627.3447   929.7138  -999.2500   -32.0937   -59.6810
 5423.0000   -74.4353     9.5599     0.0054     2.9106     0.0322    49.9781   -48.1551    10.0000 11069.4619   929.6374  -999.2500   -23.6563   -55.9437
 5423.5000   -66.7917     9.5743    -0.0296     2.9023     0.0348    49.9055   -51.6899    11.2949  9117.0996   929.5739  -999.2500   -16.4244   -52.2214
 5424.0000   -62.8936     9.5736    -0.0430     2.8971     0.0384    49.9100   -51.5015    14.8378  6405.6123   929.5104  -999.2500   -15.8190   -44.7318
 5424.5000   -62.7156     9.5730    -0.0356     2.8933     0.0437    49.9137   -51.2764    19.0568  4162.0464   923.0231  -999.2500   -15.8161   -44.7687
 5425.0000   -66.3540     9.5725    -0.0192     2.8895     0.0515    49.9174   -51.0327    23.2757  2732.5806   910.2461  -999.2500   -15.9639   -48.5708
 5425.5000   -73.7039     9.5719    -0.0028     2.8832     0.0551    49.9210   -50.8138    26.8941  2102.5745   814.5850  -999.2500   -16.2620   -52.3729
 5426.0000   -69.7730     9.5862     0.0032     2.8731     0.0647    49.9247   -52.0374    35.3173  1852.7909   395.9622  1924.3899   -16.4096   -52.4099
 5426.5000   -62.1306     9.6006    -0.0015     2.8631     0.0665    49.7775   -54.1296    38.9357  1402.9592   412.7588  1733.8085   -16.4132   -52.6117
 5427.0000   -61.9843     9.6000    -0.0047     2.8525     0.0671    49.6196   -50.1502    42.5540  1065.5371   556.1408  1551.3838   -16.7216   -56.2500
 5427.5000   -58.0898     9.5993    -0.0017     2.8450     0.0694    49.3332   -49.8829    46.1724   835.9419   575.7272  1407.5426   -17.0031   -56.6320
 5428.0000   -57.9436     9.5838    -0.0004     2.8269     0.0730    49.2606   -49.6639    52.1932   615.7143   487.4124   954.3284   -16.9994   -60.0973
 5428.5000   -54.0480     9.5683     0.0040     2.8020     0.0800    50.2456   -41.9374    57.0127   476.4769   349.3724   497.1373   -16.9965   -56.3599
 5429.0000   -53.8980     9.5677     0.0115     2.7749     0.0901    51.0034   -41.7185    63.0335   259.0126   200.4609   269.9772   -16.9935   -56.4062
 5429.5000   -53.7201     9.5671     0.0177     2.7501     0.0988    51.3078   -41.4993    67.2525   241.6499    82.5784   269.9218   -16.8400   -56.4432
 5430.0000   -53.5739     9.5515     0.0232     2.7380     0.1012    50.9353   -41.2803    68.7688   251.8677    59.9984   281.3334   -16.6864   -56.4802
 5430.5000   -49.6794     9.5509     0.0246     2.7388     0.0972    50.4110   -41.0613    60.5136   301.5149    72.3482   318.6758   -16.5336   -56.5172
 5431.0000   -45.7850     9.5354     0.0320     2.7545     0.0939    49.5615   -40.8408    50.7975   353.5269   132.2654   377.4999   -16.8311   -56.5542
 5431.5000   -45.6388     9.5348     0.0500     2.7742     0.0945    48.7601   -40.6157    41.7897   397.6409   181.9578   472.7962   -16.9795   -56.5912
 5432.0000   -41.7444     9.5342     0.0533     2.7823     0.0998    48.6120   -40.3494    39.7024   426.0956   184.4899   540.7939   -17.3384   -56.6282
 5432.5000   -41.5980     9.5486     0.0287     2.7522     0.1010    48.9183   -43.9189    40.3178   450.3063   165.0984   570.1417   -17.5753   -56.6652
 5433.0000   -37.7037     9.5479    -0.0019     2.7491     0.1004    49.2990   -47.4190    41.5337   360.7516   142.7119   431.9285   -17.8735   -56.7022
 5433.5000   -37.5562     9.5473    -0.0077     2.7491     0.0985    49.9814   -47.7800    47.5545   301.2683   130.4011   331.7913   -18.1777   -60.5045
 5434.0000   -37.4063     9.5467     0.0072     2.7483     0.0967    50.2867   -50.7895    51.7735   281.0730   137.8290   307.3572   -18.7854   -60.5422
 5434.5000   -37.2283     9.5612     0.0372     2.7430     0.0964    50.2150   -48.8183    53.5864   281.0343   147.7173   318.1374   -19.2445   -60.5798
 5435.0000   -37.0821     9.5605     0.0582     2.7325     0.0966    50.1432   -46.5428    48.1994   289.2875   145.6725   336.2189   -19.6681   -60.6246
 5435.5000   -33.1877     9.5599     0.0585     2.7197     0.0984    50.3740   -46.3214    46.4124   296.9625    94.7548   345.6059   -19.9671   -56.8901
 5436.0000   -29.2932     9.5593     0.0173     2.7061     0.1008    50.9056   -41.7393    48.5293   296.9119    92.6605   324.6263   -20.7164   -60.6928
 5436.5000   -29.1470     9.5587    -0.0419     2.7068     0.0995    51.3618   -38.3236    52.4479   288.7608   103.6808   309.1793   -21.4665   -60.7304
 5437.0000   -29.0007     9.5580    -0.0461     2.7203     0.0935    51.7425   -38.1047    52.1624   278.8955   153.1179   326.7516   -22.0659   -64.5331
 5437.5000   -28.8545     9.5575    -0.0102     2.7481     0.0736    51.5953   -41.6392    44.9700   276.9425   227.2506   355.0367   -22.6654   -64.5746
 5438.0000   -28.7082     9.5569     0.0063     2.8184     0.0651    50.9203   -46.7080    38.0778   284.6725   234.9801   359.9239   -23.4154   -64.6116
 5438.5000   -28.5607     9.5563    -0.0059     2.8603     0.0645    50.1698   -48.7237    38.0931   288.6132   236.5993   350.0025   -23.8643   -63.2838
 5439.0000   -28.4107     9.5558    -0.0421     2.8713     0.0663    50.2510   -52.2523    43.8168   180.1901   226.9364   295.8399   -24.3131   -60.9113
 5439.5000   -28.2328     9.5552    -0.0332     2.8315     0.0705    50.9752   -52.0246    54.6424   110.9559   194.8092   170.1640   -24.7620   -57.1913
 5440.0000   -20.5903     9.5546    -0.0013     2.7765     0.1300    52.8966   -51.8018    71.1736    82.2183   108.7847    81.8842   -25.3614   -57.2289
 5440.5000   -24.1921     9.5539     0.0012     2.7149     0.1384    58.0285   -51.5765    98.2154    57.0988    64.6598    63.0546   -25.8108   -57.2666
 5441.0000   -31.5422     9.5682    -0.0110     2.6945     0.1354    59.2388   -51.3514   100.6326    53.6017    68.8198    71.4241   -26.2704   -61.0693
 5441.5000   -38.8921     9.5826    -0.0247     2.6772     0.1236    58.6391   -51.1262    93.4402    59.4609   114.9675    88.5379   -26.7293   -61.1069
 5442.0000   -38.7458     9.5820    -0.0489     2.6689     0.0904    56.8328   -50.8747    76.6381    77.3496   135.7796    98.2247   -27.3390   -61.1518
 5442.5000   -38.5996     9.5815    -0.0550     2.6636     0.0841    56.0822   -50.6555    71.8481    86.4629   113.3683   101.6698   -28.0567   -57.4146
 5443.0000   -38.4533     9.5809    -0.0491     2.6613     0.0829    56.2368   -50.4365    72.1631    90.1981   105.0339   104.5084   -28.3557   -61.2259
 5443.5000   -34.5577     9.5802    -0.0334     2.6613     0.0783    56.2406   -50.2176    70.9767    93.5634   115.7360   115.9426   -28.6539   -61.2628
