~VERSION INFORMATION
 VERS.                2.0:   CWLS LOG ASCII STANDARD - VERSION 2.0
 WRAP.                 NO:   ONE LINE PER DEPTH STEP
~WELL INFORMATION
#MNEM.UNIT      DATA TYPE    INFORMATION
#----------   ------------   ------------------------------
 STRT.F          740.0000:   START DEPTH
 STOP.F         2749.0000:   STOP DEPTH
 STEP.F            0.5000:   STEP LENGTH
 NULL.          -999.2500:   NO VALUE
 COMP.    FENIX & SCISSON:   COMPANY
 WELL.   FENIX SHX #11-10:   WELL
 FLD .                NPR:   FIELD
 LOC .      S10 T38N R78W:   LOCATION
 CNTY.            NATRONA:   COUNTY
 STAT.            WYOMING:   STATE
 CTRY. UNITED STATES OF AMERICA:   COUNTRY
 SRVC.              WELEX:   SERVICE COMPANY
 DATE.        09-APR-1980:   LOGDATE
 API .     49025108060000:   API NUMBER
~CURVE INFORMATION
#MNEM.UNIT       API CODE    CURVE DESCRIPTION
#----------   ------------   ------------------------------
 DEPT.F                  :   
 GRD .GAPI   45 310 01 00:   GAMMA RAY FROM DENSITY LOG
 CALD.IN     45 280 60 00:   CALIPER FROM DENSITY LOG
 TEND.LBS    45 635 01 00:   TENSION FROM DENSITY LOG
 RHOB.G/C3   45 350 01 00:   BULK DENSITY
 CORR.G/C3   45 356 01 00:   DENSITY CORRECTION
~PARAMETER INFORMATION
#MNEM.UNIT          VALUE    DESCRIPTION
#----------   ------------   ------------------------------
 EKB .F         5287.0000:   Kelly bushing
 EGL .F         5277.0000:   Ground level
 EDF .F            0.0000:   Drilling floor
 EPD .F         5277.0000:   Permanent datum
 TD  .F         2762.0000:   Total depth
 DATE.        09-APR-1980:   Date logged
 CLNT.            A2DTECH:   Client Code
 SL  . 474' FNL & 644' FWL:   Surface Location
 PD  .                 GL:   Permanent Datum
 LMF .                 KB:   Log Measured From
 DMF .                 KB:   Drilling Measured From
 DAPD.F                10:   Feet Above Permanent Datum
 DD  .F              2762:   Depth driller
 DL  .F            2751.5:   Depth logger
 BLI .F              2750:   Bottom log interval
 TLI .F               750:   Top log interval
 CS1 .IN            9.625:   Casing size
 CBD1.      9.625" @ 760':   Casing driller 1
 BS1 .IN             8.75:   Bit size
 BSD1.F              2762:   Depth drilled with bit1
 DFT .                AIR:   Type fluid in hole
 TCS .HRS               3:   Time Circ. stopped
 MRT .F               118:   Maximum recorded temp.
 ENGI.            BENTSEN:   Recorded By
 WITN.           DINSMORE:   Witnessed by
 ORIG.         2.5" PRINT:   Origin of data
 UWI .     49025108060000:   Unique Well ID
 DICO. A2D TECHNOLOGIES, INC.:   Digitizing Company
~OTHER INFORMATION
~A   DEPT       GRD      CALD       TEND       RHOB       CORR   
# ...
 2692.0000    75.7600     8.5850  1633.7670     2.5390     0.0480
 2692.5000    75.4270     8.5930  1632.3879     2.5140     0.0350
 2693.0000    77.5690     8.6010  1631.0100     2.4920     0.0320
 2693.5000    80.0440     8.6100  1629.6310     2.5000     0.0410
 2694.0000    82.4950     8.6180  1628.2520     2.5090     0.0480
 2694.5000    84.6020     8.6260  1626.8730     2.5080     0.0560
 2695.0000    82.9250     8.6360  1625.4940     2.5070     0.0450
 2695.5000    77.8830     8.6320  1624.1160     2.5080     0.0340
 2696.0000    71.8370     8.6140  1622.7371     2.5150     0.0210
 2696.5000    66.8380     8.5980  1621.3580     2.5020     0.0080
 2697.0000    65.8300     8.5820  1619.9790     2.4900     0.0020
 2697.5000    66.2000     8.5650  1618.6010     2.5020     0.0080
 2698.0000    66.5030     8.5490  1617.2220     2.4860     0.0050
 2698.5000    66.8000     8.5320  1615.8430     2.4700    -0.0040
 2699.0000    67.1200     8.5160  1614.4640     2.4630    -0.0090
 2699.5000    67.4290     8.5000  1613.0850     2.4540    -0.0020
 2700.0000    67.7470     8.4820  1611.7070     2.4620    -0.0110
 2700.5000    68.0540     8.4950  1610.3280     2.4860    -0.0010
 2701.0000    68.3580     8.5140  1608.9490     2.4860     0.0120
 2701.5000    68.6970     8.5330  1607.5699     2.4620     0.0020
 2702.0000    68.9450     8.5530  1606.1910     2.4980     0.0050
 2702.5000    69.3030     8.5530  1604.8130     2.5100     0.0340
 2703.0000    68.1320     8.5380  1603.4340     2.5480     0.0600
 2703.5000    66.4260     8.5240  1602.0551     2.5240     0.0430
 2704.0000    66.3140     8.5100  1600.6760     2.5400     0.0520
 2704.5000    67.7790     8.4970  1599.2970     2.5660     0.0800
 2705.0000    68.2620     8.4820  1597.9189     2.5660     0.0830
 2705.5000    65.9940     8.4930  1596.5400     2.5600     0.0730
 2706.0000    63.8830     8.5090  1595.1610     2.5540     0.0620
 2706.5000    61.6300     8.5250  1593.7820     2.5470     0.0520
 2707.0000    62.2630     8.5400  1592.4041     2.5420     0.0430
 2707.5000    64.4230     8.5580  1591.0250     2.5260     0.0190
 2708.0000    64.6560     8.5440  1589.6460     2.5010    -0.0030
 2708.5000    64.7950     8.5260  1588.2670     2.4890    -0.0070
 2709.0000    64.8700     8.5070  1586.8879     2.4760    -0.0130
 2709.5000    64.9930     8.4880  1585.5100     2.4780    -0.0010
 2710.0000    65.0990     8.4790  1584.1310     2.5110     0.0190
 2710.5000    65.2040     8.4770  1582.7520     2.5420     0.0390
 2711.0000    65.3170     8.4760  1581.3730     2.5340     0.0440
 2711.5000    65.4190     8.4740  1579.9940     2.5310     0.0420
 2712.0000    65.5250     8.4720  1578.6160     2.5280     0.0410
 2712.5000    65.6450     8.4710  1577.2371     2.5230     0.0390
 2713.0000    65.7070     8.4690  1575.8580     2.5220     0.0350
 2713.5000    66.2930     8.4670  1574.4790     2.5170     0.0120
 2714.0000    67.3280     8.4650  1573.1010     2.5060    -0.0050
 2714.5000    66.0750     8.4640  1571.7220     2.4870     0.0070
 2715.0000    63.8090     8.4620  1570.3430     2.5180     0.0180
 2715.5000    62.9720     8.4600  1568.9640     2.5280     0.0310
 2716.0000    63.7810     8.4580  1567.5850     2.5470     0.0420
 2716.5000    64.4310     8.4570  1566.2070     2.5580     0.0540
 2717.0000    65.4790     8.4550  1564.8280     2.5460     0.0460
 2717.5000    66.0860     8.4530  1563.4490     2.5310     0.0310
 2718.0000    65.1320     8.4520  1562.0699     2.5040     0.0190
 2718.5000    64.1340     8.4500  1560.6910     2.5080     0.0330
 2719.0000    65.6370     8.4480  1559.3130     2.5200     0.0440
 2719.5000    67.4760     8.4460  1557.9340     2.5200     0.0490
 2720.0000    68.0160     8.4450  1556.5551     2.5130     0.0410
 2720.5000    67.5220     8.4430  1555.1760     2.4990     0.0220
 2721.0000    67.1370     8.4390  1553.7970     2.5000     0.0160
 2721.5000    66.7700     8.4590  1552.4160     2.4940     0.0280
 2722.0000    66.3700     8.4990  1551.0360     2.4760     0.0160
 2722.5000    65.9790     8.5370  1549.6560     2.4580     0.0070
 2723.0000    65.6050     8.5750  1548.2660     2.4490     0.0060
 2723.5000    65.2050     8.6130  1546.9041     2.4660     0.0250
 2724.0000    65.2680     8.6520  1545.5040     2.4910     0.0500
 2724.5000    65.3550     8.6910  1544.0920     2.4990     0.0980
 2725.0000    65.4610     8.6920  1543.5120     2.5070     0.0900
 2725.5000    65.5480     8.5910  1545.3000     2.5230     0.0840
 2726.0000    65.6650     8.4860  1547.0350     2.5600     0.0770
 2726.5000    65.7610     8.4400  1548.8380     2.5520     0.0690
 2727.0000    66.5930     8.3930  1550.6240     2.5450     0.0620
 2727.5000    67.7170     8.3630  1552.4041     2.5320     0.0520
 2728.0000    68.7620     8.3670  1554.1920     2.4810     0.0320
 2728.5000    69.8540     8.3710  1555.9760     2.5020     0.0120
 2729.0000    69.3970     8.3750  1557.7610     2.5390     0.0200
 2729.5000    68.8420     8.3800  1559.5430     2.5210     0.0180
 2730.0000    68.2440     8.3840  1561.3260     2.5090    -0.0060
 2730.5000    67.6690     8.3890  1563.1090     2.5050    -0.0100
 2731.0000    67.0510     8.3940  1564.8920     2.5190     0.0070
 2731.5000    66.4900     8.3980  1566.6740     2.5140     0.0190
 2732.0000    62.5980     8.4030  1568.4570     2.5050     0.0310
 2732.5000  -999.2500     8.4070  1570.2400     2.5170     0.0440
 2733.0000  -999.2500     8.4120  1572.0220     2.5130     0.0420
 2733.5000  -999.2500     8.4160  1573.8051     2.4930     0.0200
 2734.0000  -999.2500     8.4210  1575.5880     2.4990     0.0210
 2734.5000  -999.2500     8.4250  1577.3710     2.5150     0.0380
 2735.0000  -999.2500     8.4300  1579.1530     2.5290     0.0560
 2735.5000  -999.2500     8.4340  1580.9360     2.5220     0.0480
 2736.0000  -999.2500     8.4400  1582.7190     2.5120     0.0380
 2736.5000  -999.2500     8.4280  1584.5020     2.5030     0.0270
 2737.0000  -999.2500     8.4020  1586.2841     2.5110     0.0180
 2737.5000  -999.2500     8.3780  1588.0670     2.5270     0.0350
 2738.0000  -999.2500     8.3540  1589.8500     2.5440     0.0500
 2738.5000  -999.2500     8.3290  1591.6331     2.5450     0.0680
 2739.0000  -999.2500     8.3060  1593.4150     2.5390     0.0510
 2739.5000  -999.2500     8.2830  1595.1980     2.5120     0.0320
 2740.0000  -999.2500     8.2780  1596.9810     2.4860     0.0140
 2740.5000  -999.2500     8.2730  1598.7640     2.4760    -0.0010
 2741.0000  -999.2500     8.2700  1600.5460     2.5240     0.0200
 2741.5000  -999.2500     8.2660  1602.3290     2.5180     0.0400
 2742.0000  -999.2500     8.2620  1604.1121     2.4980     0.0390
 2742.5000  -999.2500     8.2580  1605.8950     2.5110     0.0420
 2743.0000  -999.2500     8.2540  1607.6770     2.5250     0.0520
 2743.5000  -999.2500     8.2500  1609.4600     2.5400     0.0620
 2744.0000  -999.2500     8.2460  1611.2440     2.5480     0.0590
 2744.5000  -999.2500     8.2400  1613.0280     2.5500     0.0460
 2745.0000  -999.2500     8.2000  1614.8110     2.5470     0.0540
 2745.5000  -999.2500     8.1610  1616.6000     2.5270     0.0520
 2746.0000  -999.2500     8.1200  1618.3740     2.5120     0.0410
 2746.5000  -999.2500     8.0800  1620.1660     2.5030     0.0300
 2747.0000  -999.2500     8.0400  1621.9760     2.4770     0.0160
 2747.5000  -999.2500     8.0000  1623.2500     2.4830     0.0200
 2748.0000  -999.2500     7.9650  1623.2371     2.5000     0.0380
 2748.5000  -999.2500     7.9650  1623.2610     2.5150     0.0550
 2749.0000  -999.2500     7.9640  1623.2520     2.5160     0.0620
