~VERSION INFORMATION
 VERS.                2.0:   CWLS LOG ASCII STANDARD - VERSION 2.0
 WRAP.                 NO:   ONE LINE PER DEPTH STEP
~WELL INFORMATION
#MNEM.UNIT      DATA TYPE    INFORMATION
#----------   ------------   ------------------------------
 STRT.F          150.0000:   START DEPTH
 STOP.F         2980.0000:   STOP DEPTH
 STEP.F            0.5000:   STEP LENGTH
 NULL.          -999.2500:   NO VALUE
 COMP. FENIX & SCISSION U.S. NAVY:   COMPANY
 WELL.   FENIX "A" #84-20:   WELL
 FLD .             NPR #3:   FIELD
 LOC .      S20 T39N R78W:   LOCATION
 CNTY.            NATRONA:   COUNTY
 STAT.            WYOMING:   STATE
 CTRY. UNITED STATES OF AMERICA:   COUNTRY
 SRVC.       SCHLUMBERGER:   SERVICE COMPANY
 DATE.        21-FEB-1977:   LOGDATE
 API .     49025103020000:   API NUMBER
~CURVE INFORMATION
#MNEM.UNIT       API CODE    CURVE DESCRIPTION
#----------   ------------   ------------------------------
 DEPT.F                  :   
 NPHI.DEC    42 890 03 00:   NEUTRON POROSITY SANDSTONE
 GRD .GAPI   45 310 01 00:   GAMMA RAY FROM DENSITY LOG
 CALD.IN     45 280 60 00:   CALIPER FROM DENSITY LOG
 RHOB.G/C3   45 350 01 00:   BULK DENSITY
 DCOR.G/C3   45 356 01 00:   DENSITY CORRECTION
 SPR .MV     07 010 01 00:   SPONTANEOUS POTENTIAL
 LLD .OHMM   11 220 10 00:   LATEROLOG DEEP
 LLS .OHMM   11 220 09 00:   LATEROLOG SHALLOW
 MSFL.OHMM   07 270 04 00:   MICRO SPHERICALLY FOCUSED RES.
~PARAMETER INFORMATION
#MNEM.UNIT          VALUE    DESCRIPTION
#----------   ------------   ------------------------------
 EKB .F         5006.0000:   Kelly bushing
 EGL .F         4996.0000:   Ground level
 EDF .F            0.0000:   Drilling floor
 TD  .F         2973.0000:   Total depth
 DATE.        21-FEB-1977:   Date logged
 CLNT.            A2DTECH:   Client Code
 SL  . 330' FEL & 2310' FNL:   Surface Location
 PD  .                 GL:   Permanent Datum
 EPD .F              4996:   Elevation Permanent Datum
 LMF .                 KB:   Log Measured From
 DMF .                 KB:   Drilling Measured From
 DAPD.F                10:   Feet Above Permanent Datum
 DD  .F              2973:   Depth driller
 DL  .F              2971:   Depth logger
 BLI .F              2970:   Bottom log interval
 TLI .F               164:   Top log interval
 CS1 .IN            8.625:   Casing size
 CBD1.      8.625" @ 167':   Casing driller 1
 CBL1.F               164:   Casing logger 1
 BS1 .IN            7.875:   Bit size
 BSD1.F              2973:   Depth drilled with bit1
 DFT .            KCL MUD:   Type fluid in hole
 DFD .                9.5:   Density
 DFV .                 35:   Viscosity
 DFPH.                6.5:   pH
 DFL .                 11:   Fluid loss
 MSS .              CIRC.:   Source of sample
 RMS .OHMM           0.27:   Rm
 MST .F                72:   Rm Meas. temp.
 RMF .OHMM           0.19:   Rmf
 MFST.F                72:   Rmf Meas. temp.
 RMC .OHMM           0.35:   Rmc
 MCST.F                72:   Rmc Meas. temp.
 MFSS.               MEAS:   Source Rmf.
 MCSS.               CALC:   Source Rmc.
 RMB .OHMM           0.18:   Rm. at BHT
 BHT .F               110:   BHT.
 TCS .HRS            0300:   Time Circ. stopped
 TLAB.HRS            1000:   Time logger at bottom
 MRT .F               110:   Maximum recorded temp.
 LUN .               7711:   Logging unit number
 LUL .               CSPR:   Logging unit location
 ENGI.             SAYLER:   Recorded By
 WITN.               JAPP:   Witnessed by
 ORIG.           5" PRINT:   Origin of data
 UWI .     49025103020000:   Unique Well ID
 DICO. A2D TECHNOLOGIES, INC.:   Digitizing Company
~OTHER INFORMATION
~A   DEPT       NPHI       GRD      CALD       RHOB       DCOR        SPR        LLD        LLS       MSFL   
# ...
 1464.0000     0.3370   126.0150    11.1400     2.5390     0.0270   -35.3390     8.6380     9.4550    11.9530
 1464.5000     0.3340   125.8340    11.1560     2.5270     0.0240   -35.2770     8.3280     9.2320    11.1720
 1465.0000     0.3300   125.6510    11.1530     2.5260     0.0310   -35.0670     8.0180     9.0090    10.5210
 1465.5000     0.3260   126.1010    11.1490     2.5520     0.0380   -34.7900     7.8020     8.7860    10.0570
 1466.0000     0.3230   126.6300    11.1460     2.5460     0.0330   -34.5180     7.7290     8.5630     9.7650
 1466.5000     0.3200   126.9000    11.1420     2.5350     0.0270   -34.2410     7.6560     8.4210     9.8100
 1467.0000     0.3230   126.3480    11.1380     2.5310     0.0210   -33.8440     7.5830     8.4020     9.9250
 1467.5000     0.3290   126.7540    11.1400     2.5410     0.0240   -33.2280     7.5100     8.3830    10.0390
 1468.0000     0.3330   127.4680    11.1430     2.5350     0.0170   -32.6060     7.4370     8.3640    10.1300
 1468.5000     0.3330   128.1760    11.1460     2.5310     0.0190   -31.9790     7.3640     8.3450     9.8580
 1469.0000     0.3380   128.0350    11.1480     2.5450     0.0250   -31.3540     7.2760     8.3260     9.5870
 1469.5000     0.3480   127.8490    11.1510     2.5450     0.0320   -30.7300     7.2960     8.3070     9.6660
 1470.0000     0.3640   128.0850    11.1540     2.5520     0.0380   -30.1070     7.3200     8.2880     9.7660
 1470.5000     0.3840   128.7580    11.1560     2.5440     0.0530   -29.4710     7.3440     8.2690     9.8660
 1471.0000     0.3890   129.3870    11.1720     2.5540     0.0820   -28.8680     7.3690     8.2500     9.9460
 1471.5000     0.3810   129.6190    11.2030     2.5440     0.0920   -28.2450     7.3920     8.2300     9.9040
 1472.0000     0.3620   129.6460    11.2330     2.5210     0.0650   -28.5850     7.4150     8.2120     9.8690
 1472.5000     0.3370   129.0680    11.2160     2.5050     0.0390   -29.2750     7.4380     8.1930     9.8340
 1473.0000     0.3310   129.0020    11.1920     2.5630     0.0440   -30.1750     7.4630     8.1750     9.7990
 1473.5000     0.3360   129.4060    11.1680     2.5580     0.0450   -31.4090     7.4940     8.1560     9.7650
 1474.0000     0.3450   128.5600    11.1630     2.5540     0.0360   -32.6600     7.5300     8.1360     8.7450
 1474.5000     0.3510   127.9100    11.1770     2.5620     0.0410   -33.9050     7.5600     7.9180     9.5310
 1475.0000     0.3510   128.0760    11.1920     2.5560     0.0360   -35.1690     7.1130     7.4000    10.3180
 1475.5000     0.3460   128.1590    11.1840     2.5350     0.0260   -36.4010     6.3880     6.8830     8.9960
 1476.0000     0.3430   127.9010    11.1630     2.5120     0.0150   -37.5990     5.2260     6.3650     6.6230
 1476.5000     0.3440   127.6510    11.1410     2.5040     0.0160   -37.9410     5.4830     6.0540     3.3010
 1477.0000     0.3450   127.4030    11.1200     2.5030     0.0200   -38.2650     6.1230     8.9070     8.4290
 1477.5000     0.3440   126.9890    11.0980     2.5040     0.0170   -38.5450     6.7640     8.0950     9.0590
 1478.0000     0.3420   126.5860    11.0790     2.5110     0.0190   -38.8340     7.2760     7.6890     9.5840
 1478.5000     0.3470   126.1820    11.0780     2.5200     0.0230   -38.8870     7.4580     8.2270    10.1080
 1479.0000     0.3540   125.6950    11.1130     2.5240     0.0300   -38.9350     7.6100     8.5850    10.3540
 1479.5000     0.3650   124.6910    11.1580     2.5210     0.0360   -38.9750     7.7610     8.3530    10.4140
 1480.0000     0.3610   123.6940    11.2030     2.5390     0.0570   -39.0200     7.9130     8.2760    10.4740
 1480.5000     0.3540   122.8520    11.2480     2.5580     0.0760   -39.0630     8.0640     8.7780    10.5490
 1481.0000     0.3500   122.8780    11.2630     2.5470     0.0620   -39.1070     8.1250     8.8590    10.7050
 1481.5000     0.3500   122.6470    11.2310     2.5320     0.0370   -39.1490     8.0450     8.9410    10.6850
 1482.0000     0.3510   122.0470    11.1990     2.5190     0.0210   -39.1940     7.9780     9.0720    10.6360
 1482.5000     0.3400   122.6310    11.1670     2.5250     0.0180   -39.2440     7.9110     8.9580    10.5880
 1483.0000     0.3300   123.7680    11.1380     2.5170     0.0150   -39.3850     7.8310     8.6740    10.5390
 1483.5000     0.3240   123.5740    11.1290     2.5230     0.0190   -39.5540     7.6630     8.3890    10.4150
 1484.0000     0.3190   122.9260    11.1210     2.5360     0.0180   -39.7170     7.4110     7.9430    10.1300
 1484.5000     0.3210   123.9790    11.1120     2.5450     0.0180   -39.8890     6.7390     7.3890     8.1310
 1485.0000     0.3230   126.1720    11.1040     2.5450     0.0220   -40.0560     5.7290     6.8350     5.1310
 1485.5000     0.3240   128.1930    11.0960     2.5430     0.0260   -40.4080     6.0240     6.2810     7.0280
 1486.0000     0.3230   128.5290    11.0870     2.5530     0.0360   -40.7180     6.3920     6.7500     7.9770
 1486.5000     0.3220   127.0250    11.0790     2.5320     0.0260   -40.8580     6.7600     7.2190    10.5100
 1487.0000     0.3270   126.4090    11.0700     2.5220     0.0180   -40.9160     7.0980     7.6880     7.6890
 1487.5000     0.3290   126.4290    11.0620     2.5370     0.0360   -42.2720     7.4360     8.1570     9.3970
 1488.0000     0.3370   126.4330    11.0570     2.5470     0.0400   -42.9760     7.9770     8.9070    11.1060
 1488.5000     0.3370   126.9620    11.0530     2.5490     0.0310   -43.1990     7.9590     8.8610    10.9090
 1489.0000     0.3350   127.5790    11.0500     2.5360     0.0210   -43.4720     7.9130     8.7460    10.7450
 1489.5000     0.3310   127.1130    11.0470     2.5280     0.0140   -43.6420     7.8680     8.5850    10.5810
 1490.0000     0.3270   126.5520    11.0430     2.5380     0.0220   -43.6220     7.8310     8.6380    10.3180
 1490.5000     0.3220   125.9940    11.0400     2.5360     0.0250   -43.6220     7.8990     8.7250    10.3900
 1491.0000     0.3200   125.4520    11.0410     2.5410     0.0150   -43.6240     7.9560     8.8110    10.5690
 1491.5000     0.3180   125.3180    11.0420     2.5470     0.0270   -43.2170     8.0120     8.8980    10.7480
 1492.0000     0.3200   125.4520    11.0440     2.5410     0.0330   -42.6460     8.0680     8.9850    10.9270
 1492.5000     0.3270   124.7470    11.0450     2.5250     0.0270   -42.0190     8.1250     9.0720    11.1060
 1493.0000     0.3350   124.4230    11.0470     2.5190     0.0300   -41.3490     7.9830     8.9190    10.9030
 1493.5000     0.3390   125.6070    11.0480     2.5320     0.0280   -40.1050     7.8420     8.7660    10.6640
 1494.0000     0.3400   126.9400    11.0500     2.5270     0.0250   -39.0970     7.7010     8.6130    10.3650
 1494.5000     0.3390   128.3410    11.0510     2.5310     0.0300   -38.0830     7.5590     8.4590     9.9460
 1495.0000     0.3380   128.7500    11.0520     2.5380     0.0310   -37.1030     7.4180     8.2760    10.0720
 1495.5000     0.3380   127.7540    11.0540     2.5360     0.0260   -36.2990     7.2760     8.3330    10.2830
 1496.0000     0.3340   126.5930    11.0550     2.5300     0.0200   -35.5960     7.3860     8.4050    10.4940
 1496.5000     0.3290   126.7150    11.0570     2.5170     0.0140   -34.8960     7.4950     8.4760    10.7050
 1497.0000     0.3260   128.7520    11.0580     2.5150     0.0190   -34.5500     7.6050     8.5480    10.6080
 1497.5000     0.3250   131.6620    11.0520     2.5280     0.0260   -34.7720     7.7140     8.6200    10.5110
 1498.0000     0.3260   133.0790    11.0350     2.5580     0.0460   -35.2030     7.8240     8.6920    10.4150
 1498.5000     0.3200   132.1200    11.0180     2.5810     0.0660   -35.6240     7.9330     8.7640    10.3180
 1499.0000     0.3140   129.9440    11.0000     2.5690     0.0580   -36.0310     8.2210     8.8350    10.7530
 1499.5000     0.3050   126.5510    10.9830     2.5540     0.0570   -36.4410     8.6280     8.9070    11.1870
 1500.0000     0.3090   123.1760    10.9650     2.5600     0.0570   -36.6170     9.0350     9.2790    11.6220
