~VERSION INFORMATION
 VERS.                2.0:   CWLS LOG ASCII STANDARD - VERSION 2.0
 WRAP.                 NO:   ONE LINE PER DEPTH STEP
~WELL INFORMATION
#MNEM.UNIT      DATA TYPE    INFORMATION
#----------   ------------   ------------------------------
 STRT.F            0.0000:   START DEPTH
 STOP.F         4700.0000:   STOP DEPTH
 STEP.F            0.5000:   STEP LENGTH
 NULL.          -999.2500:   NO VALUE
 COMP. LAWRENCE ALLISON & ASSOCIATES:   COMPANY
 WELL. LAWRENCE NPR 3 "X" #33-23:   WELL
 FLD .                NPR:   FIELD
 LOC .      S23 T38N R78W:   LOCATION
 CNTY.            NATRONA:   COUNTY
 STAT.            WYOMING:   STATE
 CTRY. UNITED STATES OF AMERICA:   COUNTRY
 SRVC.      DRESSER ATLAS:   SERVICE COMPANY
 DATE.        12-NOV-1984:   LOGDATE
 API .     49025109930000:   API NUMBER
~CURVE INFORMATION
#MNEM.UNIT       API CODE    CURVE DESCRIPTION
#----------   ------------   ------------------------------
 DEPT.F                  :   
 TEND.LBS    45 635 01 00:   TENSION FROM DENSITY LOG
 CALD.IN     45 280 60 00:   CALIPER FROM DENSITY LOG
 CORR.G/C3   45 356 01 00:   DENSITY CORRECTION
 DEN .G/C3   45 350 01 00:   BULK DENSITY
 CNC .DEC    42 890 03 00:   NEUTRON PORISITY SANDSTONE
 SPR .MV     07 010 01 00:   SPONTANEOUS POTENTIAL
 GRR .GAPI   07 310 01 00:   GAMMA RAY FROM RESISTIVITY
 RFOC.OHMM   07 220 01 00:   RESISTIVITY FOCUSED LOG RES.
 ILM .OHMM   07 120 44 00:   INDUCTION LOG MEDIUM RESISTIVITY
 ILD .OHMM   07 120 46 00:   INDUCTION LOG DEEP RESISTIVITY
 TENS.LBS    60 635 01 00:   TENSION FROM SONIC LOG
 DT  .US/F   60 520 00 00:   DELTA TIME
 TENR.LBS    07 635 01 00:   TENSION
~PARAMETER INFORMATION
#MNEM.UNIT          VALUE    DESCRIPTION
#----------   ------------   ------------------------------
 EKB .F         5308.0000:   Kelly bushing
 EGL .F         5296.0000:   Ground level
 EDF .F            0.0000:   Drilling floor
 EPD .F            0.0000:   Permanent datum
 TD  .F         4695.0000:   Total depth
 DATE.        12-NOV-1984:   Date logged
 CLNT.            A2DTECH:   Client Code
 SL  . 1415' FNL & 1874' FWL:   Surface Location
 PD  .                 GL:   Permanent Datum
 LMF .                 KB:   Log Measured From
 DMF .                 KB:   Drilling Measured From
 DAPD.F                12:   Feet Above Permanent Datum
 DD  .F              4695:   Depth driller
 DL  .F              4694:   Depth logger
 BLI .F              4691:   Bottom log interval
 TLI .F              1205:   Top log interval
 CS1 .IN            8.625:   Casing size
 CBD1.     8.625" @ 1206':   Casing driller 1
 CBL1.F              1205:   Casing logger 1
 BS1 .IN            7.875:   Bit size
 BSD1.F              4695:   Depth drilled with bit1
 DFT .     GFL/KCL/STAFLO:   Type fluid in hole
 DFD .                9.2:   Density
 DFV .                 45:   Viscosity
 DFPH.                  8:   pH
 DFL .                 10:   Fluid loss
 MSS .           FLOWLINE:   Source of sample
 RMS .OHMM            .51:   Rm
 MST .F                72:   Rm Meas. temp.
 RMF .OHMM            .43:   Rmf
 MFST.F                70:   Rmf Meas. temp.
 RMC .OHMM            .64:   Rmc
 MCST.F                72:   Rmc Meas. temp.
 MFSS.               MEAS:   Source Rmf.
 MCSS.               CALC:   Source Rmc.
 RMB .OHMM           .272:   Rm. at BHT
 BHT .F               135:   BHT.
 TCS .HRS               4:   Time Circ. stopped
 MRT .F               135:   Maximum recorded temp.
 LUN .               6274:   Logging unit number
 LUL .               GLTE:   Logging unit location
 ENGI.             RAUTIO:   Recorded By
 ORIG.           5" PRINT:   Origin of data
 UWI .     49025109930000:   Unique Well ID
 DICO. A2D TECHNOLOGIES, INC.:   Digitizing Company
~OTHER INFORMATION
~A    DEPT    TEND       CALD       CORR        DEN        CNC        SPR         GRR      RFOC        ILM        ILD       TENS         DT       TENR   
# ...
 2210.0000   -20.0300     9.9640     0.0000     2.5420     0.2640   -29.7770    91.9550     7.0860     7.0740     6.9160   -65.6260    84.9930   -78.5460
 2210.5000   -20.7630     9.9640     0.0030     2.5420     0.2630   -29.7460    92.9890     7.1090     7.0210     6.8300   -65.7500    85.4320   -79.0580
 2211.0000   -27.5370     9.9630     0.0060     2.5420     0.2660   -29.8060    94.0780     7.1390     7.0460     6.8300   -65.8740    85.8710   -79.5700
 2211.5000   -34.3110     9.9620     0.0080     2.5410     0.2590   -29.8690    93.5180     7.1690     7.0790     6.9070   -65.9980    86.3110   -80.0820
 2212.0000   -41.0840     9.9620     0.0080     2.5430     0.2480   -29.9340    91.9510     7.1990     7.1310     6.9720   -66.1220    86.4810   -80.5940
 2212.5000   -47.8580     9.9610     0.0040     2.5450     0.2340   -29.8560    92.5730     7.2820     7.1890     7.0360   -66.2460    86.1770   -81.1060
 2213.0000   -54.6320     9.9600    -0.0020     2.5530     0.2340   -29.7580    93.2930     7.6060     7.2470     7.1010   -66.3700    85.8640   -81.6190
 2213.5000   -59.2370     9.9590    -0.0060     2.5630     0.2370   -29.6580    92.5190     8.0580     7.3040     7.1660   -66.4940    85.4740   -82.1310
 2214.0000   -48.7950     9.9590    -0.0080     2.5640     0.2380   -29.5590    91.0910     8.0430     7.3620     7.2190   -66.6180    85.0840   -82.6430
 2214.5000   -37.5060     9.9580    -0.0020     2.5570     0.2350   -29.5460    90.5930     8.0060     7.4190     7.2290   -66.7420    84.6940   -83.1550
 2215.0000   -26.2160     9.9570     0.0030     2.5510     0.2320   -29.5450    95.2710     7.9690     7.4060     7.2390   -66.8670    84.3040   -83.6670
 2215.5000   -19.0760     9.9570     0.0120     2.5540     0.2280   -29.5450    99.4130     7.9320     7.3940     7.2490   -66.9910    84.1650   -84.1790
 2216.0000   -20.4110     9.9560     0.0240     2.5570     0.2270   -29.5450    99.0910     7.8390     7.3820     7.2580   -67.1150    84.3940   -84.6920
 2216.5000   -21.7840     9.9550     0.0350     2.5570     0.2290   -29.5450    96.1850     7.5470     7.3700     7.2680   -67.2390    84.9010   -85.2040
 2217.0000   -23.1570     9.9540     0.0460     2.5570     0.2320   -29.5190    95.5020     7.2630     7.3510     7.2780   -67.3630    85.4080   -85.4280
 2217.5000   -24.5310     9.9540     0.0500     2.5570     0.2340   -29.4670    94.1700     7.2170     7.3780     7.2880   -67.4870    85.9150   -85.2780
 2218.0000   -25.9040     9.9530     0.0230     2.5530     0.2350   -29.4150    92.3810     7.6940     7.4410     7.2980   -67.6110    85.7750   -85.1270
 2218.5000   -27.2770     9.9520    -0.0250     2.5480     0.2300   -29.3610    91.8480     7.9840     7.5040     7.3080   -67.7350    85.2230   -84.9770
 2219.0000   -28.6500     9.9520    -0.0440     2.5500     0.2270   -29.3860    94.4460     7.9060     7.5670     7.3170   -67.8590    84.7160   -84.8260
 2219.5000   -30.0230     9.9510    -0.0090     2.5560     0.2280   -29.4560    95.9330     7.9000     7.6260     7.3270   -67.9830    84.4530   -84.6760
 2220.0000   -31.3960     9.9500     0.0040     2.5610     0.2330   -29.5270    94.6830     7.8950     7.6170     7.3370   -68.1070    84.7350   -84.5250
 2220.5000   -32.7690     9.9500    -0.0050     2.5590     0.2410   -29.5980    93.5360     7.8890     7.6080     7.3470   -68.2310    85.0170   -84.3740
 2221.0000   -34.1420     9.9490    -0.0150     2.5510     0.2450   -29.6680    94.2340     7.8830     7.6000     7.3570   -68.3550    85.2980   -84.2240
 2221.5000   -35.5150     9.9480    -0.0200     2.5450     0.2450   -29.7480    94.9850     7.8770     7.5910     7.3660   -68.4800    85.3220   -84.0730
 2222.0000   -36.8880     9.9470     0.0000     2.5540     0.2460   -30.0780    93.1730     7.8720     7.5830     7.3760   -68.6040    85.2550   -83.9230
 2222.5000   -38.2610     9.9470     0.0230     2.5690     0.2450   -30.4260    91.1750     7.8660     7.5740     7.3860   -68.7280    85.1870   -83.7720
 2223.0000   -41.1200     9.9460     0.0200     2.5850     0.2440   -30.7790    90.5700     7.8600     7.5660     7.3960   -68.8520    85.1200   -83.6220
 2223.5000   -46.7650     9.9450    -0.0030     2.5930     0.2420   -30.5750    91.7670     7.8540     7.5560     7.4060   -68.9760    85.0520   -83.4710
 2224.0000   -52.4100     9.9450     0.0000     2.5930     0.2400   -29.9810    93.5170     7.8480     7.6020     7.4160   -69.1000    84.9840   -83.3210
 2224.5000   -58.0540     9.9440     0.0240     2.5950     0.2380   -29.6760    95.3020     7.8430     7.6700     7.4620   -69.2240    84.7710   -83.1700
 2225.0000   -57.4110     9.9430     0.0340     2.5950     0.2330   -29.5580    97.2080     7.8390     7.7370     7.5240   -69.3480    84.5170   -83.0200
 2225.5000   -52.7930     9.9430     0.0450     2.5880     0.2280   -29.4410    93.5870     7.9930     7.8040     7.5870   -69.4720    84.1610   -82.8690
 2226.0000   -48.1750     9.9420     0.0300     2.5780     0.2220   -29.3470    88.9440     8.1330     7.8710     7.6490   -69.5960    83.6540   -82.7190
 2226.5000   -43.5560     9.9410    -0.0130     2.5700     0.2240   -29.3970    85.7490     8.2730     7.9380     7.7120   -69.7200    83.1470   -82.5680
 2227.0000   -39.1570     9.9400    -0.0340     2.5750     0.2260   -29.4460    87.7870     8.4130     7.9840     7.7590   -69.8440    82.7270   -82.4180
 2227.5000   -39.1570     9.9400    -0.0190     2.5870     0.2280   -29.4950    91.9840     8.5930     7.8580     7.6050   -69.9680    82.6010   -82.2670
 2228.0000   -39.1570     9.9390     0.0290     2.5960     0.2340   -29.5440    94.0440     8.3260     7.7440     7.4600   -70.0930    82.9700   -82.1170
 2228.5000   -39.1570     9.9380     0.0460     2.5880     0.2420   -29.5930    94.9840     7.9560     7.6310     7.3140   -70.2170    83.6160   -81.9660
 2229.0000   -39.1570     9.9380     0.0190     2.5750     0.2470   -29.6420    95.9580     7.5860     7.5170     7.2170   -70.3410    84.2610   -81.8160
 2229.5000   -39.1570     9.9370    -0.0340     2.5600     0.2470   -29.6910    96.4130     7.4870     7.4190     7.2170   -70.4650    84.9060   -81.6650
 2230.0000   -39.1570     9.9360    -0.0380     2.5580     0.2330   -29.7400    96.5220     7.6240     7.4190     7.2170   -70.5890    85.3520   -81.5140
 2230.5000   -39.1570     9.9350    -0.0100     2.5570     0.2210   -29.7880    93.8610     7.7460     7.4190     7.2170   -70.7130    85.2800   -81.3640
 2231.0000   -39.1570     9.9350     0.0110     2.5450     0.2230   -29.8370    93.0350     7.8670     7.4190     7.2170   -70.8370    85.2070   -81.2130
 2231.5000   -39.1570     9.9340     0.0000     2.5320     0.2320   -29.8870    91.9970     7.9880     7.4190     7.2170   -70.9610    84.8890   -81.0630
 2232.0000   -39.1570     9.9330    -0.0230     2.5270     0.2410   -29.9340    89.2290     8.1090     7.4190     7.2170   -71.0850    84.3260   -80.9120
 2232.5000   -39.1570     9.9330    -0.0280     2.5350     0.2500   -29.8310    86.7480     8.2830     7.4190     7.2170   -71.2090    83.7630   -80.7620
 2233.0000   -39.1570     9.9320    -0.0220     2.5460     0.2560   -29.7460    88.7630     8.1900     7.4190     7.2170   -71.3330    83.1590   -80.6110
 2233.5000   -39.1570     9.9310     0.0210     2.5500     0.2530   -29.8520    91.6440     7.9360     7.4190     7.2170   -71.4570    83.1590   -80.4610
 2234.0000   -39.1570     9.9310     0.0090     2.5440     0.2480   -29.9370    93.4330     7.6810     7.4190     7.2170   -71.5810    83.8910   -80.3100
 2234.5000   -39.1570     9.9300    -0.0080     2.5380     0.2420   -29.7510    94.1450     7.4260     7.4180     7.2170   -71.7060    84.5370   -80.1600
 2235.0000   -39.1570     9.9290    -0.0270     2.5300     0.2360   -29.5410    94.8390     7.2170     7.4120     7.2170   -71.8300    85.1820   -80.0090
 2235.5000   -39.1570     9.9280    -0.0360     2.5240     0.2340   -29.3320    96.6670     7.3600     7.4070     7.2170   -71.9540    85.8270   -79.8590
