~VERSION INFORMATION
 VERS.                2.0:   CWLS LOG ASCII STANDARD - VERSION 2.0
 WRAP.                 NO:   ONE LINE PER DEPTH STEP
~WELL INFORMATION
#MNEM.UNIT      DATA TYPE    INFORMATION
#----------   ------------   ------------------------------
 STRT.F          212.5000:   START DEPTH
 STOP.F         3098.0000:   STOP DEPTH
 STEP.F            0.5000:   STEP LENGTH
 NULL.          -999.2500:   NO VALUE
 COMP.    FENIX & SCISSON:   COMPANY
 WELL. FENIX NPR 77 "A" #3-33:   WELL
 FLD .                NPR:   FIELD
 LOC .      S33 T39N R78W:   LOCATION
 CNTY.            NATRONA:   COUNTY
 STAT.            WYOMING:   STATE
 CTRY. UNITED STATES OF AMERICA:   COUNTRY
 SRVC.       SCHLUMBERGER:   SERVICE COMPANY
 DATE.        07-MAY-1977:   LOGDATE
 API .     49025103700000:   API NUMBER
~CURVE INFORMATION
#MNEM.UNIT       API CODE    CURVE DESCRIPTION
#----------   ------------   ------------------------------
 DEPT.F                  :   
 SPR .MV     07 010 01 00:   SPONTANEOUS POTENTIAL
 LL8 .OHMM   11 220 08 00:   LATERALOG-8 RESISTIVITY
 ILD .OHMM   07 120 46 00:   DEEP INDUCTION RESISTIVITY
 CALD.IN     45 280 60 00:   CALIPER FROM DENSITY LOG
 GRD .GAPI   45 310 01 00:   GAMMA RAY FROM DENSITY LOG
 RHOB.G/C3   45 350 01 00:   BULK DENSITY
 CORR.G/C3   45 356 01 00:   DENSITY CORRECTION
 ILM .OHMM   07 120 44 00:   INDUCTION LOG MEDIUM RESISTIVITY
~PARAMETER INFORMATION
#MNEM.UNIT          VALUE    DESCRIPTION
#----------   ------------   ------------------------------
 EKB .F         5152.0000:   Kelly bushing
 EGL .F         5141.0000:   Ground level
 TD  .F         3097.0000:   Total depth
 DATE.        07-MAY-1977:   Date logged
 CLNT.            A2DTECH:   Client Code
 SL  . 990' FEL & 990' FSL:   Surface Location
 PD  .                 GL:   Permanent Datum
 EPD .F              5141:   Elevation Permanent Datum
 LMF .                 KB:   Log Measured From
 DMF .                 KB:   Drilling Measured From
 DAPD.F                11:   Feet Above Permanent Datum
 DD  .F              3096:   Depth driller
 DL  .F              3097:   Depth logger
 BLI .F              3091:   Bottom log interval
 TLI .F               222:   Top log interval
 CS1 .IN            8.625:   Casing size
 CBD1.      8.625" @ 200':   Casing driller 1
 CBL1.F               222:   Casing logger 1
 BS1 .IN            7.875:   Bit size
 BSD1.F              3096:   Depth drilled with bit1
 DFT .                KCL:   Type fluid in hole
 DFD .                9.2:   Density
 DFV .                 38:   Viscosity
 DFPH.                  8:   pH
 DFL .                7.6:   Fluid loss
 MSS .           FLOWLINE:   Source of sample
 RMS .OHMM           .191:   Rm
 MST .F                76:   Rm Meas. temp.
 RMF .OHMM           .185:   Rmf
 MFST.F                76:   Rmf Meas. temp.
 MFSS.               MEAS:   Source Rmf.
 RMB .OHMM           .126:   Rm. at BHT
 BHT .F               115:   BHT.
 TCS .HRS            1200:   Time Circ. stopped
 TLAB.HRS            1530:   Time logger at bottom
 MRT .F                15:   Maximum recorded temp.
 LUN .               6442:   Logging unit number
 LUL .               CSPR:   Logging unit location
 ENGI.             MARTIN:   Recorded By
 WITN.          PETTMGILL:   Witnessed by
 ORIG.      2.5" 5" PRINT:   Origin of data
 UWI .     49025103700000:   Unique Well ID
 DICO. A2D TECHNOLOGIES, INC.:   Digitizing Company
~OTHER INFORMATION
~A   DEPT      SPR        LL8        ILD       CALD         GRD      RHOB       CORR        ILM   
# ...
 2845.0000   -70.4350     5.8410     4.1660     9.0260   147.4350     2.5430     0.0790     4.3980
 2845.5000   -70.5090     5.9400     4.2090     9.0240   145.1660     2.5360     0.0800     4.4330
 2846.0000   -70.5930     5.8940     4.2510     9.0210   140.7460     2.5430     0.0810     4.4680
 2846.5000   -70.6750     5.8270     4.2940     9.0190   138.1730     2.5530     0.0810     4.5030
 2847.0000   -70.7550     5.7250     4.3370     9.0160   138.5520     2.5630     0.0890     4.5380
 2847.5000   -70.8430     5.8600     4.3790     9.0140   138.5910     2.5700     0.1000     4.5740
 2848.0000   -71.5410     6.1360     4.4220     9.0110   136.8110     2.5560     0.0950     4.6090
 2848.5000   -72.3260     6.2210     4.4640     9.0090   135.5140     2.5420     0.0740     4.6440
 2849.0000   -73.1130     5.9020     4.5070     9.0060   135.6180     2.5400     0.0710     4.6790
 2849.5000   -73.9000     5.7250     4.5490     9.0050   134.5300     2.5550     0.0890     4.7140
 2850.0000   -74.6020     6.0590     4.5880     9.0010   132.0300     2.5610     0.0890     4.7500
 2850.5000   -74.5860     6.3640     4.5880     8.9990   129.7100     2.5540     0.0780     4.7790
 2851.0000   -74.0970     6.6360     4.5230     9.0040   129.8920     2.5460     0.0680     4.8040
 2851.5000   -73.6260     6.6970     4.4300     9.0440   132.2540     2.5400     0.0610     4.6500
 2852.0000   -73.1600     6.5020     4.3380     9.0490   135.2850     2.5520     0.0730     4.5320
 2852.5000   -72.6940     6.1220     4.2450     9.0620   138.2290     2.5630     0.0860     4.4140
 2853.0000   -72.2280     5.7420     4.1530     9.0730   141.2130     2.5600     0.0830     4.2960
 2853.5000   -71.7620     5.3610     4.0600     9.0840   144.1340     2.5500     0.0800     4.1780
 2854.0000   -71.2950     4.9850     3.9680     9.0950   147.0780     2.5410     0.0790     4.0600
 2854.5000   -70.8290     5.0740     3.8760     9.1060   148.1710     2.5460     0.0770     3.9580
 2855.0000   -70.3640     5.2410     3.7800     9.1170   148.0090     2.5560     0.0870     3.8860
 2855.5000   -69.8980     5.3670     3.8520     9.1280   145.0570     2.5660     0.1050     4.0050
 2856.0000   -69.5760     5.2750     3.9860     9.1390   141.1350     2.5740     0.1120     4.1590
 2856.5000   -69.3970     5.1720     4.1190     9.1500   136.8430     2.5690     0.0960     4.3120
 2857.0000   -69.2550     5.3800     4.2530     9.1610   135.0170     2.5540     0.0850     4.4660
 2857.5000   -69.7440     5.6560     4.3870     9.1720   136.3690     2.5380     0.0710     4.6200
 2858.0000   -70.4140     5.9320     4.5200     9.1830   137.8460     2.5590     0.0770     4.7730
 2858.5000   -71.0880     6.1640     4.6540     9.1940   135.4140     2.5540     0.0920     4.9270
 2859.0000   -71.7580     6.1640     4.7880     9.2050   131.7010     2.5410     0.0730     5.0810
 2859.5000   -72.2520     6.1640     4.9210     9.2160   128.9810     2.5480     0.0600     5.2690
 2860.0000   -71.8540     6.3000     5.0310     9.2280   129.8180     2.5540     0.0710     5.2490
 2860.5000   -71.3200     6.5080     5.0310     9.2340   131.0370     2.5610     0.0830     5.2240
 2861.0000   -70.7830     6.6970     5.0310     9.2280   131.0980     2.5680     0.0900     5.1980
 2861.5000   -70.2450     6.5630     5.0310     9.2250   130.7420     2.5750     0.0860     5.1720
 2862.0000   -69.7070     6.2200     4.7700     9.2210   133.1640     2.5720     0.0810     5.0130
 2862.5000   -69.1700     5.8770     4.4400     9.2160   136.5160     2.5630     0.0750     4.7430
 2863.0000   -68.6330     5.5340     4.1100     9.2120   139.3700     2.5550     0.0690     4.4740
 2863.5000   -68.0950     5.1910     3.7800     9.2080   140.0630     2.5440     0.0640     4.1170
 2864.0000   -67.5580     5.0780     3.4500     9.2040   146.4170     2.5490     0.0580     3.7380
 2864.5000   -67.0220     4.6730     3.1210     9.2000   153.4590     2.5330     0.0570     3.3590
 2865.0000   -66.4840     4.0660     2.7910     9.1960   154.0780     2.5120     0.0810     2.9810
 2865.5000   -65.9080     3.4690     2.4610     9.1950   162.5670     2.5180     0.1080     2.6620
 2866.0000   -65.3670     2.8720     2.1310     9.1910   169.9950     2.5130     0.1370     2.6130
 2866.5000   -66.2570     2.2750     2.0370     9.2330   174.1660     2.4740     0.1630     2.6340
 2867.0000   -67.3080     1.9990     2.5530     9.3850   167.8780     2.4810     0.1850     2.8090
 2867.5000   -68.3610     4.0510     2.9720     9.5020   150.3750     2.3790     0.1090     3.2050
 2868.0000   -69.4110     6.4550     3.3910     9.2990   137.4980     2.3910     0.0800     3.6010
 2868.5000   -70.4590     6.2510     3.8090     9.0870   129.3890     2.5890     0.0960     3.9960
 2869.0000   -71.5080     6.0110     4.2280     9.0770   121.2020     2.5810     0.1010     4.3920
 2869.5000   -72.2570     5.8320     4.6470     9.0700   122.3020     2.5710     0.0820     4.7880
 2870.0000   -72.7080     6.0200     5.0660     9.0600   124.0670     2.5590     0.0830     5.1840
 2870.5000   -73.1590     6.3070     5.1250     9.0450   126.2450     2.5760     0.0820     5.4670
 2871.0000   -73.6070     6.6050     5.1250     9.0320   128.2850     2.5930     0.0820     5.5180
 2871.5000   -74.0060     6.4070     5.0820     9.0180   130.2520     2.5930     0.0820     5.4460
 2872.0000   -73.7450     6.1440     4.9920     9.0050   132.3050     2.5850     0.0830     5.3380
 2872.5000   -73.2120     5.8810     4.9010     8.9910   134.3990     2.5750     0.0790     5.2300
 2873.0000   -72.6810     5.6180     4.8100     8.9780   135.9870     2.5660     0.0740     5.1230
 2873.5000   -72.1500     5.3550     4.7190     8.9630   136.9190     2.5580     0.0680     5.0150
 2874.0000   -71.6220     5.1720     4.6730     8.9560   137.8740     2.5540     0.0630     4.9390
 2874.5000   -71.2250     5.3010     4.7160     8.9560   138.8530     2.5400     0.0560     4.9040
 2875.0000   -70.9760     5.5620     4.7160     8.9560   139.9360     2.5260     0.0510     4.8340
 2875.5000   -70.7260     5.8220     4.7160     8.9470   138.6380     2.5200     0.0600     4.7630
 2876.0000   -70.4740     6.1070     4.5270     8.9390   136.3020     2.5330     0.0680     4.6930
 2876.5000   -70.2560     6.1070     4.2580     8.9290   134.1750     2.5500     0.0770     4.6020
 2877.0000   -70.0560     5.8110     3.9900     8.9200   135.6320     2.5740     0.0880     4.3530
 2877.5000   -70.4650     5.3950     3.7210     8.9110   137.7660     2.5630     0.0800     4.0570
 2878.0000   -70.8470     4.9640     3.4520     8.9020   141.0890     2.5330     0.0580     3.6600
 2878.5000   -71.2210     4.4220     3.1840     8.8930   143.5760     2.5230     0.0500     3.2630
 2879.0000   -71.5950     3.8790     2.9150     8.8840   165.0450     2.5270     0.0590     2.8920
 2879.5000   -71.9820     3.3370     2.6860     8.8770   178.4620     2.5990     0.0750     2.8390
 2880.0000   -72.4930     2.7620     2.6620     8.8740   188.7880     2.5940     0.0910     3.1860
 2880.5000   -72.1710     2.9830     3.0440     8.8720   199.1600     2.5460     0.0990     3.4450
 2881.0000   -71.6610     3.9840     3.3290     8.8700   194.3860     2.5350     0.0970     3.7050
 2881.5000   -71.1460     4.9860     3.6150     8.8680   178.6140     2.5460     0.0870     3.9640
 2882.0000   -70.6350     5.8860     3.9000     8.8660   152.3870     2.5660     0.0770     4.2240
 2882.5000   -70.1250     6.0460     4.1850     8.8630   136.8960     2.5600     0.0670     4.4830
 2883.0000   -69.6640     5.9930     4.4710     8.8610   133.4030     2.5510     0.0570     4.7430
 2883.5000   -69.1690     5.9400     4.7560     8.8590   129.8070     2.5650     0.0630     5.0020
 2884.0000   -68.6210     6.0450     5.0420     8.8570   129.0800     2.5950     0.0770     5.2690
 2884.5000   -68.0720     6.3380     5.2690     8.8550   130.0080     2.6080     0.0920     5.3970
 2885.0000   -67.5250     6.6360     5.3800     8.8520   130.3770     2.6040     0.1020     5.5280
