~VERSION INFORMATION
 VERS.                2.0:   CWLS LOG ASCII STANDARD - VERSION 2.0
 WRAP.                 NO:   ONE LINE PER DEPTH STEP
~WELL INFORMATION
#MNEM.UNIT      DATA TYPE    INFORMATION
#----------   ------------   ------------------------------
 STRT.F         2144.5000:   START DEPTH
 STOP.F         2870.0000:   STOP DEPTH
 STEP.F            0.5000:   STEP LENGTH
 NULL.          -999.2500:   NO VALUE
 COMP. LAWRENCE ALLISON & ASSOCIATES:   COMPANY
 WELL. LAWRENCE "X" #13-21:   WELL
 FLD .        TEAPOT DOME:   FIELD
 LOC .      S21 T39N R78W:   LOCATION
 CNTY.            NATRONA:   COUNTY
 STAT.            WYOMING:   STATE
 CTRY. UNITED STATES OF AMERICA:   COUNTRY
 SRVC.      DRESSER ATLAS:   SERVICE COMPANY
 DATE.        09-FEB-1987:   LOGDATE
 API .     49025111200000:   API NUMBER
~CURVE INFORMATION
#MNEM.UNIT       API CODE    CURVE DESCRIPTION
#----------   ------------   ------------------------------
 DEPT.F                  :   
 MCAL.IN     15 280 01 00:   CALIPER FROM MICRO LOG
 MTEN.LBS    15 635 01 00:   TENSION FROM MICRO LOG
 GRR .GAPI   05 310 01 00:   GAMMA RAY FROM RES.
 R2SL.OHMM   05 120 00 00:   RESISTIVITY
~PARAMETER INFORMATION
#MNEM.UNIT          VALUE    DESCRIPTION
#----------   ------------   ------------------------------
 EKB .F         4986.0000:   Kelly bushing
 EGL .F         4974.0000:   Ground level
 EDF .F            0.0000:   Drilling floor
 EPD .F         4974.0000:   Permanent datum
 TD  .F         2852.0000:   Total depth
 DATE.        09-FEB-1987:   Date logged
 CLNT.            A2DTECH:   Client Code
 SL  . 1962' FNL & 352' FWL:   Surface Location
 DAPD.F                12:   Feet Above Permanent Datum
 DD  .F              2850:   Depth driller
 DL  .F              2852:   Depth logger
 BLI .F              2846:   Bottom log interval
 TLI .F              2150:   Top log interval
 CS1 .IN            8.625:   Casing size
 CBD1.      8.625" @ 282':   Casing driller 1
 BS1 .IN            7.875:   Bit size
 BSD1.F              2850:   Depth drilled with bit1
 DFT .        KCL POLYMER:   Type fluid in hole
 DFD .                8.9:   Density
 DFV .                 40:   Viscosity
 DFPH.                9.7:   pH
 DFL .                8.6:   Fluid loss
 MSS .           FLOWLINE:   Source of sample
 RMS .OHMM          0.287:   Rm
 MST .F                60:   Rm Meas. temp.
 RMF .OHMM          0.203:   Rmf
 MFST.F                60:   Rmf Meas. temp.
 RMC .OHMM          0.358:   Rmc
 MCST.F                60:   Rmc Meas. temp.
 MFSS.               MEAS:   Source Rmf.
 MCSS.               CALC:   Source Rmc.
 RMB .OHMM          0.154:   Rm. at BHT
 BHT .F               112:   BHT.
 TCS .HRS               7:   Time Circ. stopped
 MRT .F               112:   Maximum recorded temp.
 LUN .            HL-6274:   Logging unit number
 LUL .           GILLETTE:   Logging unit location
 ENGI.             RAUTIO:   Recorded By
 WITN.             STRONG:   Witnessed by
 ORIG.           5" PRINT:   Origin of data
 UWI .     49025111200000:   Unique Well ID
 DICO. A2D TECHNOLOGIES, INC.:   Digitizing Company
~OTHER INFORMATION
~A  DEPT      MCAL       MTEN        GRR       R2SL   
 2144.5000  -999.2500  -999.2500   112.5180  -999.2500
 2145.0000  -999.2500  -999.2500   110.9340  -999.2500
 2145.5000  -999.2500  -999.2500   110.9570  -999.2500
 2146.0000  -999.2500  -999.2500   111.9290  -999.2500
 2146.5000  -999.2500  -999.2500   113.4090  -999.2500
 2147.0000  -999.2500  -999.2500   114.8310  -999.2500
 2147.5000  -999.2500  -999.2500   114.4100  -999.2500
 2148.0000  -999.2500  -999.2500   113.4610  -999.2500
 2148.5000  -999.2500  -999.2500   111.7720  -999.2500
 2149.0000  -999.2500  -999.2500   110.1010  -999.2500
 2149.5000  -999.2500  -999.2500   108.4020  -999.2500
 2150.0000  -999.2500  -999.2500   104.4640     2.3100
 2150.5000    10.2180    17.5880   100.1400     2.3120
 2151.0000    10.2180    17.5880    97.8510     2.3140
 2151.5000    10.2180    17.5880    96.8450     2.3160
 2152.0000    10.1570    17.5680    99.0110     2.3160
 2152.5000    10.0830    17.5880   101.1540     2.3180
 2153.0000     9.9010    17.5880   103.1110     2.3200
 2153.5000     9.7030    17.5880   103.2940     2.3220
 2154.0000     9.5030     6.4190   104.0400     2.3240
 2154.5000     9.3040    -4.6200   107.8690     2.3250
 2155.0000     9.1200   -15.6590   112.0710     2.3270
 2155.5000     9.0950   -26.6980   117.3210     2.3290
 2156.0000     9.0750   -37.7370   122.6090     2.3310
 2156.5000     9.0560   -48.7760   122.7400     2.2930
 2157.0000     9.0360   -59.8150   120.9200     2.2440
 2157.5000     9.0160   -63.6890   119.4620     2.1940
 2158.0000     8.9960   -64.8900   120.3710     2.1450
 2158.5000     8.9760   -66.0920   120.7830     2.0960
 2159.0000     8.9560   -67.2930   119.2670     2.0470
 2159.5000     8.9370   -68.4940   117.9280     2.0470
 2160.0000     8.9170   -69.6960   118.5290     2.0600
 2160.5000     8.8970   -70.8970   119.1690     2.1210
 2161.0000     8.8770   -72.0980   119.8060     2.1880
 2161.5000     8.8570   -73.2990   120.8970     2.2550
 2162.0000     8.8380   -74.5010   122.0540     2.3220
 2162.5000     8.8130   -75.7020   123.0010     2.3880
 2163.0000     8.7940   -76.9030   121.4360     2.4550
 2163.5000     8.7900   -78.1050   119.8590     2.5220
 2164.0000     8.7860   -79.3060   118.7940     2.6040
 2164.5000     8.7830   -80.5070   119.8630     2.7030
 2165.0000     8.7800   -81.7090   121.1530     2.8330
 2165.5000     8.7760   -82.9150   122.5140     2.7890
 2166.0000     8.7730   -81.2050   123.8950     2.7250
 2166.5000     8.7700   -79.4890   125.2640     2.6550
 2167.0000     8.7660   -77.7730   126.6020     2.6550
 2167.5000     8.7630   -76.0570   125.6310     2.7450
 2168.0000     8.7600   -74.3410   123.1330     2.8260
 2168.5000     8.7560   -72.6240   121.0450     2.9080
 2169.0000     8.7530   -70.9080   121.7730     2.9950
 2169.5000     8.7490   -69.1920   124.9740     2.9560
 2170.0000     8.7460   -67.4760   129.7240     2.9130
 2170.5000     8.7430   -65.7600   133.5360     2.8700
 2171.0000     8.7390   -64.0440   132.9760     2.8590
 2171.5000     8.7360   -62.3280   132.5110     3.0130
 2172.0000     8.7330   -60.6110   132.1010     3.1370
 2172.5000     8.7290   -58.8950   129.1720     3.3170
 2173.0000     8.7260   -57.1790   124.9940     3.6180
 2173.5000     8.7230   -55.4630   120.6960     3.9940
 2174.0000     8.7190   -53.7470   118.5120     3.5700
 2174.5000     8.7160   -52.0310   121.9320     3.2110
 2175.0000     8.7160   -50.3150   125.9030     2.9780
 2175.5000     8.7170   -48.5980   131.9560     2.7460
 2176.0000     8.7180   -46.8820   135.7330     2.5340
 2176.5000     8.7190   -45.1660   133.3700     2.5340
 2177.0000     8.7200   -43.4500   128.4620     2.7340
 2177.5000     8.7210   -41.8560   123.4800     2.8990
 2178.0000     8.7220   -40.3550   121.4980     3.0640
 2178.5000     8.7220   -38.8530   121.5680     3.2280
 2179.0000     8.7230   -37.3510   125.0500     3.2870
 2179.5000     8.7240   -35.8500   131.4860     3.1260
 2180.0000     8.7250   -34.3480   139.1980     2.8780
 2180.5000     8.7260   -32.8470   149.1320     2.5620
 2181.0000     8.7270   -41.2010   153.0980     2.3100
 2181.5000     8.7280   -50.9260   146.6350     2.3100
 2182.0000     8.7290   -60.6510   136.1030     2.9220
 2182.5000     8.7300   -70.3760   125.4610     3.4900
 2183.0000     8.7310   -71.1630   118.9970     3.7780
 2183.5000     8.7310   -68.8770   117.0970     3.6630
 2184.0000     8.7320   -66.5910   116.3910     3.4990
 2184.5000     8.7330   -64.3050   116.7710     3.3350
 2185.0000     8.7340   -62.0190   117.9360     3.2260
 2185.5000     8.7350   -59.7330   117.7940     3.2740
 2186.0000     8.7360   -57.4470   116.7930     3.3410
 2186.5000     8.7370   -55.1610   115.8390     3.4110
 2187.0000     8.7380   -52.8750   118.1640     3.2500
 2187.5000     8.7390   -50.5890   121.3940     3.0780
 2188.0000     8.7390   -48.3030   123.7590     2.8590
 2188.5000     8.7400   -46.0170   121.2560     2.9550
 2189.0000     8.7410   -43.7310   118.8620     3.1670
 2189.5000     8.7420   -42.7140   118.9420     3.1210
 2190.0000     8.7430   -42.7140   123.6400     3.0600
 2190.5000     8.7440   -42.7140   128.3640     2.9950
 2191.0000     8.7450   -42.7140   131.5060     3.0540
 2191.5000     8.7460   -42.7140   126.6690     3.2050
 2192.0000     8.7470   -42.7140   118.9080     3.3560
 2192.5000     8.7470   -42.7140   111.2790     3.4810
 2193.0000     8.7480   -42.7140   108.9140     3.5070
 2193.5000     8.7490   -42.7140   108.6590     3.4360
 2194.0000     8.7500   -42.7140   110.5310     3.3660
 2194.5000     8.7510   -42.7140   112.8930     3.2560
 2195.0000     8.7520   -42.7140   115.2850     3.2790
 2195.5000     8.7530   -42.7140   117.6860     3.3480
 2196.0000     8.7540   -42.7140   120.0860     3.2770
 2196.5000     8.7550   -42.7140   122.4590     3.1680
 2197.0000     8.7550   -42.7140   124.0320     3.0800
 2197.5000     8.7540   -42.7140   122.6140     3.0800
 2198.0000     8.7520   -42.7140   121.6740     3.1390
 2198.5000     8.7500   -42.7140   121.2510     3.3540
 2199.0000     8.7480   -42.6120   119.3270     3.3800
 2199.5000     8.7460   -42.3900   117.4620     3.2270
 2200.0000     8.7450   -42.1680   117.6700     3.0060
 2200.5000     8.7430   -41.9470   117.8800     2.9400
 2201.0000     8.7410   -41.7250   115.9070     3.1500
 2201.5000     8.7390   -41.5040   113.2030     3.2560
 2202.0000     8.7370   -41.2820   110.4430     3.2290
 2202.5000     8.7350   -41.0610   111.0850     3.0550
 2203.0000     8.7340   -40.8390   115.9090     2.8800
 2203.5000     8.7320   -40.6170   119.0570     2.7040
 2204.0000     8.7300   -40.3960   120.8980     2.7300
 2204.5000     8.7280   -40.1740   121.7650     2.8300
 2205.0000     8.7260   -39.9530   122.3110     2.9290
 2205.5000     8.7240   -39.7310   121.3590     3.0280
 2206.0000     8.7230   -39.5100   120.2870     3.1260
 2206.5000     8.7210   -39.2880   119.2030     3.2250
 2207.0000     8.7190   -39.0660   119.7000     3.2870
 2207.5000     8.7170   -38.8450   120.7950     3.1370
 2208.0000     8.7160   -38.6230   122.6510     3.0040
 2208.5000     8.7170   -38.4020   123.7270     2.9680
 2209.0000     8.7190   -38.1800   123.0420     3.0490
 2209.5000     8.7200   -37.9590   122.4030     3.1380
 2210.0000     8.7220   -37.7370   121.6100     3.0890
 2210.5000     8.7240   -37.5150   120.1320     3.0250
 2211.0000     8.7250   -37.2940   118.6560     2.9610
 2211.5000     8.7270   -37.0720   117.4470     2.8970
 2212.0000     8.7280   -36.8510   118.0230     2.8590
 2212.5000     8.7300   -36.6290   119.3120     2.8820
 2213.0000     8.7320   -36.4080   120.1340     2.9000
 2213.5000     8.7330   -36.1860   119.3710     2.9130
 2214.0000     8.7350   -35.9650   118.6440     2.9130
 2214.5000     8.7360   -35.7430   118.5790     2.8460
 2215.0000     8.7380   -35.5210   119.1560     2.7840
 2215.5000     8.7400   -35.3000   119.6650     2.7390
 2216.0000     8.7410   -35.0780   123.2660     2.6910
 2216.5000     8.7430   -34.8570   127.7290     2.6400
 2217.0000     8.7440   -34.6350   131.9670     2.5300
