~VERSION INFORMATION
 VERS.                2.0:   CWLS LOG ASCII STANDARD - VERSION 2.0
 WRAP.                 NO:   ONE LINE PER DEPTH STEP
~WELL INFORMATION
#MNEM.UNIT      DATA TYPE    INFORMATION
#----------   ------------   ------------------------------
 STRT.F          417.0000:   START DEPTH
 STOP.F         4133.0000:   STOP DEPTH
 STEP.F            0.5000:   STEP LENGTH
 NULL.          -999.2500:   NO VALUE
 COMP.    FENIX & SCISSON:   COMPANY
 WELL. FENIX  "LX" #18-11:   WELL
 FLD .              NPR 3:   FIELD
 LOC .      S11 T38N R78W:   LOCATION
 CNTY.            NATRONA:   COUNTY
 STAT.            WYOMING:   STATE
 CTRY. UNITED STATES OF AMERICA:   COUNTRY
 SRVC.       SCHLUMBERGER:   SERVICE COMPANY
 DATE.        14-JAN-1978:   LOGDATE
 API .     49025105590000:   API NUMBER
~CURVE INFORMATION
#MNEM.UNIT       API CODE    CURVE DESCRIPTION
#----------   ------------   ------------------------------
 DEPT.F                  :   
 SPR .MV     07 010 01 00:   SPONTANEOUS POTENTIAL
 SFL .OHMM   07 220 01 00:   SHALLOW FOCUSED LOG RESISTIVITY
 ILD .OHMM   07 120 46 00:   DEEP INDUCTION RESISTIVITY
 ILM .OHMM   07 120 44 00:   INDUCTION LOG MEDIUM RESISTIVITY
 CALD.IN     45 280 60 00:   CALIPER FROM DENSITY LOG
 GRD .GAPI   45 310 01 00:   GAMMA RAY FROM DENSITY LOG
 RHOB.G/C3   45 350 01 00:   BULK DENSITY
 CORR.G/C3   45 356 01 00:   DENSITY CORRECTION
 NPHI.DEC    42 890 03 00:   NEUTRON POROSITY SANDSTONE
~PARAMETER INFORMATION
#MNEM.UNIT          VALUE    DESCRIPTION
#----------   ------------   ------------------------------
 EKB .F         5220.0000:   Kelly bushing
 EGL .F         5210.0000:   Ground level
 EDF .F            0.0000:   Drilling floor
 TD  .F         4125.0000:   Total depth
 DATE.        14-JAN-1978:   Date logged
 CLNT.            A2DTECH:   Client Code
 SL  . 330' FSL & 530' FWL:   Surface Location
 PD  .                 GL:   Permanent Datum
 EPD .F              5210:   Elevation Permanent Datum
 LMF .                 KB:   Log Measured From
 DMF .                 KB:   Drilling Measured From
 DAPD.F                10:   Feet Above Permanent Datum
 DD  .F              4125:   Depth driller
 DL  .F              4121:   Depth logger
 BLI .F              4116:   Bottom log interval
 TLI .F               427:   Top log interval
 CS1 .IN            8.625:   Casing size
 CBD1.      8.625" @ 513':   Casing driller 1
 CBL1.F               427:   Casing logger 1
 BS1 .IN            7.875:   Bit size
 BSD1.F              4125:   Depth drilled with bit1
 DFT .                KCL:   Type fluid in hole
 DFD .                8.8:   Density
 DFV .                 40:   Viscosity
 DFPH.                 12:   pH
 DFL .                7.4:   Fluid loss
 MSS .           MUD TANK:   Source of sample
 RMS .OHMM           .418:   Rm
 MST .F                60:   Rm Meas. temp.
 RMF .OHMM           .343:   Rmf
 MFST.F                60:   Rmf Meas. temp.
 MFSS.               MEAS:   Source Rmf.
 RMB .OHMM            .20:   Rm. at BHT
 BHT .F               123:   BHT.
 TCS .HRS            0600:   Time Circ. stopped
 TLAB.HRS            0845:   Time logger at bottom
 MRT .F               123:   Maximum recorded temp.
 LUN .               8035:   Logging unit number
 LUL .               CSPR:   Logging unit location
 ENGI.             MARTIN:   Recorded By
 WITN.         HARRINGTON:   Witnessed by
 ORIG.      2.5" 5" PRINT:   Origin of data
 UWI .     49025105590000:   Unique Well ID
 DICO. A2D TECHNOLOGIES, INC.:   Digitizing Company
~OTHER INFORMATION
~A   DEPT      SPR        SFL        ILD        ILM       CALD         GRD      RHOB       CORR       NPHI   
# ...
  672.5000   -36.1140     3.8900     3.4980     2.9900    14.8970    82.7070     1.7380    -0.0470     0.3610
  673.0000   -35.8140     5.3250     4.0880     3.1950    12.7160    84.3590     1.8840    -0.0750     0.3470
  673.5000   -35.5190     5.7540     5.0590     3.4520    12.0880    87.9940     2.2240    -0.0500     0.3340
  674.0000   -35.2220     5.9590     6.4850     4.0930    12.0290    92.5560     2.4040    -0.0140     0.3200
  674.5000   -34.9250     6.1650     7.9700     4.9100    11.9800   100.4840     2.4650    -0.0060     0.3090
  675.0000   -34.6370     6.3700     8.6610     5.6720    11.9890   100.1740     2.4810     0.0010     0.3100
  675.5000   -34.5610     6.5760     8.6020     6.3930    12.0020   100.0450     2.4820     0.0080     0.3140
  676.0000   -34.4940     6.7810     8.4250     6.8100    12.0110    99.3620     2.4830     0.0080     0.3120
  676.5000   -34.3770     6.9870     8.1870     6.9430    12.0230    99.7460     2.4840     0.0090     0.3090
  677.0000   -33.9100     7.1990     7.9490     7.0770    12.0370   101.1630     2.4840     0.0090     0.3060
  677.5000   -33.4380     7.1990     7.8960     7.1430    12.0480   102.4440     2.4850     0.0100     0.3080
  678.0000   -32.9650     7.1940     7.8960     7.1600    12.0590   103.9620     2.5090     0.0110     0.3120
  678.5000   -32.4940     7.1740     7.8960     7.1770    12.0710   106.3700     2.5170     0.0140     0.3120
  679.0000   -32.4330     7.1550     7.8960     7.1990    12.0820   109.2310     2.5230     0.0150     0.3090
  679.5000   -32.4340     7.1350     7.8480     6.9720    12.0930   109.4040     2.5200     0.0130     0.3070
  680.0000   -32.4350     7.1150     7.7170     6.6680    12.1050   109.4580     2.5140     0.0100     0.3110
  680.5000   -32.4340     7.0960     7.5860     6.3650    12.1160   109.3720     2.5090     0.0120     0.3110
  681.0000   -32.4350     7.0760     7.4540     6.2090    12.1270   109.5390     2.5080     0.0150     0.3010
  681.5000   -32.5140     7.0670     7.2660     6.2530    12.1390   108.1200     2.5070     0.0150     0.2960
  682.0000   -32.8550     7.1770     7.2700     6.3380    12.1500   105.4590     2.5030     0.0120     0.2950
  682.5000   -33.1820     7.2930     7.2770     6.4230    12.1610   103.0960     2.4980     0.0090     0.3010
  683.0000   -33.5140     7.4010     7.2840     6.5020    12.1720   100.9170     2.4920     0.0070     0.3080
  683.5000   -33.4530     7.4010     7.2920     6.4240    12.1800   100.6660     2.4920     0.0060     0.3150
  684.0000   -33.1750     7.1910     7.2990     6.3090    12.1860   102.2940     2.5030     0.0070     0.3210
  684.5000   -33.0970     7.0020     7.3060     6.1940    12.1920   105.8310     2.5120     0.0070     0.3260
  685.0000   -33.2380     6.8130     7.3140     6.0790    12.1980   109.2470     2.5060     0.0080     0.3210
  685.5000   -33.7300     6.7470     7.3210     5.9830    12.2040   109.8320     2.4940     0.0050     0.3170
  686.0000   -34.2490     6.6850     7.3280     6.0280    12.2100   108.3060     2.4820     0.0020     0.3130
  686.5000   -34.6620     6.8970     7.3330     6.1170    12.2160   105.9490     2.4770    -0.0010     0.3170
  687.0000   -34.7560     7.0860     7.3340     6.2060    12.2310   103.5490     2.4810    -0.0030     0.3190
  687.5000   -34.8550     7.2660     7.3320     6.2950    12.2460   102.6520     2.4840    -0.0010     0.3160
  688.0000   -34.9530     7.3330     7.4010     6.3830    12.2610   103.9490     2.4850     0.0040     0.3130
  688.5000   -35.0060     7.3190     7.4920     6.4430    12.2760   104.9780     2.4930     0.0110     0.3110
  689.0000   -34.8680     7.2110     7.5750     6.4430    12.2930   106.1730     2.5050     0.0200     0.3140
  689.5000   -34.7340     7.1020     7.6090     6.4260    12.2930   106.2630     2.5150     0.0220     0.3190
  690.0000   -34.6000     6.9940     7.6090     6.3840    12.2720   106.2990     2.5020     0.0140     0.3240
  690.5000   -34.4660     6.9370     7.6090     6.3420    12.2520   106.2550     2.4910     0.0130     0.3310
  691.0000   -34.3330     6.9680     7.4460     6.3010    12.2310   106.2140     2.4810     0.0130     0.3400
  691.5000   -34.2000     6.9960     7.2650     6.2660    12.2100   105.0660     2.4940     0.0120     0.3380
  692.0000   -34.0620     7.0020     7.0840     6.2660    12.1890   103.7670     2.5040     0.0130     0.3330
  692.5000   -33.9270     6.9370     6.9030     6.2660    12.1680   102.2660     2.5140     0.0150     0.3290
  693.0000   -33.7910     6.7820     6.7220     6.1180    12.1470   101.8530     2.5090     0.0170     0.3240
  693.5000   -33.6550     6.5280     6.5410     5.8030    12.1270   103.0650     2.5010     0.0190     0.3350
  694.0000   -33.5190     5.8810     6.3600     5.4890    12.1060   106.1800     2.5000     0.0210     0.3470
  694.5000   -33.3830     5.2570     6.2090     5.0660    12.0920   110.5700     2.4920     0.0230     0.3590
  695.0000   -33.2470     5.1600     6.1520     5.1720    12.0720   110.0610     2.4800     0.0160     0.3760
  695.5000   -33.1110     5.4530     6.3250     5.3350    12.0510   107.5230     2.4690     0.0090     0.3690
  696.0000   -32.9750     6.0370     6.4620     5.4980    12.0290   104.6260     2.4580     0.0070     0.3580
  696.5000   -32.8390     6.6220     6.5980     5.6600    12.0080   105.3730     2.4640     0.0050     0.3460
  697.0000   -32.7080     7.0670     6.8940     5.8690    11.9860   107.8260     2.4760     0.0030     0.3350
  697.5000   -32.8390     7.0670     7.2280     6.0770    11.9650   109.1200     2.4870     0.0030     0.3240
  698.0000   -33.2530     7.2460     7.5630     6.2850    11.9440   108.0000     2.4990     0.0060     0.3130
  698.5000   -33.6690     7.5010     7.8980     6.4930    11.9220   104.8030     2.5040     0.0080     0.3060
  699.0000   -33.8570     7.7570     8.2330     6.7010    11.9010   102.2040     2.4960     0.0060     0.3030
  699.5000   -33.9050     8.0120     8.5670     6.9090    11.8790   102.1150     2.4930     0.0040     0.3000
  700.0000   -33.9510     8.1940     8.8230     6.9870    11.8580   103.7850     2.5020     0.0130     0.3040
  700.5000   -33.9950     8.1940     8.9050     7.0610    11.8370   105.3650     2.5120     0.0210     0.3100
  701.0000   -33.9830     8.1940     8.9050     7.1350    11.8150   107.0500     2.5130     0.0270     0.3170
  701.5000   -33.6490     8.1600     8.9050     7.2090    11.7940   107.9160     2.5070     0.0150     0.3200
  702.0000   -33.3190     8.1240     8.8810     7.2660    11.7720   107.8230     2.4990     0.0090     0.3180
  702.5000   -32.9880     8.0890     8.8570     7.2660    11.7510   107.8530     2.5070     0.0170     0.3160
  703.0000   -32.6500     8.0440     8.8330     7.2660    11.7450   107.8330     2.5240     0.0220     0.3160
  703.5000   -32.6000     8.1700     8.8100     7.2660    11.7450   107.8430     2.5200     0.0200     0.3190
  704.0000   -32.5680     8.3480     8.7860     7.2890    11.7450   107.0990     2.5140     0.0110     0.3130
  704.5000   -32.5340     8.5250     8.7620     7.3550    11.7450   105.9630     2.5050     0.0060     0.3070
  705.0000   -32.4990     8.7420     8.7380     7.4210    11.7450   105.9970     2.5030     0.0040     0.2950
  705.5000   -32.4640     8.7420     8.7150     7.4700    11.7450   107.4100     2.5000     0.0010     0.2910
  706.0000   -32.4630     8.6940     8.6910     7.3030    11.7450   108.5810     2.4970    -0.0010     0.2970
  706.5000   -32.6990     8.2330     8.6670     7.2390    11.7450   108.1470     2.4940    -0.0010     0.3050
  707.0000   -32.9350     8.1060     8.6070     7.1880    11.7450   107.7120     2.4970     0.0000     0.3140
  707.5000   -33.1710     8.0360     8.5350     7.1370    11.7450   105.4950     2.5000     0.0010     0.3230
  708.0000   -33.4070     7.9700     8.4630     7.0860    11.7450   104.0380     2.4960     0.0020     0.3360
  708.5000   -33.3770     7.8550     8.3910     7.0360    11.7460   104.5530     2.4930     0.0030     0.3320
