~VERSION INFORMATION
 VERS.                2.0:   CWLS LOG ASCII STANDARD - VERSION 2.0
 WRAP.                 NO:   ONE LINE PER DEPTH STEP
~WELL INFORMATION
#MNEM.UNIT      DATA TYPE    INFORMATION
#----------   ------------   ------------------------------
 STRT.F            1.0000:   START DEPTH
 STOP.F         2854.0000:   STOP DEPTH
 STEP.F            0.5000:   STEP LENGTH
 NULL.          -999.2500:   NO VALUE
 COMP.          INTEX OIL:   COMPANY
 WELL. INTEX N.P.R. "AX" #42-29:   WELL
 FLD .             TEAPOT:   FIELD
 LOC .      S29 T39N R78W:   LOCATION
 CNTY.            NATRONA:   COUNTY
 STAT.            WYOMING:   STATE
 CTRY. UNITED STATES OF AMERICA:   COUNTRY
 SRVC.       SCHLUMBERGER:   SERVICE COMPANY
 DATE.        30-MAY-1986:   LOGDATE
 API .     49025095240000:   API NUMBER
~CURVE INFORMATION
#MNEM.UNIT       API CODE    CURVE DESCRIPTION
#----------   ------------   ------------------------------
 DEPT.F                  :   
 SPR .MV     05 010 01 00:   SPONTANEOUS POTENTIAL FROM RES.
 ASN .OHMM   05 041 16 00:   AMPLIFIED SHORT NORMAL 16"
 ILD .OHMM   05 120 46 00:   INDUCTION LOG DEEP
 GRD .GAPI   45 310 01 00:   GAMMA RAY FROM DENSITY LOG
 CALD.IN     45 280 60 00:   CALIPER FROM DENSITY LOG
 CORR.G/C3   45 356 01 00:   DENSITY CORRECTION
 RHOB.G/C3   45 350 01 00:   BULK DENSITY
 CALI.IN     30 280 01 00:   CALIPER FROM GAMMA RAY LOG
 GR  .GAPI   30 310 01 00:   GAMMA RAY
~PARAMETER INFORMATION
#MNEM.UNIT          VALUE    DESCRIPTION
#----------   ------------   ------------------------------
 EKB .F         5020.3000:   Kelly bushing
 EGL .F         5010.0000:   Ground level
 EDF .F            0.0000:   Drilling floor
 TD  .F         2860.0000:   Total depth
 CLNT.            A2DTECH:   Client Code
 DATE.        30-MAY-1986:   Date Logged [DD-MMM-YYYY]
 DD  .F              2860:   Depth driller
 DL  .F              2855:   Depth logger
 BLI .F              2854:   Bottom log interval
 TLI .F               164:   Top log interval
 CS1 .              8.625:   Casing size
 CBD1.      8.625" @ 167':   Casing driller 1
 CBL1.IN              164:   Casing logger 1
 BS1 .IN            7.875:   Bit size
 BSD1.F              2860:   Depth drilled with bit1
 DFT .  LIGND-SULFATE LCM:   Type fluid in hole
 DFD .                8.9:   Density
 DFV .                 33:   Viscosity
 DFPH.               11.0:   pH
 DFL .                9.2:   Fluid loss
 MSS .           FLOWLINE:   Source of sample
 RMS .OHMM           1.47:   Rm
 MST .F                55:   Rm Meas. temp.
 RMF .OHMM           1.13:   Rmf
 MFST.F                75:   Rmf Meas. temp.
 RMB .OHMM           0.78:   Rm. at BHT
 BHT .F               108:   BHT.
 TCS .HRS               3:   Time Circ. stopped
 MRT .F               108:   Maximum recorded temp.
 LUN .               3527:   Logging unit number
 LUL .               CSPR:   Logging unit location
 ENGI.            MANGOLO:   Recorded By
 WITN.             TUTTLE:   Witnessed by
 ORIG.      1" 2.5" PRINT:   Origin of data
 UWI .     49025095240000:   Unique Well ID
 DICO. A2D TECHNOLOGIES, INC.:   Digitizing Company
 PD  .                 GL:   Permanent Datum
 EPD .               5010:   Elevation Permanent Datum
 LMF .                 KB:   Log Measured From
 DMF .                 KB:   Drilling Measured From
 DAPD.              10.32:   Feet Above Permanent Datum
 MFSS.         MEAS PRESS:   Source Rmf.
~OTHER INFORMATION
~A    DEPT     SPR        ASN        ILD        GRD       CALD       CORR       RHOB        CALI        GR   
# ...
 2483.0000   -37.4482    22.2032    14.6030    92.2375     8.1254     0.0333     2.4922  -999.2500  -999.2500
 2483.5000   -37.4497    22.2076    14.6111    91.7644     8.1862     0.0256     2.4984  -999.2500  -999.2500
 2484.0000   -37.4512    21.9179    14.4713    93.5991     8.2382     0.0287     2.5060  -999.2500  -999.2500
 2484.5000   -37.4527    21.6281    14.3316    95.4337     8.2679     0.0503     2.5104  -999.2500  -999.2500
 2485.0000   -37.2865    21.4854    14.1912    96.3453     8.2571     0.0625     2.4931  -999.2500  -999.2500
 2485.5000   -37.1509    21.3427    14.0515    96.7961     8.0723     0.0647     2.4719  -999.2500  -999.2500
 2486.0000   -37.1525    21.3471    13.9118    96.7838     7.9172     0.0526     2.4540  -999.2500  -999.2500
 2486.5000   -36.8491    21.4986    13.9195    95.8492     7.8653     0.0460     2.4742  -999.2500  -999.2500
 2487.0000   -36.8509    21.6500    14.0739    93.5300     7.8644     0.0663     2.4908  -999.2500  -999.2500
 2487.5000   -36.8524    21.6544    14.3753    88.4416     7.8635     0.0770     2.4966  -999.2500  -999.2500
 2488.0000   -36.5488    21.8059    14.6767    83.8147     7.8626     0.0714     2.4903  -999.2500  -999.2500
 2488.5000   -36.2454    21.8103    14.8311    79.6493     7.8616     0.0494     2.4811  -999.2500  -999.2500
 2489.0000   -36.2472    21.8206    14.8384    79.5878     7.8607     0.0465     2.4706  -999.2500  -999.2500
 2489.5000   -36.5536    21.9662    14.9927    83.3186     7.8598     0.0559     2.4691  -999.2500  -999.2500
 2490.0000   -36.2502    22.1176    14.8529    90.2302     7.8722     0.0596     2.4769  -999.2500  -999.2500
 2490.5000   -36.2517    22.1338    14.5588    98.5264     7.8887     0.0507     2.4828  -999.2500  -999.2500
 2491.0000   -35.9482    22.2733    13.9706   106.8226     7.9017     0.0599     2.4843  -999.2500  -999.2500
 2491.5000   -35.9499    20.5509    13.2352   108.1957     7.9175     0.0553     2.4843  -999.2500  -999.2500
 2492.0000   -35.6463    18.9412    12.3528   103.1072     7.9620     0.0461     2.4858  -999.2500  -999.2500
 2492.5000   -35.6480    16.7283    11.3238    93.8650     7.9920     0.0445     2.4903  -999.2500  -999.2500
 2493.0000   -35.6495    15.2932    10.5885    89.6996     8.0067     0.0430     2.4918  -999.2500  -999.2500
 2493.5000   -35.6511    14.3073    10.0001    87.8419     8.0058     0.0430     2.4903  -999.2500  -999.2500
 2494.0000   -35.6526    13.7451     9.4315    89.6766     8.0211     0.0536     2.4934  -999.2500  -999.2500
 2494.5000   -35.6541    13.3064     9.0147    93.3574     8.0677     0.0673     2.5025  -999.2500  -999.2500
 2495.0000   -35.9605    13.0437     8.7255    96.1151     8.1902     0.0429     2.4900  -999.2500  -999.2500
 2495.5000   -35.9620    12.8701     8.5833    96.5654     8.2648     0.0246     2.4689  -999.2500  -999.2500
 2496.0000   -36.2684    12.6113     8.3228    94.2459     8.3125     0.0215     2.4812  -999.2500  -999.2500
 2496.5000   -36.5748    12.4686     8.1830    95.6190     8.3864     0.0291     2.4902  -999.2500  -999.2500
 2497.0000   -36.8812    12.2892     8.0433    98.3767     8.3982     0.0276     2.4897  -999.2500  -999.2500
 2497.5000   -38.1022    12.1832     8.0515   100.2114     8.4277     0.0215     2.4985  -999.2500  -999.2500
 2498.0000   -38.1037    12.0406     8.0589   100.6615     8.4268     0.0245     2.5029  -999.2500  -999.2500
 2498.5000   -37.4955    12.0455     8.0661    98.8038     8.4259     0.0138     2.5029  -999.2500  -999.2500
 2499.0000   -37.1921    12.0500     8.0735    96.9461     8.4557     0.0199     2.5015  -999.2500  -999.2500
 2499.5000   -37.1936    12.2015     8.0809    95.0884     8.4548     0.0061     2.5015  -999.2500  -999.2500
 2500.0000   -37.1951    12.2059     8.2353    93.6923     8.4538     0.0010     2.5044  -999.2500  -999.2500
 2500.5000   -36.6667    12.3574     8.2427    94.1491     8.4529     0.0167     2.5088  -999.2500  -999.2500
 2501.0000   -36.9838    12.3618     8.2500    96.9136     8.4827     0.0182     2.5147  -999.2500  -999.2500
 2501.5000   -37.5758    12.3662     8.2574    99.6713     8.4818     0.0177     2.5191  -999.2500  -999.2500
 2502.0000   -37.5476    12.4275     8.4127    95.4742     8.4809     0.0212     2.5191  -999.2500  -999.2500
 2502.5000   -37.2374    12.5221     8.3371    94.5578     8.4799     0.0273     2.5192  -999.2500  -999.2500
 2503.0000   -36.9275    12.5265     8.4894    95.0217     8.4483     0.0258     2.5206  -999.2500  -999.2500
 2503.5000   -36.6170    12.5175     8.4901    95.4579     8.4486     0.0212     2.5221  -999.2500  -999.2500
 2504.0000   -36.3636    12.6506     8.4909    95.4462     8.4171     0.0196     2.5251  -999.2500  -999.2500
 2504.5000   -36.6667    12.6510     8.5608    94.9107     8.2016     0.0211     2.5162  -999.2500  -999.2500
 2505.0000   -36.5960    12.6515     8.4924    92.5846     8.0781     0.0120     2.5015  -999.2500  -999.2500
 2505.5000   -36.0606    12.6520     8.4932    91.7195     8.0773     0.0135     2.5030  -999.2500  -999.2500
 2506.0000   -35.7576    12.6524     8.3424    94.5597     8.0766     0.0211     2.5030  -999.2500  -999.2500
 2506.5000   -35.4545    12.5058     8.3433    96.7734     8.0451     0.0271     2.5030  -999.2500  -999.2500
 2507.0000   -35.4545    12.5062     8.1926    96.7271     8.0444     0.0287     2.5119  -999.2500  -999.2500
 2507.5000   -35.4545    12.3595     8.0418    96.2517     8.0129     0.0468     2.5251  -999.2500  -999.2500
 2508.0000   -35.8708    12.2130     8.0425    98.5456     8.0122     0.0621     2.5369  -999.2500  -999.2500
 2508.5000   -35.7576    12.2134     7.8917   100.3779     8.0114     0.0530     2.5370  -999.2500  -999.2500
 2509.0000   -35.4545    12.0668     7.7410   100.3641     8.0106     0.0499     2.5237  -999.2500  -999.2500
 2509.5000   -35.4545    11.9202     7.7418   100.3502     8.0099     0.0690     2.5340  -999.2500  -999.2500
 2510.0000   -35.4545    11.9206     7.7425   100.3364     8.0091     0.0783     2.5487  -999.2500  -999.2500
 2510.5000   -35.6090    11.9211     7.7432   100.3226     8.0083     0.0940     2.5532  -999.2500  -999.2500
 2511.0000   -35.1515    11.9215     7.7440    99.8472     8.0076     0.0539     2.5487  -999.2500  -999.2500
 2511.5000   -35.3142    11.7749     7.7447    98.4487     8.0068     0.0450     2.5428  -999.2500  -999.2500
 2512.0000   -35.9274    11.7753     7.8970    95.6657     8.0060     0.0248     2.5311  -999.2500  -999.2500
 2512.5000   -35.8839    11.7757     7.8978    93.8057     8.0053     0.0175     2.5090  -999.2500  -999.2500
 2513.0000   -35.4545    11.7762     8.0500    91.9457     8.0353     0.0128     2.4899  -999.2500  -999.2500
 2513.5000   -35.7576    11.9250     8.2023    93.7780     8.0958     0.0085     2.5002  -999.2500  -999.2500
 2514.0000   -36.6667    12.0761     8.3546    95.1488     8.1563     0.0182     2.5090  -999.2500  -999.2500
 2514.5000   -36.3636    12.3657     8.5068    96.0580     8.2476     0.0238     2.5134  -999.2500  -999.2500
 2515.0000   -35.4545    12.5256     8.6591    96.5077     8.2468     0.0253     2.5090  -999.2500  -999.2500
 2515.5000   -34.8485    12.6607     8.8113    96.4919     8.2769     0.0301     2.5061  -999.2500  -999.2500
 2516.0000   -34.8485    12.8082     8.8121    96.4781     8.3067     0.0376     2.5135  -999.2500  -999.2500
 2516.5000   -35.7576    12.8086     8.8128    96.9258     8.3059     0.0438     2.5208  -999.2500  -999.2500
 2517.0000   -36.3636    12.8361     8.8137    97.8350     8.3051     0.0527     2.5267  -999.2500  -999.2500
 2517.5000   -35.7576    12.9566     8.7916    98.2846     8.3044     0.0557     2.5253  -999.2500  -999.2500
 2518.0000   -35.4545    12.9570     8.6636    98.2689     8.2422     0.0647     2.5179  -999.2500  -999.2500
 2518.5000   -35.1515    12.9575     8.4830    98.2550     8.1801     0.0570     2.5076  -999.2500  -999.2500
 2519.0000   -36.0606    12.9163     8.3287    99.1643     8.1487     0.0494     2.5003  -999.2500  -999.2500
