~VERSION INFORMATION
 VERS.                2.0:   CWLS LOG ASCII STANDARD - VERSION 2.0
 WRAP.                 NO:   ONE LINE PER DEPTH STEP
~WELL INFORMATION
#MNEM.UNIT      DATA TYPE    INFORMATION
#----------   ------------   ------------------------------
 STRT.F            0.5000:   START DEPTH
 STOP.F          582.5000:   STOP DEPTH
 STEP.F            0.5000:   STEP LENGTH
 NULL.          -999.2500:   NO VALUE
 COMP.   LAWRENCE ALLISON:   COMPANY
 WELL. LAWRANCE SHX #31-34:   WELL
 FLD .             NPR #3:   FIELD
 LOC .      S34 T39N R78W:   LOCATION
 CNTY.            NATRONA:   COUNTY
 STAT.            WYOMING:   STATE
 CTRY. UNITED STATES OF AMERICA:   COUNTRY
 SRVC.           GEARHART:   SERVICE COMPANY
 DATE.        22-SEP-1988:   LOGDATE
 API .     49025112470000:   API NUMBER
~CURVE INFORMATION
#MNEM.UNIT       API CODE    CURVE DESCRIPTION
#----------   ------------   ------------------------------
 DEPT.F                  :   
 GRR .GAPI   07 310 01 00:   GAMMA RAY FROM RESISTIVITY
 RILD.OHMM   07 120 46 00:   RESISTIVITY INDUCTION LOG DEEP
 RILM.OHMM   07 120 44 00:   RESISTIVITY INDUCTION LOG MEDIUM
 TENR.LBS    07 635 01 00:   TENSION FROM RESISTIVITY
~PARAMETER INFORMATION
#MNEM.UNIT          VALUE    DESCRIPTION
#----------   ------------   ------------------------------
 EKB .F         5075.0000:   Kelly bushing
 EGL .F         5065.0000:   Ground level
 EDF .F            0.0000:   Drilling floor
 TD  .F          577.5000:   Total depth
 CLNT.            A2DTECH:   Client Code
 PD  .                 GL:   Permanent Datum
 EPD .F              5065:   Elevation Permanent Datum
 LMF .                 KB:   Log Measured From
 DMF .                 KB:   Drilling Measured From
 DAPD.F                10:   Feet Above Permanent Datum
 DATE.        22-SEP-1988:   Date Logged [DD-MMM-YYYY]
 DD  .F               575:   Depth driller
 DL  .F             577.5:   Depth logger
 BLI .F               569:   Bottom log interval
 TLI .F                 0:   Top log interval
 CS1 .IN            9.625:   Casing size
 CBD1.       9.625" @ 50':   Casing driller 1
 CBL1.F                50:   Casing logger 1
 BS1 .IN             8.75:   Bit size
 BSD1.F               575:   Depth drilled with bit1
 DFT .                AIR:   Type fluid in hole
 TLAB.HRS            2350:   Time logger at bottom
 MRT .F                70:   Maximum recorded temp.
 LUN .               7597:   Logging unit number
 LUL .           GILLETTE:   Logging unit location
 ENGI.          HUCKFFLOT:   Recorded By
 WITN.             STRONG:   Witnessed by
 ORIG.           5" PRINT:   Origin of data
 UWI .     49025112470000:   Unique Well ID
 DICO. A2D TECHNOLOGIES, INC.:   Digitizing Company
 SL  . 324' FNL & 1963' FEL:   Surface Location
~OTHER INFORMATION
~A    DEPT      GRR      RILD       RILM       TENR   
# ...
   73.5000   131.6691     6.8706     6.2741     2.1646
   74.0000   131.3837     6.9677     6.2312     2.1646
   74.5000   131.4018     7.0659     6.2316     2.1646
   75.0000   130.2143     7.2657     6.2754     2.1646
   75.5000   128.7209     7.4194     6.3636     2.1646
   76.0000   124.5085     7.5303     6.5432     2.1646
   76.5000   121.8067     7.8450     6.7278     2.1646
   77.0000   116.0880     8.1229     6.8223     2.1646
   77.5000   114.8924     8.2948     7.1130     2.1646
   78.0000   115.8202     8.3536     7.3647     2.1646
   78.5000   117.0459     8.2969     7.5201     2.1646
   79.0000   117.0634     8.1840     7.5206     2.1646
   79.5000   113.4591     8.0720     7.5211     2.1646
   80.0000   112.2636     8.0734     7.4696     2.1646
   80.5000   114.7020     8.1307     7.4184     2.1646
   81.0000   116.2297     8.1318     7.1164     2.1646
   81.5000   116.8554     8.1329     6.9686     2.1646
   82.0000   116.5662     8.1341     6.9224     2.1646
   82.5000   115.6813     8.1352     7.0198     2.1646
   83.0000   115.0493     8.1363     7.1680     2.1646
   83.5000   116.3867     8.1374     7.3192     2.1646
   84.0000   121.1752     8.1386     7.5259     2.1646
   84.5000   122.7030     8.1397     7.5264     2.1646
   85.0000   122.7202     8.1408     7.5269     2.1646
   85.5000   116.0937     8.1420     7.4753     2.1646
   86.0000   113.0897     8.1431     7.4241     2.1646
   86.5000   112.4984     8.1442     7.3224     2.1646
   87.0000   114.9368     8.1454     7.3229     2.1646
   87.5000   117.9794     8.1465     7.2726     2.1646
   88.0000   119.8093     8.1476     7.2732     2.1646
   88.5000   120.7328     8.1487     7.2233     2.1646
   89.0000   121.0521     8.1499     7.2239     2.1646
   89.5000   121.0693     8.1510     7.2244     2.1646
   90.0000   120.1844     8.1521     7.3259     2.1646
   90.5000   118.9931     8.1533     7.2757     2.1646
   91.0000   117.8019     8.1544     7.2258     2.1646
   91.5000   117.2145     8.1555     7.2264     2.1646
   92.0000   116.2377     8.1002     7.1769     2.1646
   92.5000   115.1344     8.0455     7.2274     2.1646
   93.0000   116.3643     8.0391     7.2279     2.1646
   93.5000   118.7984     8.0230     7.2284     2.1646
   94.0000   120.0242     8.0068     7.3300     2.1646
   94.5000   118.8371     7.9907     7.2797     2.1646
   95.0000   117.6415     7.9746     7.2298     2.1646
   95.5000   119.4757     7.9585     7.2304     2.1646
   96.0000   121.9098     7.9423     7.1312     2.1646
   96.5000   123.7402     7.9262     7.0335     2.1646
   97.0000   124.0632     7.9101     7.0829     2.1646
   97.5000   124.0804     7.8940     7.0834     2.1646
   98.0000   125.0039     7.8779     7.0838     2.1646
   98.5000   126.2296     7.8617     7.0353     2.1646
   99.0000   126.2511     7.8456     6.9389     2.1646
   99.5000   126.0850     7.8295     6.9393     2.1646
  100.0000   125.4902     7.8134     6.9398     2.1646
  100.5000   124.5937     7.7972     6.8922     2.1646
  101.0000   124.9059     7.7811     6.8450     2.1646
  101.5000   126.1210     7.7650     6.8456     2.1646
  102.0000   126.7612     7.7489     6.8460     2.1646
  102.5000   127.0451     7.7328     6.8466     2.1646
  103.0000   126.4502     7.7166     6.7997     2.1646
  103.5000   125.5537     7.6990     6.7063     2.1646
  104.0000   123.4527     7.7015     6.8006     2.1646
  104.5000   121.3496     7.7046     6.8961     2.1646
  105.0000   122.5647     7.7071     6.9447     2.1646
  105.5000   124.0835     7.7096     7.0422     2.1646
  106.0000   124.3916     7.9291     7.1909     2.1646
  106.5000   122.8939     8.2122     7.2936     2.1646
  107.0000   121.0924     8.3876     7.4459     2.1646
  107.5000   119.8341     8.5075     7.5505     2.1646
  108.0000   116.8882     8.6348     7.6036     2.1646
  108.5000   115.0867     8.6319     7.6570     2.1646
  109.0000   113.8885     8.6354     7.8732     2.1646
  109.5000   113.8991     8.5785     7.8737     2.1646
  110.0000   117.2259     8.5220     7.8198     2.1646
  110.5000   122.6642     8.4080     7.7662     2.1646
  111.0000   124.4827     8.2949     7.6182     2.1646
  111.5000   124.1894     8.1833     7.5665     2.1646
  112.0000   125.1050     8.0732     7.5154     2.1646
  112.5000   126.6218     8.0200     7.4644     2.1646
  113.0000   126.5983     7.9677     7.3117     2.1646
  113.5000   124.2276     7.9704     7.1122     2.1646
  114.0000   120.6161     7.9178     6.9129     2.1646
  114.5000   119.0940     7.8656     6.7303     2.1646
  115.0000   122.7468     7.7068     6.6844     2.1646
  115.5000   126.3752     7.5512     6.6392     2.1646
  116.0000   129.4002     7.5008     6.4138     2.1646
  116.5000   126.6757     7.4514     6.3700     2.1646
  117.0000   123.6878     7.4544     6.3270     2.1646
  117.5000   121.8863     7.4574     6.3721     2.1646
  118.0000   120.9877     7.5118     6.4173     2.1646
  118.5000   122.5068     7.5665     6.5532     2.1646
  119.0000   122.2155     7.6753     6.5549     2.1646
  119.5000   119.8107     7.7312     6.6930     2.1646
  120.0000   118.0092     7.7337     6.7405     2.1646
  120.5000   116.5115     7.7901     6.8356     2.1646
  121.0000   115.3133     7.7932     6.9323     2.1646
  121.5000   116.2268     7.9047     7.1284     2.1646
  122.0000   117.4500     8.0735     7.3300     2.1646
  122.5000   118.9608     8.2460     7.4360     2.1646
  123.0000   119.5725     8.3066     7.5910     2.1646
  123.5000   120.4860     8.4254     7.7518     2.1646
  124.0000   121.3997     8.4868     7.8611     2.1646
  124.5000   121.4100     8.5493     7.9172     2.1646
  125.0000   121.4185     8.5521     7.9182     2.1646
  125.5000   121.4270     8.5549     7.9192     2.1646
  126.0000   121.1338     8.4397     7.7570     2.1646
  126.5000   121.1444     8.3841     7.6511     2.1646
  127.0000   121.4545     8.3296     7.5468     2.1646
  127.5000   122.3680     8.3188     7.4956     2.1646
  128.0000   122.9819     8.3018     7.4447     2.1646
  128.5000   122.3870     8.2848     7.3430     2.1646
  129.0000   122.0917     8.2678     7.3442     2.1646
  129.5000   123.3856     8.2508     7.3396     2.1646
  130.0000   124.2245     8.2338     7.2953     2.1646
  130.5000   123.3259     8.2168     7.2965     2.1343
  131.0000   122.4315     8.1998     7.2974     2.0796
  131.5000   123.3470     8.1832     7.3493     2.0249
  132.0000   124.2605     8.2435     7.5574     1.9701
  132.5000   123.9673     8.4196     7.7174     1.9154
  133.0000   123.6621     8.5399     7.8263     1.8607
  133.5000   122.1764     8.9064     7.9421     1.8060
  134.0000   120.0733     9.1599     8.2183     1.7512
  134.5000   118.5734     9.4206     8.3343     1.6965
  135.0000   116.4303     9.6911     8.4519     1.6418
  135.5000   113.7660    10.1046     8.6311     1.5871
  136.0000   112.5657    10.2490     8.6924     1.5323
  136.5000   113.1796    10.2524     8.8150     1.4776
  137.0000   112.5869    10.1144     8.9394     1.4229
  137.5000   111.9920    10.1185     9.1925     1.3682
  138.0000   111.3972    10.1218     9.3871     1.3134
  138.5000   110.8023    10.1955     9.5196     1.2587
  139.0000   110.8129    10.4141     9.7215     1.2040
  139.5000   112.3297    10.5630     9.9964     1.1492
  140.0000   112.9415    10.7886    10.2792     1.0945
  140.5000   113.2519    11.0191    10.4246     1.0398
  141.0000   112.9584    11.3345    10.6453     0.9851
  141.5000   112.3657    11.6565    10.8707     0.9303
  142.0000   108.4526    11.9883    10.8741     0.8756
  142.5000   103.3350    11.9921    11.0258     0.8209
  143.0000   101.5335    12.1637    11.1814     0.7662
  143.5000   102.4469    12.1685    11.2607     0.7114
  144.0000   105.8059    12.1725    11.2626     0.6567
  144.5000   107.8958    12.1764    11.1857     0.6020
  145.0000   108.8093    12.0136    11.1875     0.5473
  145.5000   108.5158    11.8519    11.1846     0.4925
  146.0000   108.2229    11.6924    10.8091     0.4378
