~VERSION INFORMATION
 VERS.                2.0:   CWLS LOG ASCII STANDARD - VERSION 2.0
 WRAP.                 NO:   ONE LINE PER DEPTH STEP
~WELL INFORMATION
#MNEM.UNIT      DATA TYPE    INFORMATION
#----------   ------------   ------------------------------
 STRT.F           31.5000:   START DEPTH
 STOP.F         4204.0000:   STOP DEPTH
 STEP.F            0.5000:   STEP LENGTH
 NULL.          -999.2500:   NO VALUE
 COMP.   LAWRENCE ALLISON:   COMPANY
 WELL. LAWRENCE 3 "X" #32-10:   WELL
 FLD .                NPR:   FIELD
 LOC .      S10 T38N R78W:   LOCATION
 CNTY.            NATRONA:   COUNTY
 STAT.            WYOMING:   STATE
 CTRY. UNITED STATES OF AMERICA:   COUNTRY
 SRVC.      DRESSER ATLAS:   SERVICE COMPANY
 DATE.        05-NOV-1983:   LOGDATE
 API .     49025109460000:   API NUMBER
~CURVE INFORMATION
#MNEM.UNIT       API CODE    CURVE DESCRIPTION
#----------   ------------   ------------------------------
 DEPT.F                  :   
 CALD.IN     45 280 60 00:   CALIPER FROM DENSITY LOG
 CNC .DEC    42 890 01 00:   NEUTRON POROSITY LIMESTONE
 CORR.G/C3   45 356 01 00:   DENSITY CORRECTION
 TEND.LBS    45 635 01 00:   TENSION FORM DENSITY LOG
 RHOB.G/C3   45 350 01 00:   BULK DENSITY
 DT  .US/F   60 520 00 00:   DELTA TIME
 TENS.LBS    60 635 01 00:   TENSION FROM SONIC
 GRR .GAPI   07 310 01 00:   GAMMA RAY FROM RESISTIVITY
 TENR.LBS    06 635 01 00:   TENSION FROM RESISTIVITY
 RFOC.OHMM   07 220 04 00:   RESISTIVITY FOCUSED LOG RES.
 RILM.OHMM   07 120 44 00:   INDUCTION LOG MEDIUM RESISTIVITY
 RILD.OHMM   07 120 46 00:   DEEP INDUCTION RESISTIVITY
 SPR .MV     07 010 01 00:   SPONTANEOUS POTENTIAL
~PARAMETER INFORMATION
#MNEM.UNIT          VALUE    DESCRIPTION
#----------   ------------   ------------------------------
 EKB .F         5237.0000:   Kelly bushing
 EGL .F         5227.0000:   Ground level
 TD  .F         4202.0000:   Total depth
 CLNT.            A2DTECH:   Client Code
 SL  . 1871' FWL & 1152' FNL:   Surface Location
 PD  .                 GL:   Permanent Datum
 EPD .F              5227:   Elevation Permanent Datum
 LMF .                 KB:   Log Measured From
 DMF .                 KB:   Drilling Measured From
 DAPD.F                10:   Feet Above Permanent Datum
 DATE.        05-NOV-1983:   Date Logged [DD-MMM-YYYY]
 DD  .F              4200:   Depth driller
 DL  .F              4202:   Depth logger
 BLI .F              4200:   Bottom log interval
 TLI .F                30:   Top log interval
 CS1 .IN            8.625:   Casing size
 CBD1.      8.625" @ 545':   Casing driller 1
 CBL1.F               545:   Casing logger 1
 BS1 .IN            7.875:   Bit size
 BSD1.F              4200:   Depth drilled with bit1
 DFT .            GEL KCL:   Type fluid in hole
 DFD .                8.9:   Density
 DFV .                 42:   Viscosity
 DFPH.                8.5:   pH
 DFL .               12.4:   Fluid loss
 MSS .           FLOWLINE:   Source of sample
 RMS .OHMM           0.43:   Rm
 MST .F                97:   Rm Meas. temp.
 RMF .OHMM           0.42:   Rmf
 MFST.F                74:   Rmf Meas. temp.
 MFSS.               MEAS:   Source Rmf.
 RMC .OHMM           0.53:   Rmc
 MCST.F                97:   Rmc Meas. temp.
 MCSS.               CALC:   Source Rmc.
 RMB .OHMM           0.32:   Rm. at BHT
 BHT .F               131:   BHT.
 TCS .HRS               3:   Time Circ. stopped
 MRT .F               131:   Maximum recorded temp.
 LUN .               6307:   Logging unit number
 LUL .               GLTE:   Logging unit location
 ENGI.            DEYOUNG:   Recorded By
 WITN.             STRONG:   Witnessed by
 ORIG.        2" 5" PRINT:   Origin of data
 UWI .     49025109460000:   Unique Well ID
 DICO. A2D TECHNOLOGIES, INC.:   Digitizing Company
~OTHER INFORMATION
~A   DEPT     CALD        CNC       CORR       TEND       RHOB         DT       TENS         GRR      TENR       RFOC       RILM       RILD        SPR   
# ...
 2735.5000     8.7227     0.1975    -0.0236   -20.2779     2.5035    71.1834   -43.8152    90.6928   -25.1154    20.6444    15.7373    15.4860   -21.8085
 2736.0000     8.7227     0.2061     0.0287   -20.3698     2.5051    71.9471   -43.9296    92.9518   -25.2680    18.1640    15.5208    15.5022   -22.1032
 2736.5000     8.7226     0.2102     0.0487   -20.4623     2.5106    72.9265   -44.0469    94.3072   -25.4475    16.7066    15.3073    15.6056   -22.2473
 2737.0000     8.7225     0.2112     0.0549   -23.6364     2.5168    74.5347   -44.1642    93.6534   -25.5743    17.0711    15.2034    15.6098   -21.7873
 2737.5000     8.7233     0.2063     0.0426   -26.8179     2.5161    74.6786   -38.4046    89.7892   -25.7274    17.0999    15.1002    15.6141   -19.9736
 2738.0000     8.7379     0.2007     0.0506   -30.6326     2.5131    74.8225   -38.5337    83.9157   -25.8806    16.7336    14.9977    15.7292   -17.4888
 2738.5000     8.7419     0.2042     0.0581   -34.7200     2.4954    75.7039   -38.6510    77.2892   -26.0380    16.0156    14.8960    15.7798   -15.7420
 2739.0000     8.7397     0.2112     0.0259   -39.4145     2.4654    76.2903   -38.7683    72.7711   -26.1868    15.2916    14.7958    15.8495   -14.5307
 2739.5000     8.7378     0.2153    -0.0033   -42.6028     2.4385    76.4342   -38.8856    69.4578   -26.3701    15.1929    14.7993    15.9666   -13.6205
 2740.0000     8.7359     0.2102    -0.0109   -39.5876     2.4332    76.7257   -39.0029    69.1566   -26.5177    15.3101    14.4931    15.7464   -12.7104
 2740.5000     8.7340     0.2039    -0.0170   -39.6983     2.4404    77.0268   -39.1430    78.7952   -26.6653    15.4262    14.2946    15.5294   -12.8545
 2741.0000     8.7322     0.1963    -0.0231   -36.7026     2.4495    77.1610   -33.3724    84.0663   -26.8129    15.2195    14.0970    15.4242   -13.3061
 2741.5000     8.7303     0.1912     0.0138   -33.7122     2.4588    76.9801   -27.6246    84.8193   -26.9606    15.0156    14.4025    15.4295   -14.0446
 2742.0000     8.7284     0.1874     0.0323   -33.8230     2.4627    76.8190   -27.7537    80.9036   -27.1081    15.3452    14.8178    15.5432   -14.4899
 2742.5000     8.7265     0.1798     0.0431   -33.9116     2.4535    76.5106   -27.8673    74.1265   -27.2588    16.0135    15.4614    15.8810   -14.7846
 2743.0000     8.7244     0.1738     0.0493   -34.0002     2.4467    76.1431   -24.2162    67.6154   -27.4402    16.2485    15.8160    16.2418   -15.0809
 2743.5000     8.7231     0.1649     0.0509   -37.1705     2.4508    75.7461   -22.2287    64.9398   -27.5879    16.1436    16.3668    16.5797   -15.8258
 2744.0000     8.7436     0.1583     0.0064   -37.2573     2.4661    74.7594   -22.3460    63.5843   -27.7355    16.9652    16.6031    16.7020   -16.5722
 2744.5000     8.7840     0.1611    -0.0274   -40.4314     2.4800    72.7095   -20.2770    64.0361   -27.8830    19.4869    16.0321    16.8251   -17.4884
 2745.0000     8.7790     0.1659    -0.0488   -40.5239     2.4870    71.0835   -16.7051    68.1024   -28.0307    22.0194    15.3720    16.1303   -19.1178
 2745.5000     8.7740     0.1710    -0.0672   -39.9385     2.4848    70.9324   -16.8329    79.3327   -28.1783    22.4998    14.4308    14.5104   -21.0691
 2746.0000     8.7697     0.1824    -0.0641   -37.6135     2.4617    71.8138   -16.9501    93.1024   -28.3308    19.1569    13.4521    13.1436   -22.2674
 2746.5000     8.7653     0.1919    -0.0452   -37.7243     2.4494    73.5801   -17.0674   102.7410   -28.4839    15.7872    12.4295    12.4127   -23.4657
 2747.0000     8.7609     0.1977    -0.0379   -37.8129     2.4510    75.6415   -17.1847   108.0120   -30.4999    13.9882    11.6899    12.0834   -24.5134
 2747.5000     8.7566     0.2027    -0.0409   -34.8198     2.4534    76.3754   -17.3020   109.9699   -31.8684    12.9564    11.2086    11.3411   -25.5699
 2748.0000     8.7522     0.1982    -0.0363   -34.9306     2.4566    77.1190   -17.4193   110.4281   -32.0159    12.2559    10.8232    10.7962   -26.6072
 2748.5000     8.7478     0.1976    -0.0239   -31.9376     2.4682    77.2532   -17.5367   112.5301   -33.0615    12.0069    10.4509    10.2049   -27.5042
 2749.0000     8.7435     0.1998    -0.0085   -28.9445     2.4783    76.9248   -17.6540   113.4337   -35.3752    12.0136    10.1629     9.9229   -27.6500
 2749.5000     8.7429     0.2014    -0.0070   -25.9293     2.4807    76.8031   -17.7713   113.5843   -35.5585    12.0217     9.8121     9.7157   -27.6418
 2750.0000     8.7429     0.2017    -0.0223   -22.9584     2.4815    76.7994   -17.8980   110.5723   -35.7061    12.0148     9.5318     9.5158   -27.1835
 2750.5000     8.7429     0.1989    -0.0314   -19.9654     2.4839    76.7957   -18.0116   106.2048   -35.8537    11.9832     9.4116     9.1882   -27.0263
 2751.0000     8.7429     0.1976    -0.0222   -20.0761     2.4878    76.8608   -18.1252   108.6145   -36.0013    11.9483     9.2174     8.9971   -26.8690
 2751.5000     8.7429     0.1957     0.0213   -20.1647     2.4963    77.0833   -18.2405   112.3468   -36.1489    11.7843     9.1549     8.8112   -26.7105
 2752.0000     8.7429     0.1976     0.0001   -20.2533     2.5057    77.0789   -18.3578   120.1984   -33.2337    11.3804     9.0284     8.7509   -26.5533
 2752.5000     8.7429     0.2026    -0.0075   -20.3354     2.5096    77.2229   -18.4751   117.1834   -33.3844    10.9136     8.8421     8.7539   -26.5468
 2753.0000     8.7429     0.2077    -0.0042   -20.4241     2.5120    77.0718   -18.5924   114.4697   -30.4662    10.6069     8.7204     8.8185   -26.5403
 2753.5000     8.7429     0.2090    -0.0040   -20.5127     2.5128    77.0682   -18.7097   112.6595   -30.6506    10.5418     8.6613     9.0107   -26.8351
 2754.0000     8.7429     0.2042    -0.0022   -20.6013     2.5113    76.7697   -18.8270   112.6566   -27.6985    10.3976     8.7251     9.4039   -26.9790
 2754.5000     8.7429     0.1975    -0.0051   -20.6899     2.5068    76.4711   -18.9443   111.2453   -24.8203    10.1119     8.9767     9.7451   -26.9709
 2755.0000     8.7429     0.1893    -0.0141   -20.8691     2.5053    75.8776   -19.0616   104.6741   -21.9051     9.9731     9.4996    10.0987   -27.1166
 2755.5000     8.7429     0.1764    -0.0060   -18.0784     2.5100    74.9398   -19.1789    96.1816   -22.0527    10.2590    10.1956    10.5395   -27.2607
 2756.0000     8.7429     0.1661    -0.0198   -15.3849     2.5295    73.7071   -19.3182    87.6892   -21.7960    11.2408    10.9426    11.0775   -27.4047
 2756.5000     8.7429     0.1557    -0.0304   -15.8698     2.5410    72.2083   -19.4135    77.5508   -19.2851    13.0275    11.7602    11.8175   -27.5474
 2757.0000     8.7423     0.1493    -0.0349   -16.2579     2.5480    69.5212   -19.5453    68.8130   -19.4696    14.7480    12.6055    12.6789   -27.8419
 2757.5000     8.7407     0.1392    -0.0362   -16.6409     2.5557    66.1738   -19.6481    67.3048   -19.6172    18.3796    13.0607    12.8631   -28.1366
 2758.0000     8.7392     0.1328    -0.0221   -17.0416     2.5650    64.9417   -21.4727    70.3131   -22.8276    19.7192    13.4373    13.0499   -28.4296
 2758.5000     8.7376     0.1274    -0.0143   -17.4422     2.5597    65.6648   -25.7513    76.3343   -22.9752    18.9104    13.9225    13.4281   -28.5753
 2759.0000     8.7361     0.1318    -0.0110   -17.9068     2.5559    66.7335   -25.8651    82.4353   -23.2234    16.4384    14.1234    13.9154   -28.7194
 2759.5000     8.7345     0.1448    -0.0139   -18.2949     2.5521    69.2065   -25.9824    85.7056   -26.3701    15.4350    14.2267    14.1175   -28.8635
 2760.0000     8.7329     0.1531    -0.0136   -18.6441     2.5514    70.0879   -26.0997    88.9759   -26.5177    15.4390    13.6155    13.8055   -28.8553
 2760.5000     8.7314     0.1626    -0.0073   -19.0710     2.5546    69.9368   -26.2170    93.1795   -26.6653    14.7022    12.9882    12.7040   -28.6980
 2761.0000     8.7298     0.1670    -0.0025   -19.4454     2.5516    69.9333   -26.3343    97.4031   -29.8757    14.1984    12.1074    12.2659   -28.5394
