~VERSION INFORMATION
 VERS.                2.0:   CWLS LOG ASCII STANDARD - VERSION 2.0
 WRAP.                 NO:   ONE LINE PER DEPTH STEP
~WELL INFORMATION
#MNEM.UNIT      DATA TYPE    INFORMATION
#----------   ------------   ------------------------------
 STRT.F          200.0000:   START DEPTH
 STOP.F         3160.0000:   STOP DEPTH
 STEP.F            0.5000:   STEP LENGTH
 NULL.          -999.2500:   NO VALUE
 COMP.    FENIX & SCISSON:   COMPANY
 WELL. FENIX NPR 3 "AX" #72-3:   WELL
 FLD .             TEAPOT:   FIELD
 LOC .       S3 T38N R78W:   LOCATION
 CNTY.            NATRONA:   COUNTY
 STAT.            WYOMING:   STATE
 CTRY. UNITED STATES OF AMERICA:   COUNTRY
 SRVC.           BIRDWELL:   SERVICE COMPANY
 DATE.        10-JAN-1978:   LOGDATE
 API .     49025105530000:   API NUMBER
~CURVE INFORMATION
#MNEM.UNIT       API CODE    CURVE DESCRIPTION
#----------   ------------   ------------------------------
 DEPT.F                  :   
 CALD.IN     45 280 60 00:   CALIPER FROM DENSITY LOG
 GRD .GAPI   45 310 01 00:   GAMMA RAY FROM DENSITY LOG
 DEN .LBS    45 635 01 00:   BUCK DENSITY
 CORR.G/C3   45 356 01 00:   DENSITY CORRECTION
 SPR .MV     07 010 01 00:   SPONTANEOUS POTENTIAL
 ILD .OHMM   07 120 46 00:   DEEP INDUCTION RESISTIVITY
 ILM .OHMM   07 120 44 00:   INDUCTION LOG MEDIUM RESISTIVITY
~PARAMETER INFORMATION
#MNEM.UNIT          VALUE    DESCRIPTION
#----------   ------------   ------------------------------
 EKB .F         5164.0000:   Kelly bushing
 EGL .F         5153.0000:   Ground level
 TD  .F         3157.0000:   Total depth
 DATE.        10-JAN-1978:   Date logged
 CLNT.            A2DTECH:   Client Code
 SL  . 900' FNL & 900' FEL:   Surface Location
 PD  .                 GL:   Permanent Datum
 EPD .F              5153:   Elevation Permanent Datum
 LMF .                 KB:   Log Measured From
 DMF .                 KB:   Drilling Measured From
 DAPD.F                11:   Feet Above Permanent Datum
 DD  .F              3156:   Depth driller
 DL  .F              3157:   Depth logger
 BLI .F              3157:   Bottom log interval
 TLI .F               200:   Top log interval
 CS1 .IN            8.625:   Casing size
 CBD1.      8.625" @ 222':   Casing driller 1
 CBL1.F               220:   Casing logger 1
 BS1 .IN            7.875:   Bit size
 BSD1.F              3156:   Depth drilled with bit1
 DFT .                KCL:   Type fluid in hole
 DFD .                8.5:   Density
 DFV .                 36:   Viscosity
 DFPH.                 10:   pH
 DFL .                8.8:   Fluid loss
 MSS .           FLOWLINE:   Source of sample
 RMS .OHMM            1.4:   Rm
 MST .F                66:   Rm Meas. temp.
 RMF .OHMM            .85:   Rmf
 MFST.F                74:   Rmf Meas. temp.
 RMC .OHMM            1.4:   Rmc
 MCST.F                72:   Rmc Meas. temp.
 MFSS.               MEAS:   Source Rmf.
 MCSS.               MEAS:   Source Rmc.
 RMB .OHMM            .83:   Rm. at BHT
 BHT .F               112:   BHT.
 TCS .HRS               4:   Time Circ. stopped
 MRT .F               112:   Maximum recorded temp.
 LUN .               2958:   Logging unit number
 LUL .             CASPER:   Logging unit location
 ENGI.            POINTER:   Recorded By
 WITN.         HARRINGTON:   Witnessed by
 ORIG.           5" PRINT:   Origin of data
 UWI .     49025105530000:   Unique Well ID
 DICO. A2D TECHNOLOGIES, INC.:   Digitizing Company
~OTHER INFORMATION
~A   DEPT     CALD        GRD          DEN     CORR        SPR        ILD        ILM   
# ...
 3112.0000     8.1796    71.7926     2.3590     0.1702   -63.8159    12.5124    10.6983
 3112.5000     8.2589    70.6044     2.3500     0.1662   -63.4183    12.1691    10.2149
 3113.0000     8.2985    69.6142     2.3530     0.1622   -63.4183    11.9449    10.1195
 3113.5000     8.2986    69.4164     2.3560     0.1602   -63.0207    11.9428     9.9331
 3114.0000     8.2986    70.0111     2.3670     0.1482   -62.8219    11.8312     9.7501
 3114.5000     8.2789    71.7945     2.3780     0.1462   -62.6231    11.9386     9.5704
 3115.0000     8.2789    74.7666     2.3880     0.1582   -62.6231    11.9366     9.5691
 3115.5000     8.2988    75.7576     2.3910     0.1602   -62.2254    11.9345     9.2211
 3116.0000     8.2989    75.3618     2.3840     0.1642   -58.0505    11.8230     9.3048
 3116.5000     8.2989    74.1734     2.3490     0.1662   -57.8517    11.8209     9.2180
 3117.0000     8.2593    73.7776     2.3470     0.1642   -61.8278    11.7105     9.0482
 3117.5000     8.1603    74.1742     2.3390     0.1662   -63.6171    11.7085     9.0466
 3118.0000     8.1604    75.9579     2.3310     0.1722   -63.8159    11.7064     9.0451
 3118.5000     8.1604    76.3545     2.3370     0.1802   -63.8159    11.7044     8.9607
 3119.0000     8.1605    75.9586     2.3330     0.1922   -59.6410    11.7024     8.8770
 3119.5000     8.1804    74.9683     2.3250     0.1942   -56.2612    11.7004     8.8755
 3120.0000     8.1804    71.2040     2.3180     0.1862   -56.6588    11.6983     8.8740
 3120.5000     8.1805    69.8172     2.3260     0.1722   -56.6588    11.5891     8.5516
 3121.0000     8.1409    69.8176     2.3450     0.1462   -58.6469    11.5871     8.3172
 3121.5000     8.0617    70.0160     2.3580     0.1422   -59.0445    11.4788     8.0892
 3122.0000     7.9626    69.2219     2.3720     0.1422   -53.4779    11.4769     7.9402
 3122.5000     7.9429    69.0240     2.3700     0.1462   -55.0684    11.4749     7.9389
 3123.0000     7.9231    69.4206     2.3730     0.1422   -63.8159    11.4729     7.6505
 3123.5000     7.9231    72.1954     2.3780     0.1242   -64.0147    11.3657     7.3726
 3124.0000     7.9232    90.2319     2.4000     0.1022   -62.8219    11.3638     7.1705
 3124.5000     7.9232   101.5285     2.4080     0.0962   -59.2433    11.2577     6.9740
 3125.0000     7.9431   109.2585     2.4490     0.0962   -47.5137    11.0503     6.9090
 3125.5000     7.9432   109.8541     2.4500     0.1002   -44.5316    10.8468     6.9078
 3126.0000     8.0027   108.0714     2.4470     0.1042   -42.1459    10.4528     6.9067
 3126.5000     7.9829   101.7301     2.4380     0.1062   -41.5495    10.6452     6.9056
 3127.0000     8.0028    97.9652     2.4370     0.1142   -40.9531    10.8412     6.9045
 3127.5000     8.0623    98.3624     2.4370     0.1242   -40.1579    10.9396     6.9033
 3128.0000     8.2209   102.9219     2.4290     0.1242   -40.1579    10.9377     6.7763
 3128.5000     8.3002   109.0672     2.4230     0.1202   -39.9590    10.9359     6.5302
 3129.0000     8.3399   112.2394     2.4250     0.1162   -39.9590    10.8338     6.4100
 3129.5000     8.3003   115.0154     2.4450     0.1162   -39.7602    10.6343     6.2920
 3130.0000     8.3004   116.6023     2.4490     0.1182   -39.7602    10.5350     6.2910
 3130.5000     8.3004   116.0087     2.4490     0.1222   -40.1579    10.5332     6.1752
 3131.0000     8.3401   114.0276     2.4490     0.1262   -39.9590    10.3393     6.1177
 3131.5000     8.3402   110.8570     2.4500     0.1282   -40.1579    10.3375     6.1167
 3132.0000     8.3601   104.5148     2.4530     0.1182   -39.9590    10.3357     6.1723
 3132.5000     8.3799   102.1369     2.4600     0.1142   -39.9590    10.3340     6.1713
 3133.0000     8.3800   101.9395     2.4620     0.1142   -39.9590    10.3322     6.1137
 3133.5000     8.3008   103.1296     2.4740     0.1142   -40.1579    10.3304     6.1693
 3134.0000     8.3008   105.1130     2.4700     0.1242   -39.9590    10.3287     6.1683
 3134.5000     8.3603   105.7086     2.4550     0.1302   -39.9590    10.3269     6.1673
 3135.0000     8.3802   105.3130     2.4520     0.1302   -39.9590    10.3251     6.0538
 3135.5000     8.3803   104.7192     2.4510     0.1322   -39.9590    10.3234     5.9974
 3136.0000     8.3803   104.9184     2.4500     0.1342   -39.9590    10.3216     5.7797
 3136.5000     8.4597   105.7125     2.4500     0.1342   -39.9590    10.3198     5.7788
 3137.0000     8.4994   107.6302     2.4460     0.1342   -39.9590    10.2235     5.7778
 3137.5000     8.4894   108.6882     2.4470     0.1342   -39.9590    10.2218     5.7769
 3138.0000     8.4895   107.4995     2.4520     0.1422   -39.9590    10.2201     5.7231
 3138.5000     8.4896   106.5091     2.4570     0.1282   -39.9590    10.2183     5.7751
 3139.0000     8.4698   105.5187     2.4770     0.1222   -39.9590    10.2166     5.7742
 3139.5000     8.4500   103.7351     2.5000     0.1202   -39.9590    10.2148     5.7732
 3140.0000     8.4303   101.1583     2.4990     0.1202   -39.5614    10.3075     5.8796
 3140.5000     8.4303    99.1746     2.4930     0.1182   -39.9590    10.3058     5.8786
 3141.0000     8.4304    99.1754     2.4860     0.1162   -40.1579    10.3040     5.7705
 3141.5000     8.4304   101.9523     2.4830     0.1162   -40.3567    10.3975     5.8767
 3142.0000     8.4305   104.5310     2.4810     0.1182   -40.3567    10.3005     5.8758
 3142.5000     8.4107   103.7387     2.4720     0.1202   -40.7543    10.2987     5.8749
 3143.0000     8.3909   103.9370     2.4610     0.1262   -41.1519    10.2970     5.6617
 3143.5000     8.3910   104.7336     2.4480     0.1282   -41.5495    10.2009     5.6608
 3144.0000     8.3712   104.9311     2.4450     0.1262   -41.5495    10.1992     5.6080
 3144.5000     8.3515   106.3202     2.4470     0.1242   -41.5495    10.1974     5.6590
 3145.0000     8.3118   109.2959     2.4540     0.1202   -41.5495    10.1957     5.6581
 3145.5000     8.2524   109.6935     2.4600     0.1182   -41.5495    10.1939     5.6053
 3146.0000     8.1731   110.0929     2.4620     0.1142   -41.5495    10.1922     5.6563
 3146.5000     8.0939   112.2754     2.4610     0.1142   -41.5495    10.2847     5.7076
 3147.0000     7.9947   113.0696     2.4550     0.1162   -41.5495    10.2829     5.7595
 3147.5000     7.9155   113.6656     2.4480     0.1162   -41.5495    10.2812     5.8118
 3148.0000     7.7965   113.8650     2.4410     0.1162   -41.5495    10.2794     5.8111
 3148.5000     7.6577   115.6512     2.4360     0.1142   -41.5495    10.2776     5.7567
 3149.0000     7.5586   116.0489     2.4330     0.1142   -41.5495    10.1818     5.6509
 3149.5000     7.3901   116.2484     2.4280     0.1142   -41.5495    10.2741     5.5470
 3150.0000     7.3108   116.6462     2.4220     0.1142   -41.5495  -999.2500     5.4955
 3150.5000     7.3109   116.6473     2.4180     0.1202   -41.5474  -999.2500     5.4480
 3151.0000     7.3307   116.4484     2.4160     0.1202   -41.5451  -999.2500  -999.2500
 3151.5000     7.2414   114.8626     2.4050     0.1202   -41.7417  -999.2500  -999.2500
 3152.0000     7.1225   113.0785     2.4020     0.1222   -41.7392  -999.2500  -999.2500
 3152.5000     6.7059   110.5008     2.4040     0.1202   -42.1351  -999.2500  -999.2500
 3153.0000     5.6844   109.7083     2.4050     0.1102   -42.1330  -999.2500  -999.2500
 3153.5000     5.6646   109.7093     2.4040     0.1082   -42.1308  -999.2500  -999.2500
 3154.0000     5.6646   115.4632     2.4060     0.1082   -41.9294  -999.2500  -999.2500
 3154.5000     5.6646   118.8365     2.4090     0.1122   -42.1266  -999.2500  -999.2500
 3155.0000     5.6647  -999.2500     2.3840     0.1142   -42.1244  -999.2500  -999.2500
 3155.5000     5.6647  -999.2500     2.3710     0.1162   -42.1220  -999.2500  -999.2500
 3156.0000     5.6647  -999.2500     2.3720     0.1182   -42.1198  -999.2500  -999.2500
 3156.5000     5.6845  -999.2500     2.3760     0.1182   -42.3172  -999.2500  -999.2500
 3157.0000     5.6845  -999.2500     2.3790     0.1182  -999.2500  -999.2500  -999.2500
