~VERSION INFORMATION
 VERS.                2.0:   CWLS LOG ASCII STANDARD - VERSION 2.0
 WRAP.                 NO:   ONE LINE PER DEPTH STEP
~WELL INFORMATION
#MNEM.UNIT      DATA TYPE    INFORMATION
#----------   ------------   ------------------------------
 STRT.F            4.5000:   START DEPTH
 STOP.F         3216.0000:   STOP DEPTH
 STEP.F            0.5000:   STEP LENGTH
 NULL.          -999.2500:   NO VALUE
 COMP. LAWRENCE ALLISON & ASSCOCIATES:   COMPANY
 WELL. LAWRENCE ALLISON #38-34:   WELL
 FLD . NAVAL PET. RES. NO. 3:   FIELD
 LOC .      S34 T39N R78W:   LOCATION
 CNTY.            NATRONA:   COUNTY
 STAT.            WYOMING:   STATE
 CTRY. UNITED STATES OF AMERICA:   COUNTRY
 SRVC.      DRESSER ATLAS:   SERVICE COMPANY
 DATE.        12-OCT-1986:   LOGDATE
 API .     49025111120000:   API NUMBER
~CURVE INFORMATION
#MNEM.UNIT       API CODE    CURVE DESCRIPTION
#----------   ------------   ------------------------------
 DEPT.F                  :   
 CALD.IN     45 280 60 00:   CALIPER FROM DENSITY LOG
 RHOB.G/C3   45 350 01 00:   BULK DENSITY
 CORR.G/C3   45 356 01 00:   DENSITY CORRECTION
 CNC .DEC    42 890 01 00:   NEUTRON POROSITY
 SPR .MV     07 010 01 00:   SPONTANEOUS POTENTIAL
 TENR.LBS    06 635 01 00:   TENSION FROM RESISTIVITY
 GRR .GAPI   07 310 01 00:   GAMMA RAY FROM RESISTIVITY
 ILD .OHMM   07 120 46 00:   DEEP INDUCTION RESISTIVITY
 ILM .OHMM   07 120 44 00:   INDUCTION LOG MEDIUM RESISTIVITY
 SFL .OHMM   07 220 01 00:   SHALLOW FOCUSED LOG RESISITIVITY
~PARAMETER INFORMATION
#MNEM.UNIT          VALUE    DESCRIPTION
#----------   ------------   ------------------------------
 EKB .F         5229.5000:   Kelly bushing
 EGL .F         5217.7000:   Ground level
 TD  .F         3200.0000:   Total depth
 CLNT.            A2DTECH:   Client Code
 SL  . 1338' FWL & 132' FSL:   Surface Location
 PD  .                 GL:   Permanent Datum
 EPD .F            5217.7:   Elevation Permanent Datum
 LMF .                 KB:   Log Measured From
 DMF .                 KB:   Drilling Measured From
 DAPD.F              11.8:   Feet Above Permanent Datum
 DATE.        12-OCT-1986:   Date Logged [DD-MMM-YYYY]
 DD  .F              3200:   Depth driller
 DL  .F              3200:   Depth logger
 BLI .F              3194:   Bottom log interval
 TLI .F                 0:   Top log interval
 CS1 .IN            8.625:   Casing size
 CBD1.      8.625" @ 668':   Casing driller 1
 CBL1.F               668:   Casing logger 1
 BS1 .IN            7.875:   Bit size
 BSD1.F              3200:   Depth drilled with bit1
 DFT .        KCL POLYMER:   Type fluid in hole
 DFD .                  9:   Density
 DFV .                 36:   Viscosity
 DFPH.                9.5:   pH
 MSS .           FLOWLINE:   Source of sample
 RMS .OHMM           0.25:   Rm
 MST .F                70:   Rm Meas. temp.
 RMF .OHMM          0.191:   Rmf
 MFST.F                70:   Rmf Meas. temp.
 MFSS.               MEAS:   Source Rmf.
 RMB .OHMM          0.132:   Rm. at BHT
 BHT .F               132:   BHT.
 TCS .HRS               3:   Time Circ. stopped
 MRT .F               132:   Maximum recorded temp.
 LUN .               6274:   Logging unit number
 ENGI.             RAUTIO:   Recorded By
 ORIG.   1" 2.5" 5" PRINT:   Origin of data
 UWI .     49025111120000:   Unique Well ID
 DICO. A2D TECHNOLOGIES, INC.:   Digitizing Company
 LUL .               CLIT:   Logging unit location
 RMC .OHMM           0.31:   Rmc
 MCST.F                70:   Rmc Meas. temp.
 MCSS.               CALC:   Source Rmc.
~OTHER INFORMATION
~A    DEPT    CALD       RHOB       CORR        CNC        SPR       TENR        GRR        ILD        ILM        SFL   
# ...
 1009.5000  -999.2500  -999.2500  -999.2500  -999.2500   -94.1537   -47.2964   103.8021     7.7652     6.7656     8.4015
 1010.0000  -999.2500  -999.2500  -999.2500  -999.2500   -94.1533   -48.3617   105.5221     7.7652     6.7661     8.0701
 1010.5000  -999.2500  -999.2500  -999.2500  -999.2500   -94.1543   -49.3902   106.3584     7.6579     6.9575     7.8740
 1011.0000  -999.2500  -999.2500  -999.2500  -999.2500   -94.1535   -50.4362   107.1632     7.7652     7.0555     8.1367
 1011.5000  -999.2500  -999.2500  -999.2500  -999.2500   -94.1525   -51.4734   103.0472     7.9202     7.1548     8.3065
 1012.0000  -999.2500  -999.2500  -999.2500  -999.2500   -94.1593   -52.5106   103.9033     8.1506     7.3572     8.6754
 1012.5000  -999.2500  -999.2500  -999.2500  -999.2500   -94.0906   -53.5479   105.9488     8.5053     7.4608     8.9244
 1013.0000  -999.2500  -999.2500  -999.2500  -999.2500   -93.9456   -54.5851   105.3429     8.6795     7.6718     8.9244
 1013.5000  -999.2500  -999.2500  -999.2500  -999.2500   -93.8085   -55.6223   104.1351     8.6795     7.8985     8.9244
 1014.0000  -999.2500  -999.2500  -999.2500  -999.2500   -93.6707   -56.6596   101.1201     8.8011     8.2379     9.0494
 1014.5000  -999.2500  -999.2500  -999.2500  -999.2500   -93.5321   -57.6968    98.7076     8.8011     8.4785     9.1762
 1015.0000  -999.2500  -999.2500  -999.2500  -999.2500   -93.3941   -58.7340    98.7047     9.0494     8.7260     9.4351
 1015.5000  -999.2500  -999.2500  -999.2500  -999.2500   -93.2545   -59.7713   101.1114     9.1762     8.8567     9.7013
 1016.0000  -999.2500  -999.2500  -999.2500  -999.2500   -93.1203   -60.8085   101.7109     9.3047     8.9894     9.8372
 1016.5000  -999.2500  -999.2500  -999.2500  -999.2500   -92.9803   -61.8457   101.1054     9.3093     8.9449     9.8372
 1017.0000  -999.2500  -999.2500  -999.2500  -999.2500   -93.0375   -62.8830   101.1948     9.4351     8.8853     9.7013
 1017.5000  -999.2500  -999.2500  -999.2500  -999.2500   -93.1767   -63.9202   103.0371     9.4351     8.8225     9.7013
 1018.0000  -999.2500  -999.2500  -999.2500  -999.2500   -93.3129   -64.7500   105.4820     9.3047     8.8232     9.7013
 1018.5000  -999.2500  -999.2500  -999.2500  -999.2500   -93.4479   -64.7500   105.9131     9.3047     8.9475     9.7013
 1019.0000  -999.2500  -999.2500  -999.2500  -999.2500   -93.5803   -64.7500   104.8174     9.3047     9.0734     9.7926
 1019.5000  -999.2500  -999.2500  -999.2500  -999.2500   -93.7159   -45.2500   102.6114     9.3575     9.2012     9.8372
 1020.0000  -999.2500  -999.2500  -999.2500  -999.2500   -93.6773   -55.0000   101.3655     9.4351     9.3307     9.9751
 1020.5000  -999.2500  -999.2500  -999.2500  -999.2500   -93.5730   -55.0000   100.4783     9.5049     9.3313    10.1148
 1021.0000  -999.2500  -999.2500  -999.2500  -999.2500   -93.4711   -45.2500   102.2826     9.7013     9.4627    10.2565
 1021.5000  -999.2500  -999.2500  -999.2500  -999.2500   -93.3710   -64.7500   103.4849     9.7013     9.5959    10.2565
 1022.0000  -999.2500  -999.2500  -999.2500  -999.2500   -93.2972   -64.7500   103.4816     9.8372     9.7311    10.2565
 1022.5000  -999.2500  -999.2500  -999.2500  -999.2500   -93.2348   -64.7500   101.0691     9.8372     9.7317    10.2565
 1023.0000  -999.2500  -999.2500  -999.2500  -999.2500   -93.1705   -55.0000    98.6565     9.8372     9.7324    10.4002
 1023.5000  -999.2500  -999.2500  -999.2500  -999.2500   -93.1080   -45.2500    98.6536     9.7013     9.7331    10.4002
 1024.0000  -999.2500  -999.2500  -999.2500  -999.2500   -93.0453   -45.2500    99.3249     9.7013     9.5992    10.1148
 1024.5000  -999.2500  -999.2500  -999.2500  -999.2500   -92.9741   -64.7500   102.9889     9.5644     9.4673     9.6984
 1025.0000  -999.2500  -999.2500  -999.2500  -999.2500   -92.9778   -45.2500   104.6689     9.3047     9.2726     9.2940
 1025.5000  -999.2500  -999.2500  -999.2500  -999.2500   -93.0865   -45.2500   103.3222     9.1578     8.9411     9.0134
 1026.0000  -999.2500  -999.2500  -999.2500  -999.2500   -93.1860   -45.2500   100.6945     8.9981     8.4720     8.6546
 1026.5000  -999.2500  -999.2500  -999.2500  -999.2500   -93.2865   -64.7500   100.4433     8.6472     8.2400     8.4100
 1027.0000  -999.2500  -999.2500  -999.2500  -999.2500   -93.3898   -55.0000   103.1025     8.4028     7.9037     8.2096
 1027.5000  -999.2500  -999.2500  -999.2500  -999.2500   -93.4895   -64.7500   104.3422     8.2796     7.7950     8.0962
 1028.0000  -999.2500  -999.2500  -999.2500  -999.2500   -93.5903   -64.7500   104.6506     8.1582     7.5816     8.1476
 1028.5000  -999.2500  -999.2500  -999.2500  -999.2500   -93.6998   -64.7500   104.0446     8.0962     7.4774     8.2688
 1029.0000  -999.2500  -999.2500  -999.2500  -999.2500   -93.7369   -45.2500   103.4393     8.1616     7.4779     8.3919
 1029.5000  -999.2500  -999.2500  -999.2500  -999.2500   -93.6830   -45.2500   102.8340     8.2096     7.4858     8.5595
 1030.0000  -999.2500  -999.2500  -999.2500  -999.2500   -93.6385   -64.7500   107.6503     8.3246     7.7043     8.6795
 1030.5000  -999.2500  -999.2500  -999.2500  -999.2500   -93.5929   -64.7500   108.2500     8.4413     7.8198     8.9244
 1031.0000  -999.2500  -999.2500  -999.2500  -999.2500   -93.5461   -55.0000   105.2348     8.4413     7.9368     9.1762
 1031.5000  -999.2500  -999.2500  -999.2500  -999.2500   -93.5000   -45.2500    99.8102     8.5595     8.0194     9.3047
 1032.0000  -999.2500  -999.2500  -999.2500  -999.2500   -93.4539   -45.2500   102.9158     8.5595     8.0200     9.0494
 1032.5000  -999.2500  -999.2500  -999.2500  -999.2500   -93.4091   -25.7500   104.0213     8.6795     8.0205     8.9244
 1033.0000  -999.2500  -999.2500  -999.2500  -999.2500   -93.3586   -45.2500   102.5966     8.6795     7.9642     8.9244
 1033.5000  -999.2500  -999.2500  -999.2500  -999.2500   -93.3740   -45.2500   101.6054     8.6795     7.8478     9.0494
 1034.0000  -999.2500  -999.2500  -999.2500  -999.2500   -93.4273   -45.2500   101.7872     8.6563     7.6943     9.0494
 1034.5000  -999.2500  -999.2500  -999.2500  -999.2500   -93.4755   -45.2500   102.2023     8.5595     7.5885     9.0494
 1035.0000  -999.2500  -999.2500  -999.2500  -999.2500   -93.5228   -45.2500   101.3354     8.4043     7.5891     9.0494
 1035.5000  -999.2500  -999.2500  -999.2500  -999.2500   -93.5721   -45.2500    98.2900     8.2096     7.8037     9.0494
 1036.0000  -999.2500  -999.2500  -999.2500  -999.2500   -93.6196   -45.2500    95.5663     8.1597     7.6964     8.9944
 1036.5000  -999.2500  -999.2500  -999.2500  -999.2500   -93.6681   -45.2500    99.1772     8.0962     7.5906     8.8015
 1037.0000  -999.2500  -999.2500  -999.2500  -999.2500   -93.7184   -45.2500   103.9935     8.0962     7.3808     8.5595
 1037.5000  -999.2500  -999.2500  -999.2500  -999.2500   -93.7375   -45.2500   103.3882     8.0962     7.1807     8.8011
 1038.0000  -999.2500  -999.2500  -999.2500  -999.2500   -93.6922   -45.2500   101.5780     8.2096     7.1812     9.0494
 1038.5000  -999.2500  -999.2500  -999.2500  -999.2500   -93.6495   -45.2500   105.7920     8.2096     7.2028     9.0494
 1039.0000  -999.2500  -999.2500  -999.2500  -999.2500   -93.6051   -45.2500   107.5963     8.2096     7.2828     8.5595
 1039.5000  -999.2500  -999.2500  -999.2500  -999.2500   -93.5611   -45.2500   108.1958     8.0962     7.2833     8.2096
 1040.0000  -999.2500  -999.2500  -999.2500  -999.2500   -93.5173   -55.0000   108.1928     8.0962     7.2838     8.0962
 1040.5000  -999.2500  -999.2500  -999.2500  -999.2500   -93.4724   -64.7500   108.2681     8.0962     7.3864     8.0962
 1041.0000  -999.2500  -999.2500  -999.2500  -999.2500   -93.4304   -55.0000   110.5967     8.0962     7.3869     8.2228
 1041.5000  -999.2500  -999.2500  -999.2500  -999.2500   -93.3837   -45.2500   108.9075     8.0962     7.3875     8.5737
 1042.0000  -999.2500  -999.2500  -999.2500  -999.2500   -93.3399   -45.2500   105.7711     8.2096     7.4915     8.9469
 1042.5000  -999.2500  -999.2500  -999.2500  -999.2500   -93.2237   -45.2500   105.7681     8.2374     7.5970     9.0494
