~VERSION INFORMATION
 VERS.                2.0:   CWLS LOG ASCII STANDARD - VERSION 2.0
 WRAP.                 NO:   ONE LINE PER DEPTH STEP
~WELL INFORMATION
#MNEM.UNIT      DATA TYPE    INFORMATION
#----------   ------------   ------------------------------
 STRT.F           14.0000:   START DEPTH
 STOP.F         3246.0000:   STOP DEPTH
 STEP.F            0.5000:   STEP LENGTH
 NULL.          -999.2500:   NO VALUE
 COMP.   LAWRENCE ALLISON:   COMPANY
 WELL. LAWRENCE "34X" #11:   WELL
 FLD .             N.P.R.:   FIELD
 LOC .      S34 T38N R78W:   LOCATION
 CNTY.            NATRONA:   COUNTY
 STAT.            WYOMING:   STATE
 CTRY. UNITED STATES OF AMERICA:   COUNTRY
 SRVC.      DRESSER ATLAS:   SERVICE COMPANY
 DATE.        02-MAY-1985:   LOGDATE
 API .     49025110530001:   API NUMBER
~CURVE INFORMATION
#MNEM.UNIT       API CODE    CURVE DESCRIPTION
#----------   ------------   ------------------------------
 DEPT.F                  :   
 CNC .DEC    42 890 03 00:   NEUTRON POROSITY
 CALD.IN     45 280 60 00:   CALIPER FROM DENSITY LOG
 CORR.G/C3   45 356 01 00:   DENSITY CORRECTION
 RHOB.G/C3   45 350 01 00:   BULK DENSITY
 GRR .GAPI   07 310 01 00:   GAMMA RAY FROM RESISTIVITY
 SPR .MV     07 010 01 00:   SPONTANEOUS POTENTIAL FROM RES.
 TENR.LBS    06 635 01 00:   TENSION FROM RESISTIVITY
 RILD.OHMM   07 120 46 00:   DEEP INDUCTION RESISTIVITY
 RILM.OHMM   07 120 44 00:   INDUCTION LOG MEDIUM RESISTIVITY
 RFOC.OHMM   07 220 04 00:   RESISTIVITY FOCUSED LOG RES.
~PARAMETER INFORMATION
#MNEM.UNIT          VALUE    DESCRIPTION
#----------   ------------   ------------------------------
 EKB .F         5099.0000:   Kelly bushing
 TD  .F         3239.0000:   Total depth
 CLNT.            A2DTECH:   Client Code
 PD  .                 GL:   Permanent Datum
 EPD .F              5087:   Elevation Permanent Datum
 LMF .                 KB:   Log Measured From
 DMF .                 KB:   Drilling Measured From
 DAPD.F                12:   Feet Above Permanent Datum
 DATE.        02-MAY-1985:   Date Logged [DD-MMM-YYYY]
 DD  .F              3239:   Depth driller
 DL  .F              3242:   Depth logger
 BLI .F              3294:   Bottom log interval
 CS1 .IN            8.625:   Casing size
 CBD1.      8.625" @ 487':   Casing driller 1
 CBL1.F               487:   Casing logger 1
 BS1 .IN            7.875:   Bit size
 BSD1.F              3239:   Depth drilled with bit1
 DFT .            KCL GEL:   Type fluid in hole
 DFD .                9.1:   Density
 DFV .                 35:   Viscosity
 DFPH.                  8:   pH
 DFL .                9.8:   Fluid loss
 MSS .           FLOWLINE:   Source of sample
 RMS .OHMM           0.27:   Rm
 MST .F                68:   Rm Meas. temp.
 RMF .OHMM           0.20:   Rmf
 MFST.F                68:   Rmf Meas. temp.
 MFSS.               MEAS:   Source Rmf.
 RMC .OHMM           0.34:   Rmc
 MCST.F                68:   Rmc Meas. temp.
 MCSS.               CALC:   Source Rmc.
 RMB .OHMM           0.15:   Rm. at BHT
 BHT .F               126:   BHT.
 TCS .HRS               3:   Time Circ. stopped
 MRT .F               126:   Maximum recorded temp.
 LUN .               6274:   Logging unit number
 LUL .               GLTE:   Logging unit location
 ENGI.       MACK/EDWARDS:   Recorded By
 WITN.             STRONG:   Witnessed by
 ORIG.           5" PRINT:   Origin of data
 UWI .     49025110260000:   Unique Well ID
 DICO. A2D TECHNOLOGIES, INC.:   Digitizing Company
~OTHER INFORMATION
~A   DEPT      CNC       CALD       CORR       RHOB        GRR        SPR       TENR       RILD       RILM       RFOC   
# ...
 1019.0000  -999.2500  -999.2500  -999.2500  -999.2500    71.0046   -73.9357   -40.0451     8.5828     7.0901     7.4519
 1019.5000  -999.2500  -999.2500  -999.2500  -999.2500    72.8387   -73.7629   -41.5525     8.3609     7.0996     7.3098
 1020.0000  -999.2500  -999.2500  -999.2500  -999.2500    74.4405   -73.4404   -42.7584     8.1988     7.1090     7.2659
 1020.5000  -999.2500  -999.2500  -999.2500  -999.2500    74.9215   -73.4173   -43.9864     8.2090     7.1680     7.1747
 1021.0000  -999.2500  -999.2500  -999.2500  -999.2500    75.1859   -73.2445   -45.4717     8.1059     7.1776     7.1855
 1021.5000  -999.2500  -999.2500  -999.2500  -999.2500    74.9859   -73.3711   -46.6776     8.0041     7.1390     7.2441
 1022.0000  -999.2500  -999.2500  -999.2500  -999.2500    74.1294   -73.5150   -47.8835     7.8449     6.5510     7.2530
 1022.5000  -999.2500  -999.2500  -999.2500  -999.2500    72.5922   -73.7740   -49.0894     7.6993     6.2317     7.2637
 1023.0000  -999.2500  -999.2500  -999.2500  -999.2500    71.9507   -74.0445   -57.8596     7.6002     6.1542     7.1230
 1023.5000  -999.2500  -999.2500  -999.2500  -999.2500    75.1279   -74.1769   -51.4750     7.4037     6.1200     7.0336
 1024.0000  -999.2500  -999.2500  -999.2500  -999.2500    76.7331   -74.3035   -52.7231     7.2602     6.0859     6.9432
 1024.5000  -999.2500  -999.2500  -999.2500  -999.2500    71.8327   -74.2746   -54.2143     7.1195     6.0537     6.9057
 1025.0000  -999.2500  -999.2500  -999.2500  -999.2500    69.8471   -74.2515   -47.5545     6.9815     6.0621     6.8663
 1025.5000  -999.2500  -999.2500  -999.2500  -999.2500    70.1036   -74.2275   -41.1963     6.8869     6.0225     6.8272
 1026.0000  -999.2500  -999.2500  -999.2500  -999.2500    71.7054   -74.1995   -42.7036     6.8547     5.9554     6.7882
 1026.5000  -999.2500  -999.2500  -999.2500  -999.2500    74.4283   -74.1764   -43.9094     6.8157     5.9634     6.7050
 1027.0000  -999.2500  -999.2500  -999.2500  -999.2500    76.2900   -74.1533   -45.1155     6.7770     5.9713     6.6188
 1027.5000  -999.2500  -999.2500  -999.2500  -999.2500    76.7351   -73.9805   -46.3313     6.7870     5.9793     6.5811
 1028.0000  -999.2500  -999.2500  -999.2500  -999.2500    75.4221   -73.9574   -47.5273     6.7959     5.9458     6.5910
 1028.5000  -999.2500  -999.2500  -999.2500  -999.2500    75.4625   -73.9341   -41.1688     6.8044     5.8711     6.5989
 1029.0000  -999.2500  -999.2500  -999.2500  -999.2500    75.2625   -73.9054   -42.6761     6.8148     5.8394     6.6071
 1029.5000  -999.2500  -999.2500  -999.2500  -999.2500    74.8543   -73.7326   -43.8822     6.8232     5.8478     6.6612
 1030.0000  -999.2500  -999.2500  -999.2500  -999.2500    74.4384   -73.5598   -45.0880     6.8317     5.8570     6.6695
 1030.5000  -999.2500  -999.2500  -999.2500  -999.2500    75.8241   -73.6922   -46.2937     6.8401     5.8648     6.6778
 1031.0000  -999.2500  -999.2500  -999.2500  -999.2500    76.0806   -73.8188   -55.0680     6.8486     5.8726     6.6862
 1031.5000  -999.2500  -999.2500  -999.2500  -999.2500    75.8806   -73.9401   -56.2698     6.8570     5.8805     6.6949
 1032.0000  -999.2500  -999.2500  -999.2500  -999.2500    75.6887   -73.9162   -57.7772     6.9136     5.8884     6.7029
 1032.5000  -999.2500  -999.2500  -999.2500  -999.2500    76.4017   -74.1870   -51.4190     6.9240     5.8982     6.7112
 1033.0000  -999.2500  -999.2500  -999.2500  -999.2500    76.1854   -74.6130   -52.6247     6.9325     5.9061     6.7211
 1033.5000  -999.2500  -999.2500  -999.2500  -999.2500    75.5695   -75.0448   -53.8308     6.8931     5.9139     6.7279
 1034.0000  -999.2500  -999.2500  -999.2500  -999.2500    75.1534   -75.1714   -55.0365     6.9017     5.9218     6.7363
 1034.5000  -999.2500  -999.2500  -999.2500  -999.2500    75.6422   -75.4419   -56.2426     6.9583     5.9298     6.7454
 1035.0000  -999.2500  -999.2500  -999.2500  -999.2500    76.1230   -75.4188   -57.4886     6.9670     5.9377     6.7535
 1035.5000  -999.2500  -999.2500  -999.2500  -999.2500    75.9305   -75.0958   -58.9557     7.0262     5.9458     6.7616
 1036.0000  -999.2500  -999.2500  -999.2500  -999.2500    74.8423   -74.9177   -52.5975     7.0839     5.9555     6.8170
 1036.5000  -999.2500  -999.2500  -999.2500  -999.2500    73.9778   -74.7449   -53.8033     7.1917     5.9635     6.8270
 1037.0000  -999.2500  -999.2500  -999.2500  -999.2500    73.5616   -74.4224   -47.4450     7.2006     5.9715     6.8827
 1037.5000  -999.2500  -999.2500  -999.2500  -999.2500    74.2747   -74.2496   -48.6508     7.2095     5.9794     6.9389
 1038.0000  -999.2500  -999.2500  -999.2500  -999.2500    75.8765   -74.2265   -49.8569     7.2184     5.9874     6.9954
 1038.5000  -999.2500  -999.2500  -999.2500  -999.2500    75.0119   -74.2034   -51.0967     7.1774     5.9954     7.0039
 1039.0000  -999.2500  -999.2500  -999.2500  -999.2500    73.6829   -74.1796   -52.5700     7.1366     5.9578     6.8209
 1039.5000  -999.2500  -999.2500  -999.2500  -999.2500    73.2828   -74.1514   -61.3403     7.0960     5.8473     6.5847
 1040.0000  -999.2500  -999.2500  -999.2500  -999.2500    74.4443   -74.2837   -69.8088     7.0579     5.8167     6.2944
 1040.5000  -999.2500  -999.2500  -999.2500  -999.2500    76.0461   -74.2549   -41.0593     7.0666     5.7444     6.2566
 1041.0000  -999.2500  -999.2500  -999.2500  -999.2500    77.4237   -74.3872   -34.3992     7.0262     5.7105     6.3095
 1041.5000  -999.2500  -999.2500  -999.2500  -999.2500    77.9045   -74.5081   -35.9065     6.9865     5.7201     6.4496
 1042.0000  -999.2500  -999.2500  -999.2500  -999.2500    76.5326   -74.4850   -52.2692     6.9973     5.7675     6.5022
 1042.5000  -999.2500  -999.2500  -999.2500  -999.2500    70.3539   -74.6115   -61.3128     6.9562     5.7755     6.5100
 1043.0000  -999.2500  -999.2500  -999.2500  -999.2500    69.9297   -74.4330   -70.0829     6.9651     5.8250     6.5220
 1043.5000  -999.2500  -999.2500  -999.2500  -999.2500    72.6606   -74.1105   -78.8532     6.9740     5.8328     6.5730
 1044.0000  -999.2500  -999.2500  -999.2500  -999.2500    74.7109   -73.9377   -80.0590     6.9830     5.7984     6.5809
 1044.5000  -999.2500  -999.2500  -999.2500  -999.2500    76.9854   -73.7648   -66.1365     6.9437     5.8081     6.5888
 1045.0000  -999.2500  -999.2500  -999.2500  -999.2500    79.9553   -73.8922   -59.7779     6.9526     5.8562     6.5968
 1045.5000  -999.2500  -999.2500  -999.2500  -999.2500    82.6634   -74.1698   -61.0060     6.9630     5.8640     6.6047
 1046.0000  -999.2500  -999.2500  -999.2500  -999.2500    80.9020   -74.4440   -54.6255     6.9716     5.8722     6.6127
 1046.5000  -999.2500  -999.2500  -999.2500  -999.2500    77.1227   -74.4152   -56.1328     6.9802     5.9225     6.6208
 1047.0000  -999.2500  -999.2500  -999.2500  -999.2500    74.4644   -74.0927   -49.4730     6.9889     5.9716     6.5829
 1047.5000  -999.2500  -999.2500  -999.2500  -999.2500    74.0471   -73.7701   -50.9804     6.9975     6.0211     6.5928
 1048.0000  -999.2500  -999.2500  -999.2500  -999.2500    76.7802   -73.7470   -52.1864     7.0063     6.1132     6.5552
 1048.5000  -999.2500  -999.2500  -999.2500  -999.2500    79.2780   -74.0233   -53.3922     6.9685     6.1638     6.5624
 1049.0000  -999.2500  -999.2500  -999.2500  -999.2500    79.3103   -74.2996   -54.6141     6.8810     6.1721     6.5710
 1049.5000  -999.2500  -999.2500  -999.2500  -999.2500    79.5668   -74.4262   -56.1056     6.8895     6.1824     6.5122
 1050.0000  -999.2500  -999.2500  -999.2500  -999.2500    80.2718   -74.8464   -72.4400     6.8482     6.1906     6.4516
 1050.5000  -999.2500  -999.2500  -999.2500  -999.2500    80.3041   -74.8233   -81.2103     6.8093     6.1989     6.3724
 1051.0000  -999.2500  -999.2500  -999.2500  -999.2500    79.4395   -74.6505   -82.4161     6.7727     6.2072     6.3341
 1051.5000  -999.2500  -999.2500  -999.2500  -999.2500    78.3169   -74.1783   -83.6222     6.7286     6.2155     6.2980
 1052.0000  -999.2500  -999.2500  -999.2500  -999.2500    77.4943   -73.8558   -69.6993     6.5601     6.1807     6.3075
