~VERSION INFORMATION
 VERS.                2.0:   CWLS LOG ASCII STANDARD - VERSION 2.0
 WRAP.                 NO:   ONE LINE PER DEPTH STEP
~WELL INFORMATION
#MNEM.UNIT      DATA TYPE    INFORMATION
#----------   ------------   ------------------------------
 STRT.F          164.0000:   START DEPTH
 STOP.F         3223.5000:   STOP DEPTH
 STEP.F            0.5000:   STEP LENGTH
 NULL.          -999.2500:   NO VALUE
 COMP.    FENIX & SCISSON:   COMPANY
 WELL. FENIX & SCISSON "AX" #64-34:   WELL
 FLD . NAVAL PETROLEUM RESERVE #3:   FIELD
 LOC .      S34 T39N R78W:   LOCATION
 CNTY.            NATRONA:   COUNTY
 STAT.            WYOMING:   STATE
 CTRY. UNITED STATES OF AMERICA:   COUNTRY
 SRVC.       SCHLUMBERGER:   SERVICE COMPANY
 DATE.        30-DEC-1980:   LOGDATE
 API .     49025108660000:   API NUMBER
~CURVE INFORMATION
#MNEM.UNIT       API CODE    CURVE DESCRIPTION
#----------   ------------   ------------------------------
 DEPT.F                  :   
 GRD .GAPI   45 310 01 00:   GAMMA RAY FROM DENSITY LOG
 RHOB.G/C3   45 350 01 00:   BULK DENSITY
 CALD.IN     45 280 60 00:   CALIPER FROM DENSITY LOG
 CORR.G/C3   45 356 01 00:   DENSITY CORRECTION
 SPR .MV     07 010 01 00:   SPONTANEOUS POTENTIAL
 TENR.LBS    06 635 01 00:   TENSION FROM RESISTIVITY
 ILD .OHMM   07 120 46 00:   DEEP INDUCTION RESISTIVITY
 ILM .OHMM   07 120 44 00:   INDUCTION LOG MEDIUM RESISTIVITY
 SFL .OHMM   07 220 01 00:   SHALLOW FOCUSED LOG RESISTIVITY
~PARAMETER INFORMATION
#MNEM.UNIT          VALUE    DESCRIPTION
#----------   ------------   ------------------------------
 EKB .F         5088.0000:   Kelly bushing
 EGL .F         5078.0000:   Ground level
 TD  .F         3225.0000:   Total depth
 CLNT.            A2DTECH:   Client Code
 SL  . 3107' FSL & 3680' FWL:   Surface Location
 PD  .                 GL:   Permanent Datum
 EPD .F              5078:   Elevation Permanent Datum
 LMF .                 KB:   Log Measured From
 DMF .                 KB:   Drilling Measured From
 DAPD.F                10:   Feet Above Permanent Datum
 DATE.        30-DEC-1980:   Date Logged [DD-MMM-YYYY]
 DD  .F              3225:   Depth driller
 DL  .F              3225:   Depth logger
 BLI .F              3219:   Bottom log interval
 TLI .F               190:   Top log interval
 CS1 .IN            8.625:   Casing size
 CBD1.      8.625" @ 205':   Casing driller 1
 CBL1.F               190:   Casing logger 1
 BS1 .IN            7.875:   Bit size
 BSD1.F              3225:   Depth drilled with bit1
 DFT .              FRESH:   Type fluid in hole
 DFD .                  9:   Density
 DFV .                 46:   Viscosity
 MSS .           MUD TANK:   Source of sample
 RMS .OHMM           2.47:   Rm
 MST .F                57:   Rm Meas. temp.
 RMF .OHMM           1.45:   Rmf
 MFST.F                57:   Rmf Meas. temp.
 MFSS.               MEAS:   Source Rmf.
 RMB .OHMM            1.2:   Rm. at BHT
 BHT .F               124:   BHT.
 TCS .HRS            0400:   Time Circ. stopped
 MRT .F               124:   Maximum recorded temp.
 LUN .               8034:   Logging unit number
 LUL .               CSPR:   Logging unit location
 ENGI.             LARSON:   Recorded By
 WITN.              FIVAS:   Witnessed by
 ORIG.        2" 5" PRINT:   Origin of data
 UWI .     49025108660000:   Unique Well ID
 DICO. A2D TECHNOLOGIES, INC:   Digitizing Company
 TLAB.HRS            2030:   Time logger at bottom
~OTHER INFORMATION
~A   DEPT       GRD      RHOB       CALD       CORR        SPR       TENR        ILD        ILM        SFL   
# ...
 1186.0000    95.3966     2.5171     8.8691    -0.0003   -60.6316   950.4050     8.5959     8.7543     9.4183
 1186.5000    94.3184     2.5046     8.8669     0.0012   -60.6436   951.0260     8.5912     8.6872     9.4125
 1187.0000    94.6059     2.4985     8.8803     0.0027   -60.9455   951.6470     8.5863     8.6830     9.4067
 1187.5000    95.0452     2.4984     8.8786     0.0055   -61.2568   952.2681     8.6426     8.7417     9.3334
 1188.0000    99.6002     2.5023     8.8770     0.0097   -61.5666   952.8891     8.7003     8.7364     9.3274
 1188.5000   101.8417     2.5077     8.8751     0.0137   -61.8760   953.5137     8.6955     8.7965     9.2535
 1189.0000   100.4561     2.5146     8.8885     0.0170   -62.1855   953.8772     8.7536     8.7912     9.2478
 1189.5000    98.9226     2.5243     8.8864     0.0214   -62.4952   953.8799     8.7487     8.7870     9.3104
 1190.0000    96.4787     2.5417     8.8848     0.0381   -62.8151   953.8784     8.8071     8.7827     9.3706
 1190.5000    94.1866     2.5611     8.8829     0.0503   -62.8842   953.8784     8.7379     8.7775     9.5006
 1191.0000    93.0845     2.5579     8.8812     0.0464   -62.8859   953.8784     8.6705     8.7102     9.3575
 1191.5000    92.0262     2.5463     8.8792     0.0372   -62.8778   953.8784     8.5418     8.6434     9.2845
 1192.0000    92.9206     2.5319     8.8776     0.0182   -62.5096   953.8784     8.5370     8.5772     9.2122
 1192.5000    93.2121     2.5005     8.8755     0.0112   -61.5669   953.8784     8.5313     8.5731     9.1404
 1193.0000    92.4334     2.5059     8.8739     0.0104   -60.8667   953.8784     8.5894     8.6935     9.1345
 1193.5000    92.1082     2.5159     8.8718     0.0224   -60.4713   953.8784     8.6467     8.8155     9.1946
 1194.0000    92.3975     2.5360     8.8853     0.0392   -60.0740   953.8784     8.7033     8.8102     9.1880
 1194.5000    97.5408     2.5686     8.8836     0.0487   -59.6831   953.8784     8.7613     8.8060     9.3157
 1195.0000   100.7115     2.5856     8.8815     0.0529   -59.4023   953.8784     8.8198     8.8655     9.4451
 1195.5000   100.5437     2.5786     8.8953     0.0533   -59.4073   953.8784     8.7505     8.7965     9.5075
 1196.0000    98.8586     2.5568     8.9031     0.0520   -59.4068   953.8784     8.7457     8.7291     9.3643
 1196.5000    95.4310     2.5514     8.9217     0.0509   -59.4048   953.8784     8.6782     8.6622     9.2246
 1197.0000    92.1458     2.5475     8.9198     0.0493   -59.6362   953.8784     8.6111     8.5340     9.2189
 1197.5000    90.1571     2.5403     8.9238     0.0480   -60.0246   953.8784     8.4823     8.5299     9.2132
 1198.0000    89.6899     2.5257     8.9337     0.0416   -60.4111   953.8784     8.6018     8.6497     9.2741
 1198.5000    91.1874     2.5303     8.9448     0.0336   -60.5142   953.8784     8.7218     8.7711     9.4695
 1199.0000    92.8406     2.5411     8.9429     0.0277   -60.2335   953.8784     8.9705     8.9576     9.6010
 1199.5000    92.0415     2.5411     8.9411     0.0240   -59.9635   953.8784     9.1700     9.1502     9.7344
 1200.0000    91.5947     2.5403     8.9394     0.0281   -60.1349   953.8784     9.3563     9.4124     9.8634
 1200.5000    93.5474     2.5504     8.9372     0.0984   -60.7869   953.8784     9.2175     9.6126    10.0079
 1201.0000    96.1110     2.5596     8.9358     0.0881   -61.4360   953.8784     9.3461     9.3925    10.0029
 1201.5000    95.7044     2.5518     8.9336     0.0781   -62.0818   953.8784     9.2040     9.2608    10.1433
 1202.0000    93.6421     2.5200     8.9321     0.0746   -62.4275   953.8784     9.1339     9.1232     9.9204
 1202.5000    90.2862     2.5076     8.9303     0.0677   -62.1390   953.8784     9.1290     9.1182     9.7036
 1203.0000    89.6661     2.5161     8.9285     0.0578   -61.8612   953.8784     9.1240     9.1132     9.6293
 1203.5000    90.8583     2.5339     8.9267     0.0537   -61.5823   953.8784     9.1850     9.2406     9.5545
 1204.0000    92.0547     2.5303     8.9246     0.0515   -61.3041   953.8784     9.3118     9.3697     9.5499
 1204.5000    92.0329     2.5106     8.9229     0.0601   -61.0265   953.8784     9.3068     9.3633     9.6851
 1205.0000    91.2567     2.5152     8.9212     0.0835   -60.7445   953.8784     9.3702     9.3582     9.8198
 1205.5000    90.9358     2.5717     8.9345     0.1280   -60.5328   953.8784     9.3638     9.2847     9.9576
 1206.0000    91.8288     2.5787     8.9196     0.1507   -60.2649   953.8784     9.2914     9.2129    10.0248
 1206.5000    91.5078     2.6073     8.9483     0.1473   -60.0046   953.8784     9.2186     9.1417    10.0188
 1207.0000    90.4137     2.6057     8.9615     0.1415   -59.8672   953.8784     9.0819     9.1367     9.9421
 1207.5000    89.3441     2.5902     9.0394     0.1327   -60.1074   953.8784     9.0769     8.9998     9.9374
 1208.0000    89.4784     2.5359     9.2761     0.1233   -60.3349   953.8784     9.0068     8.9302     9.8601
 1208.5000    89.7687     2.4692     9.4563     0.0987   -60.5623   953.8784     9.0008     8.9253     9.7847
 1209.0000    90.0548     2.3118     9.8335     0.0842   -60.7896   953.8784     8.9959     8.9205     9.7800
 1209.5000    88.5155     2.2265    10.4986     0.0946   -61.0178   953.8784     8.9910     8.9801     9.7051
 1210.0000    87.5875     2.2916    10.9061     0.1674   -61.2482   953.8784     8.9861     9.0402     9.7706
 1210.5000    89.8419     2.4784    10.7677  -999.2500   -61.4333   953.8784     9.0461     9.1007     9.8354
 1211.0000    90.1323     2.5327    10.5540  -999.2500   -61.0744   953.8784     9.1065     9.2266     9.9734
 1211.5000    89.3517     2.5163    10.2948  -999.2500   -60.7182   953.8784     9.1661     9.3578    10.0420
 1212.0000    89.0351     2.4721    10.5053  -999.2500   -60.4295   953.8784     9.2940     9.6229    10.1817
 1212.5000    89.9241     2.3307    10.7475  -999.2500   -60.8096   953.8784     9.7679     9.8991    10.1756
 1213.0000    91.1592     2.2193    10.6506  -999.2500   -61.2068   953.8784    10.2673    10.1833    10.3196
 1213.5000    92.1650     2.1868    10.5305  -999.2500   -61.6027   953.8784    10.4872    10.5515    10.5389
 1214.0000    90.9292     2.1557    10.6046  -999.2500   -61.9905   954.8374    10.7864    11.0106    10.7640
 1214.5000    89.8495     2.1844    10.6792  -999.2500   -62.2139   956.0258    11.0238    11.3267    11.0847
 1215.0000    89.2251     2.2580    10.6772  -999.2500   -61.9954   957.2142    11.4120    11.6519    12.3304
 1215.5000    88.6006     2.3231    10.6602  -999.2500   -61.7861   958.4026    11.7391    11.9866    13.8308
 1216.0000    87.1521     2.3184    10.5979  -999.2500   -61.5755   959.5909    12.1629    12.1655    14.8572
 1216.5000    85.2273     2.2742    10.4906  -999.2500   -61.3654   960.7793    12.4247    12.5012    14.8501
 1217.0000    86.8747     2.2206    10.6098  -999.2500   -61.1553   961.9677    12.6844    12.6777    14.8271
 1217.5000    88.8299     2.2205    10.6692  -999.2500   -60.9415   963.1560    12.7709    12.8531    14.7276
 1218.0000    91.5438     2.2333    10.6369  -999.2500   -60.6575   964.3444    12.7622    12.8460    14.7206
 1218.5000    92.8921     2.2903    10.6353  -999.2500   -60.2913   965.5328    12.7552    12.8386    14.5030
 1219.0000    92.5320     2.3322    10.6334  -999.2500   -59.9262   966.7211    12.7465    12.8303    14.4946
 1219.5000    90.4249     2.3670    10.6621  -999.2500   -59.5582   967.9095    12.7396    12.8233    14.2801
 1220.0000    89.3452     2.3724    10.7817     0.2421   -59.2129   969.0978    12.7327    12.8164    14.0690
 1220.5000    89.1803     2.3119    10.9468     0.2236   -59.2627   970.2862    12.6344    12.7156    13.6627
 1221.0000    90.6759     2.2606    10.9603     0.2026   -59.3269   971.4745    12.6273    12.7087    13.3641
 1221.5000    92.3277     2.2638    10.8068     0.1786   -59.3892   972.6630    12.5295    12.6104    13.0658
 1222.0000    91.9838     2.2816    10.5628     0.1640   -59.4510   973.8513    12.4318    12.5130    12.8772
