~VERSION INFORMATION
 VERS.                2.0:   CWLS LOG ASCII STANDARD - VERSION 2.0
 WRAP.                 NO:   ONE LINE PER DEPTH STEP
~WELL INFORMATION
#MNEM.UNIT      DATA TYPE    INFORMATION
#----------   ------------   ------------------------------
 STRT.F          906.0000:   START DEPTH
 STOP.F         3426.0000:   STOP DEPTH
 STEP.F            0.5000:   STEP LENGTH
 NULL.          -999.2500:   NO VALUE
 COMP.    FENIX & SCISSON:   COMPANY
 WELL. FENIX NPR 3 "AX" #46-11:   WELL
 FLD .                NPR:   FIELD
 LOC .      S11 T38N R78W:   LOCATION
 CNTY.            NATRONA:   COUNTY
 STAT.            WYOMING:   STATE
 CTRY. UNITED STATES OF AMERICA:   COUNTRY
 SRVC.       SCHLUMBERGER:   SERVICE COMPANY
 DATE.        16-MAY-1981:   LOGDATE
 API .     49025108720000:   API NUMBER
~CURVE INFORMATION
#MNEM.UNIT       API CODE    CURVE DESCRIPTION
#----------   ------------   ------------------------------
 DEPT.F                  :   
 SPR .MV     07 010 01 00:   SPONTANEOUS POTENTIAL
 ILD .OHMM   07 120 46 00:   INDUCTION LOG DEEP RESISTIVITY
 SFL .OHMM   07 220 01 00:   SHALLOW FOCUSED LOG RESISTIVITY
 TENR.LBS    07 635 01 00:   TENSION
 ILM .OHMM   07 120 44 00:   INDUCTION LOG MEDIUM RESISTIVITY
 CALD.IN     45 280 60 00:   CALIPER FROM DENSITY LOG
 GRD .GAPI   45 310 01 00:   GAMMA RAY FROM DENSITY LOG
 RHOB.G/C3   45 350 01 00:   BULK DENSITY
 TEND.LBS    45 635 01 00:   TENSION FROM DENSITY LOG
 CORR.G/C3   45 356 01 00:   DENSITY CORRECTION
~PARAMETER INFORMATION
#MNEM.UNIT          VALUE    DESCRIPTION
#----------   ------------   ------------------------------
 EKB .F         5199.0000:   Kelly bushing
 EGL .F         5189.0000:   Ground level
 EDF .F            0.0000:   Drilling floor
 TD  .F         3422.0000:   Total depth
 DATE.        16-MAY-1981:   Date logged
 CLNT.            A2DTECH:   Client Code
 SL  . 1867' FSL & 2100' FWL:   Surface Location
 PD  .                 GL:   Permanent Datum
 EPD .F              5189:   Elevation Permanent Datum
 LMF .                 KB:   Log Measured From
 DMF .                 KB:   Drilling Measured From
 DAPD.F                10:   Feet Above Permanent Datum
 DD  .F              3421:   Depth driller
 DL  .F              3422:   Depth logger
 BLI .F              3416:   Bottom log interval
 TLI .F               926:   Top log interval
 CS1 .IN            8.625:   Casing size
 CBD1.      8.625" @ 925':   Casing driller 1
 CBL1.F               926:   Casing logger 1
 BS1 .IN            7.875:   Bit size
 BSD1.F              3421:   Depth drilled with bit1
 DFT .                FGM:   Type fluid in hole
 DFD .                8.5:   Density
 DFV .                 60:   Viscosity
 DFPH.                  9:   pH
 DFL .                 12:   Fluid loss
 MSS .               PITS:   Source of sample
 RMS .OHMM           1.17:   Rm
 MST .F                73:   Rm Meas. temp.
 RMF .OHMM           1.03:   Rmf
 MFST.F                73:   Rmf Meas. temp.
 MFSS.               MEAS:   Source Rmf.
 RMB .OHMM            .71:   Rm. at BHT
 BHT .F               120:   BHT.
 TCS .HRS            1200:   Time Circ. stopped
 TLAB.HRS            1745:   Time logger at bottom
 MRT .F               120:   Maximum recorded temp.
 LUN .               8133:   Logging unit number
 LUL .               CSPR:   Logging unit location
 ENGI.             TAYLOR:   Recorded By
 WITN.              RIVAS:   Witnessed by
 ORIG.           5" PRINT:   Origin of data
 UWI .     49025108720000:   Unique Well ID
 DICO. A2D TECHNOLOGIES, INC.:   Digitizing Company
~OTHER INFORMATION
~A   DEPT      SPR        ILD        SFL       TENR        ILM       CALD         GRD        RHOB     TEND        CORR  
# ...
 1408.5000   -43.6770     6.4640     7.4330   745.5270     6.1100     8.3490   126.5850     2.5230   712.5370     0.0080
 1409.0000   -43.6720     6.5160     7.4960   745.5270     6.1600     8.3490   129.4790     2.5110   712.4630     0.0030
 1409.5000   -43.6830     6.5670     7.5780   745.5270     6.2090     8.3490   130.7680     2.5030   712.3880    -0.0020
 1410.0000   -43.6690     6.6190     7.4650   745.5270     6.2590     8.3490   129.6290     2.5090   712.3140     0.0010
 1410.5000   -43.6730     6.6710     7.3020   745.5270     6.3090     8.3490   126.3350     2.5220   712.2400     0.0060
 1411.0000   -43.7550     6.7230     7.1390   745.5270     6.3590     8.3490   123.0650     2.5320   712.1660     0.0110
 1411.5000   -44.1110     6.7750     6.9150   745.5270     6.4090     8.3490   121.9760     2.5270   712.0920     0.0090
 1412.0000   -44.0530     6.8260     7.3430   745.5270     6.4590     8.3490   120.9700     2.5220   712.0170     0.0040
 1412.5000   -44.0770     6.8780     8.0270   745.5270     6.5090     8.3490   117.8810     2.5250   711.9430     0.0020
 1413.0000   -44.0710     6.9300     8.7110   745.5270     6.5590     8.3490   113.1680     2.5370   711.8690     0.0040
 1413.5000   -44.0690     6.9820     9.3950   745.5270     6.6090     8.3590   110.3190     2.5480   711.7950     0.0180
 1414.0000   -44.0720     7.0340     9.9730   745.5270     6.6590     8.3900   112.8930     2.5560   711.7210     0.0320
 1414.5000   -44.0700     7.0850     9.4280   745.5270     6.7090     8.4200   114.9680     2.5520   711.6460     0.0350
 1415.0000   -44.0710     7.1370     8.6990   745.5270     6.7590     8.4500   116.6870     2.5490   711.5720     0.0360
 1415.5000   -44.0710     7.1840     7.9700   745.5270     6.8090     8.4700   116.8910     2.5450   711.4980     0.0370
 1416.0000   -44.0710     7.2200     7.3060   745.5270     6.8590     8.4700   115.6520     2.5450   711.4240     0.0380
 1416.5000   -44.0720     7.2570     7.6880   745.5270     6.9150     8.4700   114.3310     2.5450   711.3500     0.0350
 1417.0000   -44.0600     7.2930     8.0390   745.5270     6.9450     8.4700   113.6400     2.5390   711.2750     0.0320
 1417.5000   -44.0320     7.3530     8.3050   745.5270     6.9800     8.4700   115.6510     2.5270   711.2010     0.0260
 1418.0000   -44.0060     7.4250     8.3050   745.5270     7.0150     8.4700   118.1850     2.5190   711.1270     0.0190
 1418.5000   -43.9790     7.4970     8.3050   745.5270     7.0650     8.4700   120.5870     2.5220   711.0530     0.0230
 1419.0000   -43.9520     7.5690     8.3050   745.5270     7.1710     8.4700   117.5350     2.5250   710.9790     0.0300
 1419.5000   -43.9260     7.6420     8.5190   745.5270     7.2770     8.4700   114.2250     2.5290   710.9040     0.0360
 1420.0000   -43.8990     7.7140     8.7340   745.5270     7.3830     8.4670   111.5790     2.5330   710.8300     0.0370
 1420.5000   -43.8720     7.7860     8.9500   745.5270     7.4890     8.4480   112.7020     2.5370   710.7560     0.0360
 1421.0000   -43.8460     7.8590     9.1660   745.5270     7.5950     8.4300   112.3100     2.5350   710.6820     0.0360
 1421.5000   -43.8190     7.9310     9.3650   745.5270     7.7010     8.4110   111.2990     2.5300   710.6080     0.0350
 1422.0000   -43.7920     8.0030     9.5490   745.5270     7.8070     8.3930   111.8580     2.5240   710.5330     0.0300
 1422.5000   -43.7660     8.0750     9.7920   745.5270     7.8720     8.3890   115.0930     2.5180   710.4590     0.0260
 1423.0000   -43.7390     8.1480     9.5980   745.5270     7.8960     8.3890   115.7790     2.5160   710.3850     0.0220
 1423.5000   -43.7120     8.2200     9.4400   745.5270     7.9200     8.4050   113.0310     2.5140   710.3110     0.0180
 1424.0000   -43.6860     8.3050     9.6510   745.5270     7.9440     8.4300   109.7120     2.5120   710.2370     0.0180
 1424.5000   -43.6590     8.3110     9.9730   745.5270     7.9680     8.4290   108.0630     2.5090   710.1620     0.0180
 1425.0000   -43.6330     8.3270     9.7070   745.5270     7.9910     8.4290   111.6770     2.5040   710.0880     0.0160
 1425.5000   -43.6060     8.3430     9.4400   745.5270     8.0060     8.4290   114.5790     2.5030   710.0140     0.0110
 1426.0000   -43.5790     8.3580     9.7880   745.5270     8.0060     8.4290   115.6900     2.5130   709.9400     0.0080
 1426.5000   -43.5530     8.3740    10.1580   745.5270     8.0060     8.4290   115.6540     2.5220   709.8660     0.0200
 1427.0000   -43.5260     8.3900     9.7420   745.5270     8.0060     8.4290   117.3460     2.5310   709.7910     0.0320
 1427.5000   -43.4990     8.4060     9.2690   745.5270     8.0060     8.4290   119.3130     2.5260   709.7170     0.0420
 1428.0000   -43.4730     8.4210     9.1740   745.5270     8.0060     8.4290   120.5460     2.5150   709.6430     0.0430
 1428.5000   -43.4460     8.4370     9.1010   745.5270     8.0080     8.4290   116.4800     2.5050   709.5690     0.0320
 1429.0000   -43.4200     8.4530     9.1010   745.5270     8.0040     8.4290   111.6830     2.4940   709.4950     0.0240
 1429.5000   -43.3930     8.5100     9.4500   745.5270     8.0080     8.4290   106.8150     2.4950   709.4200     0.0220
 1430.0000   -43.3670     8.7090     9.7750   745.5270     7.9980     8.4290   105.5880     2.5010   709.3460     0.0290
 1430.5000   -43.3390     8.9080    10.1580   745.5270     8.1970     8.4290   106.4380     2.5070   709.2720     0.0360
 1431.0000   -43.3140     9.1070    10.0650   745.5270     8.3800     8.4290   107.3140     2.5100   709.1980     0.0340
 1431.5000   -43.2880     9.3060     9.9730   745.5270     8.5630     8.4290   107.8140     2.5010   709.1240     0.0250
 1432.0000   -43.3150     9.5050    10.5130   745.5270     8.7460     8.4300   108.1010     2.4920   709.0490     0.0120
 1432.5000   -43.3610     9.7040    11.1970   745.5270     8.9290     8.4290   108.3830     2.4840   708.9750    -0.0020
 1433.0000   -43.4060     9.9040    11.8820   745.5270     9.1120     8.4180   108.6630     2.4860   708.9010     0.0050
 1433.5000   -43.4510    10.1030    12.1990   745.5270     9.2950     8.4060   108.9750     2.4920   708.8270     0.0110
 1434.0000   -43.4960    10.2630    11.8360   745.5270     9.4780     8.3940   107.2690     2.4980   708.7530     0.0170
 1434.5000   -43.5400    10.4090    11.5470   745.5270     9.6610     8.3830   104.5240     2.5050   708.6780     0.0170
 1435.0000   -43.5850    10.5550    11.5470   745.5270     9.8320     8.3710   102.2540     2.5110   708.6040     0.0160
 1435.5000   -43.6300    10.7010    11.5470   745.5270     9.9730     8.3600   102.7420     2.5120   708.5300     0.0150
 1436.0000   -43.6750    10.8470    11.8650   745.5270    10.1140     8.3480   104.0440     2.5060   708.4560     0.0130
 1436.5000   -43.7200    10.9930    12.1640   745.5270    10.2550     8.3360   105.9520     2.4980   708.3820     0.0120
 1437.0000   -43.7650    11.1390    12.4620   745.5270    10.3960     8.3250   107.8630     2.4910   708.3070     0.0090
 1437.5000   -43.8100    11.2850    12.7610   745.5270    10.5360     8.3130   109.6000     2.4830   708.2330     0.0050
 1438.0000   -43.8550    11.4310    13.0600   745.5270    10.6770     8.3010   109.0290     2.4830   708.1590     0.0010
 1438.5000   -43.8990    11.5770    13.3680   745.5270    10.8180     8.2880   108.4850     2.4860   708.0850    -0.0030
 1439.0000   -43.9440    11.7410    13.2640   745.5270    10.9590     8.3090   109.1220     2.4910   708.0110    -0.0010
 1439.5000   -43.9890    11.7040    13.1570   745.5270    11.0990     8.3100   109.7430     2.5010   707.9360     0.0050
 1440.0000   -44.0340    11.6280    13.0490   745.5270    11.2400     8.3120   108.8530     2.5110   707.8620     0.0110
 1440.5000   -44.0790    11.5520    12.9420   745.5270    11.3590     8.3140   107.6270     2.5110   712.0340     0.0130
 1441.0000   -44.1240    11.4770    12.8880   745.5270    11.4310     8.3150   106.3960     2.5070   719.2480     0.0090
 1441.5000   -44.1690    11.4010    12.9610   745.5270    11.5030     8.3170   104.1350     2.5030   726.4630     0.0050
