~VERSION INFORMATION
 VERS.                2.0:   CWLS LOG ASCII STANDARD - VERSION 2.0
 WRAP.                 NO:   ONE LINE PER DEPTH STEP
~WELL INFORMATION
#MNEM.UNIT      DATA TYPE    INFORMATION
#----------   ------------   ------------------------------
 STRT.F           40.0000:   START DEPTH
 STOP.F         3032.5000:   STOP DEPTH
 STEP.F            0.5000:   STEP LENGTH
 NULL.          -999.2500:   NO VALUE
 COMP.   TESORO PETROLEUM:   COMPANY
 WELL. TESORO NPR 3 "AX" #51-15:   WELL
 FLD .        TEAPOT DOME:   FIELD
 LOC .      S15 T38N R78W:   LOCATION
 CNTY.            NATRONA:   COUNTY
 STAT.            WYOMING:   STATE
 CTRY. UNITED STATES OF AMERICA:   COUNTRY
 SRVC.       SCHLUMBERGER:   SERVICE COMPANY
 DATE.        21-JUL-1969:   LOGDATE
 API .     49025100240000:   API NUMBER
~CURVE INFORMATION
#MNEM.UNIT       API CODE    CURVE DESCRIPTION
#----------   ------------   ------------------------------
 DEPT.F                  :   
 CALD.IN     45 280 60 00:   CALIPER FROM DENSITY LOG
 GRD .GAPI   45 310 01 00:   GAMMA RAY FROM DENSITY LOG
 RHOB.G/C3   45 350 01 00:   BULK DENSITY
 CORR.G/C3   45 356 01 00:   DENSITY CORRECTION
 GR  .GAPI   35 310 01 00:   GAMMA RAY FROM GAMMA RAY LOG
 SPR .MV     05 010 01 00:   SPONTANEOUS POTENTIAL
 ASN .OHMM   05 041 16 00:   AMPLIFIED SHORT NORMAL 16"
 ILD .OHMM   05 120 46 00:   DEEP INDUCTION RESISTIVITY
~PARAMETER INFORMATION
#MNEM.UNIT          VALUE    DESCRIPTION
#----------   ------------   ------------------------------
 EKB .F         5235.0000:   Kelly bushing
 EGL .F         5222.0000:   Ground level
 EDF .F            0.0000:   Drilling floor
 TD  .F         3027.0000:   Total depth
 DATE.        21-JUL-1969:   Date logged
 CLNT.            A2DTECH:   Client Code
 SL  . 2000' FEL & 660' FNL:   Surface Location
 PD  .                 GL:   Permanent Datum
 EPD .F              5222:   Elevation Permanent Datum
 LMF .                 KB:   Log Measured From
 DMF .                 KB:   Drilling Measured From
 DAPD.F                13:   Feet Above Permanent Datum
 DD  .F              3027:   Depth driller
 DL  .F              3025:   Depth logger
 BLI .F              3024:   Bottom log interval
 TLI .F              2604:   Top log interval
 CS1 .IN            10.75:   Casing size
 CBD1.      10.75" @ 622':   Casing driller 1
 BS1 .IN                9:   Bit size
 BSD1.F              3027:   Depth drilled with bit1
 DFT .          FRESH/GEL:   Type fluid in hole
 DFD .                9.7:   Density
 DFV .                 65:   Viscosity
 DFPH.                9.5:   pH
 DFL .                  7:   Fluid loss
 MSS .           FLOWLINE:   Source of sample
 RMS .OHMM           2.48:   Rm
 MST .F                80:   Rm Meas. temp.
 RMF .OHMM           2.80:   Rmf
 MFST.F                80:   Rmf Meas. temp.
 MFSS.               MEAS:   Source Rmf.
 RMB .OHMM           2.20:   Rm. at BHT
 BHT .F               106:   BHT.
 TCS .HRS               1:   Time Circ. stopped
 MRT .F               106:   Maximum recorded temp.
 LUN .               4507:   Logging unit number
 LUL .               CSPR:   Logging unit location
 ENGI.           CHAMPLIN:   Recorded By
 WITN.                MAY:   Witnessed by
 ORIG.           5" PRINT:   Origin of data
 UWI .     49025100240000:   Unique Well ID
 DICO. A2D TECHNOLOGIES, INC.:   Digitizing Company
~OTHER INFORMATION
~A   DEPT     CALD        GRD       RHOB       CORR         GR        SPR        ASN          ILD 
# ...
 1943.5000     9.3240   115.3210     2.5320     0.0230  -999.2500   -26.9670    11.3820     8.9940
 1944.0000     9.3060   118.8120     2.5170     0.0430  -999.2500   -26.9710    11.4530     9.0670
 1944.5000     9.2910   120.7570     2.5050     0.0390  -999.2500   -26.9690    11.5190     9.1350
 1945.0000     9.2760   118.3420     2.5070     0.0270  -999.2500   -26.9690    11.5880     9.2060
 1945.5000     9.2610   117.5450     2.5180     0.0150  -999.2500   -26.9680    11.5460     9.1460
 1946.0000     9.2450   119.7780     2.5280     0.0100  -999.2500   -26.9670    11.4600     9.0340
 1946.5000     9.2300   121.3290     2.5220     0.0130  -999.2500   -26.9690    11.3780     8.9270
 1947.0000     9.2150   122.3400     2.5230     0.0150  -999.2500   -26.9610    11.2950     8.8190
 1947.5000     9.1990   123.3080     2.5270     0.0180  -999.2500   -26.9820    11.2120     8.7110
 1948.0000     9.1920   123.2910     2.5240     0.0250  -999.2500   -26.8270    11.1300     8.6030
 1948.5000     9.1940   119.3640     2.5060     0.0320  -999.2500   -26.5430    11.0460     8.4960
 1949.0000     9.1950   118.1090     2.5100     0.0330  -999.2500   -26.2890    11.0130     8.3880
 1949.5000     9.1960   120.1760     2.5180     0.0310  -999.2500   -26.0180    11.1010     8.2770
 1950.0000     9.1980   115.4870     2.4980     0.0290  -999.2500   -25.7720    11.2130     8.2450
 1950.5000     9.1990   105.3990     2.4690     0.0280  -999.2500   -25.4730    11.3240     8.3900
 1951.0000     9.2000   101.7120     2.4870     0.0070  -999.2500   -25.5980    11.4350     8.5090
 1951.5000     9.2010   103.9220     2.5120    -0.0130  -999.2500   -26.0250    11.5470     8.6380
 1952.0000     9.2020   108.1330     2.5410    -0.0070  -999.2500   -26.3970    11.6580     8.7610
 1952.5000     9.2030   112.7160     2.5370     0.0020  -999.2500   -26.7730    11.7690     8.8870
 1953.0000     9.2050   113.2530     2.5160     0.0100  -999.2500   -27.1800    11.8800     9.0120
 1953.5000     9.2060   111.1290     2.5240     0.0200  -999.2500   -27.3770    11.9910     9.1370
 1954.0000     9.2070   111.8200     2.5280     0.0280  -999.2500   -27.3530    12.1030     9.2620
 1954.5000     9.2080   118.8240     2.5090     0.0370  -999.2500   -27.3630    12.2130     9.3880
 1955.0000     9.2090   120.9270     2.5050     0.0470  -999.2500   -27.3580    12.3260     9.5140
 1955.5000     9.2100   123.2070     2.5100     0.0460  -999.2500   -27.3590    12.4330     9.6180
 1956.0000     9.2120   123.0600     2.5090     0.0320  -999.2500   -27.2720    12.5560     9.6080
 1956.5000     9.2130   120.0200     2.5100     0.0170  -999.2500   -27.1440    12.5530     9.5710
 1957.0000     9.2140   118.7750     2.5090     0.0080  -999.2500   -27.0210    12.4400     9.5320
 1957.5000     9.2150   120.1750     2.5070     0.0090  -999.2500   -26.8970    12.3440     9.4940
 1958.0000     9.2160   117.8340     2.5270     0.0100  -999.2500   -26.7720    12.2420     9.4550
 1958.5000     9.2170   118.6630     2.5260     0.0120  -999.2500   -26.6480    12.1430     9.4180
 1959.0000     9.2180   120.4300     2.5240     0.0140  -999.2500   -26.5230    12.0420     9.3780
 1959.5000     9.2200   121.5400     2.5300     0.0160  -999.2500   -26.3980    12.0030     9.3420
 1960.0000     9.2210   119.2460     2.5290     0.0200  -999.2500   -26.2770    12.0530     9.3000
 1960.5000     9.2220   116.6870     2.5130     0.0240  -999.2500   -26.1180    12.1110     9.2640
 1961.0000     9.2230   116.4460     2.5140     0.0270  -999.2500   -25.8700    12.1690     9.2410
 1961.5000     9.2240   118.3010     2.5210     0.0250  -999.2500   -25.6210    12.2260     9.4070
 1962.0000     9.2250   120.2740     2.5140     0.0200  -999.2500   -25.3790    12.2840     9.5700
 1962.5000     9.2270   121.8520     2.5050     0.0180  -999.2500   -25.1100    12.3410     9.7370
 1963.0000     9.2280   121.8620     2.5100     0.0160  -999.2500   -25.0420    12.3990     9.9170
 1963.5000     9.2290   118.8540     2.5230     0.0130  -999.2500   -25.1740    12.4580    10.0250
 1964.0000     9.2300   117.3440     2.5360     0.0110  -999.2500   -25.2760    12.5120     9.9330
 1964.5000     9.2310   116.2280     2.5410     0.0110  -999.2500   -25.3890    12.5790     9.8500
 1965.0000     9.2320   113.2870     2.5270     0.0120  -999.2500   -25.5000    12.5530     9.7590
 1965.5000     9.2320   109.2330     2.5120     0.0170  -999.2500   -25.6050    12.4470     9.6720
 1966.0000     9.2310   109.7440     2.5190     0.0230  -999.2500   -25.7300    12.3550     9.5840
 1966.5000     9.2300   112.3150     2.5240     0.0270  -999.2500   -25.7490    12.2590     9.4940
 1967.0000     9.2290   113.2440     2.5090     0.0240  -999.2500   -25.6200    12.1640     9.4250
 1967.5000     9.2280   113.4380     2.5180     0.0110  -999.2500   -25.5080    12.0690     9.4030
 1968.0000     9.2270   115.1210     2.5230     0.0100  -999.2500   -25.3940    11.9740     9.3840
 1968.5000     9.2260   115.9190     2.5080     0.0090  -999.2500   -25.2630    11.8740     9.3650
 1969.0000     9.2250   114.5780     2.5000     0.0110  -999.2500   -25.1770    11.8260     9.3460
 1969.5000     9.2240   110.0420     2.5070     0.0120  -999.2500   -25.0030    11.8980     9.3280
 1970.0000     9.2230   108.7670     2.5140    -0.0020  -999.2500   -25.3100    11.9650     9.3090
 1970.5000     9.2220   110.6080     2.5440     0.0120  -999.2500   -25.4620    12.0410     9.2900
 1971.0000     9.2210   112.0530     2.5480     0.0220  -999.2500   -25.5160    12.1070     9.2720
 1971.5000     9.2200   114.6830     2.5340     0.0230  -999.2500   -25.5750    12.1800     9.2520
 1972.0000     9.2190   111.9310     2.5290     0.0220  -999.2500   -25.6470    12.0920     9.2370
 1972.5000     9.2180   108.1580     2.5290     0.0210  -999.2500   -25.7050    11.9270     9.1870
 1973.0000     9.2170   109.2230     2.5150     0.0250  -999.2500   -25.7720    11.7710     9.1030
 1973.5000     9.2160   112.4710     2.5020     0.0280  -999.2500   -25.8350    11.6130     9.0260
 1974.0000     9.2150   116.5990     2.5020     0.0300  -999.2500   -25.9000    11.4540     8.9460
 1974.5000     9.2140   121.9380     2.5150     0.0220  -999.2500   -25.9630    11.2970     8.8680
 1975.0000     9.2130   120.0530     2.5160     0.0140  -999.2500   -26.0290    11.1350     8.7870
 1975.5000     9.2120   116.3640     2.5080     0.0130  -999.2500   -26.0890    11.0160     8.7090
 1976.0000     9.2110   116.5370     2.5160     0.0140  -999.2500   -26.1620    11.0170     8.6380
 1976.5000     9.2100   117.3140     2.5190     0.0150  -999.2500   -26.1380    11.0430     8.6630
 1977.0000     9.2080   117.8960     2.5070     0.0190  -999.2500   -26.0480    11.0740     8.6920
 1977.5000     9.2070   117.3490     2.4980     0.0230  -999.2500   -25.9720    11.1040     8.7230
 1978.0000     9.2060   118.8360     2.5120     0.0260  -999.2500   -25.8910    11.1340     8.7520
 1978.5000     9.2050   121.1470     2.5250     0.0220  -999.2500   -25.8120    11.1640     8.7830
 1979.0000     9.2040   121.1930     2.5330     0.0190  -999.2500   -25.7320    11.1930     8.8130
 1979.5000     9.2030   120.8070     2.5240     0.0280  -999.2500   -25.6530    11.2230     8.8430
 1980.0000     9.2020   123.0170     2.5210     0.0410  -999.2500   -25.5730    11.2540     8.8730
 1980.5000     9.2010   122.8400     2.5230     0.0170  -999.2500   -25.4940    11.2840     8.9030
 1981.0000     9.2000   120.7670     2.5270     0.0160  -999.2500   -25.4140    11.3140     8.9330
 1981.5000     9.1990   119.8640     2.5320     0.0140  -999.2500   -25.3340    11.3440     8.9630
 1982.0000     9.1980   116.3310     2.5390     0.0160  -999.2500   -25.2540    11.3740     8.9930
 1982.5000     9.1970   117.6550     2.5270     0.0150  -999.2500   -25.1750    11.4040     9.0230
 1983.0000     9.1960   119.9140     2.5280     0.0280  -999.2500   -25.0950    11.4340     9.0540
 1983.5000     9.1950   118.2060     2.5270     0.0270  -999.2500   -25.0160    11.4640     9.0840
