~VERSION INFORMATION
 VERS.                2.0:   CWLS LOG ASCII STANDARD - VERSION 2.0
 WRAP.                 NO:   ONE LINE PER DEPTH STEP
~WELL INFORMATION
#MNEM.UNIT      DATA TYPE    INFORMATION
#----------   ------------   ------------------------------
 STRT.F           13.0000:   START DEPTH
 STOP.F         2858.0000:   STOP DEPTH
 STEP.F            0.5000:   STEP LENGTH
 NULL.          -999.2500:   NO VALUE
 COMP.    FENIX & SCISSON:   COMPANY
 WELL. FENIX & SCISSON "AX" #16-21:   WELL
 FLD .  TEAPOT DOME NRP-3:   FIELD
 LOC .      S21 T39N R78W:   LOCATION
 CNTY.            NATRONA:   COUNTY
 STAT.            WYOMING:   STATE
 CTRY. UNITED STATES OF AMERICA:   COUNTRY
 SRVC.           BIRDWELL:   SERVICE COMPANY
 DATE.        17-JUL-1978:   LOGDATE
 API .     49025106590000:   API NUMBER
~CURVE INFORMATION
#MNEM.UNIT       API CODE    CURVE DESCRIPTION
#----------   ------------   ------------------------------
 DEPT.F                  :   
 GRD .GAPI   45 310 01 00:   GAMMA RAY FROM DENSITY LOG
 CALD.IN     45 280 60 00:   CALIPER FROM DENSITY LOG
 CORR.G/C3   45 356 01 00:   DENSITY CORRECTION
 RHOB.G/C3   45 350 01 00:   BULK DENSITY
 SPR .MV     05 010 01 00:   SPONTANEOUS POTENTIAL FROM RES.
 ILD .OHMM   05 120 46 00:   INDUCTION LOG DEEP
 SN  .OHMM   05 041 16 00:   SHORT NORMAL 16"
~PARAMETER INFORMATION
#MNEM.UNIT          VALUE    DESCRIPTION
#----------   ------------   ------------------------------
 EKB .F         5003.0000:   Kelly bushing
 EGL .F         4993.0000:   Ground level
 EDF .F            0.0000:   Drilling floor
 EPD .F         4993.0000:   Permanent datum
 TD  .F         2858.0000:   Total depth
 CLNT.            A2DTECH:   Client Code
 SL  . 1420' FSL & 200' FWL:   Surface Location
 DATE.        17-JUL-1978:   Date Logged [DD-MMM-YYYY]
 DD  .F              2855:   Depth driller
 DL  .F              2858:   Depth logger
 BLI .F              2858:   Bottom log interval
 TLI .F                20:   Top log interval
 CS1 .              8.625:   Casing size
 CBD1.      8.625" @ 200':   Casing driller 1
 CBL1.IN              228:   Casing logger 1
 BS1 .IN            7.875:   Bit size
 BSD1.F              2855:   Depth drilled with bit1
 DFT .            MUD GEL:   Type fluid in hole
 DFD .                9.9:   Density
 DFV .                 32:   Viscosity
 DFPH.               10.5:   pH
 DFL .                7.2:   Fluid loss
 MSS .           FLOWLINE:   Source of sample
 RMS .OHMM            1.3:   Rm
 MST .F                80:   Rm Meas. temp.
 RMF .OHMM           0.77:   Rmf
 MFST.F                74:   Rmf Meas. temp.
 MFSS.               MEAS:   Source Rmf.
 RMC .OHMM            1.5:   Rmc
 MCST.F                73:   Rmc Meas. temp.
 MCSS.               MEAS:   Source Rmc.
 TCS .HRS               1:   Time Circ. stopped
 MRT .F               118:   Maximum recorded temp.
 LUN .               2958:   Logging unit number
 LUL .               CASP:   Logging unit location
 ENGI.              HONEA:   Recorded By
 WITN.           MCGINLEY:   Witnessed by
 ORIG.        2" 5" PRINT:   Origin of data
 UWI .     49025106590000:   Unique Well ID
 DICO. A2D TECHNOLOGIES, INC.:   Digitizing Company
 PD  .                 GL:   Permanent Datum
 DAPD.                 10:   Feet Above Permanent Datum
~OTHER INFORMATION
~A   DEPT       GRD      CALD       CORR       RHOB        SPR        ILD         SN   
# ...
  422.5000    77.4771    10.3633     0.0360     2.5412   -37.4510    10.7843    10.0087
  423.0000    77.8029    10.3663     0.0421     2.5532   -37.8721    10.9427    10.2212
  423.5000    78.8798    10.3687     0.0393     2.5213   -37.9970    11.0276    10.3667
  424.0000    79.6525    10.3414     0.0365     2.5132   -38.1217    11.1132    10.5144
  424.5000    79.9708    10.2843     0.0262     2.5066   -38.0978    11.1994    10.5186
  425.0000    77.1680    10.2563     0.0160     2.5113   -38.0740    11.2863    10.5229
  425.5000    73.7616    10.2438     0.0176     2.5034   -38.0459    11.2961    10.5272
  426.0000    71.9970    10.2468     0.0208     2.4979   -38.0225    11.3060    10.5315
  426.5000    69.9338    10.2492     0.0194     2.5017   -37.9992    11.3159    10.5367
  427.0000    69.5059    10.2516     0.0166     2.4981   -38.1299    11.3258    10.6136
  427.5000    74.0165    10.2541     0.0153     2.4878   -38.3970    11.2583    10.7647
  428.0000    74.9385    10.2566     0.0169     2.4752   -38.5218    11.2685    10.8433
  428.5000    75.1141    10.2440     0.0171     2.4865   -38.3503    11.2780    10.8476
  429.0000    75.1405    10.2470     0.0172     2.4932   -38.3270    11.2108    10.8520
  429.5000    75.0084    10.2494     0.0174     2.4933   -38.1555    11.2231    10.7810
  430.0000    74.2979    10.2518     0.0175     2.4918   -38.1322    11.4662    10.7864
  430.5000    74.4746    10.2542     0.0177     2.5003   -37.9607    11.7952    10.7168
  431.0000    73.9095    10.2715     0.0163     2.5055   -37.9373    11.9684    10.7981
  431.5000    71.8464    10.2739     0.0180     2.5085   -37.9140    11.9789    10.8740
  432.0000    69.9259    10.2763     0.0182     2.5049   -37.8904    11.9894    11.1059
  432.5000    72.3470    10.2787     0.0183     2.5012   -37.8666    11.9999    11.2640
  433.0000    75.6570    10.2960     0.0185     2.4969   -37.8430    12.1761    11.4245
  433.5000    76.4297    10.2984     0.0216     2.4917   -37.9688    12.2706    11.5067
  434.0000    76.3002    10.2844     0.0307     2.4940   -37.9397    12.3658    11.5125
  434.5000    76.3332    10.2586     0.0442     2.4993   -37.9163    12.3768    11.5171
  435.0000    77.2552    10.2467     0.0667     2.4995   -37.8930    12.3878    11.5218
  435.5000    78.1771    10.2491     0.0965     2.4950   -37.8697    12.4010    11.6059
  436.0000    78.5020    10.2515     0.1071     2.5004   -37.9945    12.4118    11.6105
  436.5000    78.2299    10.2539     0.0998     2.5178   -37.9711    12.5081    11.6152
  437.0000    77.0202    10.2563     0.0777     2.5295   -37.9478    12.5191    11.6200
  437.5000    72.4997    10.2588     0.0389     2.5519   -37.9245    12.5300    11.5450
  438.0000    68.9128    10.2612     0.0185     2.5319   -37.9011    12.5410    11.5508
  438.5000    68.1863    10.2636     0.0187     2.5052   -38.0266    12.4635    11.5555
  439.0000    68.5179    10.2809     0.0144     2.5120   -38.0026    12.3073    11.3244
  439.5000    69.1413    10.2684     0.0012     2.5195   -38.1274    12.2313    11.1744
  440.0000    69.7581    10.2262     0.0147     2.5218   -38.1037    12.0777    10.9498
  440.5000    68.5971    10.1967     0.0149     2.4981   -38.2289    12.0058    10.8059
  441.0000    67.8772    10.1566     0.0165     2.5011   -38.1997    11.8529    10.7352
  441.5000    67.3066    10.1149     0.0211     2.5101   -38.3304    11.9451    10.7406
  442.0000    67.1772    10.1173     0.0272     2.5141   -38.3012    11.9558    10.7449
  442.5000    67.3595    10.1043     0.0318     2.5227   -38.2779    12.0507    10.8234
  443.0000    67.5351    10.0918     0.0335     2.5320   -38.2545    12.0613    10.7536
  443.5000    67.5616    10.0799     0.0321     2.5335   -38.2312    12.1548    10.6854
  444.0000    68.0435    10.0823     0.0308     2.5247   -38.2079    12.0798    10.6897
  444.5000    70.6243    10.0698     0.0236     2.5106   -38.1845    12.0930    10.6197
  445.0000    71.0736    10.0723     0.0178     2.5122   -38.0131    12.1036    10.4801
  445.5000    69.7634    10.0300     0.0150     2.5212   -37.9897    11.9466    10.4116
  446.0000    69.4847    10.0027     0.0121     2.5198   -37.9664    11.7163    10.4168
  446.5000    73.3983     9.9902     0.0153     2.5117   -37.9431    11.4880    10.4210
  447.0000    74.1710     9.9932     0.0169     2.5058   -37.9197    11.1107    10.3528
  447.5000    74.3466    10.0105     0.0200     2.5052   -37.8963    10.8198    10.1467
  448.0000    75.7163    10.0278     0.0202     2.5106   -37.8726    10.5336     9.9439
  448.5000    77.5338    10.0302     0.0174     2.5143   -37.8489    10.3310     9.8122
  449.0000    77.4110    10.0475     0.0175     2.5166   -37.9687    10.3423     9.6159
  449.5000    76.6911    10.0499     0.0177     2.5204   -37.9454    10.3514     9.6208
  450.0000    72.0907    10.0672     0.0238     2.5145   -37.9220    10.3605     9.6178
  450.5000    70.1762    10.0845     0.0239     2.5012   -38.0527    10.3695     9.5450
  451.0000    71.5465    10.0869     0.0226     2.5132   -38.1775    10.3786     9.4989
  451.5000    73.3756    10.1041     0.0242     2.5177   -38.3023    10.3145     9.5029
  452.0000    74.1532    10.1066     0.0289     2.5208   -37.9768    10.1157     9.3757
  452.5000    74.6120    10.1238     0.0335     2.5209   -37.6572     9.7167     9.3146
  453.0000    75.8378    10.1412     0.0366     2.5217   -37.6339     9.4622     9.1278
  453.5000    77.6553    10.1441     0.0398     2.5219   -37.4624     9.2144     8.9454
  454.0000    79.6220    10.1614     0.0414     2.5360   -37.2909     8.9731     8.8264
  454.5000    78.4544    10.1787     0.0401     2.5450   -37.2579     8.8951     8.7689
  455.0000    77.5853    10.1811     0.0402     2.5391   -37.1611     8.8529     8.7118
  455.5000    77.1573    10.1984     0.0388     2.5333   -37.0642     8.8107     8.7148
  456.0000    77.3330    10.2157     0.0375     2.5333   -36.9674     8.7685     8.6581
  456.5000    75.7242    10.2330     0.0377     2.5342   -36.8733     8.7252     8.6610
  457.0000    75.8999    10.2503     0.0379     2.5335   -36.8499     8.7941     8.6641
  457.5000    76.8218    10.2527     0.0365     2.5284   -36.8265     8.8030     8.6670
  458.0000    78.3408    10.2700     0.0367     2.5225   -36.9571     8.8743     8.6699
  458.5000    77.9194    10.3021     0.0383     2.5189   -37.0819     9.0087     8.7935
  459.0000    77.3488    10.3046     0.0340     2.5205   -37.2066     9.2080     8.9181
  459.5000    77.6943    10.3224     0.0312     2.5245   -37.1774     9.3374     8.8593
  460.0000    78.6023    10.3248     0.0388     2.5310   -37.1540     9.4779     8.8631
  460.5000    78.6287    10.3273     0.0464     2.5281   -37.1306     9.4876     8.9272
  461.0000    78.3500    10.3445     0.0495     2.5133   -37.1072     9.5625     9.1161
  461.5000    76.8905    10.3469     0.0393     2.5149   -37.0838     9.6381     9.1821
  462.0000    74.5289    10.3494     0.0320     2.5232   -37.0604     9.7810     9.4410
  462.5000    74.3994    10.3518     0.0351     2.5277   -37.0370     9.8583     9.5093
  463.0000    76.2235    10.3542     0.0397     2.5144   -37.0133    10.0045     9.6441
  463.5000    77.2947    10.3566     0.0399     2.5084   -36.8415    10.1529     9.7139
  464.0000    77.6196    10.3590     0.0385     2.5331   -36.5215    10.3035     9.7172
  464.5000    76.8997    10.3614     0.0372     2.5357   -36.1969    10.4563     9.7204
  465.0000    75.8814    10.3489     0.0374     2.5422   -35.8772    10.6114     9.7237
  465.5000    75.3108    10.3663     0.0375     2.5319   -35.7057    10.6222     9.7270
  466.0000    75.1851    10.3841     0.0392     2.5283   -35.5341    10.7061     9.8649
  466.5000    74.7666    10.3865     0.0423     2.5202   -35.5107    10.7170     9.9364
  467.0000    76.2223    10.3734     0.0484     2.5180   -35.4873    10.7279     9.9397
  467.5000    79.1544    10.3764     0.0426     2.5129   -35.4639    10.8127     9.9439
