~VERSION INFORMATION
 VERS.                2.0:   CWLS LOG ASCII STANDARD - VERSION 2.0
 WRAP.                 NO:   ONE LINE PER DEPTH STEP
~WELL INFORMATION
#MNEM.UNIT      DATA TYPE    INFORMATION
#----------   ------------   ------------------------------
 STRT.F          712.0000:   START DEPTH
 STOP.F         3352.0000:   STOP DEPTH
 STEP.F            0.5000:   STEP LENGTH
 NULL.          -999.2500:   NO VALUE
 COMP.    FENIX & SCISSON:   COMPANY
 WELL. FENIX & SCISSON "AX" #24-14:   WELL
 FLD .              NPR 3:   FIELD
 LOC .      S14 T38N R78W:   LOCATION
 CNTY.            NATRONA:   COUNTY
 STAT.            WYOMING:   STATE
 CTRY. UNITED STATES OF AMERICA:   COUNTRY
 SRVC.       SCHLUMBERGER:   SERVICE COMPANY
 DATE.        19-JUN-1981:   LOGDATE
 API .     49025108750000:   API NUMBER
~CURVE INFORMATION
#MNEM.UNIT       API CODE    CURVE DESCRIPTION
#----------   ------------   ------------------------------
 DEPT.F                  :   
 TENR.LBS    07 635 01 00:   TENSION
 ILD .OHMM   07 120 46 00:   DEEP INDUCTION RESISTIVITY
 SFL .OHMM   07 220 01 00:   SHALLOW FOCUSED LOG RESISTIVITY
 ILM .OHMM   07 120 44 00:   INDUCTION LOG MEDIUM RESISTIVITY
 SPR .MV     07 010 01 00:   SPONTANEOUS POTENTIAL
 TEND.LBS    45 635 01 00:   TENSION FROM DENSITY LOG
 DRHO.G/C3   45 356 01 00:   DENSITY CORRECTION
 CALD.IN     45 280 60 00:   CALIPER FROM DENSITY LOG
 GRD .GAPI   45 310 01 00:   GAMMA RAY FROM DENSITY LOG
 RHOB.G/C3   45 350 01 00:   BULK DENSITY
~PARAMETER INFORMATION
#MNEM.UNIT          VALUE    DESCRIPTION
#----------   ------------   ------------------------------
 EKB .F         5216.0000:   Kelly bushing
 EGL .F         5206.0000:   Ground level
 EDF .F         5215.0000:   Drilling floor
 EPD .F            0.0000:   Permanent datum
 TD  .F         3360.0000:   Total depth
 DATE.        19-JUN-1981:   Date logged
 CLNT.            A2DTECH:   Client Code
 SL  . 2413' FNL & 827' FWL:   Surface Location
 PD  .                 GL:   Permanent Datum
 DAPD.F                10:   Feet Above Permanent Datum
 DD  .F              3360:   Depth driller
 DL  .F              3348:   Depth logger
 BLI .F              3342:   Bottom log interval
 TLI .F               728:   Top log interval
 CS1 .IN            8.625:   Casing size
 CBD1.      8.625" @ 728':   Casing driller 1
 CBL1.F               728:   Casing logger 1
 BS1 .IN            7.875:   Bit size
 BSD1.F              3360:   Depth drilled with bit1
 DFT .                FGM:   Type fluid in hole
 DFD .                  9:   Density
 DFV .                 45:   Viscosity
 DFPH.                9.5:   pH
 DFL .                 10:   Fluid loss
 MSS .               TANK:   Source of sample
 RMS .OHMM           5.71:   Rm
 MST .F                68:   Rm Meas. temp.
 RMF .OHMM           1.27:   Rmf
 MFST.F                68:   Rmf Meas. temp.
 MFSS.               MEAS:   Source Rmf.
 RMB .OHMM           3.29:   Rm. at BHT
 BHT .F               118:   BHT.
 TCS .HRS            0800:   Time Circ. stopped
 TLAB.HRS            1130:   Time logger at bottom
 MRT .F               118:   Maximum recorded temp.
 LUN .               8039:   Logging unit number
 LUL .               CSPR:   Logging unit location
 ENGI.           G. PFARR:   Recorded By
 WITN.           R. SCOTT:   Witnessed by
 ORIG.           5" PRINT:   Origin of data
 UWI .     49025108750000:   Unique Well ID
 DICO. A2D TECHNOLOGIES, INC.:   Digitizing Company
~OTHER INFORMATION
~A   DEPT     TENR        ILD        SFL        ILM        SPR       TEND       DRHO       CALD         GRD      RHOB   
# ...
 1583.0000  1009.0530     7.9310     8.8590     6.9260   -55.9780  1052.4170     0.0130     8.4890   107.0310     2.5530
 1583.5000  1009.2300     7.8990     8.9060     6.9180   -55.9410  1052.6370     0.0160     8.4750   106.9040     2.5540
 1584.0000  1009.4070     7.8670     9.0240     6.9110   -55.5760  1052.8580     0.0180     8.4650   107.2830     2.5560
 1584.5000  1009.5830     7.8360     9.1860     6.9030   -55.6410  1053.0780     0.0220     8.4640   108.8050     2.5600
 1585.0000  1009.7600     7.8050     9.0560     6.8950   -55.6170  1053.2990     0.0250     8.4630   112.2530     2.5650
 1585.5000  1009.9370     7.7740     8.8520     6.8880   -55.5460  1053.5190     0.0280     8.4620   114.2510     2.5660
 1586.0000  1010.1140     7.7430     8.7180     6.8840   -55.1830  1053.7390     0.0240     8.4610   114.3580     2.5570
 1586.5000  1010.2900     7.7120     8.7850     6.8300   -55.3670  1053.9600     0.0200     8.4600   112.9840     2.5470
 1587.0000  1010.4670     7.6810     8.8590     6.7280   -55.5940  1054.1801     0.0170     8.4590   110.3290     2.5460
 1587.5000  1010.6440     7.6530     8.7540     6.6260   -55.8240  1054.4010     0.0160     8.4580   107.7150     2.5500
 1588.0000  1010.8200     7.6300     8.6350     6.5150   -56.0550  1054.6210     0.0130     8.4570   105.4570     2.5530
 1588.5000  1010.9970     7.6070     8.5170     6.5460   -56.2870  1054.8420     0.0070     8.4560   107.0100     2.5470
 1589.0000  1011.1740     7.5840     8.3910     6.5790   -56.5100  1055.0620     0.0010     8.4550   111.1440     2.5360
 1589.5000  1011.3510     7.5600     8.4820     6.6130   -56.7670  1055.2820     0.0000     8.4540   116.0940     2.5320
 1590.0000  1011.5270     7.5290     8.5830     6.6460   -56.8950  1055.5031     0.0060     8.4530   117.4080     2.5410
 1590.5000  1011.7040     7.5480     8.6910     6.6800   -57.0460  1055.7230     0.0130     8.4530   115.7390     2.5610
 1591.0000  1011.8810     7.5870     8.7990     6.7140   -57.1740  1055.9440     0.0120     8.4520   114.1060     2.5690
 1591.5000  1012.0570     7.6250     8.9070     6.7480   -57.3180  1056.1639     0.0080     8.4510   113.5350     2.5620
 1592.0000  1012.2340     7.6630     9.0160     6.7820   -57.4810  1056.3850     0.0040     8.4500   112.9140     2.5500
 1592.5000  1012.4110     7.7010     9.1860     6.8160   -57.3900  1056.6050     0.0060     8.4490   113.2460     2.5400
 1593.0000  1012.5880     7.7390     9.1500     6.8500   -57.0990  1056.8260     0.0120     8.4480   114.2700     2.5440
 1593.5000  1012.7640     7.7770     9.0680     6.8830   -56.9810  1057.0460     0.0180     8.4470   114.2850     2.5490
 1594.0000  1012.9410     7.8150     8.9850     6.9170   -56.6470  1057.2660     0.0190     8.4460   112.5240     2.5510
 1594.5000  1013.1180     7.8530     8.8590     6.9510   -56.2360  1057.4871     0.0180     8.4450   110.9290     2.5530
 1595.0000  1013.2950     7.8910     8.9080     6.9850   -56.3580  1057.7070     0.0230     8.4470   111.0530     2.5590
 1595.5000  1013.4710     7.9300     9.0110     7.0190   -55.9380  1057.9280     0.0290     8.4490   111.4350     2.5800
 1596.0000  1013.6480     7.9490     9.1860     7.0530   -55.8590  1058.1479     0.0370     8.4500   112.2450     2.6020
 1596.5000  1013.8250     7.9480     9.1800     7.0870   -55.7710  1058.3690     0.0440     8.4520   113.6100     2.6080
 1597.0000  1014.0010     7.9480     9.1620     7.1210   -55.6420  1058.5890     0.0410     8.4540   114.4640     2.6000
 1597.5000  1014.1780     7.9480     9.1440     7.0920   -55.5440  1058.8090     0.0330     8.4550   113.8380     2.5780
 1598.0000  1014.3550     7.9470     9.1260     7.0380   -55.1990  1059.0300     0.0150     8.4570   111.5040     2.5500
 1598.5000  1014.5320     7.9470     9.1080     6.9850   -55.2400  1059.2500     0.0020     8.4580   109.9220     2.5360
 1599.0000  1014.7080     7.9460     9.0890     6.9320   -55.2280  1059.4709     0.0050     8.4600   110.0760     2.5390
 1599.5000  1014.8850     7.9460     9.0710     6.8800   -55.3080  1059.6910     0.0070     8.4620   110.7810     2.5510
 1600.0000  1015.0620     7.8810     9.0530     6.8270   -55.6210  1059.9120     0.0100     8.4630   109.2410     2.5630
 1600.5000  1015.2390     7.8150     9.0350     6.7530   -55.4830  1060.1320     0.0130     8.4650   107.7440     2.5710
 1601.0000  1015.4150     7.7490     8.9820     6.7600   -55.4220  1060.3521     0.0150     8.4660   107.4760     2.5710
 1601.5000  1015.5920     7.6830     8.8050     6.7700   -55.3530  1060.5730     0.0170     8.4680   109.1870     2.5650
 1602.0000  1015.7690     7.6160     8.6280     6.7800   -55.2770  1060.7930     0.0140     8.4700   110.7500     2.5610
 1602.5000  1015.9450     7.5290     8.3910     6.7910   -55.1830  1061.0140     0.0120     8.4710   111.2280     2.5570
 1603.0000  1016.1220     7.5340     8.4280     6.8010   -55.6630  1061.2340     0.0100     8.4730   110.9880     2.5630
 1603.5000  1016.2990     7.5430     8.4830     6.8120   -56.0420  1061.4550     0.0080     8.4750   110.0650     2.5720
 1604.0000  1016.4760     7.5530     8.5440     6.8220   -56.3530  1061.1360     0.0090     8.4760   109.6020     2.5810
 1604.5000  1016.6520     7.5630     8.7870     6.8330   -56.7620  1060.6460     0.0100     8.4780   109.6650     2.5810
 1605.0000  1016.8290     7.5720     9.1860     6.8430   -56.7730  1060.1560     0.0090     8.4790   109.9850     2.5670
 1605.5000  1017.0060     7.5820     9.1310     6.8530   -56.5240  1059.6660     0.0070     8.4810   108.8510     2.5520
 1606.0000  1017.1820     7.5910     9.0210     6.8640   -56.2590  1059.1760     0.0050     8.4830   107.7970     2.5470
 1606.5000  1017.3590     7.6000     8.2410     6.8740   -55.9930  1058.6851     0.0040     8.4840   108.8190     2.5470
 1607.0000  1017.5360     7.6100     8.3650     6.8680   -55.7090  1058.1949     0.0080     8.4850   111.2510     2.5520
 1607.5000  1017.7130     7.6190     8.7060     6.8560   -55.6220  1057.7050     0.0120     8.4840   112.3340     2.5560
 1608.0000  1017.8890     7.6290     9.1860     6.8450   -55.6210  1057.2150     0.0160     8.4830   109.0140     2.5600
 1608.5000  1018.0660     7.6380     9.0650     6.8330   -55.5460  1056.7250     0.0170     8.4820   106.7630     2.5630
 1609.0000  1018.2430     7.6480     8.8620     6.8220   -55.1910  1056.2340     0.0140     8.4810   106.7630     2.5620
 1609.5000  1018.4200     7.6570     8.5440     6.8100   -55.2500  1055.7440     0.0100     8.4800   111.3000     2.5630
 1610.0000  1018.5960     7.6670     8.6850     6.7990   -55.2260  1055.2540     0.0100     8.4790   114.7830     2.5660
 1610.5000  1018.7730     7.6760     9.1860     6.7870   -55.3240  1054.7640     0.0120     8.4790   115.7940     2.5620
 1611.0000  1018.9500     7.6860     9.0760     6.7750   -55.4360  1054.2740     0.0110     8.4780   114.0240     2.5540
 1611.5000  1019.1260     7.6950     8.8370     6.7650   -55.5710  1053.7830     0.0090     8.4770   112.6270     2.5480
 1612.0000  1019.3030     7.7050     8.5980     6.7560   -55.6980  1053.2930     0.0070     8.4760   111.6300     2.5470
 1612.5000  1019.4800     7.7140     8.2410     6.7920   -56.0470  1052.8030     0.0050     8.4750   110.8700     2.5420
 1613.0000  1019.6570     7.7240     8.3830     6.8250   -55.9920  1052.3130     0.0030     8.4740   112.8540     2.5350
 1613.5000  1019.8330     7.7330     8.6650     6.8610   -56.0100  1051.8230     0.0010     8.4730   114.8450     2.5330
 1614.0000  1020.0100     7.7430     8.9460     6.8870   -56.0110  1051.3320     0.0060     8.4730   116.3110     2.5370
 1614.5000  1020.1870     7.7520     9.2280     6.9070   -56.0150  1050.8420     0.0120     8.4720   111.8820     2.5510
 1615.0000  1020.3640     7.7620     9.4130     6.9270   -56.1080  1050.3521     0.0180     8.4710   108.1120     2.5650
 1615.5000  1020.5400     7.7710     9.5240     6.9470   -56.2210  1049.8621     0.0230     8.4700   106.8600     2.5790
 1616.0000  1020.7170     7.7800     9.2450     6.9660   -56.3080  1049.3719     0.0270     8.4690   108.0760     2.5870
