~VERSION INFORMATION
 VERS.                2.0:   CWLS LOG ASCII STANDARD - VERSION 2.0
 WRAP.                 NO:   ONE LINE PER DEPTH STEP
~WELL INFORMATION
#MNEM.UNIT      DATA TYPE    INFORMATION
#----------   ------------   ------------------------------
 STRT.F          484.0000:   START DEPTH
 STOP.F         4096.0000:   STOP DEPTH
 STEP.F            0.5000:   STEP LENGTH
 NULL.          -999.2500:   NO VALUE
 COMP.    FENIX & SCISSON:   COMPANY
 WELL. FENIX NPR "JX" #58-28:   WELL
 FLD .                NPR:   FIELD
 LOC .      S28 T39N R78W:   LOCATION
 CNTY.            NATRONA:   COUNTY
 STAT.            WYOMING:   STATE
 CTRY. UNITED STATES OF AMERICA:   COUNTRY
 SRVC.              WELEX:   SERVICE COMPANY
 DATE.        02-MAY-1978:   LOGDATE
 API .     49025107810000:   API NUMBER
~CURVE INFORMATION
#MNEM.UNIT       API CODE    CURVE DESCRIPTION
#----------   ------------   ------------------------------
 DEPT.F                  :   
 NPHI.DEC    42 890 03 00:   NEUTRON POROSITY SANDSTONE
 RHOB.G/C3   45 350 01 00:   BULK DENSITY
 CORR.G/C3   45 356 01 00:   DENSITY CORRECTION
 CALD.IN     45 280 60 00:   CALIPER FROM DENSITY LOG
 GRD .GAPI   45 310 01 00:   GAMMA RAY FROM DENSITY LOG
 SPR .MV     07 010 01 00:   SPONTANEOUS POTENTIAL
 ILD .OHMM   07 120 46 00:   DEEP INDUCTION RESISTIVITY
 SGRD.OHMM   07 220 05 00:   SHALLOW SHORT GUARD RESISTIVITY
 ILM .OHMM   07 120 44 00:   INDUCTION LOG MEDIUM RESISTIVITY
~PARAMETER INFORMATION
#MNEM.UNIT          VALUE    DESCRIPTION
#----------   ------------   ------------------------------
 EKB .F         5115.0000:   Kelly bushing
 EGL .F         5101.0000:   Ground level
 EDF .F            0.0000:   Drilling floor
 EPD .F         5101.0000:   Permanent datum
 TD  .F         4100.0000:   Total depth
 DATE.        02-MAY-1978:   Date logged
 CLNT.            A2DTECH:   Client Code
 SL  . 525' FSL & 2406' FEL:   Surface Location
 PD  .                 GL:   Permanent Datum
 DAPD.F                14:   Feet Above Permanent Datum
 DD  .F              4100:   Depth driller
 DL  .F              4098:   Depth logger
 BLI .F              4096:   Bottom log interval
 CS1 .IN            8.625:   Casing size
 CBD1.      8.625" @ 501':   Casing driller 1
 CBL1.F               500:   Casing logger 1
 BS1 .IN            7.875:   Bit size
 BSD1.F              4100:   Depth drilled with bit1
 DFT .            CHM GEL:   Type fluid in hole
 DFD .                9.4:   Density
 DFV .                 48:   Viscosity
 DFPH.                9.3:   pH
 DFL .                8.5:   Fluid loss
 MSS .           FLOWLINE:   Source of sample
 RMS .OHMM           1.24:   Rm
 MST .F                70:   Rm Meas. temp.
 RMF .OHMM            .57:   Rmf
 MFST.F                70:   Rmf Meas. temp.
 RMC .OHMM           1.48:   Rmc
 MCST.F                70:   Rmc Meas. temp.
 MFSS.               MEAS:   Source Rmf.
 MCSS.               MEAS:   Source Rmc.
 RMB .OHMM            .87:   Rm. at BHT
 BHT .F               123:   BHT.
 TCS .HRS               4:   Time Circ. stopped
 MRT .F               123:   Maximum recorded temp.
 LUN .               1892:   Logging unit number
 LUL .             CASPER:   Logging unit location
 ENGI.               REIN:   Recorded By
 WITN.           DINSMORE:   Witnessed by
 ORIG.         2.5" PRINT:   Origin of data
 UWI .     49025107810000:   Unique Well ID
 DICO. A2D TECHNOLOGIES, INC.:   Digitizing Company
 TLI .                500:   Top log interval
~OTHER INFORMATION
~A   DEPT       NPHI     RHOB       CORR       CALD         GRD       SPR        ILD       SGRD        ILM   
# ...
 1433.0000     0.2850     2.6430     0.0630     9.6090    78.1470   -17.3980     6.3950     7.1660     6.7600
 1433.5000     0.2880     2.6430     0.0610     9.6090    79.4620   -17.4750     6.3990     7.1660     6.7640
 1434.0000     0.2910     2.6350     0.0600     9.6090    79.3320   -17.5330     6.4020     7.1660     6.7670
 1434.5000     0.2940     2.6270     0.0590     9.6090    80.0130   -17.5950     6.4060     7.1660     6.7710
 1435.0000     0.2950     2.6190     0.0570     9.6090    80.8350   -17.2870     6.4090     7.1660     6.7740
 1435.5000     0.2950     2.6180     0.0560     9.6090    80.9030   -16.9400     6.4120     7.1670     6.7780
 1436.0000     0.2950     2.6200     0.0560     9.6090    82.4090   -16.6010     6.3900     7.1670     6.7550
 1436.5000     0.2930     2.6210     0.0560     9.6090    84.2980   -16.2450     6.3650     7.1370     6.7280
 1437.0000     0.2870     2.6210     0.0560     9.6090    86.3940   -15.6280     6.3390     7.0450     6.7010
 1437.5000     0.2910     2.6140     0.0560     9.6090    86.9390   -14.4350     6.3130     6.9540     6.6740
 1438.0000     0.2900     2.6080     0.0560     9.6090    85.9610   -14.8690     6.2880     6.8640     6.6470
 1438.5000     0.2880     2.6060     0.0560     9.6090    84.2340   -15.2480     6.2620     6.7730     6.6190
 1439.0000     0.2870     2.6040     0.0560     9.6090    84.5720   -15.7050     6.2370     6.6820     6.5920
 1439.5000     0.2850     2.6030     0.0560     9.6090    85.1450   -16.1270     6.2110     6.5920     6.5650
 1440.0000     0.2830     2.6010     0.0560     9.6090    84.3130   -16.5500     6.1850     6.5330     6.5380
 1440.5000     0.2830     2.5920     0.0560     9.6090    81.7310   -17.0080     6.1600     6.5530     6.5110
 1441.0000     0.2840     2.5870     0.0560     9.6090    80.7000   -17.1840     6.1340     6.5880     6.4840
 1441.5000     0.2850     2.5820     0.0560     9.6090    78.0450   -17.0630     6.1080     6.6230     6.4570
 1442.0000     0.2860     2.5780     0.0560     9.6090    76.3620   -16.9720     6.0830     6.6590     6.4300
 1442.5000     0.2870     2.5740     0.0560     9.6090    75.8380   -16.8900     6.0570     6.6940     6.4030
 1443.0000     0.2890     2.5690     0.0540     9.6090    75.4790   -16.6670     6.0310     6.7290     6.3760
 1443.5000     0.2920     2.5590     0.0520     9.6080    74.8120   -16.0270     6.0060     6.7790     6.3480
 1444.0000     0.2920     2.5490     0.0480     9.5990    77.5120   -15.8520     5.9800     6.7160     6.3210
 1444.5000     0.2930     2.5510     0.0430     9.5890    81.7690   -16.9170     5.9540     6.6110     6.2940
 1445.0000     0.2930     2.5620     0.0370     9.5800    85.6550   -16.9630     5.9290     6.5060     6.2670
 1445.5000     0.2940     2.5770     0.0380     9.5710    85.0780   -16.5650     5.9030     6.4130     6.2400
 1446.0000     0.2930     2.5920     0.0430     9.5610    82.7410   -16.1820     5.8770     6.4130     6.2120
 1446.5000     0.2920     2.6030     0.0480     9.5520    80.3990   -15.8080     5.8520     6.4130     6.1860
 1447.0000     0.2890     2.6120     0.0520     9.5420    79.0200   -15.4240     5.8460     6.5570     6.1800
 1447.5000     0.2850     2.6220     0.0550     9.5320    78.9380   -15.0490     5.8460     6.6810     6.1800
 1448.0000     0.2830     2.6280     0.0560     9.5290    78.5850   -14.6720     5.9300     6.8040     6.2680
 1448.5000     0.2810     2.6310     0.0550     9.5330    78.3120   -14.2770     6.0280     6.9270     6.3720
 1449.0000     0.2800     2.6340     0.0550     9.5360    78.4560   -13.9820     6.1260     7.0340     6.4760
 1449.5000     0.2810     2.6360     0.0540     9.5390    78.3120   -14.0260     6.2250     7.0460     6.5800
 1450.0000     0.2810     2.6340     0.0540     9.5430    77.4100   -14.9810     6.3230     7.0570     6.6840
 1450.5000     0.2820     2.6290     0.0530     9.5460    76.9590   -15.9410     6.4210     7.0680     6.7880
 1451.0000     0.2850     2.6260     0.0530     9.5490    79.1450   -16.1220     6.5330     7.0780     6.9050
 1451.5000     0.2860     2.6260     0.0530     9.5530    81.0520   -16.2680     6.5260     7.0890     6.8980
 1452.0000     0.2870     2.6240     0.0520     9.5560    82.0930   -16.3870     6.5180     7.1000     6.8900
 1452.5000     0.2880     2.6190     0.0520     9.5590    82.7420   -16.5240     6.5100     7.1100     6.8820
 1453.0000     0.2900     2.6140     0.0510     9.5620    80.5460   -16.6550     6.5020     7.1210     6.8730
 1453.5000     0.2930     2.6120     0.0510     9.5650    79.6290   -16.7860     6.4940     7.1320     6.8650
 1454.0000     0.2930     2.6100     0.0500     9.5680    79.2220   -16.9210     6.4870     7.1420     6.8570
 1454.5000     0.2920     2.6090     0.0500     9.5690    78.8770   -17.0410     6.4790     7.1530     6.8480
 1455.0000     0.2910     2.6080     0.0500     9.5690    77.9090   -17.1730     6.4710     7.1640     6.8400
 1455.5000     0.2890     2.6110     0.0490     9.5690    76.3130   -16.7700     6.4630     7.1750     6.8320
 1456.0000     0.2870     2.6170     0.0490     9.5690    76.2460   -16.1760     6.4550     7.1850     6.8230
 1456.5000     0.2850     2.6220     0.0480     9.5690    76.0320   -15.5920     6.4470     7.1960     6.8150
 1457.0000     0.2830     2.6210     0.0480     9.5690    77.8250   -15.0150     6.4400     7.2070     6.8070
 1457.5000     0.2810     2.6170     0.0470     9.5690    79.1340   -14.4060     6.4320     7.2170     6.7990
 1458.0000     0.2810     2.6130     0.0470     9.5690    78.3980   -13.8740     6.4240     7.2280     6.7900
 1458.5000     0.2810     2.6100     0.0470     9.5690    77.6840   -13.2200     6.4160     7.2390     6.7820
 1459.0000     0.2810     2.6080     0.0460     9.5690    78.0610   -14.0060     6.4080     7.2490     6.7740
 1459.5000     0.2810     2.6060     0.0460     9.5690    80.1350   -15.0750     6.4000     7.2610     6.7650
 1460.0000     0.2830     2.6040     0.0450     9.5690    81.1420   -15.8700     6.3920     7.2710     6.7570
 1460.5000     0.2850     2.6010     0.0450     9.5690    81.0040   -16.3610     6.3850     7.2820     6.7490
 1461.0000     0.2860     2.5990     0.0440     9.5690    79.2390   -16.4280     6.3770     7.2970     6.7410
 1461.5000     0.2840     2.5970     0.0440     9.5690    77.6720   -16.4870     6.3690     7.2800     6.7320
 1462.0000     0.2820     2.5960     0.0440     9.5690    76.2950   -16.5140     6.3610     7.2150     6.7240
 1462.5000     0.2800     2.6010     0.0470     9.5690    74.8690   -16.5590     6.3530     7.1520     6.7160
 1463.0000     0.2780     2.6040     0.0500     9.5690    74.6520   -16.6010     6.3450     7.0880     6.7070
 1463.5000     0.2770     2.6030     0.0530     9.5690    75.3170   -16.6390     6.3380     7.0240     6.6990
 1464.0000     0.2770     2.6040     0.0560     9.5690    75.8850   -16.6810     6.3300     6.9610     6.6910
 1464.5000     0.2790     2.6120     0.0540     9.5690    76.3990   -16.7220     6.3220     6.9050     6.6830
 1465.0000     0.2800     2.6130     0.0520     9.5690    77.7750   -16.7500     6.3140     7.0200     6.6740
 1465.5000     0.2820     2.6070     0.0500     9.5690    79.9500   -16.8070     6.3060     7.1210     6.6660
 1466.0000     0.2860     2.6040     0.0480     9.5690    81.4380   -16.5910     6.2980     7.2230     6.6580
 1466.5000     0.2870     2.5980     0.0470     9.5690    82.8490   -16.3480     6.2910     7.2780     6.6490
 1467.0000     0.2880     2.6020     0.0440     9.5690    83.6410   -15.1940     6.2830     7.1660     6.6410
 1467.5000     0.2880     2.6130     0.0440     9.5690    82.6450   -13.9250     6.2750     7.1900     6.6330
 1468.0000     0.2880     2.6300     0.0460     9.5690    80.1080   -13.9210     6.2670     7.2670     6.6250
 1468.5000     0.2880     2.6360     0.0480     9.5690    77.6860   -14.6570     6.2590     7.3440     6.6160
 1469.0000     0.2910     2.6340     0.0490     9.5680    79.8820   -15.3300     6.2510     7.4360     6.6080
