~VERSION INFORMATION
 VERS.                2.0:   CWLS LOG ASCII STANDARD - VERSION 2.0
 WRAP.                 NO:   ONE LINE PER DEPTH STEP
~WELL INFORMATION
#MNEM.UNIT      DATA TYPE    INFORMATION
#----------   ------------   ------------------------------
 STRT.F            0.0000:   START DEPTH
 STOP.F         4030.0000:   STOP DEPTH
 STEP.F            0.5000:   STEP LENGTH
 NULL.          -999.2500:   NO VALUE
 COMP.  FENIX AND SCISSON:   COMPANY
 WELL.  FENIX "LX" #33-10:   WELL
 FLD . TEAPOT DOME (NPR #3):   FIELD
 LOC .      S10 T38N R78W:   LOCATION
 CNTY.            NATRONA:   COUNTY
 STAT.            WYOMING:   STATE
 CTRY. UNITED STATES OF AMERICA:   COUNTRY
 SRVC.       SCHLUMBERGER:   SERVICE COMPANY
 DATE.        03-APR-1978:   LOGDATE
 API .     49025105980000:   API NUMBER
~CURVE INFORMATION
#MNEM.UNIT       API CODE    CURVE DESCRIPTION
#----------   ------------   ------------------------------
 DEPT.F                  :   
 SPR .MV     07 010 01 00:   SPONTANEOUS POTENTIAL
 ILD .OHMM   07 120 46 00:   DEEP INDUCTION RESISTIVITY
 SFL .OHMM   07 220 01 00:   SHALLOW FOCUSED LOG RESISTIVITY
 ILM .OHMM   07 120 44 00:   INDUCTION LOG MEDIUM RESISTIVITY
 NPHI.DEC    42 890 03 00:   NEUTRON POROSITY SANDSTONE
 GRD .GAPI   45 310 01 00:   GAMMA RAY FROM DENSITY LOG
 CALD.IN     45 280 60 00:   CALIPER FROM DENSITY LOG
 RHOB.G/C3   45 350 01 00:   BULK DENSITY
 CORR.G/C3   45 356 01 00:   DENSITY CORRECTION
~PARAMETER INFORMATION
#MNEM.UNIT          VALUE    DESCRIPTION
#----------   ------------   ------------------------------
 EKB .F         5232.0000:   Kelly bushing
 EGL .F         5222.0000:   Ground level
 EDF .F            0.0000:   Drilling floor
 EPD .F         5222.0000:   Permanent datum
 TD  .F         4040.0000:   Total depth
 DATE.        03-APR-1978:   Date logged
 CLNT.            A2DTECH:   Client Code
 SL  . 1700' FNL & 1700' FWL:   Surface Location
 PD  .                 GL:   Permanent Datum
 DD  .F              4040:   Depth driller
 DL  .F              4031:   Depth logger
 BLI .F              4025:   Bottom log interval
 CS1 .IN            8.625:   Casing size
 CBD1.      8.625" @ 503':   Casing driller 1
 CBL1.F               504:   Casing logger 1
 BS1 .IN            7.875:   Bit size
 DFT .           CHEM GEL:   Type fluid in hole
 DFD .                9.5:   Density
 DFV .                 43:   Viscosity
 DFPH.               11.5:   pH
 DFL .                4.4:   Fluid loss
 MSS .            MUD PIT:   Source of sample
 RMS .OHMM           1.16:   Rm
 MST .F                80:   Rm Meas. temp.
 RMF .OHMM           0.93:   Rmf
 MFST.F                80:   Rmf Meas. temp.
 RMC .OHMM           1.74:   Rmc
 MCST.F                80:   Rmc Meas. temp.
 MFSS.               MEAS:   Source Rmf.
 RMB .OHMM          0.742:   Rm. at BHT
 BHT .F               125:   BHT.
 TCS .HRS            0800:   Time Circ. stopped
 MRT .F               125:   Maximum recorded temp.
 LUN .               7660:   Logging unit number
 LUL .                GLT:   Logging unit location
 ENGI.            TOEPPER:   Recorded By
 WITN.           MCGINLEY:   Witnessed by
 ORIG.         2.5" PRINT:   Origin of data
 UWI .     49025105980000:   Unique Well ID
 DICO. A2D TECHNOLOGIES, INC.:   Digitizing Company
 DAPD.                 10:   Feet Above Permanent Datum
 BSD1.               4040:   Depth drilled with bit1
 MCSS.               CALC:   Source Rmc.
 LMF .                 KB:   Log Measured From
 DMF .                 KB:   Drilling Measured From
 TLI .                504:   Top log interval
 TLAB.               1000:   Time logger at bottom
~OTHER INFORMATION
~A    DEPT     SPR        ILD        SFL        ILM       NPHI         GRD      CALD       RHOB       CORR   
# ...
 2591.5000   -47.2170     7.3080     8.5850     7.8680     0.2460   110.5170     9.6780     2.5650     0.0140
 2592.0000   -47.2190     7.3310     8.5850     7.7960     0.2460   111.2250     9.6810     2.5860     0.0300
 2592.5000   -47.1980     7.3550     8.4820     7.7240     0.2450   112.0950     9.6840     2.6180     0.0550
 2593.0000   -47.1680     7.3780     8.1760     7.6530     0.2390   111.5180     9.6860     2.6130     0.0490
 2593.5000   -46.4390     7.4010     7.9770     7.5810     0.2340   109.7590     9.6890     2.5870     0.0280
 2594.0000   -46.4340     7.4110     7.9770     7.5490     0.2280   108.3370     9.6920     2.5920     0.0320
 2594.5000   -46.4010     7.5670     8.5580     7.7520     0.2280   106.9650     9.6950     2.6170     0.0560
 2595.0000   -46.4190     7.7030     9.0630     7.9290     0.2280   109.0460     9.6980     2.5970     0.0410
 2595.5000   -46.4140     7.8390     9.5870     8.1050     0.2290   111.4820     9.7010     2.5760     0.0130
 2596.0000   -46.4130     7.9740     9.4120     8.2820     0.2300   111.4230     9.7040     2.5680     0.0260
 2596.5000   -46.4150     8.1100     9.3700     8.4580     0.2300   109.6350     9.7060     2.6230     0.0690
 2597.0000   -46.4140     8.2760     9.3340     8.6350     0.2310   107.6420     9.7100     2.5960     0.0570
 2597.5000   -46.4150     8.2320     9.2980     8.7450     0.2350   108.4010     9.7040     2.5520     0.0380
 2598.0000   -46.4140     8.1170     9.2630     8.5990     0.2390   109.4470     9.6940     2.5630     0.0220
 2598.5000   -46.4140     8.0010     9.2410     8.4510     0.2440   114.0270     9.6840     2.5950     0.0370
 2599.0000   -46.4160     7.8860     8.9330     8.3020     0.2470   117.7390     9.6750     2.5770     0.0450
 2599.5000   -46.4080     7.7710     8.6960     8.1540     0.2490   121.9600     9.6650     2.5540     0.0190
 2600.0000   -46.4730     7.6560     8.4600     8.0050     0.2520   123.3120     9.6560     2.5330     0.0020
 2600.5000   -46.5910     7.5400     8.2230     7.8570     0.2520   122.8220     9.6460     2.5530     0.0080
 2601.0000   -46.6990     7.4250     8.1250     7.7080     0.2470   121.2950     9.6350     2.5580     0.0150
 2601.5000   -46.8090     7.3100     8.2130     7.5600     0.2480   118.8020     9.6380     2.5500     0.0230
 2602.0000   -46.9170     7.1950     8.2760     7.4120     0.2500   118.9310     9.6580     2.5310     0.0020
 2602.5000   -47.0260     7.0790     8.1250     7.2630     0.2500   119.5340     9.6760     2.5350     0.0080
 2603.0000   -47.1510     6.8860     8.0490     7.0140     0.2480   117.0570     9.6950     2.5600     0.0210
 2603.5000   -47.1420     6.8910     7.9690     7.0230     0.2430   112.2540     9.7130     2.5780     0.0350
 2604.0000   -46.8810     6.9060     7.8880     7.0540     0.2380   110.0270     9.7320     2.5770     0.0470
 2604.5000   -46.6420     6.9210     7.8310     7.0850     0.2350   109.2710     9.7510     2.5820     0.0580
 2605.0000   -46.4210     6.9360     7.6890     7.1160     0.2410   110.8220     9.7690     2.5870     0.0490
 2605.5000   -46.3560     6.9510     7.8630     7.1470     0.2370   111.0940     9.7880     2.5720     0.0300
 2606.0000   -46.2990     6.9660     8.0240     7.1780     0.2400   110.0920     9.8060     2.5530     0.0180
 2606.5000   -46.2460     6.9810     8.2760     7.2090     0.2430   109.3070     9.8250     2.5430     0.0170
 2607.0000   -46.1910     6.9960     8.1250     7.2400     0.2470   111.8410     9.8200     2.5410     0.0110
 2607.5000   -46.1350     7.0140     7.9650     7.2760     0.2490   114.1410     9.8070     2.5520     0.0000
 2608.0000   -46.0830     6.9310     7.9140     7.2020     0.2530   116.8850     9.7950     2.5670     0.0180
 2608.5000   -46.0290     6.8300     7.8630     7.1100     0.2560   117.5640     9.7820     2.5530     0.0130
 2609.0000   -46.1060     6.7290     7.7600     7.0190     0.2600   118.1310     9.7700     2.5630     0.0090
 2609.5000   -46.2230     6.6280     7.5760     6.9270     0.2630   118.4530     9.7560     2.5710     0.0220
 2610.0000   -46.3390     6.5280     7.3930     6.8360     0.2660   115.9090     9.7520     2.5640     0.0270
 2610.5000   -46.4560     6.4270     7.2090     6.7450     0.2690   113.5430     9.7610     2.5580     0.0240
 2611.0000   -46.5710     6.3260     7.0140     6.6530     0.2710   110.9950     9.7670     2.5630     0.0260
 2611.5000   -46.6810     6.2250     7.0330     6.5620     0.2730   108.3750     9.7750     2.5750     0.0330
 2612.0000   -46.8220     6.1240     7.0680     6.4710     0.2760   107.1990     9.7820     2.5700     0.0340
 2612.5000   -46.7710     6.0230     7.1040     6.3790     0.2810   106.4270     9.7890     2.5410     0.0280
 2613.0000   -47.1370     5.9220     7.1440     6.2880     0.2860   103.0130     9.7960     2.5380     0.0260
 2613.5000   -47.2100     5.8220     7.1440     6.1970     0.3000   103.5040     9.8040     2.5280     0.0250
 2614.0000   -47.2220     5.7210     7.0140     5.9850     0.3070   107.0360     9.8100     2.5330     0.0340
 2614.5000   -47.2040     5.6250     6.8860     5.7290     0.3000   109.3960     9.8170     2.5430     0.0450
 2615.0000   -47.2190     5.6490     6.7270     5.7540     0.2700   103.4000     9.8270     2.5610     0.0570
 2615.5000   -47.0440     5.6860     6.5760     5.7910     0.2410    95.1360     9.8070     2.5790     0.0700
 2616.0000   -46.4710     5.7290     6.3980     5.8360     0.2080    85.3580     9.7420     2.5860     0.0720
 2616.5000   -46.4170     6.4170    10.9340     8.5320     0.1760    77.0650     9.6780     2.5890     0.0630
 2617.0000   -46.4070     7.2620    22.0290    11.8450     0.1440    66.7040     9.6150     2.6000     0.0550
 2617.5000   -46.4200     8.1250    33.1230    15.1580     0.1060    64.0980     9.5540     2.6190     0.0460
 2618.0000   -46.4010    10.8590    44.2180    18.4710     0.1120    67.1470     9.5590     2.5920     0.0370
 2618.5000   -46.5800    13.6490    55.3120    21.7840     0.1240    69.6410     9.5710     2.5600     0.0300
 2619.0000   -47.0830    17.3450    66.4060    25.0970     0.1370    72.3190     9.5870     2.5230     0.0200
 2619.5000   -47.2190    21.7790    73.7730    28.4100     0.1490    73.2620     9.5880     2.4920     0.0130
 2620.0000   -47.2160    26.2130    62.7480    31.7230     0.1610    72.5400     9.6210     2.5070     0.0200
 2620.5000   -47.1850    30.6470    50.9080    35.0360     0.1700    72.0600     9.6800     2.5190     0.0420
 2621.0000   -47.4460    32.8550    40.2180    36.6860     0.1760    71.5540     9.7100     2.4880     0.0300
 2621.5000   -47.6040    31.8770    39.8870    35.5160     0.1820    70.9140     9.6940     2.4600     0.0230
 2622.0000   -47.8180    30.9870    39.5860    33.8250     0.1830    70.6600     9.6850     2.4410     0.0130
 2622.5000   -48.1540    29.9690    38.1250    32.1340     0.1840    68.0150     9.6740     2.4560     0.0280
 2623.0000   -48.3840    29.9260    36.0880    30.5250     0.1780    63.0430     9.6620     2.4600     0.0650
 2623.5000   -48.6020    29.8290    35.3620    30.4150     0.1710    62.7070     9.6520     2.4360     0.0430
 2624.0000   -48.8290    29.7330    36.0700    30.3090     0.1630    65.5840     9.6390     2.4540     0.0310
 2624.5000   -49.0510    29.6370    36.9190    30.2030     0.1560    68.0760     9.6250     2.4980     0.0540
 2625.0000   -49.2750    29.5410    37.7670    30.0980     0.1460    70.6300     9.5520     2.5330     0.0820
 2625.5000   -49.4960    29.4440    38.6160    29.9920     0.1310    72.0660     9.4900     2.5530     0.0780
 2626.0000   -49.7270    29.4240    39.4860    33.0130     0.1160    69.6930     9.4230     2.5290     0.0300
 2626.5000   -49.9480    32.6810    39.4860    36.8890     0.1020    67.3790     9.3590     2.5510     0.0090
 2627.0000   -50.5410    38.3890    43.9900    40.7640     0.0870    64.9210     9.2950     2.6290     0.0260
 2627.5000   -51.2580    43.2870    87.0860    44.0900     0.0790    63.1970     9.2240     2.6200     0.0290
