~VERSION INFORMATION
 VERS.                2.0:   CWLS LOG ASCII STANDARD - VERSION 2.0
 WRAP.                 NO:   ONE LINE PER DEPTH STEP
~WELL INFORMATION
#MNEM.UNIT      DATA TYPE    INFORMATION
#----------   ------------   ------------------------------
 STRT.F            0.0000:   START DEPTH
 STOP.F         3358.0000:   STOP DEPTH
 STEP.F            0.5000:   STEP LENGTH
 NULL.          -999.2500:   NO VALUE
 COMP. LAWRENCE ALLISON & ASSOC.:   COMPANY
 WELL. LAWRENCE NPR 3 "X" #14-11:   WELL
 FLD .                NPR:   FIELD
 LOC .      S11 T38N R78W:   LOCATION
 CNTY.            NATRONA:   COUNTY
 STAT.            WYOMING:   STATE
 CTRY. UNITED STATES OF AMERICA:   COUNTRY
 SRVC.      DRESSER ATLAS:   SERVICE COMPANY
 DATE.        25-SEP-1985:   LOGDATE
 API .     49025110470000:   API NUMBER
~CURVE INFORMATION
#MNEM.UNIT       API CODE    CURVE DESCRIPTION
#----------   ------------   ------------------------------
 DEPT.F                  :   
 TENR.LBS    07 635 01 00:   TENSION
 SPR .MV     07 010 01 00:   SPONTANEOUS POTENTIAL
 SFL .OHMM   07 220 01 00:   SHALLOW FOCUSED LOG RESISTIVITY
 ILD .OHMM   07 120 46 00:   DEEP INDUCTION RESISTIVITY
 ILM .OHMM   07 120 44 00:   INDUCTION LOG MEDIUM RESISTIVITY
 TENS.LBS    60 635 01 00:   TENSION FROM SONIC LOG
 DT  .US/F   60 520 00 00:   DELTA TIME
 TEND.LBS    45 635 01 00:   TENSION FROM DENSITY LOG
 RHOB.G/C3   45 350 01 00:   BULK DENSITY
 CORR.G/C3   45 356 01 00:   DENSITY CORRECTION
 NPHI.DEC    42 890 01 00:   NEUTRON POROSITY LIMESTONE
 GRR .GAPI   07 310 01 00:   GAMMA RAY FROM RESISTIVITY
~PARAMETER INFORMATION
#MNEM.UNIT          VALUE    DESCRIPTION
#----------   ------------   ------------------------------
 EKB .F         5184.0000:   Kelly bushing
 EGL .F         5173.0000:   Ground level
 EDF .F            0.0000:   Drilling floor
 TD  .F         3353.0000:   Total depth
 DATE.        25-SEP-1985:   Date logged
 CLNT.            A2DTECH:   Client Code
 SL  . 473' FWL & 2360' FNL:   Surface Location
 PD  .                 GL:   Permanent Datum
 EPD .F              5173:   Elevation Permanent Datum
 LMF .                 KB:   Log Measured From
 DMF .                 KB:   Drilling Measured From
 DAPD.F                11:   Feet Above Permanent Datum
 DD  .F              3353:   Depth driller
 DL  .F              3346:   Depth logger
 BLI .F              3344:   Bottom log interval
 CS1 .IN            8.625:   Casing size
 CBD1.      8.625" @ 586':   Casing driller 1
 CBL1.F               585:   Casing logger 1
 BS1 .IN            7.875:   Bit size
 BSD1.F              3353:   Depth drilled with bit1
 DFT .     GEL/KCL/STAFLO:   Type fluid in hole
 DFD .                8.9:   Density
 DFV .                 39:   Viscosity
 DFPH.                  8:   pH
 DFL .                8.9:   Fluid loss
 MSS .           FLOWLINE:   Source of sample
 RMS .OHMM            .45:   Rm
 MST .F                80:   Rm Meas. temp.
 RMF .OHMM            .33:   Rmf
 MFST.F                80:   Rmf Meas. temp.
 RMC .OHMM            .56:   Rmc
 MCST.F                80:   Rmc Meas. temp.
 MFSS.               CALC:   Source Rmf.
 MCSS.               CALC:   Source Rmc.
 RMB .OHMM            .27:   Rm. at BHT
 BHT .F               130:   BHT.
 TCS .HRS               3:   Time Circ. stopped
 MRT .F               135:   Maximum recorded temp.
 LUN .               6274:   Logging unit number
 LUL .               GLTE:   Logging unit location
 ENGI.               MACK:   Recorded By
 WITN.             STRONG:   Witnessed by
 ORIG.           5" PRINT:   Origin of data
 UWI .     49025110470000:   Unique Well ID
 DICO. A2D TECHNOLOGIES, INC.:   Digitizing Company
~OTHER INFORMATION
~A    DEPT    TENR        SPR        SFL        ILD        ILM       TENS         DT       TEND       RHOB       CORR       NPHI         GRR  
# ...
 2772.0000   -57.2050   -46.8630    12.2320    13.8870    12.4240   -57.0250    78.9600   -75.9730     2.4000     0.0560     0.2080    36.3820
 2772.5000   -57.8600   -46.6150    12.3020    13.7820    12.3960   -56.4690    78.9930   -83.5890     2.3990     0.0460     0.2130    36.0230
 2773.0000   -58.5140   -46.3700    12.4060    13.6760    12.3690   -55.9130    79.0270   -91.2040     2.3920     0.0350     0.2230    35.6290
 2773.5000   -59.1690   -46.1250    12.3870    13.5710    12.3430   -55.6950    79.3200   -95.9110     2.3790     0.0210     0.2330    35.2520
 2774.0000   -59.8240   -45.8800    12.2290    13.4650    12.3160   -56.2390    79.6750   -96.6080     2.3770     0.0090     0.2280    34.8650
 2774.5000   -60.4780   -45.6330    12.0710    13.3600    12.2900   -56.7830    80.0300   -97.3050     2.3820     0.0130     0.2230    34.4880
 2775.0000   -61.1330   -45.3920    11.9770    13.2540    12.2630   -57.3270    79.9380   -98.0020     2.3950     0.0160     0.2210    34.3040
 2775.5000   -61.7880   -45.1420    12.0120    13.1260    12.2370   -57.8700    79.8450   -98.7000     2.4080     0.0200     0.2260    34.6310
 2776.0000   -62.4430   -44.8990    12.0460    12.9750    12.1990   -58.4140    79.7530   -99.3970     2.4210     0.0220     0.2290    36.4510
 2776.5000   -63.0970   -44.6690    12.0800    12.7820    12.3060   -58.9580    79.6610  -100.0940     2.4270     0.0060     0.2290    38.9020
 2777.0000   -63.7520   -44.6340    12.1140    12.5900    12.4930   -59.5020    79.5690  -100.7910     2.4230    -0.0080     0.2280    38.6260
 2777.5000   -64.4070   -44.8110    12.1480    12.4240    12.6540   -60.0450    79.5540  -101.4880     2.4180     0.0060     0.2330    38.0600
 2778.0000   -65.0620   -45.3010    12.1830    12.3730    12.5930   -60.5890    79.5920  -102.1860     2.4190     0.0260     0.2400    38.4480
 2778.5000   -65.7160   -45.7620    12.1990    12.3030    12.5430   -61.1330    79.6310  -102.8830     2.4360     0.0380     0.2480    39.7210
 2779.0000   -66.3710   -46.2410    11.8030    12.2340    12.4920   -61.6760    79.9110  -103.5800     2.4520     0.0430     0.2410    40.5820
 2779.5000   -67.0260   -46.7120    11.3370    12.1990    12.4410   -62.2200    80.0300  -104.2770     2.4620     0.0450     0.2330    40.2210
 2780.0000   -67.6810   -47.1850    11.4130    12.3420    12.3900   -62.7640    79.7520  -104.9740     2.4430     0.0400     0.2260    39.7810
 2780.5000   -68.3350   -47.6590    11.6790    12.5500    12.3380   -63.3080    79.3220  -105.5780     2.4400     0.0350     0.2180    39.9090
 2781.0000   -68.9900   -48.1270    11.9450    12.7580    12.2870   -63.8510    78.7690   -99.7770     2.4450     0.0290     0.2170    41.3550
 2781.5000   -69.6450   -48.6120    12.1990    12.9670    12.2120   -64.3950    78.5820   -91.8570     2.4470     0.0320     0.2180    42.8520
 2782.0000   -70.3000   -49.0660    12.0850    13.1260    12.3300   -64.9390    78.9590   -83.9360     2.4320     0.0410     0.2190    42.7420
 2782.5000   -70.9540   -49.5720    11.9770    13.1260    12.8910   -65.4830    79.2910   -76.0160     2.4160     0.0400     0.2130    40.8630
 2783.0000   -71.6090   -49.8930    11.9770    13.4050    13.4510   -66.0260    79.1490   -68.0960     2.4130     0.0340     0.2090    39.2280
 2783.5000   -72.2640   -50.3860    12.9390    13.6790    14.0110   -66.5700    78.6340   -77.3240     2.4320     0.0240     0.2070    37.5330
 2784.0000   -72.9180   -50.6370    14.7870    13.9530    14.5710   -67.1140    77.7600   -93.8250     2.4460     0.0190     0.2050    35.8840
 2784.5000   -73.5730   -50.9280    16.6350    14.1230    15.1320   -67.6570    76.8560   -95.2750     2.4580     0.0260     0.1960    34.7210
 2785.0000   -74.2280   -51.1670    18.4820    13.9810    16.0550   -68.2010    75.5700   -94.7800     2.4670     0.0320     0.1890    33.5690
 2785.5000   -74.8830   -51.6340    19.3580    13.7300    15.7630   -68.7450    74.1660   -94.2840     2.4840     0.0210     0.1820    34.2620
 2786.0000   -75.5370   -52.6100    19.5780    13.4520    15.0840   -69.2890    72.7610   -93.7890     2.5070     0.0090     0.1810    35.1030
 2786.5000   -76.1920   -53.5790    17.8460    13.1520    14.3670   -69.8320    71.7000   -93.2930     2.5640     0.0230     0.1800    38.5710
 2787.0000   -76.8470   -54.5890    15.4020    12.8510    13.6490   -70.3760    71.2650   -92.7970     2.5720     0.0410     0.1790    39.7980
 2787.5000   -77.5020   -55.3520    12.9580    12.5510    12.9320   -70.9200    71.7800   -92.3020     2.5790     0.0590     0.1770    41.3190
 2788.0000   -78.1560   -55.9310    10.7310    12.2500    12.2150   -71.4630    72.8510   -91.8060     2.5790     0.0680     0.1710    40.7560
 2788.5000   -78.8110   -56.5230    11.7840    11.9500    11.4980   -72.0070    72.1420   -91.3100     2.5860     0.0460     0.1690    39.1300
 2789.0000   -79.4660   -56.6190    13.3230    11.6490    10.7810   -72.5510    71.2470   -90.8150     2.5920     0.0250     0.1670    36.8270
 2789.5000   -80.1210   -56.9840    14.8620    11.4580    10.5220   -73.0950    70.3510   -90.3190     2.5910     0.0100     0.1650    35.2340
 2790.0000   -80.7750   -56.9890    16.9610    11.3240    10.5010   -73.6380    69.8820   -89.8230     2.5850     0.0290     0.1690    36.2190
 2790.5000   -80.7600   -57.1180    14.9540    11.1900    10.4790   -74.1820    70.2590   -89.3280     2.5800     0.0520     0.1770    38.3360
 2791.0000   -80.3610   -57.1980    12.5550    11.0550    10.4580   -74.7260    71.2770   -88.8320     2.5740     0.0440     0.1840    39.6360
 2791.5000   -79.9620   -57.2970    10.9300    10.9210    10.4370   -75.2700    72.3630   -88.3360     2.5680     0.0350     0.1830    38.9850
 2792.0000   -79.5640   -57.3910    11.5580    10.7870    10.4150   -75.5230    72.6340   -87.8410     2.5570     0.0320     0.1810    37.9890
 2792.5000   -79.1650   -57.4850    12.1990    10.7000    10.3940   -75.5230    72.2780   -87.3450     2.5460     0.0310     0.1830    38.2330
 2793.0000   -78.7660   -57.5760    12.0930    10.6460    10.3720   -75.5230    71.9230   -86.8490     2.5400     0.0280     0.1860    38.7470
 2793.5000   -78.3670   -57.6830    11.9770    10.5930    10.3510   -75.5230    71.7550   -86.3540     2.5360     0.0150     0.1840    40.7250
 2794.0000   -77.9680   -57.7420    11.9770    10.5370    10.1470   -75.5230    71.7550   -85.8580     2.5320     0.0020     0.1820    42.0590
 2794.5000   -77.5690   -57.7390    11.9770    10.1990     9.5790   -75.5230    72.3790   -85.3620     2.5390     0.0070     0.1910    42.6970
 2795.0000   -77.1700   -57.7540    11.7600     9.5730     9.0110   -75.5230    72.5920   -84.8670     2.5450     0.0130     0.1990    44.5060
 2795.5000   -76.7710   -58.0450    11.5470     8.9470     8.4420   -75.5230    73.1290   -84.3710     2.5430     0.0190     0.2080    47.0940
 2796.0000   -76.3720   -58.3980    10.5770     8.3210     7.8740   -75.5230    74.3120   -83.8750     2.5350     0.0170     0.2230    49.3950
 2796.5000   -75.9730   -58.7500     9.7020     7.6940     7.3050   -75.5230    75.9800   -83.3800     2.5220     0.0110     0.2400    51.7290
 2797.0000   -75.5740   -59.0980     8.8270     7.0680     6.7370   -75.5230    77.6480   -82.8840     2.5160     0.0180     0.2420    54.1790
 2797.5000   -75.1750   -59.4560     8.0060     6.4420     6.1680   -75.5230    79.2910   -82.3890     2.5180     0.0280     0.2440    56.2950
 2798.0000   -74.7760   -59.7190     8.0060     5.9060     5.8640   -75.5230    80.7250   -81.8930     2.5140     0.0390     0.2450    59.5010
 2798.5000   -74.3780   -59.6700     7.0010     5.6540     5.7580   -75.5230    82.1590   -81.3970     2.5160     0.0440     0.2570    63.6630
 2799.0000   -73.9790   -59.5550     6.0830     5.5570     5.4360   -75.5230    83.5930   -80.9020     2.5210     0.0260     0.2550    65.6660
 2799.5000   -73.5800   -59.4370     6.4390     5.4040     5.1590   -75.5230    84.0670   -80.4060     2.5260     0.0050     0.2560    64.0900
