~VERSION INFORMATION
 VERS.                2.0:   CWLS LOG ASCII STANDARD - VERSION 2.0
 WRAP.                 NO:   ONE LINE PER DEPTH STEP
~WELL INFORMATION
#MNEM.UNIT      DATA TYPE    INFORMATION
#----------   ------------   ------------------------------
 STRT.F            0.0000:   START DEPTH
 STOP.F         2870.0000:   STOP DEPTH
 STEP.F            0.5000:   STEP LENGTH
 NULL.          -999.2500:   NO VALUE
 COMP.  FENIX AND SCISSON:   COMPANY
 WELL.  FENIX "A" #304-28:   WELL
 FLD .             NPR #3:   FIELD
 LOC .      S28 T39N R78W:   LOCATION
 CNTY.            NATRONA:   COUNTY
 STAT.            WYOMING:   STATE
 CTRY. UNITED STATES OF AMERICA:   COUNTRY
 SRVC.         MCCULLOUGH:   SERVICE COMPANY
 DATE.        21-DEC-1977:   LOGDATE
 API .     49025105600000:   API NUMBER
~CURVE INFORMATION
#MNEM.UNIT       API CODE    CURVE DESCRIPTION
#----------   ------------   ------------------------------
 DEPT.F                  :   
 GR  .GAPI   30 310 01 00:   GAMMA RAY
 CALI.IN     70 280 01 00:   CALIPER
~PARAMETER INFORMATION
#MNEM.UNIT          VALUE    DESCRIPTION
#----------   ------------   ------------------------------
 EKB .F            0.0000:   Kelly bushing
 EGL .F            0.0000:   Ground level
 EDF .F         5074.7000:   Drilling floor
 EPD .F         5074.7000:   Permanent datum
 TD  .F         2868.0000:   Total depth
 DATE.        21-DEC-1977:   Date logged
 CLNT.            A2DTECH:   Client Code
 DL  .F              2868:   Depth logger
 BLI .F              2866:   Bottom log interval
 TLI .F              2000:   Top log interval
 CS1 .IN             6.25:   Casing size
 CBD1.     6.625" @ 2935':   Casing driller 1
 BS1 .IN             6.25:   Bit size
 BSD1.F              2868:   Depth drilled with bit1
 DFT .              WATER:   Type fluid in hole
 TCS .HRS             1.5:   Time Circ. stopped
 ENGI.             CONLEY:   Recorded By
 WITN.           HARRISON:   Witnessed by
 ORIG.           5" PRINT:   Origin of data
 UWI .     49025105600000:   Unique Well ID
 DICO. A2D TECHNOLOGIES, INC.:   Digitizing Company
~OTHER INFORMATION
~A    DEPT      GR         CALI 
# ...
 2187.0000    79.6340     6.7330
 2187.5000    80.6090     6.7390
 2188.0000    81.4480     6.7430
 2188.5000    80.7420     6.7220
 2189.0000    75.0230     6.8290
 2189.5000    70.8560     6.6520
 2190.0000    70.8910     6.6660
 2190.5000    72.4150     6.6750
 2191.0000    74.4670     6.6770
 2191.5000    72.8600     6.6780
 2192.0000    74.7210     6.6720
 2192.5000    76.1330     6.6660
 2193.0000    77.0970     6.6630
 2193.5000    76.6870     6.6630
 2194.0000    77.3510     6.6610
 2194.5000    79.3370     6.6590
 2195.0000    84.0640     6.6570
 2195.5000    87.5780     6.6560
 2196.0000    85.2430     6.6520
 2196.5000    80.0730     6.6480
 2197.0000    79.7810     6.6430
 2197.5000    82.8350     6.6380
 2198.0000    83.5770     6.6400
 2198.5000    83.3370     6.6430
 2199.0000    84.7290     6.6460
 2199.5000    85.9310     6.6460
 2200.0000    86.0680     6.6460
 2200.5000    78.8090     6.6460
 2201.0000    75.4030     6.6460
 2201.5000    75.0480     6.6480
 2202.0000    73.7990     6.6520
 2202.5000    74.2780     6.6480
 2203.0000    74.8100     6.6410
 2203.5000    77.1350     6.6360
 2204.0000    78.8110     6.6360
 2204.5000    77.4070     6.6350
 2205.0000    77.2900     6.6350
 2205.5000    77.6220     6.6350
 2206.0000    78.4490     6.6340
 2206.5000    75.8240     6.6350
 2207.0000    73.8960     6.6360
 2207.5000    72.2600     6.6350
 2208.0000    71.6650     6.6350
 2208.5000    75.7390     6.6340
 2209.0000    77.6740     6.6330
 2209.5000    76.9910     6.6360
 2210.0000    75.6420     6.6410
 2210.5000    72.9610     6.6480
 2211.0000    71.3500     6.9200
 2211.5000    70.3140     6.7010
 2212.0000    69.4260     6.7120
 2212.5000    69.5450     6.7150
 2213.0000    68.6960     6.7130
 2213.5000    69.8450     6.7120
 2214.0000    70.1810     6.7070
 2214.5000    70.1620     6.7020
 2215.0000    69.2750     6.7010
 2215.5000    68.5890     6.7000
 2216.0000    66.0240     6.6990
 2216.5000    64.5700     6.6960
 2217.0000    63.8130     6.6920
 2217.5000    63.0520     6.6920
 2218.0000    62.2300     6.6920
 2218.5000    67.7210     6.6880
 2219.0000    66.6840     6.6850
 2219.5000    67.9780     6.6890
 2220.0000    65.6610     6.6930
 2220.5000    63.4110     6.6980
 2221.0000    63.3360     6.6970
 2221.5000    64.5110     6.6920
 2222.0000    64.2420     6.6860
 2222.5000    63.4570     6.6830
 2223.0000    64.1320     6.6840
 2223.5000    65.1020     6.6850
 2224.0000    66.3510     6.6860
 2224.5000    68.3500     6.6850
 2225.0000    68.7860     6.6840
 2225.5000    68.5220     6.6840
 2226.0000    66.0020     6.6830
 2226.5000    66.0000     6.6830
 2227.0000    65.2960     6.6830
 2227.5000    65.9240     6.6830
 2228.0000    70.4320     6.6840
 2228.5000    69.5340     6.6840
 2229.0000    72.0010     6.6840
 2229.5000    73.6520     6.6860
 2230.0000    73.1590     6.6870
 2230.5000    73.5360     6.6890
 2231.0000    71.9310     6.6860
 2231.5000    69.6530     6.7000
 2232.0000    70.2940     6.8550
 2232.5000    72.0650     6.7260
 2233.0000    74.1260     6.7380
 2233.5000    74.8860     6.7380
 2234.0000    75.1560     6.7390
 2234.5000    75.0550     6.7400
 2235.0000    75.6480     6.7420
 2235.5000    77.2620     6.7450
 2236.0000    78.5330     6.7470
 2236.5000    77.4190     6.7470
 2237.0000    78.5080     6.7480
 2237.5000    83.0550     6.7480
 2238.0000    85.0470     6.7500
 2238.5000    90.5400     6.7530
 2239.0000    88.1140     6.7520
 2239.5000    90.2340     6.7440
 2240.0000    91.9210     6.7400
 2240.5000    93.8770     6.7420
 2241.0000    94.4770     6.7400
 2241.5000    93.9010     6.7380
 2242.0000    94.8520     6.7420
 2242.5000    89.8850     6.7540
 2243.0000    85.4430     6.7430
 2243.5000    81.2360     6.7450
 2244.0000    77.8920     6.7540
 2244.5000    69.7540     6.7580
 2245.0000    65.4520     6.7580
 2245.5000    59.2410     6.7620
 2246.0000    58.4770     6.7710
 2246.5000    57.7910     6.7730
 2247.0000    58.2860     6.7730
 2247.5000    58.1610     6.7730
 2248.0000    60.8480     6.7720
 2248.5000    64.2140     6.7710
 2249.0000    69.4930     6.7720
 2249.5000    70.3040     6.7770
 2250.0000    69.4190     6.7810
 2250.5000    70.0260     6.7890
 2251.0000    71.8470     6.7990
 2251.5000    72.0880     6.8060
 2252.0000    71.9880     6.8080
 2252.5000    68.5840     6.8050
 2253.0000    67.3810     6.9500
 2253.5000    65.1550     6.7000
 2254.0000    64.5950     6.7140
 2254.5000    65.0390     6.7140
 2255.0000    68.3560     6.7120
 2255.5000    66.3360     6.7120
 2256.0000    68.0690     6.7120
 2256.5000    66.3930     6.7120
 2257.0000    66.9590     6.7130
 2257.5000    68.8980     6.7130
 2258.0000    68.6430     6.7130
 2258.5000    68.7250     6.7130
 2259.0000    71.4150     6.7180
 2259.5000    71.9430     6.7220
 2260.0000    72.7090     6.7230
 2260.5000    68.0900     6.7150
 2261.0000    66.6830     6.7120
 2261.5000    63.2750     6.7120
 2262.0000    63.5620     6.7130
 2262.5000    70.1170     6.7130
 2263.0000    70.0490     6.7130
 2263.5000    69.2380     6.7120
 2264.0000    66.6240     6.7120
 2264.5000    66.0220     6.7110
 2265.0000    62.7410     6.7110
 2265.5000    62.1050     6.7100
 2266.0000    62.1970     6.7120
 2266.5000    61.0770     6.7150
 2267.0000    58.5500     6.7180
 2267.5000    55.4680     6.7230
 2268.0000    56.4560     6.7300
 2268.5000    60.6230     6.7460
 2269.0000    65.5630     6.7440
 2269.5000    70.5860     6.7470
 2270.0000    74.0320     6.7500
 2270.5000    73.8790     6.7500
 2271.0000    71.9200     6.7390
 2271.5000    71.6490     6.7400
 2272.0000    69.8520     6.7430
 2272.5000    68.3770     6.7440
 2273.0000    68.7590     6.7640
 2273.5000    68.6730     6.7760
 2274.0000    68.1020     6.7710
 2274.5000    68.6350     6.7690
 2275.0000    68.5090     7.0680
 2275.5000    69.2760     6.9970
 2276.0000    68.7420     6.9990
 2276.5000    70.5540     6.9910
 2277.0000    72.9720     6.9900
 2277.5000    74.3910     6.9930
 2278.0000    75.5110     6.9860
 2278.5000    77.1310     6.9780
 2279.0000    78.6840     6.9800
 2279.5000    80.6900     6.9830
 2280.0000    81.2000     6.9830
 2280.5000    80.5030     6.9810
 2281.0000    82.2160     6.9790
 2281.5000    82.4120     6.9770
 2282.0000    80.0770     6.9750
 2282.5000    81.1870     6.9750
 2283.0000    81.7880     6.9750
 2283.5000    78.0600     6.9760
 2284.0000    76.3780     6.9850
 2284.5000    75.9880     6.9840
 2285.0000    74.3270     6.9890
 2285.5000    69.2610     6.9980
 2286.0000    68.3010     6.9980
 2286.5000    68.1660     7.0070
 2287.0000    70.6100     7.0260
 2287.5000    71.5090     7.0300
 2288.0000    73.1510     7.0340
 2288.5000    75.7670     7.0350
 2289.0000    75.6580     7.0350
 2289.5000    75.9710     7.0350
 2290.0000    75.4760     7.0380
 2290.5000    72.8240     7.0420
 2291.0000    73.6110     7.0460
 2291.5000    73.1800     7.0520
 2292.0000    77.4330     7.0710
 2292.5000    73.9310     7.0930
 2293.0000    74.9050     7.0940
 2293.5000    75.9240     7.0930
 2294.0000    75.8370     7.0830
 2294.5000    73.9160     7.0750
 2295.0000    71.5030     7.0680
 2295.5000    69.6290     7.0630
 2296.0000    71.6260     7.0570
 2296.5000    68.4500     7.0830
 2297.0000    68.4140     6.6880
 2297.5000    69.1370     6.7040
 2298.0000    67.4360     6.6990
 2298.5000    69.7780     6.7000
 2299.0000    71.5730     6.6830
 2299.5000    74.3070     6.6640
 2300.0000    76.9370     6.6590
 2300.5000    76.1960     6.6590
 2301.0000    75.8200     6.6600
 2301.5000    73.9620     6.6630
 2302.0000    72.5560     6.6680
 2302.5000    73.9850     6.6720
 2303.0000    72.0960     6.6740
 2303.5000    71.6330     6.6790
 2304.0000    71.7450     6.6890
 2304.5000    73.5370     6.6960
 2305.0000    71.8870     6.6910
 2305.5000    75.0910     6.6910
 2306.0000    77.6430     6.6880
 2306.5000    77.0330     6.6810
 2307.0000    75.7890     6.6740
 2307.5000    76.5740     6.6700
 2308.0000    82.1610     6.6720
