~VERSION INFORMATION
 VERS.                2.0:   CWLS LOG ASCII STANDARD - VERSION 2.0
 WRAP.                 NO:   ONE LINE PER DEPTH STEP
~WELL INFORMATION
#MNEM.UNIT      DATA TYPE    INFORMATION
#----------   ------------   ------------------------------
 STRT.F          480.0000:   START DEPTH
 STOP.F         4609.5000:   STOP DEPTH
 STEP.F            0.5000:   STEP LENGTH
 NULL.          -999.2500:   NO VALUE
 COMP.   FENNIX & SCISSON:   COMPANY
 WELL. FENNIX NPR-3 "LX" #58-14:   WELL
 FLD .              NPR-3:   FIELD
 LOC .      S14 T38N R78W:   LOCATION
 CNTY.            NATRONA:   COUNTY
 STAT.            WYOMING:   STATE
 CTRY. UNITED STATES OF AMERICA:   COUNTRY
 SRVC.       SCHLUMBERGER:   SERVICE COMPANY
 DATE.        08-MAR-1978:   LOGDATE
 API .     49025105920000:   API NUMBER
~CURVE INFORMATION
#MNEM.UNIT       API CODE    CURVE DESCRIPTION
#----------   ------------   ------------------------------
 DEPT.F                  :   
 SPR .MV     07 010 01 00:   SPONTANEOUS POTENTIAL
 SFL .OHMM   07 220 01 00:   SHALLOW FOCUSED LOG RESISTIVITY
 ILD .OHMM   07 120 46 00:   DEEP INDUCTION RESISTIVITY
 ILM .OHMM   07 120 44 00:   INDUCTION LOG MEDIUM RESISTIVITY
 CALD.IN     45 280 60 00:   CALIPER FROM DENSITY LOG
 GRD .GAPI   45 310 01 00:   GAMMA RAY FROM DENSITY LOG
 CORR.G/C3   45 356 01 00:   DENSITY CORRECTION
 RHOB.G/C3   45 350 01 00:   BULK DENSITY
 NPHI.DEC    42 890 03 00:   NEUTRON POROSITY SANDSTONE
~PARAMETER INFORMATION
#MNEM.UNIT          VALUE    DESCRIPTION
#----------   ------------   ------------------------------
 EKB .F         5320.0000:   Kelly bushing
 EGL .F         5310.0000:   Ground level
 EDF .F            0.0000:   Drilling floor
 TD  .F         4635.0000:   Total depth
 DATE.        08-MAR-1978:   Date logged
 CLNT.            A2DTECH:   Client Code
 SL  . 810' FSL & 1830' FEL:   Surface Location
 PD  .                 GL:   Permanent Datum
 DD  .F              4635:   Depth driller
 DL  .F              4608:   Depth logger
 BLI .F              4607:   Bottom log interval
 DFT .                FGM:   Type fluid in hole
 DFD .                9.1:   Density
 DFV .                 38:   Viscosity
 DFPH.                 11:   pH
 MSS .           FLOWLINE:   Source of sample
 RMS .OHMM           1.53:   Rm
 MST .F                58:   Rm Meas. temp.
 RMF .OHMM           1.06:   Rmf
 MFST.F                58:   Rmf Meas. temp.
 MFSS.               MEAS:   Source Rmf.
 RMB .OHMM           0.68:   Rm. at BHT
 BHT .F               131:   BHT.
 TCS .HRS            0630:   Time Circ. stopped
 MRT .F               131:   Maximum recorded temp.
 LUN .               8039:   Logging unit number
 LUL .               CSPP:   Logging unit location
 ENGI.           PETERSON:   Recorded By
 ORIG.           5" PRINT:   Origin of data
 UWI .     49025105920000:   Unique Well ID
 DICO. A2D TECHNOLOGIES, INC.:   Digitizing Company
 DAPD.                 20:   Feet Above Permanent Datum
 BSD1.               4635:   Depth drilled with bit1
 EPD .               5310:   Elevation Permanent Datum
 LMF .                 KB:   Log Measured From
 DMF .                 KB:   Drilling Measured From
 TLI .                508:   Top log interval
 CS1 .              8.625:   Casing size
 CBL1.                508:   Casing logger 1
 BS1 .              7.875:   Bit size
~OTHER INFORMATION
~A   DEPT      SPR        SFL        ILD        ILM       CALD         GRD      CORR       RHOB         NPHI 
# ...
 2962.0000   -48.1840     6.5200     6.4900     5.5050    10.1740   131.4870     0.0310     2.4700     0.3270
 2962.5000   -48.3210     6.0390     6.7780     5.7360    10.1960   129.7350     0.0310     2.4610     0.3400
 2963.0000   -48.4570     7.9370     7.1320     6.3630    10.2030   126.5080     0.0300     2.4600     0.3420
 2963.5000   -48.5870    12.5180     7.2900     7.1320    10.2090   127.4760     0.0230     2.4580     0.3020
 2964.0000   -48.8030    17.4900     7.6770     7.5880    10.2150   130.8870     0.0130     2.4500     0.2980
 2964.5000   -48.9990    16.9790     8.1180     8.3470    10.2210   134.6170     0.0050     2.4430     0.2790
 2965.0000   -48.8310    15.0750     8.3300     8.3270    10.2270   139.6390     0.0070     2.4500     0.2790
 2965.5000   -48.6550    12.4370     8.5020     8.2860    10.2330   148.7010     0.0100     2.4600     0.2880
 2966.0000   -48.4750    10.2650     8.2360     8.2460    10.2450   157.6500     0.0170     2.4740     0.2960
 2966.5000   -48.6280     8.5020     7.9700     8.2060    10.2660   162.3690     0.0230     2.4850     0.3050
 2967.0000   -48.9570     8.5270     7.2930     7.8420    10.2870   159.7520     0.0270     2.4800     0.3020
 2967.5000   -49.0090     8.5810     6.5400     7.3390    10.3080   159.5750     0.0210     2.4640     0.2910
 2968.0000   -49.0050     8.0130     5.7130     6.8360    10.3580   160.9090     0.0050     2.4480     0.2710
 2968.5000   -49.1600     6.7220     5.3290     5.9670    10.4570   160.2670    -0.0060     2.4560     0.2590
 2969.0000   -49.3380     5.3050     4.9110     4.8370    10.5550   153.7220     0.0020     2.4780     0.2670
 2969.5000   -49.5290     4.6840     4.5060     4.5590    10.6320   142.9150     0.0170     2.4990     0.2860
 2970.0000   -49.7260     4.2670     4.0950     4.2500    10.6800   135.6210     0.0290     2.5030     0.3150
 2970.5000   -49.9260     4.1720     4.0710     4.0770    10.7270   130.8170     0.0290     2.5010     0.3280
 2971.0000   -49.9810     4.5760     4.0360     4.0390    10.7740   131.8690     0.0190     2.5010     0.3130
 2971.5000   -49.9390     4.8370     4.0010     3.9830    10.8210   133.6330     0.0170     2.5050     0.3010
 2972.0000   -49.8960     4.8120     3.9830     4.0290    10.8610   131.9010     0.0190     2.5130     0.3050
 2972.5000   -49.8530     4.7920     4.0830     4.1210    10.9020   127.9770     0.0210     2.5200     0.3110
 2973.0000   -49.8120     4.8900     4.1610     4.2130    10.9430   124.9130     0.0200     2.5260     0.3110
 2973.5000   -49.7220     4.9790     4.2380     4.3050    10.9840   122.1340     0.0100     2.5230     0.3110
 2974.0000   -49.6230     5.1130     4.3150     4.3760    11.0250   119.3620    -0.0030     2.5200     0.3110
 2974.5000   -49.5250     5.0660     4.3730     4.4000    11.0490   117.3480    -0.0040     2.5210     0.3070
 2975.0000   -49.4320     4.8820     4.3880     4.4240    11.0490   118.8650    -0.0040     2.5230     0.3030
 2975.5000   -49.1670     4.8200     4.4030     4.4510    11.0500   120.8480    -0.0040     2.5230     0.3010
 2976.0000   -48.8700     4.7020     4.4170     4.4630    11.0500   120.3130    -0.0040     2.5220     0.3020
 2976.5000   -48.8370     4.5760     4.4320     4.4760    11.0980   115.6410    -0.0010     2.5290     0.3050
 2977.0000   -48.8750     4.5760     4.4460     4.4890    11.1770   110.9660     0.0140     2.5390     0.3100
 2977.5000   -48.9140     4.6650     4.4510     4.5030    11.2010   107.5960     0.0290     2.5480     0.3170
 2978.0000   -48.9520     4.9640     4.4510     4.5160    11.1640   107.4190     0.0380     2.5440     0.3240
 2978.5000   -48.9920     5.1130     4.4230     4.5340    11.1010   112.6040     0.0300     2.5250     0.3200
 2979.0000   -48.7950     5.0270     4.3670     4.4700    11.0570   118.7420     0.0150     2.5150     0.3100
 2979.5000   -48.4410     4.8370     4.3110     4.3800    11.0240   120.8600     0.0000     2.5210     0.3110
 2980.0000   -48.2420     4.6180     4.2500     4.2890    10.9910   119.7980    -0.0010     2.5350     0.3150
 2980.5000   -48.3160     4.5550     4.1610     4.1990    10.9580   117.6550     0.0020     2.5460     0.3240
 2981.0000   -48.3870     4.4920     4.0620     4.1060    10.9250   117.3090     0.0060     2.5410     0.3330
 2981.5000   -48.4930     4.3690     3.9630     4.0130    10.8920   117.5170     0.0080     2.5300     0.3420
 2982.0000   -48.6240     4.2100     3.8740     3.9100    10.8590   117.7470     0.0070     2.5190     0.3520
 2982.5000   -48.7550     4.0340     3.7840     3.8800    10.8250   118.2430     0.0070     2.5150     0.3610
 2983.0000   -48.8870     3.8570     3.7470     3.8460    10.7720   118.7530     0.0150     2.5160     0.3650
 2983.5000   -49.0190     3.6990     3.7100     3.8120    10.7030   119.1190     0.0230     2.5160     0.3660
 2984.0000   -49.1510     3.7340     3.6720     3.7780    10.6350   115.3930     0.0270     2.5050     0.3630
 2984.5000   -49.2650     3.8300     3.6310     3.7440    10.5650   113.1650     0.0150     2.4970     0.3490
 2985.0000   -49.3660     4.0580     3.5060     3.6830    10.4970   113.1070     0.0050     2.4930     0.3330
 2985.5000   -49.4680     4.0360     3.3670     3.6110    10.4940   115.9420    -0.0020     2.5020     0.3160
 2986.0000   -49.5690     3.9090     3.2280     3.5320    10.4940   119.8800    -0.0020     2.5120     0.3130
 2986.5000   -49.6700     3.4990     3.1030     3.3100    10.4940   123.8360     0.0040     2.5120     0.3180
 2987.0000   -49.7720     3.0850     3.0630     3.0640    10.4940   127.1510     0.0090     2.5020     0.3290
 2987.5000   -49.8730     2.6240     3.0270     2.8770    10.4940   128.7200     0.0120     2.4840     0.3420
 2988.0000   -49.9770     2.4400     2.9900     2.7770    10.4940   127.1130     0.0130     2.4760     0.3590
 2988.5000   -49.9980     2.7550     2.9540     2.8880    10.4940   124.2610     0.0100     2.4830     0.3520
 2989.0000   -49.9430     3.2040     2.9090     2.9880    10.4940   121.3130     0.0050     2.4960     0.3240
 2989.5000   -49.7470     3.6990     2.9800     3.0310    10.5070   119.8960     0.0000     2.4980     0.2960
 2990.0000   -49.5580     3.7330     3.0350     3.0490    10.5200   119.1280    -0.0030     2.4920     0.2850
 2990.5000   -49.3700     3.5170     3.0900     3.0680    10.5340   120.8270     0.0010     2.4890     0.2810
 2991.0000   -49.1810     3.2890     3.1450     3.0860    10.5470   123.5430     0.0110     2.5010     0.2900
 2991.5000   -49.0390     3.1900     3.2000     3.1040    10.5590   125.4780     0.0190     2.5170     0.2980
 2992.0000   -49.2440     3.2980     3.2500     3.1230    10.5690   127.4690     0.0160     2.5210     0.3040
 2992.5000   -49.4520     3.4670     3.2500     3.1450    10.5790   129.0060     0.0150     2.5220     0.3000
 2993.0000   -49.6680     3.4670     3.2500     3.1720    10.5890   129.9450     0.0170     2.5290     0.2960
 2993.5000   -50.0480     3.3410     3.2500     3.1940    10.6000   128.5120     0.0190     2.5360     0.2960
 2994.0000   -50.9120     3.3970     3.2500     3.2040    10.6100   126.2620     0.0200     2.5330     0.2990
 2994.5000   -51.7550     3.4770     3.2600     3.2150    10.6200   123.3630     0.0170     2.5230     0.3030
 2995.0000   -52.5900     3.5650     3.2740     3.2250    10.6310   121.5510     0.0170     2.5170     0.3080
 2995.5000   -53.3100     3.4840     3.2890     3.2360    10.6090   120.7560     0.0220     2.5220     0.3140
 2996.0000   -53.7700     3.4040     3.3110     3.2500    10.5760   119.9830     0.0260     2.5320     0.3210
 2996.5000   -54.2360     3.5000     3.3010     3.2380    10.5430   119.2080     0.0180     2.5340     0.3200
 2997.0000   -54.4820     3.5880     3.2830     3.2220    10.5130   118.4330     0.0090     2.5230     0.3190
 2997.5000   -54.6640     3.6310     3.2650     3.2050    10.5030   118.3580     0.0070     2.5070     0.3150
 2998.0000   -54.7090     3.4630     3.2470     3.1890    10.4940   120.9300     0.0100     2.4920     0.3130
