~VERSION INFORMATION
 VERS.                2.0:   CWLS LOG ASCII STANDARD - VERSION 2.0
 WRAP.                 NO:   ONE LINE PER DEPTH STEP
~WELL INFORMATION
#MNEM.UNIT      DATA TYPE    INFORMATION
#----------   ------------   ------------------------------
 STRT.F            0.0000:   START DEPTH
 STOP.F          678.0000:   STOP DEPTH
 STEP.F            0.5000:   STEP LENGTH
 NULL.          -999.2500:   NO VALUE
 COMP.       FLUOR DANIEL:   COMPANY
 WELL. FLUOR DANIEL "X" #23-2:   WELL
 FLD .          N.P.R. #3:   FIELD
 LOC .       S2 T38N R78W:   LOCATION
 CNTY.            NATRONA:   COUNTY
 STAT.            WYOMING:   STATE
 CTRY. UNITED STATES OF AMERICA:   COUNTRY
 SRVC.      WESTERN ATLAS:   SERVICE COMPANY
 DATE.        12-AUG-1994:   LOGDATE
 API .     49025226420000:   API NUMBER
~CURVE INFORMATION
#MNEM.UNIT       API CODE    CURVE DESCRIPTION
#----------   ------------   ------------------------------
 DEPT.F                  :   
 GR  .GAPI   07 310 01 00:   GAMMA RAY
 ILD .OHMM   07 120 46 00:   DEEP INDUCTION RESISTIVITY
 ILM .OHMM   07 120 44 00:   INDUCTION LOG MEDIUM RESISTIVITY
 TENR.LBS    07 635 01 00:   TENSION FROM RESISTIVITY
~PARAMETER INFORMATION
#MNEM.UNIT          VALUE    DESCRIPTION
#----------   ------------   ------------------------------
 EKB .F         5110.0000:   Kelly bushing
 EGL .F         5100.0000:   Ground level
 EDF .F         5109.0000:   Drilling floor
 EPD .F         5100.0000:   Permanent datum
 TD  .F          677.0000:   Total depth
 CLNT.            A2DTECH:   Client Code
 SL  . 1896' FNL & 744' FWL:   Surface Location
 PD  .                 GL:   Permanent Datum
 DAPD.F                10:   Feet Above Permanent Datum
 DATE.        12-AUG-1994:   Date Logged [DD-MMM-YYYY]
 DD  .F               670:   Depth driller
 DL  .F               677:   Depth logger
 BLI .F               664:   Bottom log interval
 TLI .F                 0:   Top log interval
 CS1 .              9.625:   Casing size
 CBD1.       9.625" @ 72':   Casing driller 1
 CBL1.IN               79:   Casing logger 1
 BS1 .IN             8.75:   Bit size
 BSD1.F               670:   Depth drilled with bit1
 DFT .                AIR:   Type fluid in hole
 LUN .            HL 6530:   Logging unit number
 LUL .             CASPER:   Logging unit location
 ENGI.      PAT RASMUSSEN:   Recorded By
 WITN.        GARY STRONG:   Witnessed by
 ORIG.         2.5" PRINT:   Origin of data
 UWI .     49025226420000:   Unique Well ID
 DICO. A2D TECHNOLOGIES, INC.:   Digitizing Company
~OTHER INFORMATION
~A    DEPT       GR       ILD        ILM       TENR   
# ...
  219.0000   135.0851     9.3370     9.0802   -38.2268
  219.5000   132.9951     9.3351     9.0784   -38.0087
  220.0000   134.3502     9.3332     9.0766   -37.7907
  220.5000   139.3489     9.3313     9.0747   -37.5727
  221.0000   139.7146     9.3294     9.0729   -37.3547
  221.5000   136.1525     9.3275     9.0711   -37.1366
  222.0000   138.7213     9.2009     9.0693   -36.9186
  222.5000   144.3008     9.1991     9.0675   -36.7006
  223.0000   146.6590     9.1972     9.0657   -36.4826
  223.5000   146.6745     9.1954     8.9435   -36.2645
  224.0000   146.6432     9.1935     8.9417   -36.0465
  224.5000   148.6864     8.9474     8.5885   -35.8285
  225.0000   150.4399     8.7572     8.3603   -35.6105
  225.5000   151.8944     8.4082     8.1374   -35.3924
  226.0000   150.4124     8.1180     7.9204   -35.1744
  226.5000   149.2258     7.8566     7.6069   -34.9564
  227.0000   148.6412     7.5028     7.5037   -34.7384
  227.5000   149.8046     7.5013     7.4019   -34.5203
  228.0000   151.2728     7.4613     7.3015   -34.3023
  228.5000   152.4105     7.4986     7.2070   -34.0843
  229.0000   147.7059     7.7014     7.5112   -33.8663
  229.5000   143.0021     7.9100     7.8120   -33.6483
  230.0000   137.7118     8.0156     7.9162   -33.4302
  230.5000   131.8350     8.3444     8.2392   -33.2122
  231.0000   123.6122     8.4558     8.3491   -32.9942
  231.5000   123.4564     8.6852     8.4606   -32.7761
  232.0000   128.2808     8.8011     8.5735   -32.5581
  232.5000   131.2017     8.7991     8.6763   -32.3401
  233.0000   133.5360     8.6796     8.6622   -32.1221
  233.5000   131.1782     8.6779     8.4439   -31.9041
  234.0000   124.1284     8.5601     8.3301   -31.6861
  234.5000   122.3572     8.5584     8.3145   -31.4681
  235.0000   124.1050     8.4422     8.2162   -31.2500
  235.5000   129.3719     8.4405     8.1993   -31.0320
  236.0000   133.4657     8.4388     8.1039   -30.8140
  236.5000   136.9731     8.3242     8.1023   -16.0610
  237.0000   138.1349     8.3226     8.2098   -15.8430
  237.5000   135.7766     8.4339     8.2264   -15.6250
  238.0000   132.8324     8.5463     8.3362   -15.4070
  238.5000   131.6476     8.6604     8.4272   -15.1890
  239.0000   131.6359     8.6587     8.5389   -14.9709
  239.5000   132.2107     8.6569     8.5370   -14.7529
  240.0000   135.1316     8.7727     8.5353   -14.5349
  240.5000   135.7068     8.7707     8.5336   -14.3168
  241.0000   133.9351     8.6517     8.4186   -28.6337
  241.5000   133.3369     8.6499     8.3923   -28.4157
  242.0000   138.6038     8.6482     8.3035   -28.1977
  242.5000   144.4572     8.6465     8.2761   -27.9797
  243.0000   145.6185     8.6447     8.1899   -27.7616
  243.5000   143.9236     8.6430     8.1883   -27.5436
  244.0000   140.3873     8.5257     8.1866   -27.3256
  244.5000   136.8506     8.4099     8.1850   -12.5727
  245.0000   133.1376     8.4082     8.1834   -12.3474
  245.5000   129.9551     8.5205     8.1520   -12.1301
  246.0000   129.1261     8.4048     8.0715   -11.9128
  246.5000   130.6511     8.4033     8.0699   -11.6955
  247.0000   133.9433     8.4016     8.1001   -11.4782
  247.5000   136.3147     8.3999     8.1754   -11.2609
  248.0000   137.4781     8.2859     8.1735   -11.0436
  248.5000   137.8670     8.2842     8.1718   -10.8263
  249.0000   138.0449     8.2826     8.1702   -10.6090
  249.5000   138.4301     8.2809     8.1686   -10.3917
  250.0000   136.6569     8.2792     8.1308   -10.1744
  250.5000   133.3177     8.2775     8.0569    -9.9564
  251.0000   131.1553     8.2759     8.0182    -9.7384
  251.5000   131.9472     8.2172     7.9467    -9.5203
  252.0000   134.0839     8.1619     7.9071    -9.3023
  252.5000   134.8408     8.1602     7.8380    -9.0843
  253.0000   134.8270     8.1586     7.8365    -8.8662
  253.5000   134.8153     8.1570     7.8349    -8.6482
  254.0000   134.8035     8.0963     7.8333    -8.4302
  254.5000   135.0049     8.0446     7.8318    -8.2122
  255.0000   135.5816     8.0430     7.8302    -8.9624
  255.5000   136.1583     8.0414     7.8287   -22.3190
  256.0000   136.5183     8.0398     7.8271   -22.0930
  256.5000   135.9182     8.0380     7.8255   -21.8750
  257.0000   136.5199     7.9752     7.7201   -21.6570
  257.5000   137.6834     7.9273     7.7185   -21.4389
  258.0000   138.2290     7.9257     7.7169   -21.2209
  258.5000   138.2170     7.9241     7.7154   -21.0029
  259.0000   138.2052     7.9225     7.7138   -20.7849
  259.5000   138.8172     7.9210     7.7123   -20.5668
  260.0000   139.3938     8.0264     7.7592   -20.3488
  260.5000   139.9707     8.1336     7.8627   -20.1308
  261.0000   140.5048     8.1319     8.0748   -19.9128
  261.5000   141.7554     8.2408     8.1827   -19.6947
  262.0000   144.6335     8.3506     8.2918   -19.4767
  262.5000   146.3348     8.4620     8.3463   -19.2587
  263.0000   146.2211     8.4603     8.3446   -19.0407
  263.5000   144.3927     8.5736     8.3430   -18.8226
  264.0000   141.4429     8.5716     8.3413   -18.6046
  264.5000   139.1359     8.5699     8.3396   -18.3866
  265.0000   137.4786     8.5681     8.3380   -18.1686
  265.5000   138.1134     8.5664     8.3363   -32.5079
  266.0000   138.6282     8.5647     8.3346   -32.2674
  266.5000   138.0293     8.5630     8.3330   -32.0494
  267.0000   138.0841     8.5612     8.2207   -31.8314
  267.5000   139.1796     8.4450     8.2189   -31.6134
  268.0000   139.7544     8.4433     8.1548   -31.3953
  268.5000   135.0486     8.3287     8.1066   -31.1773
  269.0000   132.6909     8.2157     8.1049   -30.9593
  269.5000   135.0252     8.2140     7.9957   -30.7413
  270.0000   139.7056     8.2123     7.8877   -30.5233
  270.5000   141.4534     8.1009     7.7814   -30.3052
  271.0000   141.4417     7.9909     7.6765   -30.0872
  271.5000   144.3625     7.7770     7.6750   -29.8692
  272.0000   149.0429     7.7754     7.5716   -29.6511
  272.5000   151.3772     7.6699     7.4695   -29.4331
  273.0000   149.6060     7.5658     7.3689   -29.2151
  273.5000   144.3157     7.4631     7.3674   -28.9971
  274.0000   138.4389     7.4616     7.2681   -28.7791
  274.5000   135.4946     7.4601     7.1702   -28.5610
  275.0000   134.8964     7.5599     7.3630   -28.3430
  275.5000   136.6442     7.6608     7.5610   -28.1250
  276.0000   139.5650     7.7631     7.6615   -27.9069
  276.5000   138.9668     7.8666     7.7630   -27.6889
  277.0000   137.1956     8.0797     7.8656   -42.0449
  277.5000   136.0108     8.1876     7.9699   -41.7878
  278.0000   134.8261     8.1859     8.0755   -41.5698
  278.5000   134.2279     8.2954     8.0739   -41.3517
  279.0000   134.8027     8.2935     8.1812   -41.1337
  279.5000   135.3775     8.2919     8.2894   -40.9157
  280.0000   137.7118     8.2902     8.2877   -40.6977
  280.5000   138.3636     8.2885     8.2861   -40.4797
  281.0000   136.5154     8.2869     8.1744   -40.2616
  281.5000   134.7441     8.2852     8.1728   -40.0436
  282.0000   135.3190     8.2835     8.1711   -39.8256
  282.5000   137.6533     8.2819     8.1695   -39.6075
  283.0000   139.4011     8.1694     8.0594   -39.3895
  283.5000   139.9759     8.1678     8.0578   -39.1715
  284.0000   142.3102     8.1661     7.9492   -38.9535
  284.5000   145.2311     8.1645     7.9476   -38.7355
  285.0000   144.0463     8.1629     7.9460   -38.5175
  285.5000   139.3425     8.1612     7.9444   -38.2994
  286.0000   136.9848     8.1596     7.9429   -38.0814
  286.5000   136.3866     8.1579     7.9413   -37.8634
  287.0000   135.2018     8.1563     7.9397   -37.6453
  287.5000   134.6036     8.2652     8.1532   -37.4274
  288.0000   135.1784     8.3755     8.2613   -37.2093
  288.5000   136.3397     8.4875     8.3708   -36.9913
  289.0000   136.3280     8.6008     8.4818   -36.7733
  289.5000   133.5076     8.7156     8.5942   -36.5552
  290.0000   131.6105     8.8319     8.7082   -36.3372
  290.5000   132.1854     8.9498     8.9422   -36.1192
  291.0000   132.1736     9.0693     9.0608   -35.9012
  291.5000   132.7507     9.1904     9.3044   -35.6831
