~VERSION INFORMATION
 VERS.                2.0:   CWLS LOG ASCII STANDARD - VERSION 2.0
 WRAP.                 NO:   ONE LINE PER DEPTH STEP
~WELL INFORMATION
#MNEM.UNIT      DATA TYPE    INFORMATION
#----------   ------------   ------------------------------
 STRT.F           30.0000:   START DEPTH
 STOP.F         5698.0000:   STOP DEPTH
 STEP.F            0.5000:   STEP LENGTH
 NULL.          -999.2500:   NO VALUE
 COMP. LAWRRENCE-ALLISON & ASSOCIATES:   COMPANY
 WELL. LAWERNCE "X" #41-3:   WELL
 FLD .           N P R #3:   FIELD
 LOC .       S3 T38N R78W:   LOCATION
 CNTY.            NATRONA:   COUNTY
 STAT.            WYOMING:   STATE
 CTRY. UNITED STATES OF AMERICA:   COUNTRY
 SRVC.      DRESSER ATLAS:   SERVICE COMPANY
 DATE.        04-JUN-1983:   LOGDATE
 API .     49025109200000:   API NUMBER
~CURVE INFORMATION
#MNEM.UNIT       API CODE    CURVE DESCRIPTION
#----------   ------------   ------------------------------
 DEPT.F                  :   
 TENS.LBS    60 635 01 00:   TENSION FROM SONIC
 DT  .US/F   60 520 00 00:   DELTA TIME
 SPR .MV     11 010 01 00:   SPONTANEOUS POTENTIAL FROM RES.
 TENR.LBS    11 635 01 00:   TENSION FROM RES. LOG
 GRR .GAPI   11 310 01 00:   GAMMA RAY FROM RES.
 CALR.IN     11 280 01 00:   CALIPER FROM RES.
 RMLL.OHMM   11 270 04 00:   MICRO LATEROLOG
 RD  .OHMM   11 220 10 00:   RESISTIVITY DEEP
 RS  .OHMM   11 220 09 00:   RESISTIVITY SHALLOW
 TEND.LBS    45 635 01 00:   TENSION FROM DENSITY LOG
 CORR.G/C3   45 356 01 00:   DENSITY CORRECTION
 RHOB.G/C3   45 350 01 00:   BULK DENSITY
 NPHI.DEC    42 890 03 00:   NEUTRON POROSITY SANDSTONE
~PARAMETER INFORMATION
#MNEM.UNIT          VALUE    DESCRIPTION
#----------   ------------   ------------------------------
 EKB .F         5157.5000:   Kelly bushing
 EGL .F         5147.5000:   Ground level
 EDF .F            0.0000:   Drilling floor
 TD  .F         5690.0000:   Total depth
 DATE.        04-JUN-1983:   Date logged
 CLNT.            A2DTECH:   Client Code
 SL  . 2218' FWL & 287' FNL:   Surface Location
 PD  .                 GL:   Permanent Datum
 EPD .F            5147.5:   Elevation Permanent Datum
 LMF .                 KB:   Log Measured From
 DMF .                 KB:   Drilling Measured From
 DD  .F              5690:   Depth driller
 DL  .F              5685:   Depth logger
 BLI .F              5682:   Bottom log interval
 CS1 .IN            9.625:   Casing size
 CBD1.       9.625 @ 568':   Casing driller 1
 CBL1.F               568:   Casing logger 1
 BS1 .IN             8.75:   Bit size
 DFT .        KCL-DRISPAC:   Type fluid in hole
 DFD .                9.1:   Density
 DFV .                 37:   Viscosity
 DFPH.                  8:   pH
 DFL .                3.8:   Fluid loss
 MSS .               TANK:   Source of sample
 RMS .OHMM           0.41:   Rm
 MST .F                75:   Rm Meas. temp.
 RMF .OHMM           0.28:   Rmf
 MFST.F                70:   Rmf Meas. temp.
 RMC .OHMM           0.53:   Rmc
 MCST.F                75:   Rmc Meas. temp.
 MFSS.               MEAS:   Source Rmf.
 RMB .OHMM           0.18:   Rm. at BHT
 BHT .F               160:   BHT.
 TCS .HRS               5:   Time Circ. stopped
 MRT .F               166:   Maximum recorded temp.
 LUN .               6274:   Logging unit number
 LUL .               GLTE:   Logging unit location
 ENGI.             RAUTIO:   Recorded By
 WITN.             STRONG:   Witnessed by
 ORIG.     2.5", 5" PRINT:   Origin of data
 UWI .     49025109200000:   Unique Well ID
 DICO. A2D TECHNOLOGIES, INC.:   Digitizing Company
 MCSS.               CALC:   Source Rmc.
 DAPD.                 10:   Feet Above Permanent Datum
 BSD1.               5690:   Depth drilled with bit1
~OTHER INFORMATION
~A   DEPT     TENS         DT        SPR       TENR         GRR      CALR       RMLL         RD         RS       TEND       CORR       RHOB       NPHI   
# ...
 2604.0000   -65.6440    77.4040   -69.1940   -74.4360    67.7290     9.7940     7.7200    15.1000    11.1850  -113.3180     0.0650     2.3960     0.2130
 2604.5000   -65.7820    77.7610   -69.5370   -72.8800    69.6230     9.7940     7.7690    15.2280    11.0950  -111.4100     0.0630     2.3990     0.2150
 2605.0000   -65.9210    77.9480   -70.0330   -71.3730    71.7100     9.7940     7.9000    15.5790    11.3810  -109.5020     0.0720     2.4000     0.2180
 2605.5000   -66.0590    78.0660   -70.2470   -69.7920    72.8610     9.7940     8.0310    15.9440    11.5300  -107.8430     0.0800     2.3990     0.2210
 2606.0000   -66.1970    78.1840   -70.1650   -68.3340    72.7430     9.7940     8.1630    15.9440    11.7150  -107.8430     0.0770     2.3930     0.2250
 2606.5000   -66.3360    78.3020   -70.0980   -68.1680    72.7620     9.7940     8.3010    16.0720    11.6600  -107.8430     0.0700     2.3880     0.2270
 2607.0000   -66.4740    78.4200   -70.0350   -73.0810    72.7130     9.7940     8.3010    16.4390    11.5020  -107.8430     0.0610     2.3850     0.2260
 2607.5000   -66.6120    78.3830   -69.9650   -78.4030    71.5830     9.7940     8.2310    15.9570    11.3440  -107.8430     0.0620     2.3820     0.2240
 2608.0000   -66.7500    78.2490   -69.8990   -84.4240    69.7900     9.7940     8.1700    15.1830    11.1860  -107.8430     0.0700     2.3850     0.2230
 2608.5000   -66.8890    78.0440   -69.8310   -87.8860    69.6650     9.7940     8.1080    14.4080    11.0280  -107.8430     0.0770     2.3950     0.2190
 2609.0000   -68.0490    77.7160   -69.7640   -87.3310    69.6870     9.7940     8.0470    14.0440    10.8700  -107.8430     0.0840     2.4100     0.2160
 2609.5000   -70.0410    77.1980   -69.6960   -85.0460    70.4570     9.7940     8.0060    14.0700    10.7000  -107.8430     0.0920     2.4250     0.2130
 2610.0000   -72.0340    75.4280   -69.6290   -82.9100    71.0580     9.7940     8.0060    14.1500    10.7780  -107.8430     0.0970     2.4390     0.2110
 2610.5000   -74.0260    72.8490   -69.5650   -80.6210    71.7300     9.7940     8.0060    14.2300    10.9260  -107.8430     0.1040     2.4500     0.2100
 2611.0000   -76.0190    73.0790   -69.4870   -78.4110    72.3560     9.7940     8.0060    14.5620    11.0750  -107.8430     0.0690     2.4400     0.2080
 2611.5000   -78.0110    73.8110   -69.4540   -77.7150    73.4480     9.7950     8.0060    14.3010    11.2980  -107.8430     0.0710     2.4280     0.2050
 2612.0000   -80.0040    75.7720   -69.4770   -77.7550    75.1330     9.8120     7.9150    13.6060    11.0860  -107.8430     0.0730     2.4160     0.2020
 2612.5000   -81.9960    77.8270   -69.7420   -77.7650    76.8700     9.8290     7.4460    12.8400    10.6670  -107.8430     0.0780     2.4150     0.1990
 2613.0000   -81.9960    78.8990   -69.9640   -77.7420    78.3620     9.8470     7.6210    12.1480    10.2480  -105.5610     0.0730     2.4220     0.2040
 2613.5000   -81.9960    78.9070   -70.2040   -77.7680    80.1430     9.8650     7.8170    11.9290     9.9510  -101.0520     0.0660     2.4290     0.2130
 2614.0000   -81.9960    78.0010   -70.4360   -77.7580    81.9450     9.8720     8.1100    12.1810    10.1170   -96.5420     0.0720     2.4360     0.2080
 2614.5000   -81.9960    76.7600   -70.6680   -77.7280    81.8450     9.8720     8.1000    12.4630    10.3040   -92.0320     0.0770     2.4430     0.1990
 2615.0000   -81.9960    76.3590   -70.9020   -77.8450    81.4000     9.8720     8.0060    12.7440    10.4900   -88.2350     0.0690     2.4480     0.1890
 2615.5000   -81.9960    76.4990   -71.1390   -76.5840    81.7920     9.8720     9.3910    13.0610    10.7000   -91.1080     0.0640     2.4450     0.1890
 2616.0000   -82.9150    77.3820   -71.3620   -74.2780    82.0620     9.8720    11.0950    13.0610    10.7000   -93.5880     0.0590     2.4420     0.2010
 2616.5000   -84.2810    78.5630   -71.6100   -72.1530    81.4850     9.8720    10.1620    12.3890    10.5000   -96.0690     0.0560     2.4380     0.2140
 2617.0000   -85.6460    79.3280   -71.8310   -70.7240    81.2860     9.8720     8.7710    11.7610    10.3140   -97.0200     0.0510     2.4450     0.2190
 2617.5000   -87.0110    79.2680   -72.3860   -67.0620    80.4760     9.8720     8.0820    11.2980    10.1270   -92.0590     0.0550     2.4530     0.2190
 2618.0000   -88.3760    78.3530   -72.8500   -75.9890    79.2910     9.8720     7.7200    11.5020     9.9510   -84.4440     0.0600     2.4720     0.2140
 2618.5000   -89.7410    77.0330   -73.3530   -76.3070    78.0950     9.8720     7.9620    11.9470    10.2310   -67.9080     0.0650     2.4910     0.2060
 2619.0000   -91.1070    75.0710   -73.8270   -71.1220    75.3430     9.8720     8.3300    12.3700    11.3380   -51.3730     0.0700     2.5100     0.1980
 2619.5000   -92.3470    72.3470   -74.3150   -65.3430    72.1950     9.8720     9.6760    14.5300    12.4440   -34.8370     0.0750     2.5290     0.1900
 2620.0000   -93.3300    70.9430   -74.7340   -60.0980    72.4150     9.8720    14.0360    16.5910    14.6310   -18.3010     0.0800     2.5340     0.1800
 2620.5000   -94.3130    71.7390   -75.3920   -56.5790    75.2020     9.8720    19.1140    19.8200    18.7700   -15.8330     0.0850     2.5230     0.1810
 2621.0000   -95.2960    73.5010   -75.9750   -49.9090    78.3490     9.8720    18.7700    18.6790    17.4630   -28.2350     0.0900     2.4920     0.1830
 2621.5000   -96.2790    75.9580   -76.5830   -52.1750    81.4960     9.8720    15.6150    16.0510    14.4500   -40.6370     0.0930     2.4810     0.2000
 2622.0000   -95.7170    78.4840   -77.1720   -59.5360    84.1820     9.8720    12.5580    13.4220    11.4370   -47.2330     0.0840     2.4670     0.2140
 2622.5000   -89.8190    79.8450   -77.7880   -67.3740    85.2850     9.8720     9.5010    10.3190     9.0890   -41.7210     0.0750     2.4550     0.2220
 2623.0000   -83.9220    79.9700   -78.1140   -69.7530    85.1660     9.8720     7.5820    10.1330     9.1320   -36.2090     0.0660     2.4430     0.2180
 2623.5000   -78.0240    79.9700   -78.2750   -72.5040    83.9560     9.8720     7.1800    10.1770     9.1840   -30.6970     0.0590     2.4300     0.2130
 2624.0000   -72.1260    79.6630   -78.4770   -74.8050    82.2160     9.8720     7.1800    10.2470     9.2360   -61.1110     0.0580     2.4180     0.2120
 2624.5000   -67.8910    79.3440   -78.8310   -77.1510    81.2250     9.8720     7.3530    10.3180     9.2880  -102.4510     0.0560     2.4100     0.2160
 2625.0000   -75.5700    79.0250   -78.8040   -79.9610    81.3630     9.8720     7.5240    10.3880     9.3410  -127.4510     0.0550     2.4160     0.2180
 2625.5000   -83.2500    78.7050   -78.8770   -82.0800    81.3160     9.8720     7.6950    10.4590     9.4250  -127.4510     0.0560     2.4260     0.2140
 2626.0000   -90.9290    78.8100   -78.9220   -84.1410    81.2950     9.8710     7.8670    10.5290     9.3810  -127.4510     0.0590     2.4280     0.2110
 2626.5000   -90.8560    78.9670   -78.9670   -90.0380    81.4150     9.8720     8.0060    10.6000     9.2720  -127.4510     0.0720     2.4190     0.2090
 2627.0000   -89.4910    78.8880   -79.0190   -90.4660    80.3920     9.8720     7.8990    10.6700     9.1630  -127.4510     0.0830     2.4100     0.2110
 2627.5000   -88.1250    78.8130   -79.0660   -86.7180    78.7030     9.8870     7.8620    10.7000     9.0530  -119.7140     0.0860     2.4070     0.2170
 2628.0000   -86.7600    78.9570   -79.1150   -80.8420    76.7140     9.9070     7.9460    10.4250     8.9440  -107.8520     0.0680     2.4120     0.2150
 2628.5000   -85.3950    79.4680   -79.1630   -76.0800    77.8360     9.9260     8.0060    10.1920     8.8340   -95.9890     0.0450     2.4180     0.2100
 2629.0000   -84.0300    79.7040   -79.2120   -70.2250    80.9120     9.9450     7.8400     9.9510     8.7650   -84.1260     0.0410     2.4240     0.2120
 2629.5000   -82.6650    79.6630   -79.2600   -64.1400    84.0550     9.9650     7.3910     9.9380     8.6820   -72.2630     0.0390     2.4340     0.2130
