~VERSION INFORMATION
 VERS.                2.0:   CWLS LOG ASCII STANDARD - VERSION 2.0
 WRAP.                 NO:   ONE LINE PER DEPTH STEP
~WELL INFORMATION
#MNEM.UNIT      DATA TYPE    INFORMATION
#----------   ------------   ------------------------------
 STRT.F          205.0000:   START DEPTH
 STOP.F         3171.5000:   STOP DEPTH
 STEP.F            0.5000:   STEP LENGTH
 NULL.          -999.2500:   NO VALUE
 COMP.    FENIX & SCISSON:   COMPANY
 WELL. FENIX & SCISSON  "AX" #27-28:   WELL
 FLD .              NPR 3:   FIELD
 LOC .      S28 T39N R78W:   LOCATION
 CNTY.            NATRONA:   COUNTY
 STAT.            WYOMING:   STATE
 CTRY. UNITED STATES OF AMERICA:   COUNTRY
 SRVC.       SCHLUMBERGER:   SERVICE COMPANY
 DATE.        30-MAY-1977:   LOGDATE
 API .     49025103870000:   API NUMBER
~CURVE INFORMATION
#MNEM.UNIT       API CODE    CURVE DESCRIPTION
#----------   ------------   ------------------------------
 DEPT.F                  :   
 NPHI.DEC    42 890 03 00:   NEUTRON POROSITY SANDSTONE
 CALD.IN     45 280 60 00:   CALIPER FROM DENSITY LOG
 GRD .GAPI   45 310 01 00:   GAMMA RAY FROM DENSITY LOG
 RHOB.G/C3   45 350 01 00:   BULK DENSITY
 CORR.G/C3   45 356 01 00:   DENSITY CORRECTION
 SPR .MV     11 010 01 00:   SPONTANEOUS POTENTIAL
 MSFL.OHMM   11 270 04 00:   MICRO SPHERICALLY FOCUSED RES.
 LLD .OHMM   11 220 10 00:   LATEROLOG LOG DEEP
 LLS .OHMM   11 220 09 00:   LATEROLOG LOG SHALLOW
~PARAMETER INFORMATION
#MNEM.UNIT          VALUE    DESCRIPTION
#----------   ------------   ------------------------------
 EKB .F         5094.0000:   Kelly bushing
 EGL .F         5084.0000:   Ground level
 EDF .F            0.0000:   Drilling floor
 EPD .F            0.0000:   Permanent datum
 TD  .F         3169.0000:   Total depth
 DATE.        30-MAY-1977:   Date logged
 CLNT.            A2DTECH:   Client Code
 SL  . 1266' FSL & 871' FWL:   Surface Location
 PD  .                 GL:   Permanent Datum
 DD  .F              3163:   Depth driller
 DL  .F              3169:   Depth logger
 BLI .F              3168:   Bottom log interval
 CS1 .IN            8.625:   Casing size
 CBD1.      8.625" @ 210':   Casing driller 1
 CBL1.F               219:   Casing logger 1
 BS1 .IN            7.875:   Bit size
 DFT .           SALT/MUD:   Type fluid in hole
 DFD .                8.9:   Density
 DFV .                 32:   Viscosity
 DFPH.                8.5:   pH
 DFL .                5.8:   Fluid loss
 MSS .                PIT:   Source of sample
 RMS .OHMM           .194:   Rm
 MST .F                65:   Rm Meas. temp.
 RMF .OHMM           .165:   Rmf
 MFST.F                65:   Rmf Meas. temp.
 MFSS.               MEAS:   Source Rmf.
 RMB .OHMM           .107:   Rm. at BHT
 BHT .F               118:   BHT.
 MRT .F               118:   Maximum recorded temp.
 LUN .               5642:   Logging unit number
 LUL .               CSPR:   Logging unit location
 ENGI.             MARTIN:   Recorded By
 WITN.         PETTINGILL:   Witnessed by
 ORIG.           5" PRINT:   Origin of data
 UWI .     49025103870000:   Unique Well ID
 DICO. A2D TECHNOLOGIES, INC.:   Digitizing Company
 DAPD.F                10:   Feet Above Permanent Datum
 BSD1.F              3163:   Depth drilled with bit1
 TLI .F               219:   Top log interval
 TLAB.HRS            0930:   Time logger at bottom
~OTHER INFORMATION
~A   DEPT     NPHI         CALD      GRD         RHOB      CORR       SPR       MSFL        LLD        LLS   
# ...
  387.5000     0.3147     8.9069   141.5815     2.4452     0.0475  -130.5139     8.0245     9.4786     8.4023
  388.0000     0.3127     8.9018   140.7812     2.4382     0.0325  -132.4986     7.6633     9.1166     8.0980
  388.5000     0.3151     8.8967   139.5801     2.4651     0.0514  -133.8884     6.9894     8.7685     7.6626
  389.0000     0.3199     8.8916   139.5741     2.4740     0.0743  -134.2867     5.7085     8.3231     7.2506
  389.5000     0.3275     8.8865   140.7633     2.4969     0.1041  -134.8833     3.3796     7.1836     6.7357
  390.0000     0.3294     8.8814   143.1476     2.4819     0.0862  -134.8850     2.8373     3.1173     5.5522
  390.5000     0.3410     8.8741   145.5331     2.4421     0.0723  -134.8867     3.1358     3.1460     4.5765
  391.0000     0.3686     8.8740   147.9162     2.4282     0.0802  -134.8904     3.8015     4.1081     4.4109
  391.5000     0.3841     8.8537   143.9264     2.4202     0.1200  -133.7018     6.1240     7.0068     4.7910
  392.0000     0.4053     8.8335   139.9382     2.4341     0.1120  -133.7034     7.0268     9.2042     6.1977
  392.5000     0.3773     8.8133   131.9642     2.4231     0.0622  -135.0935     9.2029    10.4678     9.4605
  393.0000     0.3421     8.8130   128.3716     2.4769     0.0542  -135.0952     8.9521    10.3122     9.5475
  393.5000     0.3242     8.7928   125.1774     2.4868     0.0701  -134.5018     8.6280     8.6776     9.5466
  394.0000     0.3249     8.7925   125.1715     2.4788     0.0632  -133.7101     8.5482     8.1640     9.5458
  394.5000     0.3201     8.7723   127.9553     2.4907     0.0582  -131.9272     8.5475     8.1633     9.5450
  395.0000     0.3145     8.7720   129.5429     2.4798     0.0711  -130.5393     8.7054     8.2379     9.3697
  395.5000     0.3045     8.7518   128.3418     2.4947     0.0671  -127.1686     9.1143     8.3133     9.4561
  396.0000     0.3001     8.7515   129.5309     2.4867     0.0312  -126.9718     9.9001     8.4669     9.8096
  396.5000     0.2997     8.7712   130.7201     2.4698     0.0402  -126.9733    10.7072     8.6233    10.0827
  397.0000     0.3041     8.7509   130.3157     2.4568     0.0203  -126.7749    11.0052     8.7827    10.1645
  397.5000     0.3081     8.7506   128.3179     2.4538     0.0272  -126.3796    11.4158     8.9748    10.6534
  398.0000     0.3084     8.7503   125.9204     2.4697     0.0362  -125.9860    11.6261     9.1408    10.9506
  398.5000     0.2988     8.7301   126.3128     2.4677     0.0302  -125.9875    11.7327     9.6591    11.2561
  399.0000     0.2956     8.7297   129.8951     2.4667     0.0272  -125.9878    12.0041    10.1134    11.3592
  399.5000     0.2968     8.7294   134.2685     2.4697     0.0371  -125.8895    12.3390    10.5892    11.5696
  400.0000     0.2972     8.7291   131.8750     2.4836     0.0430  -125.7936    12.8006    10.5882    11.6754
  400.5000     0.2884     8.7145   128.2829     2.5103     0.0625  -125.6273    13.1329    10.9856    12.0551
  401.0000     0.2912     8.7089   127.8806     2.5234     0.0812  -125.1994    13.5269    11.1899    12.3721
  401.5000     0.2940     8.6889   128.1241     2.5462     0.0918  -125.1998    13.7782    11.5034    12.5670
  402.0000     0.2964     8.6888   129.8659     2.5403     0.0709  -125.2003    13.7782    11.6098    12.6832
  402.5000     0.2952     8.6887   129.8640     2.5064     0.0788  -125.3993    13.9055    11.7173    12.6832
  403.0000     0.2928     8.7084   130.2597     2.4954     0.0539  -125.7965    14.0427    11.8257    12.6832
  403.5000     0.2936     8.7083   130.2564     2.5084     0.0569  -126.5905    14.1812    12.0019    12.6832
  404.0000     0.2983     8.7082   129.8563     2.5163     0.0659  -127.5829    14.3211    12.1129    12.6832
  404.5000     0.2988     8.7081   126.6662     2.5233     0.0519  -129.1703    14.4623    12.2249    12.9504
  405.0000     0.2943     8.7079   125.0689     2.5063     0.0619  -130.3610    14.6050    12.3379    13.0687
  405.5000     0.2991     8.6879   123.8706     2.5233     0.0738  -130.9565    14.7490    12.3379    13.0687
  406.0000     0.3115     8.6895   124.2640     2.5213     0.0877  -130.9569    14.6948    12.3831    13.1161
  406.5000     0.3075     8.6911   125.0581     2.5193     0.0778  -130.9572    14.2947    12.3831    13.1161
  407.0000     0.3051     8.6927   125.4532     2.5103     0.0698  -130.3626    14.0341    12.3831    13.1161
  407.5000     0.3035     8.6943   123.4577     2.4993     0.0568  -129.9662    14.0341    12.1129    13.1161
  408.0000     0.2967     8.6959   123.8534     2.4953     0.0479  -128.1815    14.0341    11.7831    12.8793
  408.5000     0.2919     8.6975   125.8418     2.4883     0.0538  -126.9919    14.1638    11.7831    12.6832
  409.0000     0.2907     8.6992   125.8386     2.4863     0.0678  -126.5957    14.1638    11.7831    12.6832
  409.5000     0.2871     8.7008   125.4370     2.4893     0.0638  -127.3895    14.2947    11.7831    12.6832
  410.0000     0.2843     8.7024   125.0354     2.5301     0.0807  -128.9766    14.2947    11.7518    12.6832
  410.5000     0.2847     8.7040   126.2271     2.5271     0.0956  -132.1504    14.2947    11.7206    12.6832
  411.0000     0.2910     8.7063   128.6137     2.5371     0.0867  -132.7456    14.1638    11.6752    12.6832
  411.5000     0.2914     8.7063   130.6019     2.5152     0.0797  -132.7442    13.7094    11.6752    12.6832
  412.0000     0.2992     8.7061   132.1918     2.5092     0.0647  -132.5462    13.5841    11.4623    12.4519
  412.5000     0.3004     8.7060   133.7817     2.5161     0.0558  -132.3483    13.3371    11.1502    12.2101
  413.0000     0.3015     8.7059   135.7698     2.4992     0.0418  -132.5469    13.0946    10.9469    11.9730
  413.5000     0.3011     8.7058   138.1561     2.4972     0.0418  -132.1524    12.7390    10.7473    11.7405
  414.0000     0.3031     8.7056   139.3483     2.5181     0.0508  -131.7560    12.6226    10.5513    11.5125
  414.5000     0.3035     8.7055   141.7346     2.5051     0.0617  -130.9715    12.6226    10.2641    11.2890
  415.0000     0.3059     8.7054   142.9260     2.4952     0.0458  -130.1871    12.6226     9.8932    11.0697
  415.5000     0.3115     8.7053   143.3208     2.4643     0.0368  -128.9812    12.4519     9.8026    10.8467
  416.0000     0.3139     8.7250   143.3174     2.4563     0.0179  -126.9987    12.3379     9.8026    10.7473
  416.5000     0.3202     8.7051   142.9157     2.4503     0.0368  -126.2060    12.0498     9.8026    10.6489
  417.0000     0.3246     8.7050   141.7192     2.4822     0.0617  -126.2065    11.7685     9.8026    10.4547
  417.5000     0.3350     8.6848   140.9176     2.4921     0.0487  -126.4052    11.4937     9.6148    10.3589
  418.0000     0.3346     8.6847   143.7019     2.4752     0.0398  -126.6039    11.2254     9.4306    10.2641
  418.5000     0.3318     8.6846   143.6985     2.4841     0.0617  -126.8027    10.8467     9.2499     9.9846
  419.0000     0.3206     8.6845   143.2968     2.4891     0.0786  -127.0014    10.8467     9.0727     9.8026
  419.5000     0.3182     8.7043   143.6916     2.4831     0.0696  -127.0018    10.7473     8.8989     9.7128
  420.0000     0.3134     8.7042   145.2811     2.4691     0.0228  -127.0023    10.7473     8.7285     9.6238
  420.5000     0.3218     8.6842   147.6671     2.4562     0.0347  -127.2010    10.7473     8.5389     9.5357
  421.0000     0.3274     8.6840   149.2565     2.4671     0.0527  -127.3997    10.7473     8.5389     9.5357
  421.5000     0.3258     8.7038   148.4566     2.4880     0.0427  -127.4002    10.7473     8.4606     9.5357
  422.0000     0.3262     8.7037   145.2674     2.5179     0.0845  -127.7970    10.9469     8.4606     9.5357
  422.5000     0.3274     8.6837   146.0603     2.4920     0.0706  -127.7975    11.0481     8.5389     9.5357
  423.0000     0.3294     8.7034   146.0569     2.4711     0.0477  -127.9962    10.9469     8.5389     9.5357
  423.5000     0.3294     8.7033   144.4606     2.4651     0.0307  -128.1949    10.7473     8.5389     9.3618
