~VERSION INFORMATION
 VERS.                2.0:   CWLS LOG ASCII STANDARD - VERSION 2.0
 WRAP.                 NO:   ONE LINE PER DEPTH STEP
~WELL INFORMATION
#MNEM.UNIT      DATA TYPE    INFORMATION
#----------   ------------   ------------------------------
 STRT.F          742.0000:   START DEPTH
 STOP.F         3406.0000:   STOP DEPTH
 STEP.F            0.5000:   STEP LENGTH
 NULL.          -999.2500:   NO VALUE
 COMP. FENIX & SCISSON - US NAVY:   COMPANY
 WELL.   FENIX "AX" #85-4:   WELL
 FLD .      NPR - WILDCAT:   FIELD
 LOC .       S4 T38N R78W:   LOCATION
 CNTY.            NATRONA:   COUNTY
 STAT.            WYOMING:   STATE
 CTRY. UNITED STATES OF AMERICA:   COUNTRY
 SRVC.              WELEX:   SERVICE COMPANY
 DATE.        03-MAY-1977:   LOGDATE
 API .     49025103520000:   API NUMBER
~CURVE INFORMATION
#MNEM.UNIT       API CODE    CURVE DESCRIPTION
#----------   ------------   ------------------------------
 DEPT.F                  :   
 SNP .DEC    41 890 00 00:   SIDEWALL NEUTRON POROSITY
 GR  .GAPI   30 310 01 00:   GAMMA RAY
 SPR .MV     07 010 01 00:   SPONTANEOUS POTENTIAL
 RXO .OHMM   11 220 01 00:   FLUSHED ZONE RESISTIVITY
 GURD.OHMM   07 220 05 00:   GUARD LOG RESISTIVITY
 CALD.IN     45 280 60 00:   CALIPER FROM DENSITY LOG
 RHOB.G/C3   45 350 01 00:   BULK DENSITY
 GRD .GAPI   45 310 01 00:   GAMMA RAY FROM DENSITY LOG
 CORR.G/C3   45 356 01 00:   DENSITY CORRECTION
~PARAMETER INFORMATION
#MNEM.UNIT          VALUE    DESCRIPTION
#----------   ------------   ------------------------------
 EKB .F         5254.0000:   Kelly bushing
 EGL .F         5240.0000:   Ground level
 EDF .F            0.0000:   Drilling floor
 TD  .F         3467.0000:   Total depth
 DATE.        03-MAY-1977:   Date logged
 CLNT.            A2DTECH:   Client Code
 SL  . 2200' FSL & 100' FEL:   Surface Location
 PD  .                 GL:   Permanent Datum
 EPD .F              5240:   Elevation Permanent Datum
 LMF .                 KB:   Log Measured From
 DMF .                 KB:   Drilling Measured From
 DAPD.F                14:   Feet Above Permanent Datum
 DD  .F              3647:   Depth driller
 DL  .F              3404:   Depth logger
 BLI .F              3402:   Bottom log interval
 TLI .F               720:   Top log interval
 CS1 .IN            8.625:   Casing size
 CBD1.      8.625" @ 720':   Casing driller 1
 CBL1.F               760:   Casing logger 1
 BS1 .IN            7.875:   Bit size
 BSD1.F              3467:   Depth drilled with bit1
 DFT .            KCL/MUD:   Type fluid in hole
 DFD .                9.1:   Density
 DFV .                 36:   Viscosity
 DFPH.                  8:   pH
 DFL .                  5:   Fluid loss
 MSS .           FLOWLINE:   Source of sample
 RMS .OHMM            .30:   Rm
 MST .F                66:   Rm Meas. temp.
 RMF .OHMM            .21:   Rmf
 MFST.F                66:   Rmf Meas. temp.
 RMC .OHMM            .49:   Rmc
 MCST.F                66:   Rmc Meas. temp.
 MFSS.               FANN:   Source Rmf.
 MCSS.                KIT:   Source Rmc.
 RMB .OHMM            .18:   Rm. at BHT
 BHT .F               107:   BHT.
 TCS .HRS             2.5:   Time Circ. stopped
 MRT .F               107:   Maximum recorded temp.
 LUN .               8611:   Logging unit number
 LUL .             CASPER:   Logging unit location
 ENGI.            C. DOAK:   Recorded By
 WITN.      B. HARRINGTON:   Witnessed by
 ORIG.     2.5", 5" PRINT:   Origin of data
 UWI .     49025103520000:   Unique Well ID
 DICO. A2D TECHNOLOGIES, INC.:   Digitizing Company
~OTHER INFORMATION
~A   DEPT        SNP       GR        SPR        RXO       GURD         CALD       RHOB       GRD       CORR  
  742.0000     0.3330  -999.2500  -999.2500  -999.2500  -999.2500     8.1460     2.0490    74.2130    -0.4400
  742.5000     0.3430  -999.2500  -999.2500  -999.2500  -999.2500     8.1460     2.0490    74.3580    -0.4400
  743.0000     0.3340  -999.2500  -999.2500  -999.2500  -999.2500     8.1460     2.0400    74.0160    -0.4450
  743.5000     0.3400  -999.2500  -999.2500  -999.2500  -999.2500     8.1460     2.0320    73.2100    -0.4480
  744.0000     0.3480  -999.2500  -999.2500  -999.2500  -999.2500     8.1460     2.0250    72.4040    -0.4520
  744.5000     0.3520  -999.2500  -999.2500  -999.2500  -999.2500     8.1460     2.0190    71.5980    -0.4560
  745.0000     0.3450  -999.2500  -999.2500  -999.2500  -999.2500     8.1460     2.0170    70.7920    -0.4600
  745.5000     0.3420  -999.2500  -999.2500  -999.2500  -999.2500     8.1500     2.0160    70.4310    -0.4610
  746.0000     0.3340  -999.2500  -999.2500  -999.2500  -999.2500     8.1460     2.0240    69.5870    -0.4640
  746.5000     0.3440  -999.2500  -999.2500  -999.2500  -999.2500     8.1450     2.0340    68.7750    -0.4680
  747.0000     0.3400  -999.2500  -999.2500  -999.2500  -999.2500     8.1460     2.0420    67.9710    -0.4720
  747.5000     0.3300  -999.2500  -999.2500  -999.2500  -999.2500     8.1450     2.0490    67.1830    -0.4760
  748.0000     0.3400  -999.2500  -999.2500  -999.2500  -999.2500     8.1450     2.0570    66.3120    -0.4760
  748.5000     0.3330  -999.2500  -999.2500  -999.2500  -999.2500     8.1540     2.0640    65.9310    -0.4670
  749.0000     0.3250  -999.2500  -999.2500  -999.2500  -999.2500     8.1890     2.0720    66.0080    -0.4550
  749.5000     0.3290  -999.2500  -999.2500  -999.2500  -999.2500     8.1970     2.0790    67.4820    -0.4390
  750.0000     0.3330  -999.2500  -999.2500  -999.2500  -999.2500     8.2150     2.0860    69.3150    -0.4180
  750.5000     0.3400  -999.2500  -999.2500  -999.2500  -999.2500     8.2310     2.0940    71.1850    -0.3980
  751.0000     0.3360  -999.2500  -999.2500  -999.2500  -999.2500     8.2470     2.0930    72.6650    -0.3980
  751.5000     0.3300  -999.2500  -999.2500  -999.2500  -999.2500     8.2630     2.0840    73.0830    -0.3980
  752.0000     0.3340  -999.2500  -999.2500  -999.2500  -999.2500     8.2620     2.0760    72.6440    -0.3990
  752.5000     0.3400  -999.2500  -999.2500  -999.2500  -999.2500     8.2820     2.0750    71.8580    -0.4000
  753.0000     0.3470  -999.2500  -999.2500  -999.2500  -999.2500     8.3310     2.0780    71.0920    -0.3970
  753.5000     0.3510  -999.2500  -999.2500  -999.2500  -999.2500     8.3790     2.0810    70.3800    -0.3880
  754.0000     0.3480  -999.2500  -999.2500  -999.2500  -999.2500     8.3810     2.0810    69.9960    -0.3830
  754.5000     0.3500  -999.2500  -999.2500  -999.2500  -999.2500     8.3860     2.1050    71.4910    -0.3670
  755.0000     0.3550  -999.2500  -999.2500  -999.2500  -999.2500     8.3950     2.1330    73.6750    -0.3410
  755.5000     0.3600  -999.2500  -999.2500  -999.2500  -999.2500     8.4070     2.1520    75.8420    -0.3140
  756.0000     0.3530  -999.2500  -999.2500  -999.2500  -999.2500     8.4120     2.1820    77.9550    -0.2870
  756.5000     0.3450  -999.2500  -999.2500  -999.2500  -999.2500     8.4320     2.2260    80.1310    -0.2560
  757.0000     0.3380  -999.2500  -999.2500  -999.2500  -999.2500     8.4880     2.2740    82.2640    -0.1670
  757.5000     0.3220  -999.2500  -999.2500  -999.2500  -999.2500     8.7730     2.4580    84.3720    -0.0640
  758.0000     0.3130  -999.2500  -999.2500  -999.2500  -999.2500     9.0390     2.5470    86.7180     0.0380
  758.5000     0.3030  -999.2500  -999.2500  -999.2500  -999.2500     9.3210     2.4630    88.1810     0.1120
  759.0000     0.2800  -999.2500  -999.2500  -999.2500  -999.2500     9.7190     2.4670    88.3750     0.1010
  759.5000     0.2790  -999.2500  -999.2500  -999.2500  -999.2500     9.7250     2.4740    87.6810     0.0910
  760.0000     0.2780  -999.2500  -999.2500  -999.2500  -999.2500     9.5020     2.4800    86.7040     0.0800
  760.5000     0.2770  -999.2500  -999.2500  -999.2500  -999.2500     9.6410     2.4850    85.6910     0.0680
  761.0000     0.2750  -999.2500  -999.2500  -999.2500  -999.2500    10.1820     2.4900    84.9050     0.0570
  761.5000     0.2720  -999.2500  -999.2500  -999.2500  -999.2500    10.6940     2.4950    84.9110     0.0520
  762.0000     0.2700  -999.2500    -1.9770  -999.2500  -999.2500    11.2090     2.5000    86.2930     0.0530
  762.5000     0.2670  -999.2500    -4.2180  -999.2500  -999.2500    11.7670     2.5040    87.9080     0.0540
  763.0000     0.2650  -999.2500    -6.4450  -999.2500     7.9190    12.0190     2.4980    89.4800     0.0540
  763.5000     0.2620  -999.2500    -7.7060  -999.2500     6.6030    11.9770     2.4900    91.1870     0.0550
  764.0000     0.2600  -999.2500    -8.9580  -999.2500     1.9910    11.5270     2.4830    92.0530     0.0560
  764.5000     0.2460  -999.2500   -10.2110  -999.2500     2.0270    10.9950     2.4880    92.6130     0.0560
  765.0000     0.2340  -999.2500   -11.4640  -999.2500     7.2310    10.4490     2.4930    93.0300     0.0480
  765.5000     0.2200  -999.2500   -12.0850     8.2120     7.2310     9.9280     2.4990    92.9890     0.0410
  766.0000     0.2230  -999.2500   -13.3320     8.2120     7.4340     9.3820     2.5050    92.7160     0.0330
  766.5000     0.2290  -999.2500   -14.6730     8.2120     7.3210     9.1800     2.5110    92.4870     0.0350
  767.0000     0.2220  -999.2500   -15.6970     8.2120     7.5600     9.1650     2.5170    92.2660     0.0370
  767.5000     0.2140  -999.2500   -16.2090     8.3620     7.6360     9.1350     2.5230    92.0280     0.0400
  768.0000     0.2060  -999.2500   -16.8240     8.7960     7.9240     9.1060     2.5280    91.8010     0.0420
  768.5000     0.2070  -999.2500   -17.4250     9.0280     8.2120     9.0790     2.5350    91.5700     0.0450
  769.0000     0.2110  -999.2500   -18.0130     8.9380     8.6720     9.0450     2.5310    91.3400     0.0400
  769.5000     0.2190  -999.2500   -18.6160     8.8460     8.5040     9.0080     2.5230    91.1090     0.0360
  770.0000     0.2260  -999.2500   -19.2100     8.7540     8.0850     9.0150     2.5190    90.8760     0.0340
  770.5000     0.2380  -999.2500   -19.8060     8.6620     7.6660     9.0150     2.5220    90.6540     0.0370
  771.0000     0.2340  -999.2500   -20.4100     8.5710     7.4990     9.0170     2.5240    90.4070     0.0390
  771.5000     0.2270  -999.2500   -20.9030     8.5160     7.6360     9.0200     2.5270    90.1910     0.0410
  772.0000     0.2280  -999.2500   -21.1320     8.5160     7.8010     9.0210     2.5300    90.0170     0.0360
  772.5000     0.2240  -999.2500   -21.3340     8.5940     7.9660     9.0240     2.5250    90.5530     0.0320
  773.0000     0.2160  -999.2500   -21.5340     8.6720     8.1310     9.0260     2.5200    91.1430     0.0280
  773.5000     0.2090  -999.2500   -21.7340     8.8850     8.2960     9.0280     2.5230    90.7090     0.0240
  774.0000     0.2010  -999.2500   -21.9340     8.9930     8.3620     9.0300     2.5250    89.8700     0.0210
  774.5000     0.1920  -999.2500   -22.1350     8.9680     8.3130     9.0320     2.5280    89.0910     0.0210
  775.0000     0.1940  -999.2500   -22.3350     8.9480     8.2520     9.0340     2.5300    88.3040     0.0220
  775.5000     0.1960  -999.2500   -22.5350     8.9280     8.1900     9.0360     2.5320    87.9770     0.0220
  776.0000     0.1980  -999.2500   -22.7360     8.9080     8.1280     9.0380     2.5290    88.6770     0.0220
  776.5000     0.1920  -999.2500   -22.9360     8.8870     8.0670     9.0390     2.5260    89.5200     0.0220
  777.0000     0.1910  -999.2500   -23.1360     8.8670     8.0050     9.0410     2.5220    90.4000     0.0230
  777.5000     0.1910  -999.2500   -23.3360     8.8470     7.9440     9.0440     2.5190    90.8220     0.0230
  778.0000     0.1920  -999.2500   -23.5370     8.8310     7.9190     9.0450     2.5180    90.1580     0.0230
