~VERSION INFORMATION
 VERS.                2.0:   CWLS LOG ASCII STANDARD - VERSION 2.0
 WRAP.                 NO:   ONE LINE PER DEPTH STEP
~WELL INFORMATION
#MNEM.UNIT      DATA TYPE    INFORMATION
#----------   ------------   ------------------------------
 STRT.F          211.0000:   START DEPTH
 STOP.F         3244.0000:   STOP DEPTH
 STEP.F            0.5000:   STEP LENGTH
 NULL.          -999.2500:   NO VALUE
 COMP.    FENIX & SCISSON:   COMPANY
 WELL.  FENIX "AX" #84-15:   WELL
 FLD .  TEAPOT DOME NPR-3:   FIELD
 LOC .      S15 T38N R78W:   LOCATION
 CNTY.            NATRONA:   COUNTY
 STAT.            WYOMING:   STATE
 CTRY. UNITED STATES OF AMERICA:   COUNTRY
 SRVC.           BIRDWELL:   SERVICE COMPANY
 DATE.        17-MAR-1978:   LOGDATE
 API .     49025106050000:   API NUMBER
~CURVE INFORMATION
#MNEM.UNIT       API CODE    CURVE DESCRIPTION
#----------   ------------   ------------------------------
 DEPT.F                  :   
 SPR .MV     05 010 01 00:   SPONTANEOUS POTENTIAL
 SN  .OHMM   05 040 16 00:   SHORT NORMAL
 ILD .OHMM   05 120 46 00:   INDUCTION LOG DEEP
 CALD.IN     45 280 60 00:   CALIPER FROM DENSITY LOG
 GRD .GAPI   45 310 01 00:   GAMMA RAY FROM DENSITY LOG
 RHOB.G/C3   45 350 01 00:   BULK DENSITY
 CORR.G/C3   45 356 01 00:   DENSITY CORRECTION
~PARAMETER INFORMATION
#MNEM.UNIT          VALUE    DESCRIPTION
#----------   ------------   ------------------------------
 EKB .F         5251.0000:   Kelly bushing
 EGL .F         5241.0000:   Ground level
 TD  .F         3250.0000:   Total depth
 CLNT.            A2DTECH:   Client Code
 SL  . 359' FEL & 2310' FNL:   Surface Location
 PD  .                 GL:   Permanent Datum
 LMF .                 KB:   Log Measured From
 DMF .                 KB:   Drilling Measured From
 DATE.        17-MAR-1978:   Date Logged [DD-MMM-YYYY]
 DD  .F              3250:   Depth driller
 DL  .F              3250:   Depth logger
 BLI .F              3244:   Bottom log interval
 TLI .F               224:   Top log interval
 CS1 .IN            8.625:   Casing size
 CBD1.             8.625":   Casing driller 1
 CBL1.F               224:   Casing logger 1
 BS1 .IN            7.875:   Bit size
 BSD1.F              3250:   Depth drilled with bit1
 MSS .           FLOWLINE:   Source of sample
 RMS .OHMM            1.3:   Rm
 MST .F                70:   Rm Meas. temp.
 RMF .OHMM            1.1:   Rmf
 MFST.F                70:   Rmf Meas. temp.
 MFSS.               MEAS:   Source Rmf.
 RMC .OHMM            1.4:   Rmc
 MCST.F                70:   Rmc Meas. temp.
 RMB .OHMM           0.77:   Rm. at BHT
 BHT .F               118:   BHT.
 TCS .HRS               6:   Time Circ. stopped
 MRT .F               118:   Maximum recorded temp.
 LUN .               2958:   Logging unit number
 LUL .               CASP:   Logging unit location
 ENGI.             MILLER:   Recorded By
 WITN.           MCGINLEY:   Witnessed by
 ORIG.           5" PRINT:   Origin of data
 UWI .     49025106050000:   Unique Well ID
 DICO. A2D TECHNOLOGIES, INC.:   Digitizing Company
~OTHER INFORMATION
~A   DEPT      SPR         SN        ILD       CALD         GRD      RHOB       CORR   
# ...
 2395.0000   -30.3037     6.4679     4.4140     8.6135   104.3723     2.4330     0.0677
 2395.5000   -30.4412     5.8270     4.3887     8.6144   107.9500     2.4511     0.0860
 2396.0000   -30.5787     5.2863     4.3304     8.6153   115.8560     2.4014     0.1012
 2396.5000   -30.7128     4.4428     4.1273     8.6161   115.2546     2.4602     0.0982
 2397.0000   -30.6995     4.2315     3.9332     8.6170   112.7129     2.4060     0.0331
 2397.5000   -30.6862     4.4422     3.7222     8.6178   108.5294     2.3864     0.0195
 2398.0000   -30.6727     4.3805     3.5472     8.6187   100.4653     2.4234     0.0381
 2398.5000   -30.6591     4.2602     3.4277     8.6196    98.9695     2.4264     0.0546
 2399.0000   -30.6428     4.5665     3.3354     8.6204   101.3521     2.3992     0.0590
 2399.5000   -30.7837     4.2007     3.3604     8.6211   104.3328     2.4333     0.0681
 2400.0000   -30.9212     4.0853     3.4812     8.6215   114.3263     2.4815     0.0773
 2400.5000   -30.9045     3.9890     3.5318     8.6070   113.4372     2.4626     0.0288
 2401.0000   -30.8912     3.9916     3.5091     8.6075   110.5961     2.4515     0.0304
 2401.5000   -30.8762     4.0495     3.4867     8.5930   111.5088     2.5065     0.0320
 2402.0000   -30.8590     4.4657     3.4897     8.5636   120.3794     2.4817     0.0305
 2402.5000   -30.8418     4.8567     3.5948     8.5045   122.0429     2.4907     0.0230
 2403.0000   -30.8246     4.8592     3.9787     8.4900   122.0547     2.5134     0.0169
 2403.5000   -30.8074     4.9641     4.3054     8.4756   121.9163     2.5270     0.0124
 2404.0000   -30.7902     5.5896     4.5542     8.4760   120.8770     2.5210     0.0064
 2404.5000   -30.7730     6.1641     4.7839     8.4765   109.9288     2.5135     0.0019
 2405.0000   -30.7558     6.4299     5.0604     8.4770   110.0908     2.5127     0.0173
 2405.5000   -30.7386     6.5233     5.0984     8.4760   111.9044     2.5126     0.0294
 2406.0000   -30.7214     6.5722     5.1367     8.4741   117.3216     2.5151     0.0354
 2406.5000   -30.7042     6.5756     5.3213     8.4721   122.2883     2.5325     0.0279
 2407.0000   -30.6878     6.5790     5.4743     8.4702   122.6006     2.5127     0.0188
 2407.5000   -30.6712     6.6290     5.5154     8.4682   122.4176     2.5069     0.0113
 2408.0000   -30.6546     6.8194     5.5568     8.4663   120.5248     2.5197     0.0068
 2408.5000   -30.6380     7.1631     5.5597     8.4643   116.7828     2.5114     0.0053
 2409.0000   -30.7736     7.5241     5.5626     8.4624   110.1777     2.4949     0.0023
 2409.5000   -30.9040     7.9033     5.7679     8.4604   104.4378     2.4791    -0.0022
 2410.0000   -30.8877     8.3017     6.0706     8.4585   104.3538     2.4746    -0.0067
 2410.5000   -30.8714     8.7809     6.5846     8.4566   105.4196     2.4754    -0.0006
 2411.0000   -31.1568     9.1596     6.9651     8.4546   108.5845     2.4762     0.0040
 2411.5000   -31.2954     9.5545     7.2657     8.4527   117.9056     2.4777     0.0056
 2412.0000   -31.5767     9.8290     7.5268     8.4507   118.9684     2.4838     0.0087
 2412.5000   -31.7119     9.9717     7.6896     8.4488   118.2295     2.4974     0.0087
 2413.0000   -31.9970     9.9768     7.8014     8.4468   111.9349     2.5057     0.0057
 2413.5000   -31.3770     9.9820     7.9149     8.4449   102.7885     2.5035    -0.0003
 2414.0000   -31.0507     9.9993     7.9743     8.4430   101.4460     2.4831    -0.0048
 2414.5000   -30.7406    10.1333     8.0342     8.4410   101.9112     2.4734    -0.0058
 2415.0000   -30.7207    10.2804     8.0384     8.4391   103.7248     2.4725    -0.0073
 2415.5000   -30.7044    10.4297     8.0426     8.4371   110.0429     2.4795     0.0049
 2416.0000   -30.6881    10.4350     8.0468     8.4352   118.9135     2.4931     0.0201
 2416.5000   -30.7060    10.4404     8.1073     8.4332   122.5289     2.5006     0.0278
 2417.0000   -30.8105    10.4457     8.1423     8.4331   124.4927     2.4945     0.0233
 2417.5000   -30.7901    10.4511     8.1812     8.4337   125.4054     2.4615     0.0097
 2418.0000   -30.7753    10.4564     8.2924     8.4343   123.9817     2.4706     0.0052
 2418.5000   -30.7587    10.4618     8.3546     8.4200   120.6721     2.4766     0.0022
 2419.0000   -30.7412    10.3945     8.3590     8.4192   118.2365     2.4744     0.0038
 2419.5000   -30.8763    10.3279     8.2478     8.4063   119.5996     2.4752     0.0054
 2420.0000   -30.8597    10.1906     8.1939     8.3920   120.0589     2.4895     0.0055
 2420.5000   -30.8432    10.1959     8.1993     8.3776   109.9472     2.4963     0.0025
 2421.0000   -30.9774    10.2012     8.2604     8.3609   104.4708     2.4918    -0.0021
 2421.5000   -31.1122    10.2787     8.2652     8.3489   104.0321     2.4768    -0.0095
 2422.0000   -31.0959    10.4280     8.3272     8.3496   103.7406     2.4603    -0.0125
 2422.5000   -31.2783    10.6532     8.3316     8.3502   101.8034     2.4558    -0.0048
 2423.0000   -31.3635    10.8832     8.3941     8.3509    99.1125     2.4558     0.0013
 2423.5000   -31.3469    10.8888     8.5757     8.3663    96.7229     2.4582     0.0059
 2424.0000   -31.3284    10.8944     8.7004     8.3670    97.1851     2.4596     0.0075
 2424.5000   -31.3121    10.9760     8.8270     8.3675    97.0467     2.4619     0.0106
 2425.0000   -31.2971    10.9816     8.8934     8.3681    95.4069     2.4770     0.0121
 2425.5000   -31.2805    10.9872     8.9611     8.3687    93.4667     2.4891     0.0107
 2426.0000   -31.2640    10.9929     9.0914     8.3694    92.8779     2.4989     0.0077
 2426.5000   -31.2469    11.1534     9.0962     8.3699    91.3882     2.4952     0.0062
 2427.0000   -31.2308    11.3943     9.1645     8.3705    85.5441     2.4832     0.0026
 2427.5000   -31.2142    11.4797     9.2333     8.3712    85.1054     2.4719     0.0003
 2428.0000   -31.1976    11.4855     9.3676     8.3717    85.5677     2.4599    -0.0027
 2428.5000   -31.1810    11.4914     9.4379     8.3723    94.2620     2.4509    -0.0011
 2429.0000   -31.1614    11.4973     9.5752     8.3729   108.1835     2.4486     0.0008
 2429.5000   -30.9942    11.5032     9.7144     8.3735   128.0985     2.4502     0.0071
 2430.0000   -30.9804    11.4294     9.7874     8.3741   128.8581     2.4593     0.0143
 2430.5000   -30.9617    11.4352     9.7925     8.3896   114.6076     2.4569     0.0143
 2431.0000   -30.7945    11.4411     9.6623     8.4051   111.9166     2.4540     0.0159
 2431.5000   -30.7782    11.5281     9.5306     8.4410   112.0786     2.4601     0.0129
 2432.0000   -30.7620    11.6167     9.3345     8.4679   112.3907     2.4631     0.0069
 2432.5000   -30.7457    11.7004     9.2175     8.4964   112.8529     2.4473     0.0039
 2433.0000   -30.8802    11.7076     9.2236     8.5268   113.8286     2.4594     0.0070
 2433.5000   -31.0151    11.7136     9.4230     8.5572   116.5212     2.4903     0.0207
 2434.0000   -31.1493    11.8014     9.8298     8.6025   116.0444     2.4904     0.0374
 2434.5000   -31.2838    11.8074     9.9728     8.7223   111.4015     2.4942     0.0254
 2435.0000   -31.2670    11.8951    10.0476     8.8123   111.4133     2.5145     0.0224
 2435.5000   -31.2471    11.9850    10.2649     8.8129   110.8245     2.5221     0.0255
 2436.0000   -31.0830    11.9911    10.4869     8.7984   110.0855     2.5312     0.0256
 2436.5000   -30.9129    11.9126    10.6394     8.7991   104.5417     2.5380     0.0254
 2437.0000   -30.7458    11.5934    10.4979     8.7848    99.2992     2.5356     0.0179
 2437.5000   -30.5787    10.6710    10.0042     8.7854    97.2089     2.5147     0.0106
 2438.0000   -30.2607     9.8906     9.4676     8.7562    97.6712     2.4989     0.0137
 2438.5000   -30.2444     9.4234     8.9598     8.7419   100.5358     2.4929     0.0213
 2439.0000   -29.9251     9.3003     8.5348     8.7275   106.5536     2.4884     0.0290
 2439.5000   -29.9088     9.3053     8.2361     8.7134   107.0129     2.5043     0.0624
 2440.0000   -29.8925     9.3110     7.8639     8.6989   105.6763     2.5096     0.0806
