~VERSION INFORMATION
 VERS.                2.0:   CWLS LOG ASCII STANDARD - VERSION 2.0
 WRAP.                 NO:   ONE LINE PER DEPTH STEP
~WELL INFORMATION
#MNEM.UNIT      DATA TYPE    INFORMATION
#----------   ------------   ------------------------------
 STRT.F          261.0000:   START DEPTH
 STOP.F         2875.0000:   STOP DEPTH
 STEP.F            0.5000:   STEP LENGTH
 NULL.          -999.2500:   NO VALUE
 COMP.   LAWRENCE ALLISON:   COMPANY
 WELL. LAWRENCE ALLISON "X" #85-20:   WELL
 FLD .          N.P.R. #3:   FIELD
 LOC .      S20 T39N R78W:   LOCATION
 CNTY.            NATRONA:   COUNTY
 STAT.            WYOMING:   STATE
 CTRY. UNITED STATES OF AMERICA:   COUNTRY
 SRVC.      DRESSER ATLAS:   SERVICE COMPANY
 DATE.        23-JUL-1986:   LOGDATE
 API .     49025111030000:   API NUMBER
~CURVE INFORMATION
#MNEM.UNIT       API CODE    CURVE DESCRIPTION
#----------   ------------   ------------------------------
 DEPT.F                  :   
 CORR.G/C3   45 356 01 00:   DENSITY CORRECTION
 RHOB.G/C3   45 350 01 00:   BULK DENSITY
 CNC .DEC    42 890 03 00:   NEUTRON POROSITY SANDSTONE
 GRR .GAPI   07 310 01 00:   GAMMA RAY FROM RESISTIVITY
 CALR.IN     07 280 01 00:   CALIPER FROM RESISTIVITY
 SPR .MV     07 010 01 00:   SPONTANEOUS POTENTIAL
 TENR.LBS    07 635 01 00:   TENSION FROM RESISTIVITY
 RILD.OHMM   07 120 46 00:   DEEP INDUCTION RESISTIVITY
 RILM.OHMM   07 120 44 00:   INDUCTION LOG MEDIUM RESISTIVITY
 RFOC.OHMM   07 220 04 00:   RESISTIVITY FOCUSED LOG RES.
~PARAMETER INFORMATION
#MNEM.UNIT          VALUE    DESCRIPTION
#----------   ------------   ------------------------------
 EKB .F         5007.0000:   Kelly bushing
 EGL .F         4995.0000:   Ground level
 EDF .F            0.0000:   Drilling floor
 EPD .F         4995.0000:   Permanent datum
 TD  .F         2874.0000:   Total depth
 CLNT.            A2DTECH:   Client Code
 SL  . 307' FEL & 2237' FSL:   Surface Location
 DATE.        23-JUL-1986:   Date Logged [DD-MMM-YYYY]
 DD  .F              2870:   Depth driller
 DL  .F              2874:   Depth logger
 BLI .F              2872:   Bottom log interval
 TLI .F              2205:   Top log interval
 CS1 .              8.625:   Casing size
 CBD1.      8.625" @ 261':   Casing driller 1
 CBL1.IN              261:   Casing logger 1
 BS1 .IN            7.875:   Bit size
 BSD1.F              2870:   Depth drilled with bit1
 DFT .            KCL-GEL:   Type fluid in hole
 DFD .                9.0:   Density
 DFV .                 37:   Viscosity
 MSS .           MUD TANK:   Source of sample
 RMS .OHMM          0.257:   Rm
 MST .F                89:   Rm Meas. temp.
 RMF .OHMM           0.19:   Rmf
 MFST.F                89:   Rmf Meas. temp.
 MFSS.               CALC:   Source Rmf.
 RMC .OHMM           0.32:   Rmc
 MCST.F                89:   Rmc Meas. temp.
 MCSS.               CALC:   Source Rmc.
 RMB .OHMM           0.20:   Rm. at BHT
 BHT .F               116:   BHT.
 TCS .HRS               4:   Time Circ. stopped
 MRT .F               116:   Maximum recorded temp.
 LUN .            HL 6264:   Logging unit number
 LUL .           GILLETTE:   Logging unit location
 ENGI.      P.M. FAHLSING:   Recorded By
 WITN.           JENNINGS:   Witnessed by
 ORIG.         2.5" PRINT:   Origin of data
 UWI .     49025111030000:   Unique Well ID
 DICO. A2D TECHNOLOGIES, INC.:   Digitizing Company
~OTHER INFORMATION
~A   DEPT     CORR       RHOB        CNC         GRR        CALR      SPR        TENR       RILD      RILM         RFOC 
# ...
 2773.5000     1.5073     2.4579     0.2335   116.0415     7.8712   -64.2967   -47.6998     3.8913     4.1201     4.8731
 2774.0000     1.4952     2.4549     0.2325   113.1477     7.8706   -64.3040   -47.3324     3.9443     4.2347     5.0529
 2774.5000     1.5258     2.4595     0.2331   106.5937     7.8700   -64.3114   -32.1722     3.9437     4.2937     5.5624
 2775.0000     1.5624     2.4640     0.2331   104.1555     7.8695   -64.3187   -31.8046     3.9974     4.2943     5.9980
 2775.5000     1.5869     2.4671     0.2348   109.8346     7.8689   -64.3261   -16.6421     4.0619     4.2349     5.9326
 2776.0000     1.6053     2.4656     0.2389   113.9546     7.8683   -64.3334   -16.2721     4.1747     4.1496     5.4952
 2776.5000     1.5689     2.4612     0.2411   114.8190     7.8677   -64.3408   -15.9023     4.3035     4.0931     5.0958
 2777.0000     1.5385     2.4642     0.2423   113.5472     7.8671   -64.0505   -15.5326     4.4847     4.1247     4.8872
 2777.5000     1.5323     2.4777     0.2400   110.2079     7.8665   -64.0587   -15.1627     4.7379     4.2737     4.6870
 2778.0000     1.5449     2.4853     0.2276   105.8979     7.8659   -64.0661   -14.7928     4.9373     4.5023     4.8839
 2778.5000     1.5450     2.4898     0.2141   105.8921     7.8653   -63.4799   -14.4231     5.2160     4.8199     5.4514
 2779.0000     1.5451     2.4929     0.1996   102.9188     7.8798   -63.1905   -15.6371     5.5104     5.0899     6.1894
 2779.5000     1.5391     2.4959     0.1913    98.7586     7.8937   -62.9012   -28.4983     5.7425     5.5238     6.6282
 2780.0000     1.5454     2.4975     0.1918    91.6311     7.8931   -62.6118   -28.1066     6.0387     5.7542     7.3183
 2780.5000     1.5455     2.4975     0.1988    90.4382     7.8925   -62.3220   -27.7367     6.1767     6.0766     7.9657
 2781.0000     1.5643     2.4975     0.2045    91.0258     7.9216   -62.0327   -12.5740     5.9796     6.2443     8.2841
 2781.5000     1.6069     2.4961     0.2098    95.7677     7.9210   -61.7436     2.5887     5.6789     5.9935     7.3889
 2782.0000     1.6252     2.4899     0.2120    98.7292     7.9205   -61.4542     2.9586     5.4018     5.5978     6.6450
 2782.5000     1.6312     2.4795     0.2126   101.6907     7.9199   -61.1648    18.1213     5.2408     5.3729     6.2069
 2783.0000     1.5942     2.4737     0.2147   104.0587     7.9192   -61.1722    18.4911     5.0691     5.1571     5.7078
 2783.5000     1.5827     2.4740     0.2177   105.2397     7.9186   -61.1795    18.8609     4.9309     5.0179     5.6275
 2784.0000     1.5829     2.4784     0.2243   106.4208     7.9180   -61.1869    19.2308     4.8269     4.9496     5.9832
 2784.5000     1.5826     2.4845     0.2279   106.4149     7.9174   -61.1944    19.6007     4.8263     4.9492     6.1876
 2785.0000     1.5704     2.4877     0.2297   105.8155     7.9168   -61.2017    19.9704     4.8918     4.9489     6.2707
 2785.5000     1.5467     2.4920     0.2291   105.2162     7.9459   -61.2092    20.3403     4.9259     4.9486     6.0428
 2786.0000     1.5785     2.4951     0.2291   104.6168     7.9453   -61.2166     5.8632     4.9577     4.9482     5.5286
 2786.5000     1.5963     2.4980     0.2297   104.0175     7.9447   -61.2241     6.2870     4.9945     4.9479     5.5078
 2787.0000     1.6079     2.4981     0.2321   104.0116     7.9441   -61.2314     6.6568     4.9564     4.8805     5.6897
 2787.5000     1.6073     2.4981     0.2339   104.0057     7.9435   -61.2389     7.0267     4.8885     4.8140     5.9261
 2788.0000     1.5952     2.4982     0.2339   105.1867     7.9429   -61.2463     7.3964     4.8215     4.7485     6.0057
 2788.5000     1.5770     2.4967     0.2339   105.7745     7.9424   -61.5505     7.7663     4.6911     4.6838     6.1703
 2789.0000     1.5649     2.4936     0.2339   106.3620     7.9418   -61.5578     8.1361     4.6269     4.6200     6.1682
 2789.5000     1.5598     2.4923     0.2375   108.1365     7.9412   -61.5653     8.5059     4.5017     4.4953     5.9181
 2790.0000     1.5731     2.4924     0.2405   109.3175     7.9406   -61.5727     8.8757     4.3799     4.4341     5.6781
 2790.5000     1.5916     2.4942     0.2411   111.1019     7.9400   -61.5801     9.2456     4.3200     4.3135     5.3738
 2791.0000     1.5978     2.4957     0.2406   112.3127     7.9394   -61.2897     9.6154     4.2031     4.1961     5.2990
 2791.5000     1.5969     2.4970     0.2388   114.0772     7.9388   -61.2982     9.9852     4.0894     4.0820     5.2252
 2792.0000     1.5897     2.4949     0.2370   115.2287     7.9382   -61.3056    10.3550     3.9788     4.0255     5.2234
 2792.5000     1.5702     2.4887     0.2346   115.8163     7.9376   -61.2042    10.7248     3.9782     3.9742     5.1506
 2793.0000     1.5472     2.4818     0.2340   115.7505     7.9370   -61.0223    11.0947     4.0877     4.0286     5.2198
 2793.5000     1.5365     2.4774     0.2340   113.8847     7.9365   -61.0312    11.4645     4.1433     4.0902     5.2902
 2794.0000     1.5488     2.4743     0.2340   112.1585     7.9359   -61.0386    11.8343     4.1997     4.1963     5.1454
 2794.5000     1.5565     2.4703     0.2334   111.0445     7.9353   -61.0460    12.2041     4.1991     4.2537     4.6102
 2795.0000     1.5688     2.4703     0.2328   111.0386     7.9347   -60.7567    12.5739     4.0855     4.2534     4.5994
 2795.5000     1.5735     2.4704     0.2329   111.7348     7.9341   -60.7641    12.9438     4.0296     4.1851     4.9334
 2796.0000     1.5813     2.4704     0.2330   113.5193     7.9335   -60.7715    13.3136     3.9206     4.0160     5.2092
 2796.5000     1.5859     2.4689     0.2343   115.4323     7.9329   -60.6226    13.6834     3.8145     3.9068     5.2793
 2797.0000     1.5625     2.4682     0.2380   117.8199     7.9323   -60.4896    14.0532     3.7113     3.7608     5.0651
 2797.5000     1.5339     2.4622     0.2457   120.2077     7.9317   -60.3291    14.4230     3.6109     3.6970     4.7937
 2798.0000     1.5132     2.4557     0.2521   121.8439     7.9311   -60.2077    14.7929     3.5615     3.5964     4.5993
 2798.5000     1.5194     2.4482     0.2562   122.8673     7.9306   -60.2166    15.1627     3.4652     3.5467     4.4128
 2799.0000     1.5195     2.4402     0.2581   122.8605     7.9300   -59.9258    15.5325     3.4647     3.5118     4.2922
 2799.5000     1.5177     2.4387     0.2515   123.0427     7.9294   -59.9345    15.9023     3.4642     3.5116     4.0621
 2800.0000     1.5239     2.4398     0.2387   122.6506     7.9288   -59.9419    16.2721     3.5114     3.5274     4.1734
 2800.5000     1.5463     2.4473     0.2365   121.2406     7.9282   -60.2460    16.6419     3.5599     3.5765     4.4693
 2801.0000     1.5565     2.4575     0.2370   118.8409     7.9276   -60.2533    17.0118     3.6571     3.6261     4.7231
 2801.5000     1.5545     2.4639     0.2399   115.9858     7.9270   -60.2606    17.3816     3.6070     3.6574     5.0559
 2802.0000     1.5379     2.4664     0.2450   111.4303     7.9264   -59.9407    17.7514     3.5032     3.6075     5.3320
 2802.5000     1.5159     2.4607     0.2504   109.4165     7.9258   -59.9407    18.1212     3.3607     3.5184     5.1603
 2803.0000     1.4938     2.4460     0.2547   112.5652     7.9252   -59.9407    18.4910     3.2240     3.3969     4.3780
 2803.5000     1.5156     2.4330     0.2578   117.0202     7.9247   -59.9407    18.8609     3.0977     3.3046     4.0510
 2804.0000     1.5585     2.4321     0.2609   122.1293     7.9241   -59.9407    19.2307     3.0547     3.2123     4.0430
 2804.5000     1.6014     2.4430     0.2669   126.9098     7.9235   -59.9407    19.6005     2.9774     3.1035     3.9859
 2805.0000     1.6245     2.4542     0.2705   130.2074     7.9229   -59.9407    20.0238     2.9702     3.0385     3.8684
 2805.5000     1.5960     2.4663     0.2673   130.1918     7.9223   -59.9407    20.4886     2.9362     3.1658     3.7183
 2806.0000     1.5586     2.4741     0.2609   127.4445     7.9217   -59.9407    20.9534     2.9358     3.2537     3.6248
 2806.5000     1.5518     2.4765     0.2558   123.2469     7.9211   -59.9407    21.4182     2.8957     3.2987     3.7341
