~VERSION INFORMATION
 VERS.                2.0:   CWLS LOG ASCII STANDARD - VERSION 2.0
 WRAP.                 NO:   ONE LINE PER DEPTH STEP
~WELL INFORMATION
#MNEM.UNIT      DATA TYPE    INFORMATION
#----------   ------------   ------------------------------
 STRT.F          712.0000:   START DEPTH
 STOP.F         3352.0000:   STOP DEPTH
 STEP.F            0.5000:   STEP LENGTH
 NULL.          -999.2500:   NO VALUE
 COMP.    FENIX & SCISSON:   COMPANY
 WELL. FENIX & SCISSON "AX" #24-14:   WELL
 FLD .              NPR 3:   FIELD
 LOC .      S14 T38N R78W:   LOCATION
 CNTY.            NATRONA:   COUNTY
 STAT.            WYOMING:   STATE
 CTRY. UNITED STATES OF AMERICA:   COUNTRY
 SRVC.       SCHLUMBERGER:   SERVICE COMPANY
 DATE.        19-JUN-1981:   LOGDATE
 API .     49025108750000:   API NUMBER
~CURVE INFORMATION
#MNEM.UNIT       API CODE    CURVE DESCRIPTION
#----------   ------------   ------------------------------
 DEPT.F                  :   
 TENR.LBS    07 635 01 00:   TENSION
 ILD .OHMM   07 120 46 00:   DEEP INDUCTION RESISTIVITY
 SFL .OHMM   07 220 01 00:   SHALLOW FOCUSED LOG RESISTIVITY
 ILM .OHMM   07 120 44 00:   INDUCTION LOG MEDIUM RESISTIVITY
 SPR .MV     07 010 01 00:   SPONTANEOUS POTENTIAL
 TEND.LBS    45 635 01 00:   TENSION FROM DENSITY LOG
 DRHO.G/C3   45 356 01 00:   DENSITY CORRECTION
 CALD.IN     45 280 60 00:   CALIPER FROM DENSITY LOG
 GRD .GAPI   45 310 01 00:   GAMMA RAY FROM DENSITY LOG
 RHOB.G/C3   45 350 01 00:   BULK DENSITY
~PARAMETER INFORMATION
#MNEM.UNIT          VALUE    DESCRIPTION
#----------   ------------   ------------------------------
 EKB .F         5216.0000:   Kelly bushing
 EGL .F         5206.0000:   Ground level
 EDF .F         5215.0000:   Drilling floor
 EPD .F            0.0000:   Permanent datum
 TD  .F         3360.0000:   Total depth
 DATE.        19-JUN-1981:   Date logged
 CLNT.            A2DTECH:   Client Code
 SL  . 2413' FNL & 827' FWL:   Surface Location
 PD  .                 GL:   Permanent Datum
 DAPD.F                10:   Feet Above Permanent Datum
 DD  .F              3360:   Depth driller
 DL  .F              3348:   Depth logger
 BLI .F              3342:   Bottom log interval
 TLI .F               728:   Top log interval
 CS1 .IN            8.625:   Casing size
 CBD1.      8.625" @ 728':   Casing driller 1
 CBL1.F               728:   Casing logger 1
 BS1 .IN            7.875:   Bit size
 BSD1.F              3360:   Depth drilled with bit1
 DFT .                FGM:   Type fluid in hole
 DFD .                  9:   Density
 DFV .                 45:   Viscosity
 DFPH.                9.5:   pH
 DFL .                 10:   Fluid loss
 MSS .               TANK:   Source of sample
 RMS .OHMM           5.71:   Rm
 MST .F                68:   Rm Meas. temp.
 RMF .OHMM           1.27:   Rmf
 MFST.F                68:   Rmf Meas. temp.
 MFSS.               MEAS:   Source Rmf.
 RMB .OHMM           3.29:   Rm. at BHT
 BHT .F               118:   BHT.
 TCS .HRS            0800:   Time Circ. stopped
 TLAB.HRS            1130:   Time logger at bottom
 MRT .F               118:   Maximum recorded temp.
 LUN .               8039:   Logging unit number
 LUL .               CSPR:   Logging unit location
 ENGI.           G. PFARR:   Recorded By
 WITN.           R. SCOTT:   Witnessed by
 ORIG.           5" PRINT:   Origin of data
 UWI .     49025108750000:   Unique Well ID
 DICO. A2D TECHNOLOGIES, INC.:   Digitizing Company
~OTHER INFORMATION
~A   DEPT     TENR        ILD        SFL        ILM        SPR       TEND       DRHO       CALD         GRD      RHOB   
# ...
 1750.5000  1041.2570     7.7830     8.8270     6.7180   -52.9250  1066.0341     0.0130     8.4450   109.2710     2.5620
 1751.0000  1041.2570     7.7750     9.3530     6.7490   -52.9070  1071.7531     0.0150     8.4450   108.8790     2.5650
 1751.5000  1041.2570     7.7670     9.3530     6.7800   -52.8950  1077.4720     0.0170     8.4450   108.1200     2.5700
 1752.0000  1041.2570     7.7590     9.3530     6.8110   -52.9310  1080.6660     0.0190     8.4450   105.9730     2.5720
 1752.5000  1041.2570     7.7500     9.3530     6.8420   -52.7020  1075.1210     0.0170     8.4450   102.5630     2.5640
 1753.0000  1041.2570     7.7410     9.2600     6.8760   -52.4640  1069.5770     0.0160     8.4450   102.8250     2.5570
 1753.5000  1041.2570     7.7330     8.9120     6.8760   -52.8410  1064.0320     0.0110     8.4450   105.4430     2.5520
 1754.0000  1041.2570     7.7240     8.3910     6.8760   -52.8820  1058.4880     0.0060     8.4450   111.1260     2.5530
 1754.5000  1041.2570     7.7160     8.4910     6.8760   -53.1540  1052.9430     0.0040     8.4450   115.6230     2.5610
 1755.0000  1041.2570     7.7070     8.6900     6.8770   -53.2900  1047.3990     0.0060     8.4450   116.4160     2.5760
 1755.5000  1041.2570     7.6980     8.8900     6.8770   -53.3140  1041.8540     0.0070     8.4450   115.1590     2.5850
 1756.0000  1041.2570     7.6900     9.0210     6.8770   -53.2810  1036.3101     0.0080     8.4450   112.5430     2.5800
 1756.5000  1041.2570     7.6810     8.9440     6.8770   -53.4270  1030.7650     0.0070     8.4450   108.3570     2.5650
 1757.0000  1041.2570     7.6720     8.8630     6.8770   -53.5900  1025.2200     0.0100     8.4450   106.5070     2.5550
 1757.5000  1041.2570     7.6640     8.7820     6.8770   -53.7160  1023.5450     0.0130     8.4450   107.4440     2.5530
 1758.0000  1041.2570     7.6500     8.7000     6.8770   -54.0300  1027.9810     0.0160     8.4450   109.7210     2.5540
 1758.5000  1041.2570     7.6370     8.8530     6.8770   -54.0960  1032.4160     0.0150     8.4450   111.0600     2.5550
 1759.0000  1041.2570     7.6240     9.0060     6.8760   -53.7790  1036.8521     0.0120     8.4450   112.5550     2.5540
 1759.5000  1041.2570     7.6110     9.1860     6.8780   -53.5290  1041.2870     0.0070     8.4450   114.1410     2.5540
 1760.0000  1041.2570     7.5980     8.9610     6.8600   -53.0380  1045.7230     0.0030     8.4450   114.0810     2.5530
 1760.5000  1041.2570     7.5860     8.5440     6.8170   -52.7710  1050.1591     0.0040     8.4450   111.2420     2.5520
 1761.0000  1041.2570     7.5730     8.5670     6.7760   -52.4950  1054.5940     0.0090     8.4450   108.4510     2.5510
 1761.5000  1041.2570     7.5600     8.6160     6.7350   -52.0820  1059.0300     0.0140     8.4450   106.9440     2.5550
 1762.0000  1041.2570     7.5460     8.6900     6.6940   -52.1580  1063.4659     0.0190     8.4450   107.9950     2.5650
 1762.5000  1041.2570     7.5300     8.6770     6.6320   -52.1240  1067.9010     0.0190     8.4450   109.4480     2.5710
 1763.0000  1041.2570     7.5650     8.5990     6.6860   -52.0620  1072.3370     0.0180     8.4450   110.8320     2.5690
 1763.5000  1041.2570     7.6410     8.5210     6.7930   -51.6320  1076.7720     0.0170     8.4450   111.4690     2.5600
 1764.0000  1041.2570     7.7170     8.3910     6.9000   -51.4530  1081.2080     0.0170     8.4450   109.9610     2.5570
 1764.5000  1041.2570     7.7920     8.5180     7.0070   -51.4910  1085.6440     0.0180     8.4450   107.6220     2.5600
 1765.0000  1041.2570     7.8670     8.8850     7.1140   -51.8670  1090.0790     0.0190     8.4450   107.1730     2.5640
 1765.5000  1041.2570     7.9420     9.2530     7.2210   -52.2120  1094.5150     0.0200     8.4450   109.4720     2.5610
 1766.0000  1041.2570     8.0180     9.6210     7.3280   -52.5540  1098.9510     0.0190     8.4450   111.5280     2.5560
 1766.5000  1041.2570     8.0930     9.9890     7.4050   -52.9080  1103.3860     0.0180     8.4450   110.3400     2.5560
 1767.0000  1041.2570     8.1680    10.4260     7.4360   -53.2490  1107.8220     0.0170     8.4450   107.5820     2.5640
 1767.5000  1041.2570     8.2440    10.3420     7.4670   -53.5980  1112.2570     0.0220     8.4450   105.9000     2.5710
 1768.0000  1041.2570     8.3190    10.2380     7.4980   -53.7500  1116.6930     0.0270     8.4450   106.2430     2.5780
 1768.5000  1041.2570     8.3910    10.1330     7.5280   -53.8270  1121.1290     0.0270     8.4450   105.5380     2.5720
 1769.0000  1041.2570     8.3570    10.0180     7.4640   -53.9120  1125.5640     0.0240     8.4450   103.0810     2.5650
 1769.5000  1041.2570     8.3240     9.8720     7.4020   -53.9890  1130.0000     0.0200     8.4450   101.6290     2.5660
 1770.0000  1041.2570     8.2910     9.7250     7.3410   -54.0630  1134.4360     0.0250     8.4450   103.0570     2.5820
 1770.5000  1041.2570     8.2580     9.5780     7.2790   -53.9150  1138.8710     0.0320     8.4450   106.2560     2.6020
 1771.0000  1041.2570     8.2260     9.4320     7.2600   -53.7860  1137.0300     0.0390     8.4450   107.5500     2.6200
 1771.5000  1041.2570     8.1930     9.2850     7.2600   -53.6390  1130.0260     0.0470     8.4450   107.8340     2.6130
 1772.0000  1041.2570     8.1600     9.1860     7.2600   -53.2510  1123.0229     0.0370     8.4450   107.0230     2.5920
 1772.5000  1041.2570     8.1280     9.1860     7.2600   -53.1040  1116.0190     0.0240     8.4450   104.6380     2.5710
 1773.0000  1041.2570     8.0940     9.1860     7.2600   -52.8820  1109.0160     0.0110     8.4450   102.5950     2.5560
 1773.5000  1041.2570     8.1340     9.3080     7.2600   -52.9330  1102.0120     0.0060     8.4450   103.0960     2.5530
 1774.0000  1041.2570     8.1760     9.5280     7.3590   -52.8910  1095.0081     0.0050     8.4450   104.6530     2.5520
 1774.5000  1041.2570     8.2390     9.7480     7.4430   -52.9080  1088.0050     0.0060     8.4450   104.4760     2.5530
 1775.0000  1041.2570     8.2280     9.9690     7.5280   -52.9260  1081.0010     0.0070     8.4450   103.5710     2.5530
 1775.5000  1041.2570     8.1920    10.0560     7.4170   -52.6470  1073.9969     0.0080     8.4450   103.7240     2.5510
 1776.0000  1041.2570     8.1570     9.8760     7.3060   -52.1290  1066.9940     0.0110     8.4450   105.6130     2.5510
 1776.5000  1041.2570     8.1210     9.4470     7.1950   -52.1380  1061.7720     0.0160     8.4450   109.4250     2.5560
 1777.0000  1041.2570     8.0860     9.0190     7.0850   -52.1450  1062.9890     0.0210     8.4450   113.2570     2.5620
 1777.5000  1041.2570     8.0500     8.7000     7.0080   -52.0840  1064.2061     0.0250     8.4450   115.5750     2.5610
 1778.0000  1041.2570     8.0150     8.7000     7.0290   -52.5450  1065.4230     0.0210     8.4450   115.6200     2.5530
 1778.5000  1041.2570     7.9800     8.9240     7.0500   -52.9820  1066.6400     0.0160     8.4450   113.5670     2.5470
 1779.0000  1041.2570     7.9480     9.2540     7.0710   -52.6920  1067.8571     0.0100     8.4450   111.6810     2.5420
 1779.5000  1041.2570     7.9600     9.5840     7.0920   -52.7230  1069.0740     0.0090     8.4450   112.2630     2.5380
 1780.0000  1041.2570     7.9700     9.8750     7.1130   -52.6000  1070.2910     0.0090     8.4450   113.6840     2.5340
 1780.5000  1041.2570     7.9810     9.4720     7.1340   -52.9940  1071.5081     0.0090     8.4450   113.5050     2.5290
 1781.0000  1041.2570     7.9920     9.1120     7.1550   -53.2820  1072.7260     0.0090     8.4450   113.0360     2.5250
 1781.5000  1041.2570     8.0030     9.0210     7.1760   -53.6100  1073.9430     0.0080     8.4450   113.0370     2.5260
 1782.0000  1041.2570     8.0140     9.0210     7.1970   -53.9770  1075.1600     0.0070     8.4450   112.6930     2.5370
 1782.5000  1041.2570     8.0240     9.2210     7.2180   -53.9380  1076.3770     0.0190     8.4450   111.2570     2.5540
 1783.0000  1041.2570     8.0350     9.3920     7.2390   -53.6350  1077.5940     0.0280     8.4450   109.6740     2.5700
 1783.5000  1041.2570     8.0460     9.5630     7.2600   -53.3290  1078.8110     0.0260     8.4450   110.4640     2.5720
