~VERSION INFORMATION
 VERS.                2.0:   CWLS LOG ASCII STANDARD - VERSION 2.0
 WRAP.                 NO:   ONE LINE PER DEPTH STEP
~WELL INFORMATION
#MNEM.UNIT      DATA TYPE    INFORMATION
#----------   ------------   ------------------------------
 STRT.F           41.0000:   START DEPTH
 STOP.F          925.0000:   STOP DEPTH
 STEP.F            0.5000:   STEP LENGTH
 NULL.          -999.2500:   NO VALUE
 COMP. LAWRENCE ALLISON & ASSOCIATION:   COMPANY
 WELL. LAWRENCE ALLISON #48-2:   WELL
 FLD .       N.P.R. NO. 3:   FIELD
 LOC .       S2 T38N R78W:   LOCATION
 CNTY.            NATRONA:   COUNTY
 STAT.            WYOMING:   STATE
 CTRY. UNITED STATES OF AMERICA:   COUNTRY
 SRVC.       SCHLUMBERGER:   SERVICE COMPANY
 DATE.        06-SEP-1982:   LOGDATE
 API .     49025109110000:   API NUMBER
~CURVE INFORMATION
#MNEM.UNIT       API CODE    CURVE DESCRIPTION
#----------   ------------   ------------------------------
 DEPT.F                  :   
 ILM .OHMM   07 120 44 00:   INDUCTION LOG MEDIUM RESISTIVITY
 ILD .OHMM   07 120 46 00:   DEEP INDUCTION RESISTIVITY
 CALD.IN     45 280 60 00:   CALIPER FROM DENSITY LOG
 GRD .GAPI   45 310 01 00:   GAMMA RAY FROM DENSITY LOG
 TEND.LBS    45 635 01 00:   TENSION FROM DENSITY LOG
 CORR.G/C3   45 356 01 00:   DENSITY CORRECTION
 RHOB.G/C3   45 350 01 00:   BULK DENSITY
 NPHI.DEC    42 890 03 00:   NEUTRON POROSITY SANDSTONE
~PARAMETER INFORMATION
#MNEM.UNIT          VALUE    DESCRIPTION
#----------   ------------   ------------------------------
 EKB .F         5192.0000:   Kelly bushing
 EGL .F         5182.0000:   Ground level
 TD  .F          920.0000:   Total depth
 CLNT.            A2DTECH:   Client Code
 DATE.         6-SEP-1982:   Date Logged [DD-MMM-YYYY]
 DD  .F               920:   Depth driller
 DL  .F               918:   Depth logger
 BLI .F               908:   Bottom log interval
 TLI .F                49:   Top log interval
 CBL1.IN               49:   Casing logger 1
 BSD1.F               920:   Depth drilled with bit1
 DFT .                AIR:   Type fluid in hole
 TCS .HRS            0730:   Time Circ. stopped
 TLAB.HRS            0900:   Time logger at bottom
 LUN .               8035:   Logging unit number
 LUL .               CSPR:   Logging unit location
 ENGI.              PENNY:   Recorded By
 WITN.           JENNINGS:   Witnessed by
 ORIG.           5" PRINT:   Origin of data
 UWI .     49025109110000:   Unique Well ID
 DICO. A2D TECHNOLOGIES, INC.:   Digitizing Company
 PD  .                 GL:   Permanent Datum
 EPD .               5180:   Elevation Permanent Datum
 LMF .                 KB:   Log Measured From
 DMF .                 KB:   Drilling Measured From
 DAPD.                 10:   Feet Above Permanent Datum
~OTHER INFORMATION
~A   DEPT      ILM        ILD       CALD         GRD      TEND       CORR       RHOB       NPHI   
# ...
  608.0000     7.2423     7.2058    12.8674   127.2617   680.0618     0.0752     2.4294  -999.2500
  608.5000     7.2423     7.1526    12.8684   131.0784   680.0618     0.0357     2.3826  -999.2500
  609.0000     7.1803     7.0999    12.8694   132.6994   680.0618     0.0138     2.3678  -999.2500
  609.5000     6.8381     6.9971    12.8854   130.1982   680.0618     0.0085     2.3678  -999.2500
  610.0000     6.6445     6.8519    12.9012   126.3230   680.0618     0.0156     2.3811  -999.2500
  610.5000     6.4379     6.4393    12.9022   127.0279   680.0618     0.0243     2.3952  -999.2500
  611.0000     6.1340     6.0516    12.9032   133.6871   680.0618     0.0282     2.4085  -999.2500
  611.5000     5.8444     5.8072    12.9042   138.0561   680.0618     0.0282     2.3968  -999.2500
  612.0000     5.6466     5.6507    12.8902   137.3870   680.0618     0.0267     2.3820  -999.2500
  612.5000     5.5319     5.5369    12.8915   131.6798   680.0618     0.0290     2.3804  -999.2500
  613.0000     5.7411     5.6565    12.8925   128.4916   680.0618     0.0361     2.3992  -999.2500
  613.5000     5.9764     5.9418    12.8935   130.2012   680.0618     0.0448     2.4259  -999.2500
  614.0000     6.1471     6.1553    12.8945   134.4861   680.0618     0.0519     2.4351  -999.2500
  614.5000     6.3227     6.3359    12.8958   136.5651   680.0618     0.0370     2.4024  -999.2500
  615.0000     6.4582     6.5219    12.8968   138.1861   680.0618     0.0267     2.3946  -999.2500
  615.5000     6.5967     6.6558    12.9126   138.8910   680.0618     0.0212     2.4024  -999.2500
  616.0000     6.6914     6.7997    12.9283   137.0768   680.0618     0.0182     2.4110  -999.2500
  616.5000     6.8348     6.8506    12.9441   132.0566   680.0618     0.0174     2.4103  -999.2500
  617.0000     6.9329     6.9502    12.9599   126.5783   680.0618     0.0143     2.4127  -999.2500
  617.5000     6.9837     7.0022    12.9609   123.1611   680.0618     0.0174     2.4228  -999.2500
  618.0000     6.9861     6.9564    12.9767   123.8661   680.0618     0.0292     2.4353  -999.2500
  618.5000     6.9885     6.9608    12.9925   129.1512   680.0618     0.0489     2.4509  -999.2500
  619.0000     7.0398     6.9160    13.0082   137.8418   680.0618     0.0489     2.4371  -999.2500
  619.5000     6.9933     6.8716    13.0243   143.9658   680.0618     0.0426     2.4147  -999.2500
  620.0000     6.9962     6.8275    13.0400   140.4308   680.0618     0.0363     2.4073  -999.2500
  620.5000     6.9501     6.7328    13.0411   135.4105   680.0618     0.0309     2.4105  -999.2500
  621.0000     6.9037     6.6469    13.0421   136.1154   695.5178     0.0309     2.4128  -999.2500
  621.5000     6.8582     6.5138    13.0431   140.2555   710.9738     0.0332     2.4144  -999.2500
  622.0000     6.7194     6.4271    13.0441   140.7270   710.9738     0.0333     2.4168  -999.2500
  622.5000     6.5823     6.2968    13.0303   135.9402   726.4297     0.0301     2.4160  -999.2500
  623.0000     6.4044     6.0854    13.0166   132.0650   710.9738     0.0294     2.4153  -999.2500
  623.5000     6.2308     5.8396    13.0176   131.3954   710.9738     0.0317     2.4192  -999.2500
  624.0000     6.0198     5.6038    13.0186   134.8489   710.9738     0.0435     2.4294  -999.2500
  624.5000     5.5396     5.3774    13.0198   137.1573   710.9738     0.0514     2.4404  -999.2500
  625.0000     5.2007     5.1602    13.0208   135.8783   710.9738     0.0530     2.4411  -999.2500
  625.5000     4.9169     4.9175    13.0219   130.5560   710.9738     0.0522     2.4240  -999.2500
  626.0000     4.6930     4.7850    13.0376   120.9556   710.9738     0.0444     2.4100  -999.2500
  626.5000     4.5977     4.6561    13.0386   116.8514   710.9738     0.0295     2.3991  -999.2500
  627.0000     4.6962     4.6262    13.0397   117.0983   710.9738     0.0209     2.3882  -999.2500
  627.5000     4.8641     4.9282    13.0407   122.3834   695.5178     0.0177     2.3952  -999.2500
  628.0000     5.1442     5.2129    13.0417   126.9815   695.5178     0.0300     2.4233  -999.2500
  628.5000     5.4405     5.5140    13.0427   129.0605   695.5178     0.0382     2.4327  -999.2500
  629.0000     5.7139     5.7922    13.0437   131.3685   695.5178     0.0303     2.4241  -999.2500
  629.5000     6.0011     6.0002    13.0597   134.1345   695.5178     0.0131     2.4023  -999.2500
  630.0000     6.2156     6.2158    13.0607   133.1910   695.5178     0.0013     2.3961  -999.2500
  630.5000     6.4827     6.3944    13.0617   130.6639   680.0618     0.0021     2.4076  -999.2500
  631.0000     6.6217     6.5782    13.0627   128.9255   680.0618     0.0139     2.4258  -999.2500
  631.5000     6.7671     6.7673    13.0638   130.7755   680.0618     0.0226     2.4336  -999.2500
  632.0000     6.9087     6.9135    13.0648   131.9384   680.0618     0.0297     2.4360  -999.2500
  632.5000     7.0084     7.0141    13.0658   131.9564   680.0618     0.0289     2.4298  -999.2500
  633.0000     7.0108     7.0667    13.0668   131.9743   695.5178     0.0242     2.4235  -999.2500
  633.5000     7.0132     7.1204    13.0678   132.9082   695.5178     0.0195     2.4165  -999.2500
  634.0000     7.0646     7.0738    13.0540   135.2162   695.5178     0.0156     2.4127  -999.2500
  634.5000     7.1660     7.0783    13.0553   138.8983   695.5178     0.0180     2.4174  -999.2500
  635.0000     7.2185     7.0819    13.0563   138.6872   676.9655     0.0227     2.4236  -999.2500
  635.5000     7.3732     7.1350    13.0573   137.3183   677.5887     0.0258     2.4268  -999.2500
  636.0000     7.4791     7.1387    13.0583   137.1199   662.7228     0.0298     2.4303  -999.2500
  636.5000     7.5864     7.2929    13.0593   141.0355   663.4811     0.0369     2.4409  -999.2500
  637.0000     7.7491     7.3989    13.0603   143.3435   664.0877     0.0439     2.4542  -999.2500
  637.5000     7.8603     7.5588    13.0613   143.5889   680.1503     0.0487     2.4596  -999.2500
  638.0000     7.9733     7.5626    13.0624   139.2557   696.2128     0.0448     2.4550  -999.2500
  638.5000     8.0317     7.6194    13.0486   132.4034   696.8195     0.0416     2.4495  -999.2500
  639.0000     8.0350     7.6766    13.0496   127.3653   712.8820     0.0377     2.4433  -999.2500
  639.5000     7.9813     7.6271    13.0358   125.1110   713.4886     0.0307     2.4301  -999.2500
  640.0000     7.9287     7.5781    13.0221   127.1944   714.0953     0.0211     2.4207  -999.2500
  640.5000     7.8771     7.4263    13.0233   131.1055   714.7018     0.0166     2.4200  -999.2500
  641.0000     7.8252     7.3777    13.0243   133.8715   715.3085     0.0213     2.4294  -999.2500
  641.5000     7.6662     7.3303    13.0254   135.7215   715.9197     0.0229     2.4310  -999.2500
  642.0000     7.5622     7.2832    13.0264   138.4875   716.5379     0.0213     2.4240  -999.2500
  642.5000     7.4091     7.3387    13.0274   143.0855   717.1562     0.0174     2.4177  -999.2500
  643.0000     7.3093     7.2914    13.0284   144.9355   717.8866     0.0167     2.4217  -999.2500
  643.5000     7.2107     7.2446    13.0294   143.1214   718.4932     0.0182     2.4279  -999.2500
  644.0000     7.1632     7.1982    13.0452   139.9332   719.0998     0.0167     2.4295  -999.2500
  644.5000     7.1593     7.2020    13.0612   135.8199   719.7064     0.0120     2.4155  -999.2500
  645.0000     7.1184     7.0979    13.0770   133.0535   720.3130     0.0089     2.4054  -999.2500
  645.5000     7.0715     6.9637    13.0780   132.6587   720.9197     0.0105     2.4109  -999.2500
  646.0000     7.0254     6.8710    13.0790   135.4292   721.5262     0.0192     2.4249  -999.2500
  646.5000     6.9785     6.7795    13.0800   137.9662   722.1329     0.0246     2.4210  -999.2500
  647.0000     6.7899     6.5511    13.0810   138.6711   707.2643     0.0121     2.4076  -999.2500
  647.5000     6.5146     6.2865    13.0820   138.4556   707.8902     0.0035     2.3860  -999.2500
  648.0000     6.2070     6.0747    13.0830   137.7909   708.5008    -0.0005     2.3884  -999.2500
