~VERSION INFORMATION
 VERS.                2.0:   CWLS LOG ASCII STANDARD - VERSION 2.0
 WRAP.                 NO:   ONE LINE PER DEPTH STEP
~WELL INFORMATION
#MNEM.UNIT      DATA TYPE    INFORMATION
#----------   ------------   ------------------------------
 STRT.F          218.0000:   START DEPTH
 STOP.F         3062.0000:   STOP DEPTH
 STEP.F            0.5000:   STEP LENGTH
 NULL.          -999.2500:   NO VALUE
 COMP.    FEXIN & SCISSON:   COMPANY
 WELL. FEXIN 32 "A" #3-34:   WELL
 FLD .              N P R:   FIELD
 LOC .      S34 T39N R78W:   LOCATION
 CNTY.            NATRONA:   COUNTY
 STAT.            WYOMING:   STATE
 CTRY. UNITED STATES OF AMERICA:   COUNTRY
 SRVC.              WELEX:   SERVICE COMPANY
 DATE.        18-JUL-1977:   LOGDATE
 API .     49025103960000:   API NUMBER
~CURVE INFORMATION
#MNEM.UNIT       API CODE    CURVE DESCRIPTION
#----------   ------------   ------------------------------
 DEPT.F                  :   
 CALD.IN     45 280 60 00:   CALIPER FROM DENSITY LOG
 RHOB.G/C3   45 350 01 00:   BULK DENSITY
 GRD .GAPI   45 310 01 00:   GAMMA RAY FROM DENSITY LOG
 CORR.G/C3   45 356 01 00:   DENSITY CORRECTION
 SPR .MV     07 010 01 00:   SPONTANEOUS POTENTIAL
 SGRD.OHMM   07 220 05 00:   SHALLOW SHORT GUARD RESISTIVITY
 ILM .OHMM   07 120 44 00:   INDUCTION LOG MEDIUM RESISTIVITY
 ILD .OHMM   07 120 46 00:   DEEP INDUCTION RESISTIVITY
~PARAMETER INFORMATION
#MNEM.UNIT          VALUE    DESCRIPTION
#----------   ------------   ------------------------------
 EKB .F         5080.0000:   Kelly bushing
 EGL .F         5070.0000:   Ground level
 TD  .F         3070.0000:   Total depth
 DATE.        18-JUL-1977:   Date logged
 CLNT.            A2DTECH:   Client Code
 SL  . 900' FNL & 1650'FWL:   Surface Location
 PD  .                 GL:   Permanent Datum
 DD  .F              3070:   Depth driller
 DL  .F              3063:   Depth logger
 BLI .F              3061:   Bottom log interval
 CS1 .IN            8.625:   Casing size
 CBD1.      8.625" @ 212':   Casing driller 1
 CBL1.F               222:   Casing logger 1
 BS1 .IN            7.875:   Bit size
 DFT .           CEHM-GEL:   Type fluid in hole
 DFD .                8.8:   Density
 DFV .                 42:   Viscosity
 DFPH.                7.5:   pH
 DFL .                  8:   Fluid loss
 MSS .           FLOWLINE:   Source of sample
 RMS .OHMM            .89:   Rm
 MST .F                94:   Rm Meas. temp.
 RMF .OHMM            .54:   Rmf
 MFST.F                94:   Rmf Meas. temp.
 RMC .OHMM           1.24:   Rmc
 MCST.F                94:   Rmc Meas. temp.
 MFSS.               FANN:   Source Rmf.
 RMB .OHMM            .67:   Rm. at BHT
 BHT .F               122:   BHT.
 TCS .HRS               4:   Time Circ. stopped
 MRT .F               122:   Maximum recorded temp.
 LUN .               8611:   Logging unit number
 LUL .             CASPER:   Logging unit location
 ENGI.          C.A. DOAK:   Recorded By
 WITN.         PETTINGILL:   Witnessed by
 ORIG.           5" PRINT:   Origin of data
 UWI .     49025103960000:   Unique Well ID
 DICO. A2D TECHNOLOGIES, INC.:   Digitizing Company
 DAPD.                 12:   Feet Above Permanent Datum
 BSD1.F              3950:   Depth drilled with bit1
 MCSS.                KIT:   Source Rmc.
 EPD .F              5070:   Elevation Permanent Datum
 LMF .                 KB:   Log Measured From
 DMF .                 KB:   Drilling Measured From
 TLI .F               200:   Top log interval
~OTHER INFORMATION
~A   DEPT     CALD       RHOB        GRD       CORR        SPR       SGRD        ILM        ILD   
# ...
  582.5000     8.5150     2.4910    90.2650     0.0240   -56.5270    52.7860    38.7820    36.7780
  583.0000     8.5150     2.4810    91.3610     0.0210   -56.5350    52.1950    38.9470    36.8950
  583.5000     8.5150     2.4710    90.4790     0.0190   -56.5000    51.6280    39.1110    37.0890
  584.0000     8.5150     2.4610    89.4850     0.0160   -56.4580    53.0440    39.2760    37.2830
  584.5000     8.5150     2.4610    88.4940     0.0190   -56.4160    55.2320    39.4400    37.4770
  585.0000     8.5150     2.4700    87.5030     0.0220   -56.3730    57.6360    39.6050    37.6710
  585.5000     8.5080     2.4790    87.7190     0.0220   -56.3540    55.6460    39.7280    37.8810
  586.0000     8.5000     2.4710    89.3010     0.0230   -56.5010    54.1750    39.2870    37.6610
  586.5000     8.4920     2.4700    90.0400     0.0240   -56.5160    56.4580    38.8720    37.4220
  587.0000     8.4850     2.4820    88.8370     0.0240   -56.4940    55.7500    38.4580    37.1830
  587.5000     8.4770     2.4780    88.0800     0.0250   -56.4700    53.8480    38.0430    36.9430
  588.0000     8.4700     2.4760    89.4750     0.0250   -56.4470    51.9840    37.8090    36.7040
  588.5000     8.4620     2.4870    91.3020     0.0260   -56.4230    52.3420    37.6330    36.4650
  589.0000     8.4550     2.4980    93.1650     0.0240   -56.4000    52.7780    37.4580    36.2260
  589.5000     8.4470     2.5000    92.9020     0.0230   -56.3760    53.4350    37.2820    36.0100
  590.0000     8.4390     2.4890    91.2880     0.0220   -56.3540    52.8330    37.1070    35.8180
  590.5000     8.4330     2.4780    90.2250     0.0210   -56.3740    51.6060    36.9320    35.6270
  591.0000     8.4280     2.4720    90.7050     0.0200   -56.5120    50.3790    36.7560    35.4360
  591.5000     8.4230     2.4720    91.2030     0.0220   -56.6450    48.8630    36.5810    35.2450
  592.0000     8.4180     2.4770    90.9720     0.0230   -56.7790    49.1760    36.4050    35.0530
  592.5000     8.4140     2.4850    89.1150     0.0250   -56.9120    49.5850    36.2300    34.8620
  593.0000     8.4090     2.4920    87.4850     0.0260   -57.0450    49.9940    36.0550    34.6710
  593.5000     8.4040     2.4990    87.9940     0.0270   -57.1790    50.5550    35.8790    34.4800
  594.0000     8.3990     2.5070    88.9920     0.0290   -57.3120    51.2740    35.7040    34.2880
  594.5000     8.3940     2.5130    89.4260     0.0290   -57.4460    50.7400    35.5280    34.0970
  595.0000     8.3890     2.5140    88.3160     0.0280   -57.5800    50.2370    35.3530    33.9060
  595.5000     8.3840     2.5170    87.0860     0.0260   -57.7190    49.7330    35.1780    33.7000
  596.0000     8.3790     2.5230    85.8160     0.0260   -57.8350    49.2000    35.0020    33.5690
  596.5000     8.3740     2.5230    85.5190     0.0270   -57.9560    47.1590    34.8270    33.4280
  597.0000     8.3690     2.5180    87.0530     0.0270   -58.0770    46.2460    34.6510    33.2860
  597.5000     8.3640     2.4980    88.9140     0.0270   -58.1980    47.5360    34.4760    33.1450
  598.0000     8.3590     2.4780    90.1440     0.0230   -58.3190    46.8030    34.3010    33.0040
  598.5000     8.3360     2.4690    90.9410     0.0190   -58.4410    46.1910    34.1580    32.8620
  599.0000     8.3660     2.4640    91.7700     0.0170   -58.5620    45.3010    34.1220    32.7210
  599.5000     8.3980     2.4580    92.1060     0.0150   -58.6830    45.6820    34.0850    32.5790
  600.0000     8.4290     2.4540    91.7400     0.0130   -58.8040    46.4910    34.0490    32.4380
  600.5000     8.4610     2.4570    91.3830     0.0120   -58.9260    47.3000    34.0130    32.2970
  601.0000     8.4920     2.4610    91.0240     0.0140   -59.0470    47.8650    33.9770    32.1550
  601.5000     8.5160     2.4650    90.6500     0.0150   -59.1680    46.6600    33.9400    32.0140
  602.0000     8.5190     2.4680    91.0390     0.0160   -59.2890    45.5760    33.9040    31.8720
  602.5000     8.5220     2.4720    91.8260     0.0160   -59.4110    44.4910    33.8680    31.7310
  603.0000     8.5250     2.4760    92.5560     0.0150   -59.5320    43.7690    33.8310    31.5900
  603.5000     8.5280     2.4700    93.2860     0.0150   -59.6530    43.7690    33.7940    31.4480
  604.0000     8.5310     2.4630    94.0240     0.0140   -59.7750    43.7690    33.7570    31.2430
  604.5000     8.5350     2.4580    94.2980     0.0140   -59.8970    43.8480    33.7050    31.3380
  605.0000     8.5380     2.4620    92.5830     0.0140   -59.9100    44.3630    33.9740    31.5110
  605.5000     8.5410     2.4670    90.9320     0.0150   -59.9170    44.8780    34.7420    31.6840
  606.0000     8.5440     2.4730    89.4670     0.0160   -59.9250    45.3930    35.5100    31.8570
  606.5000     8.5470     2.4720    90.3810     0.0170   -59.9330    45.9080    36.2780    32.0300
  607.0000     8.5500     2.4650    92.3060     0.0180   -59.9420    46.4230    37.0460    32.2030
  607.5000     8.5530     2.4590    92.7810     0.0180   -59.9500    46.9380    37.6310    32.3760
  608.0000     8.5790     2.4550    92.2500     0.0190   -59.9580    47.4530    38.0890    32.5490
  608.5000     8.6150     2.4580    91.6340     0.0200   -59.9660    47.8650    38.5460    32.7220
  609.0000     8.6510     2.4650    91.0160     0.0210   -59.9740    45.9290    39.0030    32.8950
  609.5000     8.5870     2.4730    90.6430     0.0220   -59.9830    47.0380    39.4600    33.0680
  610.0000     8.5130     2.4730    91.1710     0.0220   -59.9910    48.4100    39.9180    33.2410
  610.5000     8.4380     2.4710    92.3780     0.0170   -59.9990    49.2000    40.3750    33.4140
  611.0000     8.3990     2.4720    93.5320     0.0120   -60.0070    49.2000    40.8320    33.5870
  611.5000     8.4010     2.4760    94.1450     0.0080   -60.0150    49.3360    41.2890    33.7600
  612.0000     8.4040     2.4810    92.3630     0.0110   -60.0240    49.9090    41.9990    33.9330
  612.5000     8.4070     2.4850    91.3040     0.0140   -60.0320    50.2260    41.9080    34.1660
  613.0000     8.4100     2.4900    92.8730     0.0160   -60.0400    49.1560    41.7040    34.1340
  613.5000     8.4130     2.4920    94.3890     0.0160   -60.0480    48.8630    41.5000    34.0610
  614.0000     8.4160     2.4890    95.9280     0.0160   -60.0560    49.3150    41.2960    33.9880
  614.5000     8.4190     2.4890    96.7430     0.0160   -60.0650    49.5400    41.0910    33.9160
  615.0000     8.4220     2.4940    95.3430     0.0180   -60.0730    49.2220    40.8870    33.8430
  615.5000     8.4250     2.5000    93.6120     0.0200   -60.0810    48.8580    40.6830    33.7700
  616.0000     8.4280     2.4990    92.3290     0.0220   -60.0890    48.5280    40.5790    33.6980
  616.5000     8.4320     2.4890    93.1270     0.0180   -60.0970    48.1950    40.5790    33.6250
  617.0000     8.4350     2.4790    94.4130     0.0140   -60.1060    48.1950    40.5790    33.5520
  617.5000     8.4380     2.4680    93.4520     0.0100   -60.1140    48.1950    40.5790    33.4800
  618.0000     8.4410     2.4680    94.0520     0.0080   -60.1220    46.8870    40.5790    33.4070
  618.5000     8.4440     2.4780    95.4090     0.0100   -60.1300    46.8870    40.5790    33.3340
  619.0000     8.4470     2.4850    95.7340     0.0090   -60.1380    47.0300    40.5790    33.2620
  619.5000     8.4500     2.4770    95.4040     0.0080   -60.1470    47.1390    40.5790    33.1890
  620.0000     8.4530     2.4770    95.0690     0.0110   -60.1550    47.5360    40.5790    33.1160
  620.5000     8.4560     2.4840    94.7380     0.0160   -60.1630    48.5280    40.5790    33.0440
  621.0000     8.4570     2.4910    94.1410     0.0220   -60.1710    47.9480    40.5790    32.9640
  621.5000     8.4580     2.4960    93.2790     0.0220   -60.1790    47.4980    40.5790    32.8790
  622.0000     8.4590     2.4970    92.4260     0.0210   -60.1880    47.2530    40.5790    32.7940
  622.5000     8.4600     2.4960    91.8970     0.0190   -60.1960    47.7290    40.5780    32.7090
