~VERSION INFORMATION
 VERS.                2.0:   CWLS LOG ASCII STANDARD - VERSION 2.0
 WRAP.                 NO:   ONE LINE PER DEPTH STEP
~WELL INFORMATION
#MNEM.UNIT      DATA TYPE    INFORMATION
#----------   ------------   ------------------------------
 STRT.F          198.0000:   START DEPTH
 STOP.F         3252.0000:   STOP DEPTH
 STEP.F            0.5000:   STEP LENGTH
 NULL.          -999.2500:   NO VALUE
 COMP. FENIX & SCISSON - U.S. NAVY:   COMPANY
 WELL.   FENIX A X #21-33:   WELL
 FLD .              NPR-3:   FIELD
 LOC .      S33 T39N R78W:   LOCATION
 CNTY.            NATRONA:   COUNTY
 STAT.            WYOMING:   STATE
 CTRY. UNITED STATES OF AMERICA:   COUNTRY
 SRVC.              WELEX:   SERVICE COMPANY
 DATE.        06-JUN-1977:   LOGDATE
 API .     49025103750000:   API NUMBER
~CURVE INFORMATION
#MNEM.UNIT       API CODE    CURVE DESCRIPTION
#----------   ------------   ------------------------------
 DEPT.F                  :   
 CALD.IN     45 280 60 00:   CALIPER FROM DENSITY LOG
 GRD .GAPI   45 310 01 00:   GAMMA RAY FROM DENSITY LOG
 RHOB.G/C3   45 350 01 00:   BULK DENSITY
 CORR.G/C3   45 356 01 00:   DENSITY CORRECTION
 NPHI.DEC    42 890 01 00:   NEUTRON POROSITY LIMESTONE
 SPR .MV     07 010 01 00:   SPONTANEOUS POTENTIAL
 GURD.OHMM   07 220 05 00:   GUARD LOG RESISTIVITY
 FORX.OHMM   07 220 00 00:   FORMATION FACTOR
~PARAMETER INFORMATION
#MNEM.UNIT          VALUE    DESCRIPTION
#----------   ------------   ------------------------------
 EKB .F         5147.0000:   Kelly bushing
 EGL .F         5137.0000:   Ground level
 EDF .F            0.0000:   Drilling floor
 EPD .F            0.0000:   Permanent datum
 TD  .F         3254.0000:   Total depth
 CLNT.            A2DTECH:   Client Code
 SL  . 660' FNL & 1320' FWL:   Surface Location
 PD  .                 GL:   Permanent Datum
 DAPD.F                10:   Feet Above Permanent Datum
 DATE.        06-JUN-1977:   Date Logged [DD-MMM-YYYY]
 DD  .F              3249:   Depth driller
 DL  .F              3254:   Depth logger
 BLI .F              3252:   Bottom log interval
 TLI .F               200:   Top log interval
 CS1 .IN            8.625:   Casing size
 CBD1.      8.625" @ 204':   Casing driller 1
 CBL1.F               221:   Casing logger 1
 BS1 .IN            7.875:   Bit size
 BSD1.F              3249:   Depth drilled with bit1
 DFT .            KCL MUD:   Type fluid in hole
 DFD .                  9:   Density
 DFV .                134:   Viscosity
 DFPH.                7.5:   pH
 DFL .                7.8:   Fluid loss
 MSS .           FLOWLINE:   Source of sample
 RMS .OHMM           0.64:   Rm
 MST .F                85:   Rm Meas. temp.
 RMF .OHMM           0.61:   Rmf
 MFST.F                85:   Rmf Meas. temp.
 MFSS.           FANN KIT:   Source Rmf.
 RMC .OHMM              1:   Rmc
 MCST.F                85:   Rmc Meas. temp.
 MCSS.           FANN KIT:   Source Rmc.
 RMB .OHMM           0.46:   Rm. at BHT
 BHT .F               116:   BHT.
 TCS .HRS             2.5:   Time Circ. stopped
 MRT .F               116:   Maximum recorded temp.
 LUN .               8611:   Logging unit number
 LUL .             CASPER:   Logging unit location
 ENGI.            C. DOAK:   Recorded By
 WITN.      B. HARRINGTON:   Witnessed by
 ORIG.           5" PRINT:   Origin of data
 UWI .     49025103750000:   Unique Well ID
 DICO. A2D TECHNOLOGIES, INC.:   Digitizing Company
~OTHER INFORMATION
~A   DEPT     CALD         GRD      RHOB       CORR       NPHI        SPR       GURD       FORX   
# ...
 2790.0000     9.4703   140.5404     2.5519     0.0537     0.3419   -37.4921     6.9420     3.2178
 2790.5000     9.5014   135.5215     2.5607     0.0568     0.3397   -37.4741     7.0509     3.3366
 2791.0000     9.5027   133.7764     2.5609     0.0615     0.3369   -37.8815     7.2019     3.2919
 2791.5000     9.5040   133.8170     2.5632     0.0675     0.3343   -37.8903     6.9158     3.2242
 2792.0000     9.5063   135.3456     2.5678     0.0721     0.3317   -37.8945     7.1631     3.3918
 2792.5000     9.5216   135.6838     2.5701     0.0782     0.3274   -37.8906     6.9260     3.4921
 2793.0000     9.5380   133.7333     2.5762     0.0858     0.3232   -37.8934     6.6426     3.4947
 2793.5000     9.5840   126.2514     2.5822     0.0934     0.3184   -37.5610     5.5290     3.4479
 2794.0000     9.6002   124.1985     2.5913     0.0995     0.3156   -36.6847     8.5932     3.3782
 2794.5000     9.6164   125.4397     2.5966     0.1100     0.3140   -36.3377     9.5982     3.1265
 2795.0000     9.6325   126.0755     2.5997     0.1221     0.3149   -36.3233     8.3149     3.7106
 2795.5000     9.6487   127.0089     2.5925     0.1238     0.3173   -36.3182     9.1693     4.7959
 2796.0000     9.6500   127.0495     2.5558     0.1254     0.3195   -36.3194    10.8880     5.0433
 2796.5000     9.6811   125.8988     2.4773     0.1225     0.3219   -36.3163     8.6254     4.2867
 2797.0000     9.7281   124.4368     2.4400     0.1166     0.3234   -36.2963     8.1133     4.5731
 2797.5000     9.8747   122.3713     2.3638     0.1063     0.3246   -36.7323     7.0892     4.7660
 2798.0000    10.5187   117.9958     2.3093     0.0616     0.3258   -37.1332     5.6052     4.2054
 2798.5000    10.4902   121.6078     2.3049     0.0288     0.3264   -37.1018     5.1295     3.8333
 2799.0000    10.3874   121.9359     2.4037     0.0214     0.3267   -36.7487     5.5750     3.4693
 2799.5000    10.1803   121.0938     2.4913     0.0320     0.3254   -35.4752     7.2457     3.3813
 2800.0000     9.6757   119.9337     2.5041     0.0336     0.3224   -35.5534    10.0886     3.5312
 2800.5000     9.5426   125.0440     2.5088     0.0338     0.3194   -36.1088     9.4235     3.7448
 2801.0000     9.4242   129.5488     2.5133     0.0339     0.3169   -36.3441     7.8608     4.1705
 2801.5000     9.3807   129.8911     2.5164     0.0324     0.3141   -36.6997     7.1709     4.5692
 2802.0000     9.3667   123.4827     2.5194     0.0296     0.3122   -37.1060     9.3831     4.2006
 2802.5000     9.3378   118.3712     2.5240     0.0282     0.3113   -37.5226     7.6940     3.7518
 2803.0000     9.3089   117.2112     2.5301     0.0253     0.3112   -37.5112     8.5961     3.6485
 2803.5000     9.3098   120.5333     2.5272     0.0209     0.3115   -37.4925    11.7651     3.5996
 2804.0000     9.3258   128.0149     2.5108     0.0180     0.3118   -37.9231    36.7512     3.8407
 2804.5000     9.3266   134.0085     2.5028     0.0226     0.3130   -37.8886     8.4406     4.3369
 2805.0000     9.3424   137.3235     2.5140     0.0257     0.3145   -38.3137     7.7745     5.3713
 2805.5000     9.3433   139.7456     2.5194     0.0288     0.3154   -38.2283     9.1264     6.1086
 2806.0000     9.3442   140.9773     2.5216     0.0304     0.3166   -38.1291     7.5371     4.8694
 2806.5000     9.3450   142.2090     2.5165     0.0305     0.3184   -38.0328     6.7484     3.6671
 2807.0000     9.3608   143.4406     2.5099     0.0274     0.3202   -37.9335     6.9437     3.3697
 2807.5000     9.3617   142.8669     2.5017     0.0232     0.3214   -37.8816     7.0928     3.3004
 2808.0000     9.3474   138.9632     2.4921     0.0204     0.3220   -37.5313     6.5826     3.2336
 2808.5000     9.3634   132.7383     2.4840     0.0175     0.3219   -37.1378     6.7253     3.1452
 2809.0000     9.3643   129.1148     2.4773     0.0146     0.3213   -37.0975     6.9649     3.1029
 2809.5000     9.3652   123.1211     2.4845     0.0162     0.3213   -37.7824     6.5973     3.1051
 2810.0000     9.3512   129.4123     2.4972     0.0193     0.3209   -38.5320     6.8351     3.1518
 2810.5000     9.3521   132.7273     2.5040     0.0209     0.3209   -38.8652     7.2776     3.1992
 2811.0000     9.3531   135.4471     2.5011     0.0210     0.3212   -38.4985     6.7064     3.2275
 2811.5000     9.3389   136.0732     2.5065     0.0196     0.3217   -38.1189     6.5735     3.3241
 2812.0000     9.3400   127.1961     2.5172     0.0227     0.3226   -37.4813     7.2953     3.4183
 2812.5000     9.3409   123.6659     2.5193     0.0273     0.3235   -37.4927     7.8211     3.4450
 2813.0000     9.3418   121.3261     2.5163     0.0319     0.3247   -37.9084     7.8318     3.4968
 2813.5000     9.3427   119.5816     2.5104     0.0305     0.3268   -38.0007     7.2630     3.6258
 2814.0000     9.3435   119.0172     2.5045     0.0276     0.3296   -37.8823     7.3246     3.7865
 2814.5000     9.3444   122.6401     2.5016     0.0262     0.3326   -37.7627     7.5813     3.5797
 2815.0000     9.3304   127.1456     2.5009     0.0278     0.3351   -37.6403     6.6584     3.4572
 2815.5000     9.3313   130.7582     2.5189     0.0339     0.3372   -37.5182     6.3505     3.3152
 2816.0000     9.3322   132.2875     2.5407     0.0370     0.3390   -37.3961     7.4505     3.1565
 2816.5000     9.3330   131.7335     2.5437     0.0371     0.3405   -37.2740     7.5026     3.2268
 2817.0000     9.3339   127.6080     2.5460     0.0372     0.3414   -37.1472     6.8523     3.4669
 2817.5000     9.3348   125.2682     2.5461     0.0388     0.3426   -37.0931     7.2124     3.5693
 2818.0000     9.3208   122.6203     2.5454     0.0404     0.3448   -37.9074     7.5209     3.6230
 2818.5000     9.3219   119.6788     2.5440     0.0405     0.3472   -37.8981     6.8360     3.4251
 2819.0000     9.3228   116.7608     2.5381     0.0406     0.3497   -37.8960     7.6918     3.4275
 2819.5000     9.3236   124.3095     2.5262     0.0392     0.3521   -37.8809     8.1319     3.5794
 2820.0000     9.3245   133.8177     2.5022     0.0378     0.3536   -37.5989     7.0939     3.5819
 2820.5000     9.3254   141.8947     2.5001     0.0319     0.3551   -37.5050     6.9056     3.4782
 2821.0000     9.3112   146.6978     2.5010     0.0276     0.3560   -37.8554     7.2039     3.3329
 2821.5000     9.2972   149.1199     2.5018     0.0247     0.3572   -37.9012     7.5638     3.2960
 2822.0000     9.3132   145.8873     2.4906     0.0218     0.3587   -37.8967     7.1170     3.3700
 2822.5000     9.3289   140.8586     2.4735     0.0204     0.3596   -37.8912     7.0108     3.4206
 2823.0000     9.3298   146.2673     2.4795     0.0206     0.3605   -37.6968     7.5318     3.3988
 2823.5000     9.3307   148.6894     2.4841     0.0251     0.3617   -37.5020     7.7002     3.3532
 2824.0000     9.3163   150.8139     2.4879     0.0267     0.3629   -37.4978     7.1402     3.3555
 2824.5000     9.2878   150.8551     2.4887     0.0208     0.3641   -37.5056     7.4632     3.5292
 2825.0000     9.2887   150.8963     2.4850     0.0165     0.3659   -37.8097     7.3183     3.7649
 2825.5000     9.2898   150.9375     2.4814     0.0166     0.3671   -38.1525     7.2070     3.8487
 2826.0000     9.2755   146.2168     2.4792     0.0182     0.3680   -38.8677     7.7280     3.7435
 2826.5000     9.2766   142.6865     2.4823     0.0198     0.3686   -38.8752     6.9761     3.5643
 2827.0000     9.2624   141.8348     2.4861     0.0214     0.3682   -38.8791     6.6079     3.4668
 2827.5000     9.2635   141.5784     2.4891     0.0230     0.3685   -38.8750     7.5886     3.5189
 2828.0000     9.2644   137.4529     2.4929     0.0260     0.3688   -38.8949     6.9931     3.6230
 2828.5000     9.2502   133.3274     2.4953     0.0276     0.3696   -38.0534     6.6698     3.5998
 2829.0000     9.2513   133.6902     2.4977     0.0292     0.3705   -37.9225     6.6281     3.4766
 2829.5000     9.2522   134.6012     2.5006     0.0293     0.3708   -37.4950     6.7267     3.3815
 2830.0000     9.2380   132.1821     2.5007     0.0309     0.3708   -37.4767     6.7322     3.2891
