~VERSION INFORMATION
 VERS.                2.0:   CWLS LOG ASCII STANDARD - VERSION 2.0
 WRAP.                 NO:   ONE LINE PER DEPTH STEP
~WELL INFORMATION
#MNEM.UNIT      DATA TYPE    INFORMATION
#----------   ------------   ------------------------------
 STRT.F           31.5000:   START DEPTH
 STOP.F         4204.0000:   STOP DEPTH
 STEP.F            0.5000:   STEP LENGTH
 NULL.          -999.2500:   NO VALUE
 COMP.   LAWRENCE ALLISON:   COMPANY
 WELL. LAWRENCE 3 "X" #32-10:   WELL
 FLD .                NPR:   FIELD
 LOC .      S10 T38N R78W:   LOCATION
 CNTY.            NATRONA:   COUNTY
 STAT.            WYOMING:   STATE
 CTRY. UNITED STATES OF AMERICA:   COUNTRY
 SRVC.      DRESSER ATLAS:   SERVICE COMPANY
 DATE.        05-NOV-1983:   LOGDATE
 API .     49025109460000:   API NUMBER
~CURVE INFORMATION
#MNEM.UNIT       API CODE    CURVE DESCRIPTION
#----------   ------------   ------------------------------
 DEPT.F                  :   
 CALD.IN     45 280 60 00:   CALIPER FROM DENSITY LOG
 CNC .DEC    42 890 01 00:   NEUTRON POROSITY LIMESTONE
 CORR.G/C3   45 356 01 00:   DENSITY CORRECTION
 TEND.LBS    45 635 01 00:   TENSION FORM DENSITY LOG
 RHOB.G/C3   45 350 01 00:   BULK DENSITY
 DT  .US/F   60 520 00 00:   DELTA TIME
 TENS.LBS    60 635 01 00:   TENSION FROM SONIC
 GRR .GAPI   07 310 01 00:   GAMMA RAY FROM RESISTIVITY
 TENR.LBS    06 635 01 00:   TENSION FROM RESISTIVITY
 RFOC.OHMM   07 220 04 00:   RESISTIVITY FOCUSED LOG RES.
 RILM.OHMM   07 120 44 00:   INDUCTION LOG MEDIUM RESISTIVITY
 RILD.OHMM   07 120 46 00:   DEEP INDUCTION RESISTIVITY
 SPR .MV     07 010 01 00:   SPONTANEOUS POTENTIAL
~PARAMETER INFORMATION
#MNEM.UNIT          VALUE    DESCRIPTION
#----------   ------------   ------------------------------
 EKB .F         5237.0000:   Kelly bushing
 EGL .F         5227.0000:   Ground level
 TD  .F         4202.0000:   Total depth
 CLNT.            A2DTECH:   Client Code
 SL  . 1871' FWL & 1152' FNL:   Surface Location
 PD  .                 GL:   Permanent Datum
 EPD .F              5227:   Elevation Permanent Datum
 LMF .                 KB:   Log Measured From
 DMF .                 KB:   Drilling Measured From
 DAPD.F                10:   Feet Above Permanent Datum
 DATE.        05-NOV-1983:   Date Logged [DD-MMM-YYYY]
 DD  .F              4200:   Depth driller
 DL  .F              4202:   Depth logger
 BLI .F              4200:   Bottom log interval
 TLI .F                30:   Top log interval
 CS1 .IN            8.625:   Casing size
 CBD1.      8.625" @ 545':   Casing driller 1
 CBL1.F               545:   Casing logger 1
 BS1 .IN            7.875:   Bit size
 BSD1.F              4200:   Depth drilled with bit1
 DFT .            GEL KCL:   Type fluid in hole
 DFD .                8.9:   Density
 DFV .                 42:   Viscosity
 DFPH.                8.5:   pH
 DFL .               12.4:   Fluid loss
 MSS .           FLOWLINE:   Source of sample
 RMS .OHMM           0.43:   Rm
 MST .F                97:   Rm Meas. temp.
 RMF .OHMM           0.42:   Rmf
 MFST.F                74:   Rmf Meas. temp.
 MFSS.               MEAS:   Source Rmf.
 RMC .OHMM           0.53:   Rmc
 MCST.F                97:   Rmc Meas. temp.
 MCSS.               CALC:   Source Rmc.
 RMB .OHMM           0.32:   Rm. at BHT
 BHT .F               131:   BHT.
 TCS .HRS               3:   Time Circ. stopped
 MRT .F               131:   Maximum recorded temp.
 LUN .               6307:   Logging unit number
 LUL .               GLTE:   Logging unit location
 ENGI.            DEYOUNG:   Recorded By
 WITN.             STRONG:   Witnessed by
 ORIG.        2" 5" PRINT:   Origin of data
 UWI .     49025109460000:   Unique Well ID
 DICO. A2D TECHNOLOGIES, INC.:   Digitizing Company
~OTHER INFORMATION
~A   DEPT     CALD        CNC       CORR       TEND       RHOB         DT       TENS         GRR      TENR       RFOC       RILM       RILD        SPR   
# ...
  785.5000    10.0267     0.3164    -0.0201   -34.7590     2.4620  -999.2500  -999.2500   110.0854   -60.5149     5.8299     5.4287     5.3947   -37.9062
  786.0000    10.0258     0.3219     0.0138   -35.0385     2.4682  -999.2500  -999.2500   113.3856   -61.0656     5.8697     5.4268     5.3923   -37.9128
  786.5000    10.0249     0.3266     0.0416   -35.3322     2.4814  -999.2500  -999.2500   111.1666   -60.6967     5.8675     5.4249     5.3905   -38.0700
  787.0000    10.0240     0.3290     0.0496   -32.6348     2.4876  -999.2500  -999.2500   104.3005   -60.1054     5.9071     5.4226     5.3887   -37.9260
  787.5000    10.0231     0.3149     0.0465   -30.7910     2.4900  -999.2500  -999.2500   100.5164   -59.5141     5.8638     5.3449     5.3489   -37.7820
  788.0000    10.0221     0.3069     0.0174   -30.2311     2.4885  -999.2500  -999.2500   105.0154   -58.9227     5.8205     5.3430     5.3095   -37.3384
  788.5000    10.0212     0.3027     0.0022   -30.5701     2.4878  -999.2500  -999.2500   109.5144   -58.3314     5.8188     5.3414     5.3077   -36.8932
  789.0000    10.0203     0.3064    -0.0053   -30.9702     2.4930  -999.2500  -999.2500   111.3026   -57.7400     5.8172     5.3394     5.3059   -35.9962
  789.5000    10.0194     0.3083    -0.0129   -31.2977     2.5134  -999.2500  -999.2500   109.9281   -57.1487     5.8153     5.3376     5.3040   -35.3987
  790.0000    10.0185     0.3203    -0.0250   -31.5871     2.5243  -999.2500  -999.2500   107.4994   -56.5574     5.8134     5.2983     5.2645   -34.8046
  790.5000    10.0182     0.3261    -0.0313   -31.9528     2.5290  -999.2500  -999.2500   105.2213   -55.9660     5.8117     5.2964     5.2627   -34.5099
  791.0000    10.0182     0.3252    -0.0232   -32.2803     2.5236  -999.2500  -999.2500   104.7500   -55.3747     5.8509     5.3321     5.2986   -34.3659
  791.5000    10.0182     0.2997    -0.0046   -32.6078     2.5106  -999.2500  -999.2500   106.2326   -54.7834     5.8904     5.4822     5.4096   -34.3727
  792.0000    10.0182     0.2640     0.0109   -32.9430     2.4981  -999.2500  -999.2500   107.1219   -54.1920     5.9301     5.5974     5.4846   -34.2285
  792.5000    10.0182     0.2548     0.0125   -36.3445     2.4900  -999.2500  -999.2500   105.1402   -53.6007     6.0119     5.8371     5.6796   -34.2368
  793.0000    10.0182     0.2604     0.0004   -33.5904     2.4924  -999.2500  -999.2500   103.4645   -53.0094     6.0957     6.0020     5.8817   -34.2434
  793.5000    10.0182     0.2669    -0.0118   -33.9998     2.5002  -999.2500  -999.2500   103.7467   -52.4180     6.3115     6.2590     6.0959   -34.2500
  794.0000    10.0182     0.2693    -0.0147   -34.3273     2.5033  -999.2500  -999.2500   104.7818   -51.8267     6.7221     6.4813     6.3961   -34.4072
  794.5000    10.0182     0.2678    -0.0100   -31.4913     2.5003  -999.2500  -999.2500   105.0909   -51.2354     7.2608     6.9053     6.7652   -34.4137
  795.0000    10.0182     0.2657    -0.0083   -28.8136     2.4942  -999.2500  -999.2500   103.3882   -50.6440     7.6286     7.4117     7.2062   -34.7215
  795.5000    10.0182     0.2651    -0.0220   -29.1525     2.4882  -999.2500  -999.2500   100.4834   -50.0527     7.9507     7.8863     7.6220   -35.1815
  796.0000    10.0182     0.2666    -0.0326   -26.3924     2.4905  -999.2500  -999.2500    97.8616   -49.4614     8.1752     8.1663     8.0051   -35.8072
  796.5000    10.0182     0.2682    -0.0033   -26.8018     2.5114  -999.2500  -999.2500    96.3986   -48.8700     8.4653     8.5763     8.2896   -36.5502
  797.0000    10.0182     0.2704     0.0076   -23.9658     2.5223  -999.2500  -999.2500    97.4337   -48.7705     8.7043     8.6958     8.5843   -37.0086
  797.5000    10.0182     0.2716     0.0079   -24.3752     2.5277  -999.2500  -999.2500    97.7158   -48.8829     8.8249     8.7543     8.7033   -37.4670
  798.0000    10.0182     0.2744     0.0079   -24.7027     2.5301  -999.2500  -999.2500    98.6004   -49.0164     8.8222     8.6891     8.6384   -37.7748
  798.5000    10.0182     0.2781     0.0342   -25.0302     2.5348  -999.2500  -999.2500   100.9909   -49.1499     8.8195     8.6861     8.6355   -37.9320
  799.0000    10.0182     0.2791     0.0543   -25.3621     2.5410  -999.2500  -999.2500   102.1767   -49.2835     8.8167     8.6774     8.6325   -38.0892
  799.5000    10.0182     0.2742     0.0621   -25.7671     2.5488  -999.2500  -999.2500   100.9528   -49.4170     8.8139     8.6185     8.5689   -37.6440
  800.0000    10.0182     0.2745     0.0530   -29.1763     2.5554  -999.2500  -999.2500    95.8133   -49.5505     8.7490     8.6155     8.5659   -37.0482
  800.5000    10.0182     0.2822     0.0439   -29.5038     2.5506  -999.2500  -999.2500    95.8789   -49.6841     8.7449     8.7348     8.6244   -36.4360
  801.0000    10.0182     0.2862     0.0487   -29.8313     2.5431  -999.2500  -999.2500    98.8023   -49.8176     8.6794     8.6877     8.6818   -35.5570
  801.5000    10.0182     0.2868     0.0404   -29.9586     2.5363  -999.2500  -999.2500    99.5477   -49.9511     8.6144     8.5682     8.5650   -34.8089
  802.0000    10.0182     0.2744     0.0179   -29.8725     2.5294  -999.2500  -999.2500    98.9350   -50.0847     8.5498     8.4221     8.4328   -34.3484
  802.5000    10.0182     0.2729     0.0041   -29.7864     2.5232  -999.2500  -999.2500   100.2777   -50.2182     8.5456     8.4189     8.3115   -34.0776
  803.0000    10.0182     0.2769     0.0025   -29.7003     2.5210  -999.2500  -999.2500   101.0205   -50.3517     8.6011     8.5360     8.4273   -33.9350
  803.5000    10.0182     0.2824     0.0105   -29.6142     2.5202  -999.2500  -999.2500   100.8597   -50.4853     8.6577     8.5932     8.4830   -33.9450
  804.0000    10.0182     0.2707     0.0134   -29.5281     2.5279  -999.2500  -999.2500    99.9399   -50.6188     8.7157     8.7735     8.6652   -33.9530
  804.5000    10.0182     0.2643    -0.0003   -29.4420     2.5311  -999.2500  -999.2500    98.4292   -50.7523     8.7722     9.0201     8.9048   -33.9610
  805.0000    10.0182     0.2618    -0.0080   -29.3559     2.5295  -999.2500  -999.2500    98.7206   -50.8859     8.8710     9.2093     9.1563   -33.9690
  805.5000    10.0182     0.2669     0.0212   -29.2698     2.5280  -999.2500  -999.2500    97.8042   -51.0194     8.9227     9.2784     9.2185   -34.1277
  806.0000    10.0182     0.2808     0.0320   -29.1837     2.5311  -999.2500  -999.2500    97.4953   -51.1529     8.9464     9.3990     9.2803   -34.2863
  806.5000    10.0182     0.2888     0.0367   -29.0976     2.5373  -999.2500  -999.2500    98.3861   -51.2865     8.9410     9.3946     9.3425   -34.4450
  807.0000    10.0182     0.2922     0.0260   -29.0114     2.5459  -999.2500  -999.2500   100.3338   -51.4200     8.9368     9.2597     9.2724   -34.6055
  807.5000    10.0182     0.2879     0.0153   -28.9253     2.5451  -999.2500  -999.2500   102.4320   -51.5535     8.9329     9.1267     9.1391   -35.2159
  808.0000    10.0182     0.2863     0.0215   -28.8392     2.5382  -999.2500  -999.2500   103.4799   -51.6870     8.8659     8.9324     8.9442   -35.8264
  808.5000    10.0182     0.2949     0.0307   -28.7531     2.5359  -999.2500  -999.2500   103.1411   -51.8206     8.7993     8.8041     8.8077   -36.4368
  809.0000    10.0182     0.2998     0.0339   -28.6670     2.5329  -999.2500  -999.2500   102.2482   -51.9541     8.7532     8.6776     8.6881   -36.8966
  809.5000    10.0182     0.2777     0.0448   -28.5809     2.5290  -999.2500  -999.2500   101.3343   -52.0876     8.7291     8.6082     8.5936   -37.0552
  810.0000    10.0182     0.2737     0.0570   -28.4948     2.5275  -999.2500  -999.2500    98.6133   -52.2212     8.6636     8.5495     8.5001   -37.2139
  810.5000    10.0182     0.2724     0.0601   -28.4087     2.5299  -999.2500  -999.2500    94.9886   -52.3547     8.5981     8.5457     8.4966   -37.3928
  811.0000    10.0182     0.2740     0.0433   -28.3226     2.5338  -999.2500  -999.2500    91.9663   -52.4882     8.5831     8.5429     8.4935   -37.6837
