~VERSION INFORMATION
 VERS.                2.0:   CWLS LOG ASCII STANDARD - VERSION 2.0
 WRAP.                 NO:   ONE LINE PER DEPTH STEP
~WELL INFORMATION
#MNEM.UNIT      DATA TYPE    INFORMATION
#----------   ------------   ------------------------------
 STRT.F          540.0000:   START DEPTH
 STOP.F         4100.0000:   STOP DEPTH
 STEP.F            0.5000:   STEP LENGTH
 NULL.          -999.2500:   NO VALUE
 COMP. LAWRENCE ALISON & ASSOC.,WEST:   COMPANY
 WELL. LAWRENCE "X" #15-11:   WELL
 FLD .              N P R:   FIELD
 LOC .      S11 T38N R78W:   LOCATION
 CNTY.            NATRONA:   COUNTY
 STAT.            WYOMING:   STATE
 CTRY. UNITED STATES OF AMERICA:   COUNTRY
 SRVC.      DRESSER ATLAS:   SERVICE COMPANY
 DATE.        18-MAY-1985:   LOGDATE
 API .     49025110220000:   API NUMBER
~CURVE INFORMATION
#MNEM.UNIT       API CODE    CURVE DESCRIPTION
#----------   ------------   ------------------------------
 DEPT.F                  :   
 NPHI.DEC    42 890 03 00:   NEUTRON POROSITY SANDSTONE
 RHOB.G/C3   45 350 01 00:   BULK DENSITY
 CORR.G/C3   45 356 01 00:   DENSITY CORRECTION
 TEND.LBS    45 635 01 00:   TENSION FROM DENSITY LOG
 GRD .GAPI   45 310 01 00:   GAMMA RAY FROM DENSITY LOG
 CALD.IN     45 280 60 00:   CALIPER FROM DENSITY LOG
 SPR .MV     07 010 01 00:   SPONTANEOUS POTENTIAL
 RILD.OHMM   07 120 46 00:   DEEP INDUCTION RESISTIVITY
 RILM.OHMM   07 120 44 00:   INDUCTION LOG MEDIUM RESISTIVITY
 RFOC.OHMM   07 220 04 00:   RESISTIVITY FOCUSED LOG RES.
 TENR.LBS    07 635 01 00:   TENSION FROM RESISTIVITY
~PARAMETER INFORMATION
#MNEM.UNIT          VALUE    DESCRIPTION
#----------   ------------   ------------------------------
 EKB .F         5201.0000:   Kelly bushing
 EGL .F         5189.0000:   Ground level
 EDF .F         5200.0000:   Drilling floor
 TD  .F         4095.0000:   Total depth
 DATE.        18-MAY-1985:   Date logged
 CLNT.            A2DTECH:   Client Code
 SL  . 2203' FSL & 377' FWL:   Surface Location
 PD  .                 GL:   Permanent Datum
 EPD .F              5189:   Elevation Permanent Datum
 LMF .                 KB:   Log Measured From
 DMF .                 KB:   Drilling Measured From
 DAPD.F                12:   Feet Above Permanent Datum
 DD  .F              4095:   Depth driller
 DL  .F              4093:   Depth logger
 BLI .F              4091:   Bottom log interval
 TLI .F                 0:   Top log interval
 CS1 .IN            8.625:   Casing size
 CBD1.      8.625" @ 565':   Casing driller 1
 CBL1.F               565:   Casing logger 1
 BS1 .IN            7.875:   Bit size
 BSD1.F              4095:   Depth drilled with bit1
 DFT .            GEL KCL:   Type fluid in hole
 DFD .                9.2:   Density
 DFV .                 40:   Viscosity
 DFPH.                8.0:   pH
 DFL .                9.0:   Fluid loss
 MSS .            MUDTANK:   Source of sample
 RMS .OHMM            .57:   Rm
 MST .F                69:   Rm Meas. temp.
 RMF .OHMM            .49:   Rmf
 MFST.F                69:   Rmf Meas. temp.
 RMC .OHMM            .71:   Rmc
 MCST.F                69:   Rmc Meas. temp.
 MFSS.               MEAS:   Source Rmf.
 MCSS.               CALC:   Source Rmc.
 RMB .OHMM            .30:   Rm. at BHT
 BHT .F               139:   BHT.
 TCS .HRS               4:   Time Circ. stopped
 MRT .F               139:   Maximum recorded temp.
 LUN .            HL 6302:   Logging unit number
 LUL .               CODY:   Logging unit location
 ENGI.              GETTY:   Recorded By
 WITN.              FIVAS:   Witnessed by
 ORIG.           5" PRINT:   Origin of data
 UWI .     49025110220000:   Unique Well ID
 DICO. A2D TECHNOLOGIES, INC.:   Digitizing Company
~OTHER INFORMATION
~A   DEPT     NPHI       RHOB       CORR        TEND        GRD      CALD        SPR       RILD       RILM       RFOC       TENR   
# ...
 4047.5000     0.2780     2.4100    -0.0200   143.2560  -999.2500     7.8030    -9.0900     2.8920     3.2120     3.2790   130.3810
 4048.0000     0.2850     2.3970    -0.0230   152.7730  -999.2500     7.8030    -9.1490     2.9220     3.3040     3.4490   141.0890
 4048.5000     0.2870     2.3820    -0.0270   162.2900  -999.2500  -999.2500    -9.2090     2.9800     3.4040     3.5300   151.7970
 4049.0000     0.2890     2.3780    -0.0290   171.8070  -999.2500  -999.2500    -9.2690     3.0380     3.4040     3.4590   161.2980
 4049.5000     0.2900     2.3750    -0.0290   181.3240  -999.2500  -999.2500    -9.3290     3.0790     3.4040     3.4040   161.2980
 4050.0000     0.2920     2.3730    -0.0190   190.8410  -999.2500  -999.2500    -9.3890     3.0590     3.4040     3.3500   161.2980
 4050.5000     0.2950     2.3750    -0.0080   200.3580  -999.2500  -999.2500    -9.4420     3.0710     3.4040     3.3120   161.2980
 4051.0000     0.2990     2.3820     0.0000   209.8750  -999.2500  -999.2500    -9.3930     3.0830     3.4040     3.3270   161.2980
 4051.5000     0.3030     2.3840    -0.0180   210.1490  -999.2500  -999.2500    -9.3350     3.0960     3.4350     3.3780   161.2980
 4052.0000     0.3030     2.3180    -0.0610   201.8410  -999.2500  -999.2500    -9.2780     3.1070     3.5000     3.4300   161.2980
 4052.5000     0.2790     2.2230    -0.2060   193.5320  -999.2500  -999.2500    -9.2210     3.2050     3.5640     3.4820   161.2980
 4053.0000     0.2740     2.2320    -0.3060   185.2240  -999.2500  -999.2500    -9.1640     3.3070     3.6290     3.5300   157.7300
 4053.5000     0.2760     2.2700    -0.2320   178.3960  -999.2500  -999.2500    -9.1070     3.4100     3.6930     3.6010   153.6260
 4054.0000     0.2760     2.3730    -0.0950   172.1640  -999.2500  -999.2500    -9.0490     3.5130     3.7580     3.6600   149.5210
 4054.5000     0.2750     2.4620     0.0350   165.9330  -999.2500  -999.2500    -8.9920     3.6160     3.8230     3.7180   145.4160
 4055.0000     0.2740     2.4570  -999.2500   159.7010  -999.2500  -999.2500    -8.9350     3.7190     4.0170     3.7760   141.4770
 4055.5000     0.2700     2.4500  -999.2500   152.9850  -999.2500  -999.2500    -8.8780     3.7980     4.2350     3.8340   141.4770
 4056.0000     0.2600     2.4560  -999.2500   155.1240  -999.2500  -999.2500    -8.8210     4.3590     5.0050     4.1010   154.6580
 4056.5000     0.2340     2.4610  -999.2500   192.5120  -999.2500  -999.2500    -8.7600     5.1930     6.0950     4.6440   210.8520
 4057.0000     0.2090     2.4580  -999.2500   232.5870  -999.2500  -999.2500    -8.6970     6.0280     7.1860     5.1860   211.4310
 4057.5000     0.1880     2.4560  -999.2500   233.1450  -999.2500  -999.2500    -8.7340     6.8620     8.2770     5.7290   211.9970
 4058.0000     0.1720     2.4600  -999.2500   233.7450  -999.2500  -999.2500    -8.7810     7.6960     9.3680     8.3480   212.5630
 4058.5000     0.1580     2.4630  -999.2500   234.3460  -999.2500  -999.2500    -8.4870     8.1760    10.4610    12.4890   213.1300
 4059.0000     0.1540  -999.2500  -999.2500   234.9460  -999.2500  -999.2500    -8.1710     8.5690    10.6530    16.6630   213.6960
 4059.5000     0.1500  -999.2500  -999.2500   235.5470  -999.2500  -999.2500    -7.8540     9.1590    10.4190    15.9190   214.2620
 4060.0000     0.1490  -999.2500  -999.2500   236.1480  -999.2500  -999.2500    -7.5380     8.4690     9.4730    13.0620   214.8280
 4060.5000     0.1560  -999.2500  -999.2500   236.7480  -999.2500  -999.2500    -7.2220     6.5430     8.1050    10.1630   215.3940
 4061.0000     0.1600  -999.2500  -999.2500   237.3490  -999.2500  -999.2500    -6.9070     5.6020     6.7360     7.2650   215.9600
 4061.5000     0.1660  -999.2500  -999.2500   237.9490  -999.2500  -999.2500    -6.5920     4.9520     5.3680     5.1090   216.5270
 4062.0000     0.1720  -999.2500  -999.2500   238.5500  -999.2500  -999.2500    -6.2760     4.3020     3.9390     3.8680   217.0930
 4062.5000     0.1760  -999.2500  -999.2500   239.1510  -999.2500  -999.2500    -5.9520     3.9680     3.9280     3.8770   217.6590
 4063.0000     0.1750  -999.2500  -999.2500   239.7510  -999.2500  -999.2500    -5.7860     3.8880     3.9170     3.8930   218.2250
 4063.5000     0.1720  -999.2500  -999.2500   240.3520  -999.2500  -999.2500    -5.6670     3.8080     3.9030     3.9030   218.7910
 4064.0000     0.1680  -999.2500  -999.2500   240.9520  -999.2500  -999.2500    -5.5520     3.7290     3.9390     3.7280   219.3570
 4064.5000     0.1640  -999.2500  -999.2500   241.5530  -999.2500  -999.2500    -5.4360     3.6490     3.9100     3.5950   219.9240
 4065.0000     0.1610  -999.2500  -999.2500   242.1540  -999.2500  -999.2500    -5.3210     3.5950     3.8920     3.5270   220.4900
 4065.5000     0.1520  -999.2500  -999.2500   244.5160  -999.2500  -999.2500    -5.2010     4.2010     3.8730     3.4520   224.2050
 4066.0000     0.1490  -999.2500  -999.2500   249.9950  -999.2500  -999.2500    -5.0660     4.5170     3.7770     3.3780   230.8610
 4066.5000     0.1700  -999.2500  -999.2500   255.4730  -999.2500  -999.2500    -5.3270     4.2760     3.5980     3.3040   237.5180
 4067.0000     0.1850  -999.2500  -999.2500   260.9510  -999.2500  -999.2500    -5.4120     3.9240     3.4200     3.2420   244.1740
 4067.5000     0.1700  -999.2500  -999.2500   266.4290  -999.2500  -999.2500    -5.5050     3.5340     3.2420     3.2070   250.8300
 4068.0000     0.1540  -999.2500  -999.2500   271.9070  -999.2500  -999.2500    -5.5950     3.1440     3.1560     3.1730   257.4870
 4068.5000     0.1670  -999.2500  -999.2500   277.3850  -999.2500  -999.2500    -5.6850     2.7840     3.0820     3.1380   264.1430
 4069.0000     0.1770  -999.2500  -999.2500   282.8630  -999.2500  -999.2500    -5.7750     2.7400     3.0080     3.1040   270.3170
 4069.5000  -999.2500  -999.2500  -999.2500   288.3410  -999.2500  -999.2500    -5.8620     2.7170     2.9680     3.0790   274.2790
 4070.0000  -999.2500  -999.2500  -999.2500   293.8190  -999.2500  -999.2500    -5.8650     2.6950     2.9410     3.1150   277.9730
 4070.5000  -999.2500  -999.2500  -999.2500   299.2970  -999.2500  -999.2500    -5.8650     2.6600     2.9600     3.1700   281.6670
 4071.0000  -999.2500  -999.2500  -999.2500   304.7760  -999.2500  -999.2500    -5.8650     2.6730     2.9890     3.2260   285.3620
 4071.5000  -999.2500  -999.2500  -999.2500   310.2540  -999.2500  -999.2500    -5.8650     2.7020     3.0170     3.3120   289.0560
 4072.0000  -999.2500  -999.2500  -999.2500   315.7320  -999.2500  -999.2500    -5.8650     2.7300     3.0460     3.3040   292.7500
 4072.5000  -999.2500  -999.2500  -999.2500   321.2100  -999.2500  -999.2500    -5.8650     2.7590     3.0640     3.2850   296.4440
 4073.0000  -999.2500  -999.2500  -999.2500   326.6880  -999.2500  -999.2500    -5.8650     2.7870     3.0810     3.2670   300.1390
 4073.5000  -999.2500  -999.2500  -999.2500   332.1660  -999.2500  -999.2500    -5.8650     2.8160     3.0970     3.2480   303.8330
 4074.0000  -999.2500  -999.2500  -999.2500   337.6440  -999.2500  -999.2500    -5.8640     2.8440     3.1140     3.2300   307.5270
 4074.5000  -999.2500  -999.2500  -999.2500   342.8840  -999.2500  -999.2500    -5.8630     2.8730     3.1300     3.2110   311.2220
 4075.0000  -999.2500  -999.2500  -999.2500   347.1570  -999.2500  -999.2500    -5.8730     2.9010     3.1460     3.1930   314.9160
 4075.5000  -999.2500  -999.2500  -999.2500   351.4300  -999.2500  -999.2500    -6.0600     2.9300     3.1630     3.2250   318.6100
 4076.0000  -999.2500  -999.2500  -999.2500   355.7030  -999.2500  -999.2500    -6.2410     2.9790     3.1790     3.3050   322.3040
 4076.5000  -999.2500  -999.2500  -999.2500   359.9760  -999.2500  -999.2500    -6.4210     3.0440     3.1960     3.3860   325.9990
 4077.0000  -999.2500  -999.2500  -999.2500   364.2490  -999.2500  -999.2500    -6.6020     3.1080     3.2120     3.4180   329.6930
 4077.5000  -999.2500  -999.2500  -999.2500   368.5220  -999.2500  -999.2500    -6.9320     3.1720     3.2850     3.4430   333.3870
