~VERSION INFORMATION
 VERS.                2.0:   CWLS LOG ASCII STANDARD - VERSION 2.0
 WRAP.                 NO:   ONE LINE PER DEPTH STEP
~WELL INFORMATION
#MNEM.UNIT      DATA TYPE    INFORMATION
#----------   ------------   ------------------------------
 STRT.F            2.0000:   START DEPTH
 STOP.F         3008.0000:   STOP DEPTH
 STEP.F            0.5000:   STEP LENGTH
 NULL.          -999.2500:   NO VALUE
 COMP.       FLUOR DANIEL:   COMPANY
 WELL.   FLUOR "X" #25-23:   WELL
 FLD .          N.P.R. #3:   FIELD
 LOC .      S23 T38N R78W:   LOCATION
 CNTY.            NATRONA:   COUNTY
 STAT.            WYOMING:   STATE
 CTRY. UNITED STATES OF AMERICA:   COUNTRY
 SRVC.      WESTERN ATLAS:   SERVICE COMPANY
 DATE.        21-APR-1995:   LOGDATE
 API .     49025227090000:   API NUMBER
~CURVE INFORMATION
#MNEM.UNIT       API CODE    CURVE DESCRIPTION
#----------   ------------   ------------------------------
 DEPT.F                  :   
 GRR .GAPI   07 310 01 00:   GAMMA RAY FROM RESISTIVITY
 TENR.LBS    07 635 01 00:   TENSION FROM RESISTIVITY
 RILD.OHMM   07 120 46 00:   RESISTIVITY INDUCTION LOG DEEP
 RILM.OHMM   07 120 44 00:   RESISTIVITY INDUCTION LOG MEDIUM
~PARAMETER INFORMATION
#MNEM.UNIT          VALUE    DESCRIPTION
#----------   ------------   ------------------------------
 EKB .F         5285.0000:   Kelly bushing
 EGL .F         5275.0000:   Ground level
 EDF .F         5284.0000:   Drilling floor
 TD  .F         3000.0000:   Total depth
 CLNT.            A2DTECH:   Client Code
 SL  . 2343' FSL & 1264' FWL:   Surface Location
 PD  .                 GL:   Permanent Datum
 EPD .F              5275:   Elevation Permanent Datum
 DMF .                 KB:   Drilling Measured From
 DAPD.                 10:   Feet Above Permanent Datum
 DATE.        21-APR-1995:   Date Logged [DD-MMM-YYYY]
 DD  .F              3000:   Depth driller
 DL  .F              3000:   Depth logger
 BLI .F              2999:   Bottom log interval
 TLI .F                 0:   Top log interval
 CS1 .IN            9.625:   Casing size
 CBD1.       9.625" @ 53':   Casing driller 1
 CBL1.F                53:   Casing logger 1
 BS1 .IN             6.25:   Bit size
 BSD1.F              3000:   Depth drilled with bit1
 DFT .                OIL:   Type fluid in hole
 MRT .F               114:   Maximum recorded temp.
 LUN .            HL 6530:   Logging unit number
 LUL .             CASPER:   Logging unit location
 ENGI.        VERN RAUTIO:   Recorded By
 WITN.        GARY STRONG:   Witnessed by
 ORIG.         2.5" PRINT:   Origin of data
 UWI .     49025227090000:   Unique Well ID
 DICO. A2D TECHNOLOGIES,INC.:   Digitizing Company
 LMF .                 KB:   Log Measured From
~OTHER INFORMATION
~A    DEPT      GRR      TENR       RILD       RILM   
# ...
 2192.0000   118.6626   -23.0994     6.8119     7.0061
 2192.5000   117.4040   -22.6608     6.8091     7.0029
 2193.0000   116.5748   -22.2222     6.8059     6.9056
 2193.5000   114.0627   -21.7121     6.8960     6.9025
 2194.0000   113.6517   -21.2950     6.9875     6.9935
 2194.5000   117.4680    -6.2581     7.1764     7.0383
 2195.0000   121.5923    -5.8410     7.3706     7.2126
 2195.5000   122.7667    -5.4094     7.4813     7.4628
 2196.0000   121.5652    -2.4340     7.5902     7.8957
 2196.5000   118.9732    10.0877     7.7719     7.9886
 2197.0000   114.0055     4.9669     7.7683     7.8769
 2197.5000   102.0547   -18.2749     7.6580     7.7675
 2198.0000    96.7788   -17.7501     7.5539     7.7640
 2198.5000   102.6715   -17.3330     7.3492     7.5530
 2199.0000   112.1055   -16.9160     7.2475     7.5494
 2199.5000   118.5896   -16.4989     7.1473     7.4207
 2200.0000   116.8142   -16.0818     7.1445     7.3407
 2200.5000   116.2212   -15.6433     7.1605     7.3372
 2201.0000   116.2177   -15.2477     7.3737     7.1406
 2201.5000   115.0350   -44.1559     7.6357     7.1387
 2202.0000   110.3124   -43.8061     7.6327     7.1738
 2202.5000   106.1799   -43.4563     7.7494     7.3307
 2203.0000   106.8416   -13.8668     7.8363     7.4435
 2203.5000   112.0304     1.1029     7.8327     7.5280
 2204.0000   116.5621   -13.1672     7.8295     7.6285
 2204.5000   115.6919   -14.8832     7.8264     7.7305
 2205.0000   112.0063   -30.4630     7.7174     7.7283
 2205.5000   111.6743   -41.3577     7.6106     7.7216
 2206.0000   117.3684   -40.9357     7.4043     7.5178
 2206.5000   117.9556   -11.3304     7.2037     7.4920
 2207.0000   116.1401     3.7261     7.1020     7.3129
 2207.5000   112.3610   -10.5440     7.0055     7.2691
 2208.0000   110.8676   -10.1943     7.0027     7.1136
 2208.5000   113.5806   -39.1082     7.0295     7.1113
 2209.0000   116.1711   -38.7345     7.1318     7.1095
 2209.5000   114.9877   -38.3772     7.1862     7.1076
 2210.0000   113.8050   -34.1290     7.1827     7.1058
 2210.5000   113.7364    -8.4065     7.3771     7.1040
 2211.0000   115.5877    -8.0409     7.3743     7.1020
 2211.5000   118.8268    -7.6754     7.3714     7.1001
 2212.0000   123.9723    -7.3100     7.4690     7.0982
 2212.5000   124.4105    -6.8715     7.5679     7.0963
 2213.0000   122.0472    -6.5218     7.5648     7.0943
 2213.5000   119.6838     8.4479     7.5617     7.1891
 2214.0000   119.0911     8.7977     7.4194     7.2852
 2214.5000   118.4983     9.1474     7.3536     7.2830
 2215.0000   118.4956     9.5029     7.2946     7.2811
 2215.5000   121.1017    -4.7731     7.1508     7.2792
 2216.0000   124.5231    -4.3860     7.1480     7.1794
 2216.5000   124.1810    -8.4512     7.1453     7.1775
 2217.0000   119.1092   -32.9636     7.0464     7.1755
 2217.5000   119.6602   -32.5292     7.1397     7.1736
 2218.0000   121.4273   -32.1638     7.1227     7.1311
 2218.5000   122.6045    -2.4997     7.0148     7.0732
 2219.0000   123.1917    12.4700     6.9404     6.9758
 2219.5000   123.0971    27.4396     6.9376     6.8802
 2220.0000   119.4100    27.7894     6.9347     6.8784
 2220.5000   118.4631    28.1433     6.9314     6.8767
 2221.0000   118.7215    28.5088     6.9287     6.8749
 2221.5000   118.1240    25.9025     6.9261     7.0618
 2222.0000   113.7341    14.5686     6.9234     7.0598
 2222.5000   111.3714    14.9853     6.9207     7.1810
 2223.0000   111.3272     0.7310     7.1080     7.2501
 2223.5000   115.0279     1.0965     7.1049     7.2478
 2224.0000   117.2628   -27.7172     7.2290     7.2458
 2224.5000   115.7312   -27.3674     7.2947     7.2436
 2225.0000   112.8811   -27.0176     7.3912     7.4405
 2225.5000   114.3497   -41.2877     7.4883     7.4386
 2226.0000   114.8909   -40.9357     7.4848     7.5381
 2226.5000   113.7077   -25.9503     7.6874     7.6389
 2227.0000   112.5249   -25.5848     7.6844     7.6504
 2227.5000   111.3275   -25.2193     7.6814     7.8446
 2228.0000   110.1593   -24.8538     7.6783     7.9495
 2228.5000   110.4730   -17.7074     7.6752     7.9027
 2229.0000   113.4343     5.1170     7.6721     7.8380
 2229.5000   118.4369     5.5449     7.6689     7.7301
 2230.0000   117.2266   -23.3451     7.6658     7.6241
 2230.5000   114.8640   -22.9954     7.5023     7.5196
 2231.0000   114.8612   -22.6456     7.2552     7.4165
 2231.5000   116.0383   -22.2953     7.1548     7.2164
 2232.0000   118.5360   -20.5587     7.0558     7.2224
 2232.5000   119.8572    -6.9444     7.2468     7.4108
 2233.0000   121.9297   -21.2467     7.3473     7.5373
 2233.5000   119.3157   -20.8334     7.4691     7.6103
 2234.0000   113.0732   -20.4679     7.6413     7.7117
 2234.5000   110.1206   -20.1023     7.6379     7.7096
 2235.0000   108.9379   -19.6728     7.7847     7.7071
 2235.5000   108.3451     9.9167     7.7302     7.7051
 2236.0000   110.1671    10.2665     7.6280     7.5995
 2236.5000   111.6706    10.6163     7.4213     7.4953
 2237.0000   115.6207    10.9660     7.4184     7.3896
 2237.5000   119.2723    11.3304     7.2173     7.1930
 2238.0000   118.3593    11.6959     7.2145     7.0733
 2238.5000   118.3565    12.0614     7.2116     6.9970
 2239.0000   118.3537    12.4269     7.2086     6.9951
 2239.5000   117.7610     6.3113     7.2657     7.1852
 2240.0000   114.7289   -16.0819     7.4011     7.3806
 2240.5000   113.6256   -44.8903     7.5493     7.5809
 2241.0000   115.5756   -44.5405     7.5976     7.5789
 2241.5000   117.1593   -29.5709     7.6981     7.7850
 2242.0000   116.2399   -14.6012     7.7999     7.7830
 2242.5000   114.7931   -14.2515     7.7966     7.7809
 2243.0000   113.6103   -13.8888     7.7935     7.7788
 2243.5000   112.4276   -13.5234     7.6856     7.7767
 2244.0000   112.4248   -13.1579     7.6825     7.7746
 2244.5000   113.7925   -12.7924     7.6793     7.7725
 2245.0000   116.2925   -12.4269     7.6762     7.7704
 2245.5000   118.3162   -12.0614     7.6731     7.7679
 2246.0000   118.9338   -11.6283     7.6700     7.7659
 2246.5000   119.4897   -25.9503     7.6664     7.6594
 2247.0000   120.0767   -40.2047     7.5603     7.5544
 2247.5000   115.9438   -39.8187     7.5574     7.5473
 2248.0000   114.7611   -10.2292     7.5544     7.3368
 2248.5000   114.7581    -9.8684     7.3496     7.1503
 2249.0000   114.4519    -9.5029     7.3466     7.1484
 2249.5000   112.3923    -9.1374     7.2449     7.2839
 2250.0000   112.3894    -8.7720     7.1445     7.3407
 2250.5000   112.3859    -8.4064     7.2390     7.3383
 2251.0000   114.1530    -8.0409     7.3347     7.3364
 2251.5000   116.5101    -7.6060     7.3312     7.3345
 2252.0000   119.4572    -7.2564     7.5296     7.5340
 2252.5000   119.4543    -6.9066     7.5267     7.5320
 2253.0000   119.1799    22.6829     7.5238     7.6399
 2253.5000   117.2632    23.0327     7.5208     7.7348
 2254.0000   110.6276    23.3917     7.5178     7.7600
 2254.5000   110.3541    23.7574     7.6383     7.8363
 2255.0000   111.1799     6.0902     7.7184     7.8338
 2255.5000   113.5366    -4.8080     7.7148     7.8317
 2256.0000   115.8938   -10.4340     7.7117     7.8292
 2256.5000   115.8909   -18.6403     7.7079     7.8271
 2257.0000   116.1276   -18.2038     7.7049     7.8251
 2257.5000   117.4480   -17.8540     7.7019     7.8231
 2258.0000   118.2419    -2.8844     7.6990     7.7158
 2258.5000   117.6490    -2.5346     7.6960     7.7137
 2259.0000   117.4632    -2.1848     7.6929     7.7117
 2259.5000   118.2328    12.7923     7.6898     7.6779
 2260.0000   119.4099    11.2165     7.6866     7.6038
 2260.5000   121.8317    -1.1355     7.6835     7.4995
 2261.0000   124.3328    -0.7310     7.6804     7.4970
 2261.5000   125.3013    -0.3655     7.5740     7.4951
 2262.0000   121.9476     0.0000     7.5704     7.4932
 2262.5000   114.7477     0.4384     7.5675     7.5935
 2263.0000   109.9523     0.7881     7.5645     7.5914
 2263.5000   108.7696     1.1379     7.6647     7.5894
 2264.0000   114.6665   -13.1579     7.6617     7.5873
 2264.5000   119.4177   -12.7824     7.6586     7.5853
