~VERSION INFORMATION
 VERS.                2.0:   CWLS LOG ASCII STANDARD - VERSION 2.0
 WRAP.                 NO:   ONE LINE PER DEPTH STEP
~WELL INFORMATION
#MNEM.UNIT      DATA TYPE    INFORMATION
#----------   ------------   ------------------------------
 STRT.F          200.0000:   START DEPTH
 STOP.F         3060.0000:   STOP DEPTH
 STEP.F            0.5000:   STEP LENGTH
 NULL.          -999.2500:   NO VALUE
 COMP.    FENIX & SCISSON:   COMPANY
 WELL. FENIX NPR 3 "AX" #58-21:   WELL
 FLD .      NPR - WILDCAT:   FIELD
 LOC .      S21 T39N R78W:   LOCATION
 CNTY.            NATRONA:   COUNTY
 STAT.            WYOMING:   STATE
 CTRY. UNITED STATES OF AMERICA:   COUNTRY
 SRVC.              WELEX:   SERVICE COMPANY
 DATE.        12-JUN-1977:   LOGDATE
 API .     49025103790000:   API NUMBER
~CURVE INFORMATION
#MNEM.UNIT       API CODE    CURVE DESCRIPTION
#----------   ------------   ------------------------------
 DEPT.F                  :   
 CALD.IN     45 280 60 00:   CALIPER FROM DENSITY LOG
 GRD .GAPI   45 310 01 00:   GAMMA RAY FROM DENSITY LOG
 CORR.G/C3   45 356 01 00:   DENSITY CORRECTION
 RHOB.G/C3   45 350 01 00:   BULK DENSITY
 SPR .MV     07 010 01 00:   SPONTANEOUS POTENTIAL
 ILD .OHMM   07 120 46 00:   DEEP INDUCTION RESISTIVITY
 GURD.OHMM   07 220 05 00:   GUARD LOG RESISTIVITY
 ILM .OHMM   07 120 44 00:   INDUCTION LOG MEDIUM RESISTIVITY
 DT  .US/F   60 520 00 00:   DELTA TIME
 SPHI.DEC    60 890 00 00:   SONIC POROSITY
~PARAMETER INFORMATION
#MNEM.UNIT          VALUE    DESCRIPTION
#----------   ------------   ------------------------------
 EKB .F         5016.0000:   Kelly bushing
 EGL .F         5006.0000:   Ground level
 EDF .F            0.0000:   Drilling floor
 EPD .F            0.0000:   Permanent datum
 TD  .F         3062.0000:   Total depth
 DATE.        12-JUN-1977:   Date logged
 CLNT.            A2DTECH:   Client Code
 SL  . 280' FSL & 2160' FEL:   Surface Location
 PD  .                 GL:   Permanent Datum
 DD  .F              3060:   Depth driller
 DL  .F              3062:   Depth logger
 BLI .F              3060:   Bottom log interval
 TLI .F              2450:   Top log interval
 CS1 .IN            8.625:   Casing size
 CBD1.      8.625" @ 200':   Casing driller 1
 CBL1.F               218:   Casing logger 1
 BS1 .IN            7.875:   Bit size
 BSD1.F              3060:   Depth drilled with bit1
 DFT .            KCL/MUD:   Type fluid in hole
 DFD .                8.7:   Density
 DFV .                 33:   Viscosity
 DFPH.                7.5:   pH
 DFL .                 36:   Fluid loss
 MSS .           FLOWLINE:   Source of sample
 TCS .HRS             4.5:   Time Circ. stopped
 MRT .F               110:   Maximum recorded temp.
 LUN .               8611:   Logging unit number
 LUL .           GILLETTE:   Logging unit location
 ENGI.            C. DOAK:   Recorded By
 WITN.            RHOADES:   Witnessed by
 ORIG.           5" PRINT:   Origin of data
 UWI .     49025103790000:   Unique Well ID
 DICO. A2D TECHNOLOGIES, INC.:   Digitizing Company
 DAPD.                 10:   Feet Above Permanent Datum
 RMS .OHMM            1.3:   Rm
 MST .F                84:   Rm Meas. temp.
 RMF .OHMM            .52:   Rmf
 MFST.F                84:   Rmf Meas. temp.
 MFSS.               FANN:   Source Rmf.
 RMC .OHMM           1.43:   Rmc
 MCST.F                84:   Rmc Meas. temp.
 MCSS.                KIT:   Source Rmc.
 RMB .OHMM            .99:   Rm. at BHT
 BHT .F               110:   BHT.
~OTHER INFORMATION
~A   DEPT     CALD         GRD      CORR       RHOB        SPR        ILD       GURD        ILM         DT       SPHI   
# ...
 1707.5000     8.7650   119.7140     0.0080     2.4730   -65.0200     7.1140     9.3330     7.4200  -999.2500  -999.2500
 1708.0000     8.7690   119.0590     0.0090     2.4800   -65.0190     7.0710     9.3120     7.3360  -999.2500  -999.2500
 1708.5000     8.7720   118.9730     0.0100     2.4880   -65.0200     7.0290     9.1870     7.2510  -999.2500  -999.2500
 1709.0000     8.7760   119.5570     0.0120     2.4960   -65.0200     6.9870     9.0630     7.1670  -999.2500  -999.2500
 1709.5000     8.7800   120.2680     0.0130     2.4950   -65.0200     6.9450     8.9400     7.0830  -999.2500  -999.2500
 1710.0000     8.7840   121.0330     0.0140     2.4860   -65.0200     7.0640     8.8110     7.2300  -999.2500  -999.2500
 1710.5000     8.7880   121.5380     0.0120     2.4790   -65.0200     7.1230     8.9750     7.3280  -999.2500  -999.2500
 1711.0000     8.7910   121.9240     0.0100     2.4810   -65.0200     7.2290     9.0110     7.4250  -999.2500  -999.2500
 1711.5000     8.7950   120.7030     0.0070     2.4790   -65.0200     7.3360     9.1160     7.5220  -999.2500  -999.2500
 1712.0000     8.7990   121.2540     0.0050     2.4740   -65.0200     7.4420     9.2210     7.6200  -999.2500  -999.2500
 1712.5000     8.8030   122.1850     0.0030     2.4690   -65.0200     7.5490     9.3250     7.7170  -999.2500  -999.2500
 1713.0000     8.8070   123.5700     0.0010     2.4640   -65.0200     7.6550     9.4300     7.8140  -999.2500  -999.2500
 1713.5000     8.8100   123.6350    -0.0010     2.4590   -65.0200     7.7620     9.4850     7.9120  -999.2500  -999.2500
 1714.0000     8.8140   122.6520    -0.0020     2.4610   -65.0200     7.8690     9.6600     8.0090  -999.2500  -999.2500
 1714.5000     8.8180   121.7570     0.0000     2.4740   -65.0200     7.9750     9.8230     8.1060  -999.2500  -999.2500
 1715.0000     8.8220   120.6820     0.0030     2.4890   -65.0200     8.0820     9.9860     8.2030  -999.2500  -999.2500
 1715.5000     8.8260   120.5560     0.0050     2.4920   -65.0190     8.1850    10.2100     8.3010  -999.2500  -999.2500
 1716.0000     8.8290   120.5480     0.0070     2.4800   -65.0210     7.9700    10.1050     8.3370  -999.2500  -999.2500
 1716.5000     8.8330   120.5720     0.0100     2.4790   -65.0200     7.6670     9.6230     8.2030  -999.2500  -999.2500
 1717.0000     8.8370   120.4710     0.0120     2.4920   -65.0150     7.3640     9.1420     7.8760  -999.2500  -999.2500
 1717.5000     8.8410   119.7350     0.0150     2.5020   -65.0360     7.0610     8.6500     7.5480  -999.2500  -999.2500
 1718.0000     8.8450   117.7980     0.0170     2.5040   -64.8500     6.7580     8.6500     7.2200  -999.2500  -999.2500
 1718.5000     8.8490   115.6230     0.0180     2.4880   -64.5050     6.4420     8.6500     6.8920  -999.2500  -999.2500
 1719.0000     8.8520   113.4690     0.0180     2.4750   -64.1800     6.1490     8.6500     6.5640  -999.2500  -999.2500
 1719.5000     8.8560   111.3390     0.0170     2.4600   -63.8580     5.8430     8.6500     6.2370  -999.2500  -999.2500
 1720.0000     8.8600   109.5620     0.0210     2.4500   -63.5380     5.5360     8.6500     5.9090  -999.2500  -999.2500
 1720.5000     8.8640   109.5830     0.0260     2.4410   -63.1800     5.2300     8.3490     5.5810  -999.2500  -999.2500
 1721.0000     8.8660   111.1470     0.0300     2.4250   -63.1810     4.9230     8.0810     5.2530  -999.2500  -999.2500
 1721.5000     8.8610   112.8970     0.0340     2.4010   -63.5390     4.6170     7.2070     4.8870  -999.2500  -999.2500
 1722.0000     8.8530   114.6940     0.0370     2.3790   -63.8590     4.4570     3.6460     5.1320  -999.2500  -999.2500
 1722.5000     8.8450   116.4200     0.0410     2.3540   -64.1810     4.6930     4.0140     5.4110  -999.2500  -999.2500
 1723.0000     8.8380   118.1630     0.0410     2.3220   -64.5060     5.0470     7.5510     5.6890  -999.2500  -999.2500
 1723.5000     8.8300   117.6660     0.0310     2.3050   -64.8520     5.4010     8.9750     5.9670  -999.2500  -999.2500
 1724.0000     8.8230   116.8520     0.0220     2.3040   -65.0200     5.7550     9.0690     6.2460  -999.2500  -999.2500
 1724.5000     8.8150   115.8430     0.0110     2.3380   -64.9580     6.1080     9.1810     6.5240  -999.2500  -999.2500
 1725.0000     8.8080   116.2040     0.0060     2.5130   -64.9250     6.4620     9.2940     6.8020  -999.2500  -999.2500
 1725.5000     8.8000   117.1790     0.0140     2.5090   -64.8870     6.8160     9.4070     7.0810  -999.2500  -999.2500
 1726.0000     8.7930   118.1190     0.0210     2.5220   -64.8460     7.1700     9.5190     7.3590  -999.2500  -999.2500
 1726.5000     8.7850   118.0940     0.0290     2.5280   -64.8090     7.4650     9.6320     7.6370  -999.2500  -999.2500
 1727.0000     8.7780   117.2020     0.0340     2.5390   -64.7680     7.5650     9.7450     7.9160  -999.2500  -999.2500
 1727.5000     8.7700   116.3290     0.0280     2.5320   -64.7300     7.7450     9.8570     8.1940  -999.2500  -999.2500
 1728.0000     8.7630   115.6960     0.0220     2.5250   -64.6920     8.0360    10.0240     8.4920  -999.2500  -999.2500
 1728.5000     8.7550   116.4610     0.0150     2.5180   -64.6460     8.0360     9.9220     8.4920  -999.2500  -999.2500
 1729.0000     8.7480   117.8540     0.0090     2.5110   -64.6620     8.1850     9.7260     8.4920  -999.2500  -999.2500
 1729.5000     8.7400   119.1780     0.0100     2.5040   -64.7970     8.1850     9.5310     8.5050  -999.2500  -999.2500
 1730.0000     8.7330   120.5130     0.0070     2.5000   -64.9250     8.1980     9.3120     8.5300  -999.2500  -999.2500
 1730.5000     8.7250   121.8450     0.0080     2.5020   -65.0540     8.2170     9.5070     8.5540  -999.2500  -999.2500
 1731.0000     8.7180   123.2130     0.0100     2.5050   -65.1850     8.2360     9.7290     8.5790  -999.2500  -999.2500
 1731.5000     8.7100   124.4880     0.0120     2.5070   -65.3200     8.2540     9.9500     8.6040  -999.2500  -999.2500
 1732.0000     8.7080   125.9760     0.0140     2.5090   -65.3560     8.2730    10.2100     8.6290  -999.2500  -999.2500
 1732.5000     8.7090   126.0790     0.0130     2.5050   -65.1060     8.2920    10.0240     8.6540  -999.2500  -999.2500
 1733.0000     8.7100   126.0660     0.0100     2.5000   -64.8750     8.3110     9.8000     8.6790  -999.2500  -999.2500
 1733.5000     8.7100   125.8440     0.0100     2.5030   -64.6410     8.3290     9.4850     8.7030  -999.2500  -999.2500
 1734.0000     8.7110   125.6610     0.0170     2.5020   -64.6920     8.3600     9.6610     8.7280  -999.2500  -999.2500
 1734.5000     8.7120   125.4600     0.0160     2.4990   -64.7520     8.3980     9.9860     8.7530  -999.2500  -999.2500
 1735.0000     8.7130   125.3220     0.0110     2.4950   -64.8210     8.4370    10.2600     8.7780  -999.2500  -999.2500
 1735.5000     8.7140   125.0390     0.0100     2.4930   -64.8860     8.4760    10.5330     8.8030  -999.2500  -999.2500
 1736.0000     8.7150   124.2250     0.0130     2.4960   -64.9480     8.5150    10.8070     8.8280  -999.2500  -999.2500
 1736.5000     8.7160   123.4710     0.0170     2.5120   -65.0120     8.5530    10.9910     8.8530  -999.2500  -999.2500
 1737.0000     8.7170   122.6640     0.0210     2.5270   -64.9570     8.5920    10.8780     8.8780  -999.2500  -999.2500
 1737.5000     8.7180   121.4490     0.0210     2.5330   -64.8930     8.6310    10.6590     8.9030  -999.2500  -999.2500
 1738.0000     8.7180   120.1230     0.0170     2.5330   -64.8240     8.6500    10.4410     8.9280  -999.2500  -999.2500
 1738.5000     8.7190   119.3450     0.0130     2.5250   -64.7590     8.6500    10.2220     8.9530  -999.2500  -999.2500
 1739.0000     8.7200   119.1770     0.0090     2.5100   -64.6920     8.5440    10.0040     8.9750  -999.2500  -999.2500
 1739.5000     8.7210   119.8010     0.0050     2.4970   -64.6250     8.4220     9.6610     8.9060  -999.2500  -999.2500
 1740.0000     8.7220   120.3480     0.0010     2.4830   -64.5590     8.3000     9.6050     8.8010  -999.2500  -999.2500
 1740.5000     8.7230   120.9140    -0.0030     2.4730   -64.4920     8.1780     9.5380     8.6960  -999.2500  -999.2500
