~VERSION INFORMATION
 VERS.                2.0:   CWLS LOG ASCII STANDARD - VERSION 2.0
 WRAP.                 NO:   ONE LINE PER DEPTH STEP
~WELL INFORMATION
#MNEM.UNIT      DATA TYPE    INFORMATION
#----------   ------------   ------------------------------
 STRT.F           42.0000:   START DEPTH
 STOP.F         2778.0000:   STOP DEPTH
 STEP.F            0.5000:   STEP LENGTH
 NULL.          -999.2500:   NO VALUE
 COMP.    FENIX & SCISSON:   COMPANY
 WELL. FENIX & SCISSON SHX #56-23:   WELL
 FLD .        TEAPOT DOME:   FIELD
 LOC .      S23 T38N R78W:   LOCATION
 CNTY.            NATRONA:   COUNTY
 STAT.            WYOMING:   STATE
 CTRY. UNITED STATES OF AMERICA:   COUNTRY
 SRVC.           BIRDWELL:   SERVICE COMPANY
 DATE.        29-AUG-1979:   LOGDATE
 API .     49025107920000:   API NUMBER
~CURVE INFORMATION
#MNEM.UNIT       API CODE    CURVE DESCRIPTION
#----------   ------------   ------------------------------
 DEPT.F                  :   
 GRD .GAPI   45 310 01 00:   GAMMA RAY FROM DENSITY LOG
 CALD.IN     45 280 60 00:   CALIPER FROM DENSITY LOG
 RHOB.G/C3   45 350 01 00:   BULK DENSITY
 CORR.G/C3   45 356 01 00:   DENSITY CORRECTION
 ILD .OHMM   07 120 46 00:   DEEP INDUCTION RESISTIVITY
 SFL .OHMM   07 220 01 00:   SHALLOW FOCUSED LOG RESISTIVITY
 SPR .MV     07 010 01 00:   SPONTANEOUS POTENTIAL
~PARAMETER INFORMATION
#MNEM.UNIT          VALUE    DESCRIPTION
#----------   ------------   ------------------------------
 EKB .F         5361.0000:   Kelly bushing
 EGL .F         5351.0000:   Ground level
 EDF .F         5360.0000:   Drilling floor
 TD  .F         1465.0000:   Total depth
 DATE.        29-AUG-1979:   Date logged
 CLNT.            A2DTECH:   Client Code
 PD  .                 GL:   Permanent Datum
 EPD .F              5351:   Elevation Permanent Datum
 LMF .                 KB:   Log Measured From
 DMF .                 KB:   Drilling Measured From
 DAPD.F                 9:   Feet Above Permanent Datum
 DD  .F              1465:   Depth driller
 DL  .F              1462:   Depth logger
 BLI .F              1457:   Bottom log interval
 TLI .F                40:   Top log interval
 CBD1.F                40:   Casing driller 1
 CBL1.F                40:   Casing logger 1
 BS1 .IN            12.25:   Bit size
 BSD1.F              1465:   Depth drilled with bit1
 DFT .            GEL/MUD:   Type fluid in hole
 DFD .                9.5:   Density
 DFV .                 40:   Viscosity
 DFPH.                9.0:   pH
 DFL .                 40:   Fluid loss
 MSS .            MUD PIT:   Source of sample
 RMS .OHMM            2.6:   Rm
 MST .F                68:   Rm Meas. temp.
 RMF .OHMM            1.8:   Rmf
 MFST.F                78:   Rmf Meas. temp.
 RMC .OHMM            2.8:   Rmc
 MCST.F                76:   Rmc Meas. temp.
 MFSS.               MEAS:   Source Rmf.
 MCSS.               MEAS:   Source Rmc.
 RMB .OHMM           1.96:   Rm. at BHT
 BHT .F                90:   BHT.
 TCS .HRS               5:   Time Circ. stopped
 MRT .F                90:   Maximum recorded temp.
 LUN .               2959:   Logging unit number
 LUL .             CASPER:   Logging unit location
 ENGI.         B. ROLLINS:   Recorded By
 WITN.              AMEND:   Witnessed by
 ORIG.           5" PRINT:   Origin of data
 UWI .     49025107920000:   Unique Well ID
 DICO. A2D TECHNOLOGIES, INC.:   Digitizing Company
~OTHER INFORMATION
~A   DEPT       GRD      CALD       RHOB         CORR      ILD        SFL         SPR  
# ...
  724.5000    85.0620    13.0170     2.3670     0.2600     2.6560     2.6010   -52.7320
  725.0000    81.8010    12.8650     2.4170     0.2730     2.9580     2.9460   -52.6000
  725.5000    79.2070    12.9650     2.4230     0.2750     3.3280     3.0870   -52.4660
  726.0000    77.0380    12.9180     2.4270     0.2870     3.6990     3.1300   -52.3410
  726.5000    76.7110    12.9750     2.4360     0.3110     4.0160     3.1860   -52.2170
  727.0000    78.5580    12.9830     2.4430     0.3140     4.1920     3.2420   -52.3460
  727.5000    80.5030    13.0040     2.4650     0.3150     4.3300     3.2980   -52.4930
  728.0000    81.9290    13.0020     2.4220     0.3070     4.2170     3.3540   -52.6470
  728.5000    82.7180    12.9800     2.4270     0.2650     4.0530     3.4100   -52.7970
  729.0000    81.2650    12.9600     2.4260     0.2230     3.8900     3.4660   -52.9470
  729.5000    78.5090    12.9390     2.4300     0.2210     3.7960     3.5210   -52.9930
  730.0000    79.5640    12.9180     2.4150     0.2220     3.7960     3.5210   -52.7420
  730.5000    81.5130    12.8980     2.3870     0.2270     3.7960     3.4040   -52.4390
  731.0000    79.1860    12.8770     2.3610     0.2290     3.8540     3.3080   -52.1350
  731.5000    76.6290    12.8550     2.3340     0.2380     3.9140     3.2110   -51.8370
  732.0000    77.1240    12.8500     2.3110     0.2500     3.9420     3.1140   -51.5230
  732.5000    79.2380    12.8650     2.2770     0.3080     3.8680     3.0170   -51.3970
  733.0000    80.6220    13.1250     2.2490     0.3800     3.7530     2.9200   -51.4930
  733.5000    80.2820    13.3320     2.2800     0.4530     3.5170     2.8100   -51.5630
  734.0000    79.6910    13.3740     2.3210     0.4810     3.2810     2.6520   -51.6370
  734.5000    80.5910    13.5030     1.9600     0.4650     3.0450     2.4680   -51.7190
  735.0000    83.5650    13.7520     1.9550     0.4640     2.8100     2.2850   -51.7870
  735.5000    85.3870    14.5340     1.9770     0.4650     2.7570     2.2420   -51.7700
  736.0000    84.2310    14.9400     2.1640     0.4690     2.7060     2.2420   -51.2610
  736.5000    85.2040    14.9060     2.2470     0.4300     2.7570     2.2850   -50.8020
  737.0000    85.7130    13.6620     2.4270     0.3840     2.8100     2.4040   -50.2520
  737.5000    83.2880    13.0200     2.4470     0.3280     2.9170     2.6360   -50.1900
  738.0000    82.2060    13.0450     2.4490     0.2760     3.0290     2.8690   -50.3870
  738.5000    83.3230    13.0330     2.4400     0.2230     3.2580     3.1010   -50.8110
  739.0000    87.7640    13.0150     2.4360     0.2130     3.5190     3.3330   -51.1470
  739.5000    86.4880    13.0130     2.4340     0.2200     3.7790     3.5660   -51.7400
  740.0000    85.7400    12.9990     2.4390     0.2270     4.0400     3.6560   -51.7690
  740.5000    85.7730    12.9900     2.4460     0.2330     4.3010     3.7020   -51.4240
  741.0000    85.7330    12.9790     2.4580     0.2330     4.4960     3.7400   -51.4750
  741.5000    85.7020    12.9700     2.4530     0.2280     4.6690     3.7780   -52.2450
  742.0000    85.8140    12.9580     2.4260     0.2110     4.6690     3.7960   -52.9860
  742.5000    81.9970    12.9510     2.3980     0.2090     4.6690     3.7960   -52.6940
  743.0000    78.3340    12.9390     2.3650     0.2120     4.6690     3.7250   -52.4230
  743.5000    80.6810    12.9260     2.3540     0.2170     4.4130     3.5210   -51.9530
  744.0000    85.0180    12.9410     2.2990     0.2450     4.2500     3.3290   -51.5610
  744.5000    86.9990    12.9800     2.2460     0.3130     3.7960     3.0480   -51.0750
  745.0000    87.3100    13.4540     2.2030     0.3950     3.3280     2.7670   -51.1800
  745.5000    87.5600    14.0960     2.0960     0.3890     2.8600     2.4870   -51.6790
  746.0000    88.9640    14.7040     1.9310     0.3780     2.3720     2.2060   -52.0730
  746.5000    89.4540    15.2690     1.9240     0.3500     2.3720     2.0800   -51.7780
  747.0000    87.9820    15.4830     2.0010     0.3250     2.3280     2.0410   -51.6220
  747.5000    85.3800    13.7980     2.0770     0.2990     2.3280     2.0410   -51.2180
  748.0000    83.8150    12.9630     2.2390     0.2710     2.4170     2.2160   -51.0080
  748.5000    82.6910    12.9390     2.3980     0.2600     2.6060     2.3750   -51.0660
  749.0000    83.8520    12.8980     2.4000     0.2710     2.8370     2.5340   -51.1270
  749.5000    85.9340    12.8790     2.4050     0.2800     3.0540     2.6930   -51.2060
  750.0000    84.7370    12.8850     2.4280     0.2840     3.2710     2.8520   -51.2730
  750.5000    83.5200    12.8780     2.4490     0.2750     3.4890     3.0110   -51.3440
  751.0000    83.4380    12.8750     2.4580     0.2680     3.7060     3.1700   -51.4140
  751.5000    84.4590    12.8710     2.4610     0.2600     3.9240     3.2870   -51.4840
  752.0000    82.4910    12.8670     2.4880     0.2520     4.0930     3.3450   -51.5560
  752.5000    81.9520    12.8640     2.4780     0.2380     4.1700     3.4020   -51.6230
  753.0000    83.7200    12.8610     2.4470     0.2240     4.2500     3.4590   -51.6990
  753.5000    83.7390    12.8580     2.4190     0.2200     4.3300     3.5160   -51.7680
  754.0000    84.3570    12.8510     2.3860     0.2220     4.3300     3.5880   -51.7720
  754.5000    89.1750    12.8570     2.3430     0.2530     4.3300     3.5380   -51.4180
  755.0000    91.1490    12.8410     2.3270     0.3160     4.1700     3.3850   -51.1010
  755.5000    89.5730    12.8490     2.3600     0.3730     4.0300     3.2330   -50.7490
  756.0000    88.0360    12.9200     2.4040     0.4280     3.8350     3.0810   -50.6150
  756.5000    84.1950    13.3270     2.4420     0.3820     3.6390     2.9290   -50.9780
  757.0000    81.6000    13.0120     2.2750     0.3370     3.4430     2.7770   -51.2830
  757.5000    80.4870    12.8370     2.1600     0.2820     3.2480     2.6060   -51.6430
  758.0000    79.5680    12.9030     2.0900     0.3130     3.0870     2.6060   -51.8190
  758.5000    81.5560    13.7710     2.0370     0.4180     3.0290     2.5140   -51.7730
  759.0000    83.2500    14.1310     2.2600     0.4520     2.9700     2.4490   -51.8460
  759.5000    82.2970    13.4070     2.3570     0.4270     2.9020     2.3830   -51.3760
  760.0000    75.0830    13.3430     2.3420     0.4010     2.8340     2.3180   -50.8950
  760.5000    76.0420    13.5120     2.2900     0.3900     2.7570     2.2420   -50.5050
  761.0000    77.5360    13.7670     2.2390     0.4300     2.7060     2.2000   -50.1100
  761.5000    77.4000    13.7930     2.1900     0.4510     2.5700     2.1210   -49.8320
  762.0000    78.2450    15.3050     2.2070     0.4530     2.4020     2.0440   -49.9540
  762.5000    80.9640    15.7310     2.1890     0.4420     2.2000     1.9670   -50.0620
  763.0000    80.1680    15.5440     2.1470     0.4200     2.1590     1.8890   -50.1860
  763.5000    79.7320    15.1450     2.1130     0.4120     2.1190     1.8580   -50.3020
  764.0000    81.7260    14.9670     2.1270     0.4080     2.3060     1.8930   -50.4200
  764.5000    82.7400    14.8190     2.2240     0.3760     2.4640     2.0030   -50.5420
  765.0000    83.5420    14.2260     2.2990     0.3250     2.6220     2.1510   -50.6550
  765.5000    82.4470    13.4960     2.3250     0.2210     2.7800     2.3450   -50.7820
  766.0000    79.4640    13.0510     2.3280     0.2270     2.9390     2.5390   -50.8970
  766.5000    77.5970    12.9020     2.3560     0.2510     3.0970     2.7330   -50.9620
  767.0000    79.9210    12.9000     2.3880     0.2900     3.2550     2.9170   -50.5350
  767.5000    83.1750    13.0280     2.4200     0.3350     3.4130     2.9170   -50.2250
  768.0000    82.3080    13.1520     2.4610     0.3410     3.5210     2.9170   -50.2140
  768.5000    80.7450    13.0440     2.4520     0.3450     3.5210     2.8630   -50.5400
  769.0000    80.5540    12.9390     2.4310     0.3540     3.4550     2.7460   -50.9030
  769.5000    81.5750    12.8930     2.4180     0.3770     3.3910     2.6560   -51.2880
