~VERSION INFORMATION
 VERS.                2.0:   CWLS LOG ASCII STANDARD - VERSION 2.0
 WRAP.                 NO:   ONE LINE PER DEPTH STEP
~WELL INFORMATION
#MNEM.UNIT      DATA TYPE    INFORMATION
#----------   ------------   ------------------------------
 STRT.F          200.0000:   START DEPTH
 STOP.F         3150.0000:   STOP DEPTH
 STEP.F            0.5000:   STEP LENGTH
 NULL.          -999.2500:   NO VALUE
 COMP.  FENIX AND SCISSON:   COMPANY
 WELL.  FENIX "AX" #88-10:   WELL
 FLD .              NPR 3:   FIELD
 LOC .      S10 T38N R78W:   LOCATION
 CNTY.            NATRONA:   COUNTY
 STAT.            WYOMING:   STATE
 CTRY. UNITED STATES OF AMERICA:   COUNTRY
 SRVC.              WELEX:   SERVICE COMPANY
 DATE.        13-JUN-1977:   LOGDATE
 API .     49025103780000:   API NUMBER
~CURVE INFORMATION
#MNEM.UNIT       API CODE    CURVE DESCRIPTION
#----------   ------------   ------------------------------
 DEPT.F                  :   
 CALD.IN     45 280 60 00:   CALIPER FROM DENSITY LOG
 GRD .GAPI   45 310 01 00:   GAMMA RAY FROM DENSITY LOG
 RHOB.G/C3   45 350 01 00:   BULK DENSITY
 CORR.G/C3   45 356 01 00:   DENSITY CORRECTION
 SPR .MV     07 010 01 00:   SPONTANEOUS POTENTIAL
 GURD.OHMM   07 220 05 00:   GUARD LOG RESISTIVITY
 ILD .OHMM   07 120 46 00:   INDUCTION LOG DEEP RESISTIVITY
 ILM .OHMM   07 120 44 00:   INDUCTION LOG MEDIUM RESISTIVITY
~PARAMETER INFORMATION
#MNEM.UNIT          VALUE    DESCRIPTION
#----------   ------------   ------------------------------
 EKB .F         5264.0000:   Kelly bushing
 EGL .F         5254.0000:   Ground level
 EDF .F            0.0000:   Drilling floor
 TD  .F         3160.0000:   Total depth
 DATE.        13-JUN-1977:   Date logged
 CLNT.            A2DTECH:   Client Code
 SL  . 430' FSL & 330' FEL:   Surface Location
 PD  .                 GL:   Permanent Datum
 EPD .F              5254:   Elevation Permanent Datum
 LMF .                 KB:   Log Measured From
 DMF .                 KB:   Drilling Measured From
 DAPD.F                10:   Feet Above Permanent Datum
 DD  .F              3160:   Depth driller
 DL  .F              3151:   Depth logger
 BLI .F              3149:   Bottom log interval
 CS1 .IN            8.625:   Casing size
 CBD1.      8.625" @ 208':   Casing driller 1
 BS1 .IN            7.875:   Bit size
 BSD1.F              3160:   Depth drilled with bit1
 DFT .            KCL MUD:   Type fluid in hole
 DFD .                9.1:   Density
 DFV .                 31:   Viscosity
 DFPH.                7.5:   pH
 DFL .                 20:   Fluid loss
 MSS .           FLOWLINE:   Source of sample
 RMS .OHMM            .90:   Rm
 MST .F                60:   Rm Meas. temp.
 RMF .OHMM            .53:   Rmf
 MFST.F                60:   Rmf Meas. temp.
 RMC .OHMM           1.47:   Rmc
 MCST.F                60:   Rmc Meas. temp.
 MFSS.               MEAS:   Source Rmf.
 MCSS.               MEAS:   Source Rmc.
 RMB .OHMM            .46:   Rm. at BHT
 BHT .F               116:   BHT.
 TCS .HRS               8:   Time Circ. stopped
 MRT .F               116:   Maximum recorded temp.
 LUN .               8611:   Logging unit number
 LUL .             CASPER:   Logging unit location
 ENGI.            C. DOAK:   Recorded By
 WITN.         D. RHOADES:   Witnessed by
 ORIG.           5" PRINT:   Origin of data
 UWI .     49025103780000:   Unique Well ID
 DICO. A2D TECHNOLOGIES, INC.:   Digitizing Company
~OTHER INFORMATION
~A   DEPT       CALD       GRD      RHOB       CORR        SPR       GURD        ILD        ILM   
# ...
 2144.0000     9.3591   119.7390     2.4619    -0.0072   -54.5276    17.4135     9.2456    10.5160
 2144.5000     9.3592   119.3462     2.4629    -0.0132   -54.5252    17.2551     9.3319    10.6141
 2145.0000     9.3593   119.3485     2.4590    -0.0192   -54.5228    16.4828     9.3331    10.7138
 2145.5000     9.3593   118.9557     2.4590    -0.0211   -54.5203    16.3340     9.3343    10.6167
 2146.0000     9.3594   120.1436     2.4609    -0.0211   -54.7158    16.6389     9.2497    10.4244
 2146.5000     9.3595   121.3316     2.4679    -0.0211   -54.7133    15.7489     9.2509    10.0490
 2147.0000     9.3595   122.9148     2.4729    -0.0211   -54.7109    14.6352     9.3372     9.9583
 2147.5000     9.3596   122.5220     2.4789    -0.0072   -54.7085    14.2391     9.5118     9.9598
 2148.0000     9.3597   122.5244     2.4818    -0.0072   -54.7061    15.3262     9.1691     9.6895
 2148.5000     9.3597   121.7364     2.4799    -0.0072   -54.7037    15.9013     9.1701     9.6905
 2149.0000     9.3993   120.9497     2.4769    -0.0072   -54.7013    16.0498     9.1715     9.6914
 2149.5000     9.4191   119.7648     2.4709    -0.0072   -54.6989    15.7595     9.0879     9.7824
 2150.0000     9.3994   119.3719     2.4699    -0.0072   -54.6965    16.3513     9.0891     9.8737
 2150.5000     9.3995   118.9790     2.4749    -0.0072   -54.8919    15.4763     9.0073     9.8746
 2151.0000     9.4391   118.1908     2.4888    -0.0072   -54.8895    14.7835     8.9256     9.9671
 2151.5000     9.4589   115.4265     2.4978     0.0008   -54.8871    15.0592     8.9266     9.9684
 2152.0000     9.4590   114.6382     2.5018     0.0028   -55.4782    15.1998     8.4487     9.9691
 2152.5000     9.4788   113.8499     2.5037     0.0028   -55.0801    14.2551     8.2193     9.7889
 2153.0000     9.4591   114.6427     2.5037     0.0028   -55.0777    13.8694     7.9967     9.2644
 2153.5000     9.4592   114.6450     2.4988     0.0028   -55.0753    13.2485     7.8514     8.8490
 2154.0000     9.4790   114.2519     2.4948     0.0008   -55.0724    13.2500     7.7808     8.6089
 2154.5000     9.4791   113.8588     2.4819     0.0008   -55.0700    13.6216     7.7814     8.3763
 2155.0000     9.4792   114.2564     2.4839     0.0048   -55.0676    13.0121     7.5712     8.3767
 2155.5000     9.4792   115.8400     2.4879     0.0048   -55.0652    12.3159     7.5713     8.3776
 2156.0000     9.4991   118.2144     2.4869     0.0147   -55.0628    13.3785     7.5718     8.4557
 2156.5000     9.5189   116.2399     2.4819     0.0107   -55.0604    13.0164     7.5731     8.6137
 2157.0000     9.5585   115.8468     2.4799     0.0068   -55.0580    12.6642     7.5738     8.7744
 2157.5000     9.5981   117.4306     2.4789     0.0068   -55.2535    13.7568     7.6448     9.1046
 2158.0000     9.6180   118.6191     2.4759     0.0127   -55.2510    14.2731     7.6453     9.4468
 2158.5000     9.7367   118.2260     2.4690     0.0147   -55.0508    14.5393     7.7168     9.7122
 2159.0000     9.7565   115.8559     2.4630     0.0147   -55.2462    14.6750     7.9339    10.2644
 2159.5000     9.7566   114.2765     2.4560     0.0147   -55.4417    14.4096     8.0821    10.7486
 2160.0000     9.7566   112.6971     2.4541     0.0147   -55.4393    14.0196     8.1575    10.9494
 2160.5000     9.6777   115.4673     2.4600     0.0048   -55.6348    13.8930     8.3102    10.5551
 2161.0000     9.5986   116.6563     2.4630    -0.0071   -55.6324    14.4145     8.3109     9.9894
 2161.5000     9.5591   117.0527     2.4710    -0.0071   -55.2342    14.9555     8.3120     9.8991
 2162.0000     9.4801   117.8463     2.4750    -0.0091   -55.2318    14.9571     8.3128     9.9002
 2162.5000     9.4802   117.8487     2.4769    -0.0091   -55.2294    14.8221     8.3137     9.9928
 2163.0000     9.5000   118.2464     2.4809    -0.0091   -55.0291    14.5540     8.3149    10.0860
 2163.5000     9.4803   118.2492     2.4849    -0.0091   -55.2246    14.1601     8.3155    10.0873
 2164.0000     9.5002   116.2741     2.4879    -0.0051   -55.2222    14.1617     8.3934     9.7242
 2164.5000     9.5002   111.5314     2.4909    -0.0012   -55.0219    13.9055     8.4719     9.2882
 2165.0000     9.4608   108.3691     2.4978     0.0028   -55.0195    14.1649     8.7099     9.1201
 2165.5000     9.4608   107.1847     2.4988     0.0116   -55.0171    14.4290     8.8724     9.1209
 2166.0000     9.4411   107.1868     2.5018     0.0205   -55.2126    13.9102     9.0382     9.6397
 2166.5000     9.4214   106.0024     2.4988     0.0247   -55.0123    14.4323     9.0392     9.9103
 2167.0000     9.4215   105.6089     2.4959     0.0307   -54.8120    15.9682     9.0401    10.0027
 2167.5000     9.4018   105.2155     2.4929     0.0327   -54.8096    15.5360     8.9584    10.0041
 2168.0000     9.4019   103.6353     2.4989     0.0466   -54.8072    14.8404     8.9595    10.1907
 2168.5000     9.4019   102.8463     2.4979     0.0506   -54.8047    15.5395     8.8781    10.3808
 2169.0000     9.4020   102.0572     2.4919     0.0466   -54.8023    16.1228     8.7172    10.3827
 2169.5000     9.4021   102.0592     2.4849     0.0406   -54.7999    15.8311     8.6380    10.3836
 2170.0000     9.4417   102.0612     2.4800     0.0347   -54.9949    15.6882     8.4038    10.0094
 2170.5000     9.4220   101.6676     2.4780     0.0247   -54.9925    14.9858     8.1018     9.7380
 2171.0000     9.4616   101.2740     2.4790     0.0168   -55.1881    13.9261     7.9546     9.9208
 2171.5000     9.4616   100.8804     2.4919     0.0088   -55.1856    13.1810     7.8825     9.8304
 2172.0000     9.5013   100.8824     2.5098     0.0009   -55.1832    13.0619     7.5990     8.6435
 2172.5000     9.5014   100.0931     2.5188    -0.0011   -55.1808    12.0270     7.5304     8.0311
 2173.0000     9.4816    99.3038     2.5217    -0.0011   -55.3764    11.5945     7.4623     8.4878
 2173.5000     9.3828    99.3058     2.5158    -0.0011   -55.3740    13.0663     7.3946     8.8069
 2174.0000     9.3631    99.3077     2.5088    -0.0031   -55.3715    13.6819     7.3277     8.9714
 2174.5000     9.3434    99.7053     2.5058    -0.0051   -55.3691    13.6834     7.1951     9.0551
 2175.0000     9.3237   100.1029     2.5068    -0.0051   -55.3667    13.8112     7.1957     8.9732
 2175.5000     9.3435    99.7092     2.5138    -0.0051   -55.3643    13.4374     7.1962     8.8922
 2176.0000     9.3238   100.1068     2.5267    -0.0051   -55.3619    13.0736     7.2636     8.7311
 2176.5000     9.3041   100.5045     2.5277    -0.0051   -55.3595    13.4404     7.3319     8.5726
 2177.0000     9.3041   100.5064     2.5238    -0.0031   -55.1592    12.8385     7.3324     8.0813
 2177.5000     9.3042   100.5084     2.5208    -0.0051   -54.9588    11.1877     7.4011     8.1892
 2178.0000     9.3240   100.5108     2.5178    -0.0051   -54.9564     9.7488     7.6094     8.1905
 2178.5000     9.3043   100.1171     2.5118    -0.0051   -54.7561    13.0809     7.6802     8.8981
 2179.0000     9.3044   100.1190     2.5069    -0.0031   -54.7537    14.0799     7.7518     8.8993
 2179.5000     9.2847   100.1210     2.5069    -0.0051   -54.5533    14.7432     7.8968     8.8187
 2180.0000     9.2847   101.7059     2.5059    -0.0051   -54.5509    14.3441     8.0445     8.9010
 2180.5000     9.2848   101.7079     2.4999    -0.0070   -54.5485    13.5765     8.1198     9.4943
 2181.0000     9.2849   102.5014     2.4979    -0.0070   -54.5461    15.4412     8.2713     9.9424
 2181.5000     9.2651   103.6903     2.4939    -0.0070   -54.5437    15.5855     8.3486    10.0349
 2182.0000     9.2850   105.2753     2.4870    -0.0070   -54.5413    15.5876     8.5048    10.1292
 2182.5000     9.3048   103.6955     2.4870    -0.0130   -54.5388    15.0267     8.6637     9.8546
 2183.0000     9.3049   102.1136     2.4850    -0.0130   -54.5364    14.0925     8.6646     9.1564
 2183.5000     9.3248   102.1156     2.4820    -0.0130   -54.5340    12.7399     8.7459     9.0735
 2184.0000     9.3248   102.5134     2.4781    -0.0130   -54.5316    12.5089     8.5872     9.7676
