~VERSION INFORMATION
 VERS.                2.0:   CWLS LOG ASCII STANDARD - VERSION 2.0
 WRAP.                 NO:   ONE LINE PER DEPTH STEP
~WELL INFORMATION
#MNEM.UNIT      DATA TYPE    INFORMATION
#----------   ------------   ------------------------------
 STRT.F          192.0000:   START DEPTH
 STOP.F         3016.0000:   STOP DEPTH
 STEP.F            0.5000:   STEP LENGTH
 NULL.          -999.2500:   NO VALUE
 COMP. FENIX & SCISSON U.S. NAVY:   COMPANY
 WELL.  FENIX "AX" #81-33:   WELL
 FLD .              NPR-3:   FIELD
 LOC .      S33 T39N R78W:   LOCATION
 CNTY.            NATRONA:   COUNTY
 STAT.            WYOMING:   STATE
 CTRY. UNITED STATES OF AMERICA:   COUNTRY
 SRVC.              WELEX:   SERVICE COMPANY
 DATE.        12-MAY-1977:   LOGDATE
 API .     49025109850000:   API NUMBER
~CURVE INFORMATION
#MNEM.UNIT       API CODE    CURVE DESCRIPTION
#----------   ------------   ------------------------------
 DEPT.F                  :   
 SPR .MV     07 010 01 00:   SPONTANEOUS POTENTIAL
 RILM.OHMM   07 120 44 00:   INDUCTION LOG MEDIUM RESISTIVITY
 RILD.OHMM   07 120 46 00:   DEEP INDUCTION RESISTIVITY
 SGRD.OHMM   07 220 05 00:   SHALLOW GUARD LOG RESISTIVITY
 NPHI.DEC    42 890 03 00:   NEUTRON POROSITY SANDSTONE
 GRD .GAPI   45 310 01 00:   GAMMA RAY FROM DENSITY LOG
 CALD.IN     45 280 60 00:   CALIPER FROM DENSITY LOG
 RHOB.G/C3   45 350 01 00:   BULK DENSITY
 DCOR.G/C3   45 356 01 00:   DENSITY CORRECTION
~PARAMETER INFORMATION
#MNEM.UNIT          VALUE    DESCRIPTION
#----------   ------------   ------------------------------
 EKB .F         5114.0000:   Kelly bushing
 EGL .F         5100.0000:   Ground level
 EDF .F         5112.0000:   Drilling floor
 TD  .F         3014.0000:   Total depth
 DATE.        12-MAY-1977:   Date logged
 CLNT.            A2DTECH:   Client Code
 SL  . 660' FEL & 660' FNL:   Surface Location
 PD  .                 GL:   Permanent Datum
 EPD .F              5100:   Elevation Permanent Datum
 LMF .                 KB:   Log Measured From
 DMF .                 KB:   Drilling Measured From
 DD  .F              3000:   Depth driller
 DL  .F              3014:   Depth logger
 BLI .F              3012:   Bottom log interval
 TLI .F              1500:   Top log interval
 CS1 .IN            8.625:   Casing size
 CBD1.      8.625" @ 217':   Casing driller 1
 CBL1.F               209:   Casing logger 1
 BS1 .IN            7.875:   Bit size
 BSD1.F              3000:   Depth drilled with bit1
 DFT .            KCL MUD:   Type fluid in hole
 DFD .                  9:   Density
 DFV .                 33:   Viscosity
 DFPH.                7.5:   pH
 DFL .                7.8:   Fluid loss
 MSS .           FLOWLINE:   Source of sample
 RMS .OHMM           0.69:   Rm
 MST .F                68:   Rm Meas. temp.
 RMF .OHMM           0.66:   Rmf
 MFST.F                68:   Rmf Meas. temp.
 RMC .OHMM           1.27:   Rmc
 MCST.F                68:   Rmc Meas. temp.
 MFSS.                 BK:   Source Rmf.
 MCSS.                 BK:   Source Rmc.
 RMB .OHMM           0.39:   Rm. at BHT
 BHT .F               118:   BHT.
 TCS .HRS               6:   Time Circ. stopped
 MRT .F               118:   Maximum recorded temp.
 LUN .               9685:   Logging unit number
 LUL .           BRIGHTON:   Logging unit location
 ENGI.          T. JOYNER:   Recorded By
 WITN.            K. JAPP:   Witnessed by
 ORIG.           5" PRINT:   Origin of data
 UWI .     49025109850000:   Unique Well ID
 DICO. A2D TECHNOLOGIES, INC.:   Digitizing Company
~OTHER INFORMATION
~A   DEPT      SPR       RILM       RILD       SGRD       NPHI         GRD        CALD       RHOB     DCOR   
# ...
 1871.0000   -22.5010     6.3100     5.8800    10.2580  -999.2500   162.8510     8.3720     2.4550     0.0120
 1871.5000   -22.4670     6.3800     5.8630     9.9920  -999.2500   163.2230     8.3810     2.4510     0.0090
 1872.0000   -22.4320     6.4860     6.0820    10.2780  -999.2500   163.5310     8.3910     2.4460     0.0020
 1872.5000   -22.3970     6.4860     5.9040    10.6560  -999.2500   163.3430     8.4000     2.4420     0.0000
 1873.0000   -22.3620     6.5760     5.7030    10.5680  -999.2500   163.1440     8.4090     2.4430     0.0030
 1873.5000   -22.3280     6.9180     5.9620    10.4480  -999.2500   162.3310     8.4180     2.4460     0.0060
 1874.0000   -22.2930     6.3680     6.0270    10.3290  -999.2500   161.2140     8.4280     2.4500     0.0060
 1874.5000   -22.2550     6.4210     5.7030    10.2340  -999.2500   158.4070     8.4370     2.4490     0.0020
 1875.0000   -22.1570     6.4940     5.8350    10.1630  -999.2500   155.5770     8.4460     2.4440    -0.0020
 1875.5000   -22.0490     6.5460     5.9350    10.0920  -999.2500   152.7540     8.4550     2.4410    -0.0050
 1876.0000   -21.9410     6.2520     6.0270    10.2340  -999.2500   149.9540     8.4560     2.4450    -0.0080
 1876.5000   -21.8330     6.5760     5.6810    10.4020  -999.2500   147.1400     8.4460     2.4490    -0.0070
 1877.0000   -21.7250     6.8540     5.6500    10.5580  -999.2500   145.0610     8.4370     2.4530     0.0020
 1877.5000   -21.6170     6.6150     5.6180    10.3340  -999.2500   143.7580     8.4280     2.4570     0.0090
 1878.0000   -21.5060     6.3920     5.5860    10.0610  -999.2500   143.6010     8.4190     2.4570     0.0110
 1878.5000   -21.3440     6.1680     5.5540     9.4390  -999.2500   143.5890     8.4090     2.4530     0.0040
 1879.0000   -21.1640     5.8870     5.5220     8.5510  -999.2500   144.5400     8.4000     2.4480     0.0070
 1879.5000   -20.9930     5.9710     5.4970     8.8660  -999.2500   146.9160     8.3910     2.4440     0.0050
 1880.0000   -20.8220     6.6610     5.6550    10.6860  -999.2500   149.1590     8.3820     2.4390     0.0000
 1880.5000   -20.6700     6.9180     5.7990    11.6680  -999.2500   149.5490     8.3720     2.4360    -0.0030
 1881.0000   -20.6110     7.0790     6.0030    12.1610  -999.2500   149.8720     8.3630     2.4430     0.0000
 1881.5000   -20.5480     7.7090     6.2070    12.5630  -999.2500   150.2070     8.3540     2.4500     0.0030
 1882.0000   -20.4860     8.1190     6.4100    12.8270  -999.2500   151.2140     8.3440     2.4520     0.0060
 1882.5000   -20.4240     7.7960     6.6140    13.0830  -999.2500   153.3400     8.3460     2.4500     0.0060
 1883.0000   -20.3610     8.0340     6.8180    13.2990  -999.2500   155.4500     8.3560     2.4440     0.0030
 1883.5000   -20.2990     8.2380     7.0210    13.5140  -999.2500   157.5610     8.3660     2.4380     0.0000
 1884.0000   -20.2370     8.0530     7.1900    13.7830  -999.2500   159.6680     8.3750     2.4310     0.0000
 1884.5000   -20.1740     7.9400     7.3320    13.6750  -999.2500   161.7920     8.3850     2.4330     0.0060
 1885.0000   -20.1120     8.1780     7.4740    13.5320  -999.2500   162.9190     8.3950     2.4380     0.0110
 1885.5000   -20.0500     8.4680     7.6540    13.4000  -999.2500   163.5340     8.4040     2.4440     0.0160
 1886.0000   -19.9870     8.2660     7.4450    13.3390  -999.2500   163.9470     8.4140     2.4500     0.0120
 1886.5000   -19.9250     8.1620     7.4680    13.2510  -999.2500   163.2930     8.4240     2.4450     0.0090
 1887.0000   -19.8620     8.2380     7.4920    12.9540  -999.2500   161.9710     8.4330     2.4390     0.0050
 1887.5000   -19.8010     7.9400     7.5140    12.8060  -999.2500   158.8650     8.4380     2.4330     0.0010
 1888.0000   -19.7390     8.0840     7.5340    13.1010  -999.2500   155.4720     8.4310     2.4270    -0.0030
 1888.5000   -19.7530     8.4680     7.5520    13.5230  -999.2500   152.0710     8.4230     2.4230    -0.0060
 1889.0000   -19.8490     8.2960     7.5700    13.7830  -999.2500   148.6640     8.4160     2.4230    -0.0070
 1889.5000   -19.9450     8.1620     7.5840    13.6500  -999.2500   145.2830     8.4080     2.4230    -0.0050
 1890.0000   -20.0410     8.4680     7.4180    13.3680  -999.2500   144.1000     8.4010     2.4240    -0.0030
 1890.5000   -20.1380     8.2810     7.2880    13.0860  -999.2500   144.0980     8.3930     2.4290    -0.0010
 1891.0000   -20.2340     7.9980     7.1880    12.7960  -999.2500   145.1370     8.3860     2.4320     0.0020
 1891.5000   -20.3300     7.7240     7.1030    12.5060  -999.2500   146.1710     8.3780     2.4310     0.0040
 1892.0000   -20.4260     8.0880     7.0180    11.5750  -999.2500   147.2100     8.3710     2.4290     0.0060
 1892.5000   -20.5220     7.4080     6.9330    11.6880  -999.2500   148.3100     8.3630     2.4300     0.0080
 1893.0000   -20.6190     7.5370     6.8810    12.0080  -999.2500   148.6830     8.3650     2.4320     0.0100
 1893.5000   -20.7150     7.7960     6.8370    11.6320  -999.2500   148.0000     8.3720     2.4350     0.0110
 1894.0000   -20.8110     7.5140     6.7920    11.2600  -999.2500   147.3460     8.3800     2.4460     0.0110
 1894.5000   -20.9070     7.7110     6.7290    12.2310  -999.2500   146.6920     8.3870     2.4560     0.0090
 1895.0000   -21.0030     8.0140     6.7770    12.0710  -999.2500   146.4240     8.3940     2.4570     0.0060
 1895.5000   -21.1000     7.9610     6.8600    11.7890  -999.2500   147.1910     8.4020     2.4540     0.0020
 1896.0000   -21.1960     7.8680     6.9420    12.7700  -999.2500   148.4980     8.4090     2.4520    -0.0020
 1896.5000   -21.2920     8.3840     7.0240    14.1690  -999.2500   149.8250     8.4160     2.4490    -0.0060
 1897.0000   -21.3880     8.9480     7.1060    14.6590  -999.2500   151.1180     8.4240     2.4490    -0.0100
 1897.5000   -21.4840     8.4860     7.1690    14.8350  -999.2500   149.7820     8.4310     2.4550    -0.0140
 1898.0000   -21.5810     8.1620     7.1120    14.3090  -999.2500   148.2700     8.4390     2.4560    -0.0120
 1898.5000   -21.6770     8.6250     7.0550    13.3900  -999.2500   146.7580     8.4360     2.4470    -0.0100
 1899.0000   -21.7730     8.1990     6.9980    12.4710  -999.2500   145.1970     8.4310     2.4480    -0.0090
 1899.5000   -21.8690     7.8780     6.9080    11.5520  -999.2500   145.4020     8.4250     2.4520    -0.0070
 1900.0000   -21.9650     7.5220     6.8040    10.6340  -999.2500   146.1730     8.4190     2.4550    -0.0040
 1900.5000   -22.0620     7.0460     6.7010     9.9920  -999.2500   146.9690     8.4140     2.4470    -0.0010
 1901.0000   -22.1580     7.6340     6.5460    11.8620  -999.2500   147.8330     8.4080     2.4390     0.0030
 1901.5000   -22.2540     8.0880     6.5540    12.6220  -999.2500   146.0610     8.4020     2.4310     0.0070
 1902.0000   -22.3500     7.9280     6.5700    12.6890  -999.2500   143.3160     8.3970     2.4260     0.0100
 1902.5000   -22.4460     7.7960     6.5860    12.2830  -999.2500   140.5460     8.3910     2.4320     0.0140
 1903.0000   -22.5440     8.3900     6.6020    11.9730  -999.2500   137.7740     8.3860     2.4380     0.0170
 1903.5000   -22.6420     8.1720     6.6070    11.5750  -999.2500   135.0140     8.3810     2.4440     0.0190
 1904.0000   -22.6130     7.8210     6.6290    11.6600  -999.2500   132.4420     8.3910     2.4400     0.0150
 1904.5000   -22.5750     7.9850     6.6980    11.7890  -999.2500   130.8860     8.4010     2.4350     0.0120
 1905.0000   -22.5360     7.6560     6.7680    11.6020  -999.2500   130.4860     8.4110     2.4310     0.0080
 1905.5000   -22.4990     7.4450     6.8370    11.3980  -999.2500   130.7410     8.4200     2.4280     0.0040
 1906.0000   -22.4710     7.6980     6.9070    11.2600  -999.2500   131.9100     8.4300     2.4300     0.0010
 1906.5000   -22.0940     7.9400     6.9810    11.5390  -999.2500   133.4270     8.4400     2.4310    -0.0030
 1907.0000   -21.8660     7.7240     6.9720    11.7610  -999.2500   134.9460     8.4500     2.4290    -0.0070
