~VERSION INFORMATION
 VERS.                2.0:   CWLS LOG ASCII STANDARD - VERSION 2.0
 WRAP.                 NO:   ONE LINE PER DEPTH STEP
~WELL INFORMATION
#MNEM.UNIT      DATA TYPE    INFORMATION
#----------   ------------   ------------------------------
 STRT.F           42.0000:   START DEPTH
 STOP.F         4542.0000:   STOP DEPTH
 STEP.F            0.5000:   STEP LENGTH
 NULL.          -999.2500:   NO VALUE
 COMP. LAWRENCE ALLISON & ASSOC.:   COMPANY
 WELL. ALLISON NPR 3 #86-27:   WELL
 FLD .                NPR:   FIELD
 LOC .      S27 T39N R78W:   LOCATION
 CNTY.            NATRONA:   COUNTY
 STAT.            WYOMING:   STATE
 CTRY. UNITED STATES OF AMERICA:   COUNTRY
 SRVC.      DRESSER ATLAS:   SERVICE COMPANY
 DATE.        20-MAR-1985:   LOGDATE
 API .     49025110190000:   API NUMBER
~CURVE INFORMATION
#MNEM.UNIT       API CODE    CURVE DESCRIPTION
#----------   ------------   ------------------------------
 DEPT.F                  :   
 CALD.IN     45 280 60 00:   CALIPER FROM DENSITY LOG
 TEND.LBS    45 635 01 00:   TENSION FROM DENSITY LOG
 CORR.G/C3   45 356 01 00:   DENSITY CORRECTION
 RHOB.G/C3   45 350 01 00:   BULK DENSITY
 CNC .DEC    42 890 03 00:   NEUTRON PORISITY SANDSTONE
 TENR.LBS    07 635 01 00:   TENSION FROM RESISTIVITY
 GRR .GAPI   07 310 01 00:   GAMMA RAY FROM RESISTIVITY
 SFL .OHMM   07 220 01 00:   SHALLOW FOCUSED LOG RESISTIVITY
 ILD .OHMM   07 120 46 00:   DEEP INDUCTION RESISTIVITY
 ILM .OHMM   07 120 44 00:   INDUCTION LOG MEDIUM RESISTIVITY
 TENS.LBS    60 635 01 00:   TENSION FROM SONIC LOG
 DT  .US/F   60 520 00 00:   DELTA TIME
 CALS.IN     60 280 50 00:   CALIPER FROM SONIC LOG
 GRS .GAPI   60 310 01 00:   GAMMA RAY FROM SONIC LOG
~PARAMETER INFORMATION
#MNEM.UNIT          VALUE    DESCRIPTION
#----------   ------------   ------------------------------
 EKB .F         5095.0000:   Kelly bushing
 EGL .F         5083.0000:   Ground level
 EDF .F            0.0000:   Drilling floor
 TD  .F         4545.0000:   Total depth
 DATE.        20-MAR-1985:   Date logged
 CLNT.            A2DTECH:   Client Code
 SL  . 292' FEL & 1975' FWL:   Surface Location
 PD  .                 GL:   Permanent Datum
 EPD .F              5083:   Elevation Permanent Datum
 LMF .                 KB:   Log Measured From
 DMF .                 KB:   Drilling Measured From
 DAPD.F                12:   Feet Above Permanent Datum
 DD  .F              4545:   Depth driller
 DL  .F              4533:   Depth logger
 BLI .F              4534:   Bottom log interval
 TLI .F              1045:   Top log interval
 CS1 .IN            8.625:   Casing size
 CBD1.     8.625" @ 1033':   Casing driller 1
 CBL1.F              1045:   Casing logger 1
 BS1 .IN            7.875:   Bit size
 BSD1.F              4545:   Depth drilled with bit1
 DFT .    GEL/KCL/STA/FLO:   Type fluid in hole
 DFD .                9.1:   Density
 DFV .                 30:   Viscosity
 DFPH.                  8:   pH
 DFL .                 12:   Fluid loss
 MSS .           MUD/TANK:   Source of sample
 RMS .OHMM            .46:   Rm
 MST .F                74:   Rm Meas. temp.
 RMF .OHMM            .37:   Rmf
 MFST.F                72:   Rmf Meas. temp.
 RMC .OHMM            .58:   Rmc
 MCST.F                74:   Rmc Meas. temp.
 MFSS.               MEAS:   Source Rmf.
 MCSS.               CALC:   Source Rmc.
 RMB .OHMM            .25:   Rm. at BHT
 BHT .F               138:   BHT.
 TCS .HRS             4.5:   Time Circ. stopped
 MRT .F               138:   Maximum recorded temp.
 LUN .            HL-6274:   Logging unit number
 LUL .           GILLETTE:   Logging unit location
 ENGI.             RAUTIO:   Recorded By
 WITN.             STRONG:   Witnessed by
 ORIG.           5" PRINT:   Origin of data
 UWI .     49025110190000:   Unique Well ID
 DICO. A2D TECHNOLOGIES, INC.:   Digitizing Company
~OTHER INFORMATION
~A   DEPT     CALD       TEND       CORR       RHOB        CNC       TENR        GRR        SFL        ILD        ILM       TENS         DT        CALS        GRS  
# ...
 4060.0000     8.4700   -40.4190     0.0060     2.4240     0.2890    -1.4910   109.7740     5.0880     4.4680     4.3740  -999.2500  -999.2500  -999.2500  -999.2500
 4060.5000     8.4700   -40.4190     0.0270     2.4440     0.2800    -1.4910   112.7380     5.5350     4.5130     4.4380  -999.2500  -999.2500  -999.2500  -999.2500
 4061.0000     8.4700   -40.4190     0.0380     2.4570     0.2670    -1.4910   112.8870     5.7760     4.4800     4.4490  -999.2500  -999.2500  -999.2500  -999.2500
 4061.5000     8.4700   -40.4190     0.0200     2.4540     0.2700    -1.4910   111.1730     5.8460     4.4300     4.4600  -999.2500  -999.2500  -999.2500  -999.2500
 4062.0000     8.4700   -40.4190    -0.0010     2.4430     0.2730    -1.4910   109.4850     5.6520     4.4600     4.4710  -999.2500  -999.2500  -999.2500  -999.2500
 4062.5000     8.4700   -40.4190    -0.0080     2.4340     0.2760    -1.4910   107.5650     5.5310     4.5130     4.4820  -999.2500  -999.2500  -999.2500  -999.2500
 4063.0000     8.4700   -40.4190    -0.0160     2.4260     0.2770    -1.4910   106.4250     5.6670     4.5660     4.4930  -999.2500  -999.2500  -999.2500  -999.2500
 4063.5000     8.4700   -40.4190    -0.0210     2.4180     0.2780    -1.4910   107.9810     5.8030     4.6190     4.5040  -999.2500  -999.2500  -999.2500  -999.2500
 4064.0000     8.4700   -40.4190    -0.0250     2.4150     0.2780    -1.4910   110.6020     5.9390     4.6720     4.5290  -999.2500  -999.2500  -999.2500  -999.2500
 4064.5000     8.4700   -51.8460    -0.0260     2.4220     0.2790    -1.4910   112.9290     6.0670     4.7250     4.5970  -999.2500  -999.2500  -999.2500  -999.2500
 4065.0000     8.4700   -60.3790    -0.0200     2.4280     0.2770    -1.4910   114.7860     6.0160     4.7770     4.6650  -999.2500  -999.2500  -999.2500  -999.2500
 4065.5000     8.4700   -60.3790    -0.0110     2.4250     0.2730    -1.4910   116.4940     5.8330     4.8300     4.7320  -999.2500  -999.2500  -999.2500  -999.2500
 4066.0000     8.4700   -60.3790    -0.0020     2.4240     0.2690    -1.4910   118.3470     5.6340     4.8830     4.8000  -999.2500  -999.2500  -999.2500  -999.2500
 4066.5000     8.4700   -60.3790     0.0050     2.4260     0.2700    -1.4910   120.7640     5.9320     4.9360     4.8590  -999.2500  -999.2500  -999.2500  -999.2500
 4067.0000     8.4700   -60.3790     0.0120     2.4240     0.2770    -1.4910   123.4270     6.2580     4.9790     4.8020  -999.2500  -999.2500  -999.2500  -999.2500
 4067.5000     8.4700   -60.3790     0.0090     2.4230     0.2890    -1.4910   126.0570     6.5330     5.0180     4.7500  -999.2500  -999.2500  -999.2500  -999.2500
 4068.0000     8.4700   -60.3790    -0.0060     2.4210     0.2930    -1.4910   128.6710     6.5330     5.0500     4.6990  -999.2500  -999.2500  -999.2500  -999.2500
 4068.5000     8.4700   -60.3790    -0.0010     2.4310     0.2930    -1.4910   131.3850     6.3540     5.0720     4.6480  -999.2500  -999.2500  -999.2500  -999.2500
 4069.0000     8.4700   -60.3790    -0.0020     2.4440     0.2920    -1.4910   133.8800     6.1710     5.0940     4.5970  -999.2500  -999.2500  -999.2500  -999.2500
 4069.5000     8.4700   -60.3790    -0.0060     2.4590     0.2920    -1.4910   136.7910     5.9870     5.1160     4.6640  -999.2500  -999.2500  -999.2500  -999.2500
 4070.0000     8.4700   -60.3790    -0.0100     2.4660     0.2830    -1.4910   135.9660     5.7390     5.1370     4.7310  -999.2500  -999.2500  -999.2500  -999.2500
 4070.5000     8.4700   -60.3790    -0.0060     2.4640     0.2730    -1.4910   134.8150     5.8840     5.0380     4.7970  -999.2500  -999.2500  -999.2500  -999.2500
 4071.0000     8.4700   -57.7360     0.0010     2.4620     0.2650    -1.4910   132.6080     6.1080     4.9500     4.8590  -999.2500  -999.2500  -999.2500  -999.2500
 4071.5000     8.4700   -54.2810     0.0060     2.4570     0.2700    -1.4910   129.5660     6.4250     4.5960     4.6260  -999.2500  -999.2500  -999.2500  -999.2500
 4072.0000     8.4700   -50.8260     0.0040     2.4490     0.2790    -1.4910   126.4480     7.0340     4.2650     4.4300  -999.2500  -999.2500  -999.2500  -999.2500
 4072.5000     8.4700   -47.3710     0.0000     2.4350     0.2770     4.3690   126.5090     6.8070     3.9020     3.9750  -999.2500  -999.2500  -999.2500  -999.2500
 4073.0000     8.4700   -43.9160     0.0470     2.4180     0.2740     9.6840   132.4280     6.0850     3.4670     3.5630  -999.2500  -999.2500  -999.2500  -999.2500
 4073.5000     8.4700   -40.4600     0.1120     2.3970     0.2740    14.9990   139.9160     5.3620     3.0310     3.1500  -999.2500  -999.2500  -999.2500  -999.2500
 4074.0000     8.4700   -37.0050     0.0990     2.3820     0.2900    20.3150   146.3640     4.6400     2.5160     2.7380  -999.2500  -999.2500  -999.2500  -999.2500
 4074.5000     8.4700   -33.5500    -0.0030     2.3880     0.3020    25.6300   155.2260     3.9030     2.5500     2.3190  -999.2500  -999.2500  -999.2500  -999.2500
 4075.0000     8.4700   -30.0950     0.0060     2.3950     0.3080    30.9460   168.9010     2.6890     2.6180     2.5190  -999.2500  -999.2500  -999.2500  -999.2500
 4075.5000     8.4700   -26.6400     0.0100     2.4070     0.3110    36.2610   185.9670     2.7240     2.6860     2.7210  -999.2500  -999.2500  -999.2500  -999.2500
 4076.0000     8.4700   -23.1850     0.0210     2.4180     0.3050    32.5590   157.5640     3.1880     2.7800     2.9240  -999.2500  -999.2500  -999.2500  -999.2500
 4076.5000     8.4700   -24.6910     0.0150     2.4370     0.2990    23.3780   146.8830     4.9300     2.9490     3.1170  -999.2500  -999.2500  -999.2500  -999.2500
 4077.0000     8.4700   -44.7310     0.0010     2.4410     0.2870    14.1970   123.4830     6.9050     3.5310     3.7430  -999.2500  -999.2500  -999.2500  -999.2500
 4077.5000     8.4700   -60.3790    -0.0110     2.4380     0.2900     5.0150   120.7530     7.8600     4.0870     4.3390  -999.2500  -999.2500  -999.2500  -999.2500
 4078.0000     8.4700   -60.3790    -0.0240     2.4340     0.2940    -1.4910   123.6050     7.3660     4.6420     4.9360  -999.2500  -999.2500  -999.2500  -999.2500
 4078.5000     8.4700   -60.3790    -0.0340     2.4220     0.2960    -1.4910   127.5400     6.7890     5.1370     5.3180  -999.2500  -999.2500  -999.2500  -999.2500
 4079.0000     8.4700   -60.3790    -0.0370     2.4100     0.2970    -1.4910   132.5100     6.8120     5.3590     5.4880  -999.2500  -999.2500  -999.2500  -999.2500
 4079.5000     8.4700   -40.4190    -0.0390     2.4030     0.3090    -1.4910   137.4490     6.8580     5.5310     5.6340  -999.2500  -999.2500  -999.2500  -999.2500
 4080.0000     8.4720   -40.4190    -0.0420     2.4000     0.3090    -1.4910   142.4050     6.9050     5.4070     5.0330  -999.2500  -999.2500  -999.2500  -999.2500
 4080.5000     8.4750   -40.4190    -0.0350     2.3960     0.2980    -1.4910   147.5830     6.0050     5.2990     4.5970  -999.2500  -999.2500  -999.2500  -999.2500
 4081.0000     8.4790   -40.4190    -0.0210     2.3950     0.2920    -1.4910   150.0960     5.1390     5.1440     4.5970  -999.2500  -999.2500  -999.2500  -999.2500
 4081.5000     8.4820   -40.4190    -0.0090     2.4040     0.3000    -1.4910   147.2950     5.1510     4.9160     4.6210  -999.2500  -999.2500  -999.2500  -999.2500
 4082.0000     8.4850   -40.4190     0.0020     2.4230     0.2870    -1.4910   139.0410     5.6810     4.6870     4.6460  -999.2500  -999.2500  -999.2500  -999.2500
 4082.5000     8.4880   -40.4190     0.0020     2.4400     0.3020    -1.4910   136.7810     6.2950     4.5290     4.6700  -999.2500  -999.2500  -999.2500  -999.2500
 4083.0000     8.4910   -60.3790     0.0070     2.4420     0.3090    -1.4910   136.3090     6.5330     4.5960     4.6950  -999.2500  -999.2500  -999.2500  -999.2500
 4083.5000     8.4940   -60.3790     0.0320     2.4420     0.3060    -1.4910   136.5000     6.3680     4.6640     4.7190  -999.2500  -999.2500  -999.2500  -999.2500
 4084.0000     8.4970   -60.3790     0.0520     2.4410     0.3010    -1.4910   136.6770     6.1190     4.7320     4.7430  -999.2500  -999.2500  -999.2500  -999.2500
