~VERSION INFORMATION
 VERS.                2.0:   CWLS LOG ASCII STANDARD - VERSION 2.0
 WRAP.                 NO:   ONE LINE PER DEPTH STEP
~WELL INFORMATION
#MNEM.UNIT      DATA TYPE    INFORMATION
#----------   ------------   ------------------------------
 STRT.F           50.0000:   START DEPTH
 STOP.F         5698.0000:   STOP DEPTH
 STEP.F            0.5000:   STEP LENGTH
 NULL.          -999.2500:   NO VALUE
 COMP. LAWRENCE - ALLISON:   COMPANY
 WELL. LAWRENCE TPX #57-3:   WELL
 FLD .              NPR 3:   FIELD
 LOC .       S3 T38N R78W:   LOCATION
 CNTY.            NATRONA:   COUNTY
 STAT.            WYOMING:   STATE
 CTRY. UNITED STATES OF AMERICA:   COUNTRY
 SRVC.       SCHLUMBERGER:   SERVICE COMPANY
 DATE.        09-AUG-1982:   LOGDATE
 API .     49025108900000:   API NUMBER
~CURVE INFORMATION
#MNEM.UNIT       API CODE    CURVE DESCRIPTION
#----------   ------------   ------------------------------
 DEPT.F                  :   
 TEND.LBS    45 635 01 00:   TENSION FROM DENSITY LOG
 CALD.IN     45 280 60 00:   CALIPER FROM DENSITY LOG
 NPHI.DEC    42 890 03 00:   NEUTRON POROSITY SANDSTONE
 CORR.G/C3   45 356 01 00:   DENSITY CORRECTION
 RHOB.G/C3   45 350 01 00:   BULK DENSITY
 SPR .MV     11 010 01 00:   SPONTANEOUS POTENTIAL FROM RESISTIVITY
 TENR.LBS    11 635 01 00:   TENSION FROM RESISTIVITY
 GRR .GAPI   11 310 01 00:   GAMMA RAY FROM RESISTIVITY
 LLD .OHMM   11 220 10 00:   LATEROLOG DEEP
 LLS .OHMM   11 220 09 00:   LATEROLOG LOG SHALLOW
 MSFL.OHMM   11 270 04 00:   MICRO SPHERICALLY FOCUSED
~PARAMETER INFORMATION
#MNEM.UNIT          VALUE    DESCRIPTION
#----------   ------------   ------------------------------
 EKB .F         5190.0000:   Kelly bushing
 EGL .F         5180.0000:   Ground level
 EDF .F         5189.0000:   Drilling floor
 TD  .F         5686.0000:   Total depth
 CLNT.            A2DTECH:   Client Code
 SL  . 1002' FSL & 2479' FEL:   Surface Location
 PD  .                 GL:   Permanent Datum
 EPD .F              5180:   Elevation Permanent Datum
 LMF .                 KB:   Log Measured From
 DMF .                 KB:   Drilling Measured From
 DAPD.F                10:   Feet Above Permanent Datum
 DATE.        09-AUG-1982:   Date Logged [DD-MMM-YYYY]
 DD  .F              5685:   Depth driller
 DL  .F              5686:   Depth logger
 BLI .F              5683:   Bottom log interval
 TLI .F               494:   Top log interval
 CS1 .IN            9.625:   Casing size
 CBD1.      9.625" @ 500':   Casing driller 1
 CBL1.F               494:   Casing logger 1
 BS1 .IN             8.75:   Bit size
 BSD1.F              5685:   Depth drilled with bit1
 DFT .                KCL:   Type fluid in hole
 DFD .                9.0:   Density
 DFV .                 38:   Viscosity
 DFPH.                8.5:   pH
 DFL .                9.0:   Fluid loss
 MSS .            MUDTANK:   Source of sample
 RMS .OHMM           0.27:   Rm
 MST .F                79:   Rm Meas. temp.
 RMF .OHMM           0.27:   Rmf
 MFST.F                79:   Rmf Meas. temp.
 MFSS.               MEAS:   Source Rmf.
 RMB .OHMM            .13:   Rm. at BHT
 BHT .F               164:   BHT.
 TCS .HRS            1300:   Time Circ. stopped
 MRT .F               164:   Maximum recorded temp.
 LUN .               8035:   Logging unit number
 LUL .               CSPR:   Logging unit location
 ENGI.            PERAKIS:   Recorded By
 WITN.           L. FIVAS:   Witnessed by
 ORIG.        2" 5" PRINT:   Origin of data
 UWI .     49025108900000:   Unique Well ID
 DICO. A2D TECHNIOLOGIES,INC.:   Digitizing Company
 RMC .OHMM           0.41:   Rmc
 MCST.F                79:   Rmc Meas. temp.
 MCSS.               CALC:   Source Rmc.
 TLAB.HRS            2000:   Time logger at bottom
~OTHER INFORMATION
~A  DEPTH     TEND       CALD       NPHI       CORR       RHOB        SPR       TENR        GRR        LLD        LLS       MSFL
# ...
 1849.5000   892.9405     9.9971     0.3700     0.0018     2.4739   -79.2998   852.3099   128.5940     8.7046     8.1270    10.4981
 1850.0000   893.2752    10.0082     0.3679     0.0019     2.4762   -79.3000   852.0180   127.4857     8.6467     8.1281    10.4313
 1850.5000   893.5781    10.0193     0.3675     0.0019     2.4747   -79.2995   836.9498   126.5808     8.4654     8.0733    10.2220
 1851.0000   893.5743    10.0305     0.3714     0.0042     2.4785   -79.5410   851.7190   125.6528     8.1878     7.8556     9.9481
 1851.5000   893.5743    10.0416     0.3696     0.0065     2.4830   -79.9971   851.5695   125.0767     7.8586     7.5912     9.4185
 1852.0000   893.5743    10.0527     0.3626     0.0103     2.4861   -80.3449   851.3916   124.2048     7.5946     7.4886     8.9787
 1852.5000   893.5743    10.0638     0.3526     0.0089     2.4854   -80.4608   851.2471   123.9307     7.5437     7.6510     9.1699
 1853.0000   893.5743    10.0749     0.3518     0.0037     2.4765   -80.5820   866.0864   124.2590     7.7559     7.8668     9.8471
 1853.5000   889.0849    10.0861     0.3538    -0.0022     2.4629   -80.6943   865.9193   126.0987     8.1960     8.1441    10.5339
 1854.0000   881.7843    10.0972     0.3511    -0.0051     2.4528   -80.6234   865.7612   128.5346     8.5428     8.3159    10.9074
 1854.5000   874.4836    10.1080     0.3406    -0.0028     2.4588   -80.5447   865.6166   129.4645     8.7225     8.2612    10.9118
 1855.0000   873.4940    10.1232     0.3366     0.0077     2.4723   -80.4996   850.5231   129.1830     8.6588     7.9295    10.6929
 1855.5000   873.4854    10.1388     0.3354     0.0174     2.4887   -80.5003   850.3737   129.2159     8.5417     7.6637    10.4064
 1856.0000   873.4923    10.1523     0.3360     0.0242     2.4947   -80.4992   835.2515   128.6398     8.3111     7.5093    10.1277
 1856.5000   873.4940    10.1609     0.3423     0.0153     2.4754   -80.5048   835.1069   128.0633     7.9764     7.5631     9.7887
 1857.0000   873.4940    10.1697     0.3539     0.0070     2.4718   -80.2042   834.9624   128.4098     7.7080     7.7232     9.2541
 1857.5000   873.4940    10.1811     0.3668     0.0034     2.4733   -79.7933   849.8017   131.7373     7.7702     7.8322     9.4658
 1858.0000   873.4940    10.1930     0.3716    -0.0018     2.4764   -79.5275   849.6210   137.7877     8.0349     7.7801     9.9374
 1858.5000   873.4940    10.2050     0.3689    -0.0054     2.4749   -79.6390   849.4765   140.2171     8.1472     7.6759     9.8731
 1859.0000   873.4940    10.2169     0.3640    -0.0061     2.4690   -79.7430   849.3273   136.6355     7.9820     7.6258     9.4772
 1859.5000   873.4940    10.2289     0.3604    -0.0053     2.4639   -79.8485   849.1512   133.3485     7.8201     7.6279     8.9110
 1860.0000   873.4940    10.2408     0.3595    -0.0030     2.4602   -79.9528   849.0067   131.5676     7.8212     7.6826     8.4948
 1860.5000   873.4940    10.2517     0.3594    -0.0008     2.4595   -80.0608   848.8622   130.3891     7.8761     7.8452     9.1673
 1861.0000   873.4940    10.2590     0.3613     0.0008     2.4626   -79.8935   848.7177   127.9633     7.8772     7.9559    10.1335
 1861.5000   873.4940    10.2663     0.3681     0.0031     2.4693   -79.5598   833.6254   125.2710     7.8785     8.0129    10.9000
 1862.0000   873.4940    10.2741     0.3690     0.0046     2.4754   -79.3275   833.4809   129.2697     7.9886     8.0150    10.3197
 1862.5000   873.4940    10.2826     0.3632     0.0061     2.4823   -79.5065   833.3333   132.6093     8.2124     8.1281    10.1117
 1863.0000   873.4940    10.2896     0.3596     0.0077     2.4853   -79.7654   833.1556   133.2380     8.4424     8.3569    10.2571
 1863.5000   873.4940    10.2836     0.3565     0.0093     2.4824   -80.0191   818.0634   131.7582     8.6789     8.5400    10.5479
 1864.0000   873.4940    10.2777     0.3528     0.0115     2.4765   -80.3004   817.9189   128.1701     8.7399     8.5950    10.6985
 1864.5000   873.4940    10.2719     0.3478     0.0153     2.4795   -80.5898   817.7744   121.2687     8.7411     8.4218    10.9263
 1865.0000   873.4940    10.2661     0.3438     0.0191     2.4877   -80.8863   817.6298   120.0901     8.5641     8.3090    10.9308
 1865.5000   873.4940    10.2603     0.3366     0.0258     2.4968   -80.9004   817.4853   121.8599     8.1629     8.0859    10.7865
 1866.0000   873.4940    10.2545     0.3300     0.0274     2.4946   -80.9260   817.3393   131.5951     7.7272     7.9224     8.7761
 1866.5000   873.4940    10.2465     0.3338     0.0163     2.4677   -79.8488   817.1601   136.7419     7.6224     7.7633     7.7557
 1867.0000   873.4940    10.2293     0.3455     0.0081     2.4446   -79.8187   817.0156   139.1778     7.7292     7.8240     8.3696
 1867.5000   873.4940    10.2124     0.3643    -0.0009     2.4357   -79.7511   816.8710   136.1921     7.8922     8.0395     9.9466
 1868.0000   873.4940    10.2027     0.3749    -0.0067     2.4402   -79.6815   816.7265   131.7003     8.0658     8.1530    10.9580
 1868.5000   873.4940    10.1942     0.3728    -0.0022     2.4537   -79.6124   816.5819   127.8109     8.2260     8.2114    10.4435
 1869.0000   873.4940    10.1885     0.3712     0.0053     2.4649   -79.5433   816.4374   126.9277     8.2271     8.2136    10.0867
 1869.5000   873.4940    10.1856     0.3739     0.0084     2.4657   -79.4742   816.2928   126.6587     8.2282     8.3869     9.9625
 1870.0000   873.4940    10.1827     0.3775     0.0039     2.4531   -79.4050   814.1505   127.2940     8.2860     8.5053    10.0364
 1870.5000   873.4940    10.1798     0.3783     0.0010     2.4538   -79.3351   816.0037   128.8263     8.4598     8.6892    10.2501
 1871.0000   873.4940    10.1769     0.3735     0.0011     2.4598   -79.2587   815.8231   130.6598     8.6979     8.8687    10.6869
 1871.5000   873.4940    10.1740     0.3669     0.0049     2.4711   -79.1739   815.6786   133.9994     8.9404     8.9938    11.2194
 1872.0000   873.4940    10.1711     0.3623     0.0101     2.4867   -79.1188   815.5340   137.3389     9.0035     8.9962    11.4583
 1872.5000   873.4940    10.1700     0.3674     0.0072     2.4808   -79.2908   830.3733   140.6785     9.0047     8.9986    11.4629
 1873.0000   873.4940    10.1700     0.3686     0.0013     2.4667   -79.2621   830.1926   140.1003     9.0059     8.9387    11.3106
 1873.5000   873.4940    10.1700     0.3619    -0.0031     2.4526   -79.2186   815.0972   138.5452     8.9876     8.8804    11.2374
 1874.0000   873.4940    10.1700     0.3568    -0.0046     2.4466   -79.1752   829.8674   136.8417     8.9466     8.9441    11.0131
 1874.5000   873.4940    10.1700     0.3625    -0.0030     2.4631   -79.1335   829.7228   137.4770     8.9478     9.0709    10.9407
 1875.0000   874.7490    10.1687     0.3691     0.0015     2.4788   -79.1544   829.5784   138.7081     8.9593     9.1359    10.7964
 1875.5000   881.1370    10.1660     0.3738     0.0054     2.4862   -79.4727   829.4338   136.9272     9.0122     9.0751    10.8754
 1876.0000   887.5251    10.1633     0.3744     0.0105     2.4751   -79.7855   829.2892   134.2426     9.0134     8.9536    10.8798
 1876.5000   893.5743    10.1607     0.3672     0.0121     2.4707   -80.0981   844.0956   133.0241     8.7701     8.7137    10.8094
 1877.0000   893.5743    10.1580     0.3584     0.0114     2.4700   -80.4115   843.9462   136.7049     8.5334     8.4215    10.6533
 1877.5000   893.5743    10.1553     0.3659     0.0085     2.4722   -80.7001   843.7672   140.4167     8.4761     8.3661    10.1688
 1878.0000   893.5743    10.1526     0.3752     0.0048     2.4753   -80.5788   843.6227   139.4749     8.5373     8.5432     9.8954
 1878.5000   893.5743    10.1501     0.3770     0.0019     2.4784   -80.4359   843.4781   138.2964     8.6652     8.7235    10.3894
 1879.0000   893.5743    10.1500     0.3715    -0.0011     2.4768   -80.2937   843.3336   136.5154     8.7762     8.9076    10.7567
 1879.5000   893.5743    10.1500     0.3640    -0.0009     2.4694   -80.1522   843.1891   135.9327     8.8989     9.0333     9.9083
