~VERSION INFORMATION
 VERS.                2.0:   CWLS LOG ASCII STANDARD - VERSION 2.0
 WRAP.                 NO:   ONE LINE PER DEPTH STEP
~WELL INFORMATION
#MNEM.UNIT      DATA TYPE    INFORMATION
#----------   ------------   ------------------------------
 STRT.F          200.0000:   START DEPTH
 STOP.F         3248.0000:   STOP DEPTH
 STEP.F            0.5000:   STEP LENGTH
 NULL.          -999.2500:   NO VALUE
 COMP.    FENIX & SCISSON:   COMPANY
 WELL.   FENIX "AX" #28-3:   WELL
 FLD .              NPR-3:   FIELD
 LOC .       S3 T38N R78W:   LOCATION
 CNTY.            NATRONA:   COUNTY
 STAT.            WYOMING:   STATE
 CTRY. UNITED STATES OF AMERICA:   COUNTRY
 SRVC.              WELEX:   SERVICE COMPANY
 DATE.        30-JUN-1977:   LOGDATE
 API .     49025104200000:   API NUMBER
~CURVE INFORMATION
#MNEM.UNIT       API CODE    CURVE DESCRIPTION
#----------   ------------   ------------------------------
 DEPT.F                  :   
 CALD.IN     45 280 60 00:   CALIPER FROM DENSITY LOG
 GRD .GAPI   45 310 01 00:   GAMMA RAY FROM DENSITY LOG
 RHOB.G/C3   45 350 01 00:   BULK DENSITY
 CORR.G/C3   45 356 01 00:   DENSITY CORRECTION
 SPR .MV     07 010 01 00:   SPONTANEOUS POTENTIAL
 ILD .OHMM   07 120 46 00:   DEEP INDUCTION RESISTIVITY
 ILM .OHMM   07 120 44 00:   INDUCTION LOG MEDIUM RESISTIVITY
 SGRD.OHMM   07 220 05 00:   SHALLOW SHORT GUARD RESISTIVITY
~PARAMETER INFORMATION
#MNEM.UNIT          VALUE    DESCRIPTION
#----------   ------------   ------------------------------
 EKB .F         4969.0000:   Kelly bushing
 EGL .F         4959.0000:   Ground level
 TD  .F         3250.0000:   Total depth
 CLNT.            A2DTECH:   Client Code
 SL  . 500' FSL & 800' FWL:   Surface Location
 PD  .                 GL:   Permanent Datum
 EPD .F              4959:   Elevation Permanent Datum
 LMF .                 KB:   Log Measured From
 DMF .                 KB:   Drilling Measured From
 DAPD.F                10:   Feet Above Permanent Datum
 DATE.        30-JUN-1977:   Date Logged [DD-MMM-YYYY]
 DD  .F              3250:   Depth driller
 DL  .F              3250:   Depth logger
 BLI .F              3248:   Bottom log interval
 TLI .F               200:   Top log interval
 CS1 .IN            8.625:   Casing size
 CBD1.      8.625" @ 217':   Casing driller 1
 CBL1.F               225:   Casing logger 1
 BS1 .IN            7.875:   Bit size
 BSD1.F              3250:   Depth drilled with bit1
 DFT .                KCL:   Type fluid in hole
 DFD .                8.9:   Density
 RMS .OHMM           1.76:   Rm
 MST .F                63:   Rm Meas. temp.
 TCS .HRS             2.5:   Time Circ. stopped
 MRT .F                68:   Maximum recorded temp.
 LUN .               8611:   Logging unit number
 ENGI.         G. BENTSEN:   Recorded By
 WITN.         PETTINGILL:   Witnessed by
 ORIG.         2.5" PRINT:   Origin of data
 UWI .     49025104200000:   Unique Well ID
 DICO. A2D TECHNOLOGIES, INC.:   Digitizing Company
 DFV .                 30:   Viscosity
 DFPH.                  7:   pH
 DFL .                 10:   Fluid loss
 MSS .                PIT:   Source of sample
 RMF .OHMM           1.09:   Rmf
 MFST.F                68:   Rmf Meas. temp.
 MFSS.               MEAS:   Source Rmf.
 RMC .OHMM           2.01:   Rmc
 MCST.F                68:   Rmc Meas. temp.
 MCSS.               MEAS:   Source Rmc.
 RMB .OHMM           1.01:   Rm. at BHT
 BHT .F               118:   BHT.
 LUL .             CASPER:   Logging unit location
~OTHER INFORMATION
~A   DEPT       CALD       GRD        RHOB      CORR       SPR        ILD        ILM       SGRD   
# ...
 1617.5000     8.3618   107.3015     2.5160     0.0196   -56.6113     8.1584     9.2314    10.4089
 1618.0000     8.3608   107.2868     2.5109     0.0194   -56.0206     8.1591     9.2320    10.5540
 1618.5000     8.3598   107.2721     2.5019     0.0165   -55.7249     8.1596     9.2327    10.7011
 1619.0000     8.3588   106.6550     2.4996     0.0164   -55.7242     8.1602     9.1074    10.5568
 1619.5000     8.3576   106.0378     2.5104     0.0149   -55.7235     8.1608     9.1080    10.4145
 1620.0000     8.3566   106.0231     2.5213     0.0148   -55.7227     8.1614     9.2345    10.5597
 1620.5000     8.3556   106.0084     2.5257     0.0153   -55.7220     8.1620     9.2351    10.8546
 1621.0000     8.3546   105.3913     2.5224     0.0163   -55.7212     8.1625     9.2358    11.1578
 1621.5000     8.3536   105.3765     2.5333     0.0163   -55.7205     8.0517     9.2364    10.9915
 1622.0000     8.3526   105.3614     2.5458     0.0184   -55.7198     8.0523     9.2370    10.7112
 1622.5000     8.3516   105.3464     2.5490     0.0193   -55.7190     8.0529     9.2376    10.7127
 1623.0000     8.3506   105.2429     2.5484     0.0192   -55.7183     8.0534     8.9881    10.8619
 1623.5000     8.3496   104.7139     2.5361     0.0192   -55.7176     8.0540     8.9887    10.7155
 1624.0000     8.3485   104.6988     2.5238     0.0167   -55.7168     8.0545     8.9893    10.7926
 1624.5000     8.3475   104.6837     2.5176     0.0146   -55.7161     8.0550     9.0061    11.0165
 1625.0000     8.3465   103.8655     2.5115     0.0130   -55.7153     8.0556     9.1148    11.0180
 1625.5000     8.3455   102.6176     2.5080     0.0114   -55.7146     8.0561     8.9911    11.0763
 1626.0000     8.3444   101.3694     2.5252     0.0114   -55.7137     8.1680     8.9918    11.3919
 1626.5000     8.3434   100.1215     2.5359     0.0129   -56.0081     8.1686     8.9924    10.8873
 1627.0000     8.3424    99.7892     2.5343     0.0129   -56.0073     8.0578     8.9930    10.7259
 1627.5000     8.3414    99.7741     2.5328     0.0159   -56.3015     8.0583     8.9937    10.6495
 1628.0000     8.3404   100.9610     2.5376     0.0174   -56.3008     7.9490     8.9943    10.3573
 1628.5000     8.3393   102.7535     2.5434     0.0189   -56.5951     7.9496     8.9949    10.2981
 1629.0000     8.3383   103.9436     2.5419     0.0189   -56.5944     7.9501     8.9955    10.4419
 1629.5000     8.3371   104.5331     2.5456     0.0188   -56.5936     7.9507     8.9961    10.5874
 1630.0000     8.3361   105.1205     2.5533     0.0188   -56.5929     7.9512     8.8741    10.3025
 1630.5000     8.3059   104.5019     2.5556     0.0188   -56.5922     7.9518     8.9974    10.3039
 1631.0000     8.3049   104.4872     2.5468     0.0187   -56.2965     7.9523     8.9981    10.4475
 1631.5000     8.3039   104.4725     2.5411     0.0187   -56.2957     7.9529     9.1231    10.4489
 1632.0000     8.3029   105.0601     2.5408     0.0187   -56.2950     7.9534     9.1237    10.3080
 1632.5000     8.3019   105.6677     2.5447     0.0187   -56.2942     8.0640     9.1243    10.4517
 1633.0000     8.3009   106.8379     2.5447     0.0186   -56.2935     8.0645     9.2510    10.7436
 1633.5000     8.2999   106.8223     2.5447     0.0186   -56.2928     8.0651     9.6406    11.1982
 1634.0000     8.2988   106.8072     2.5431     0.0186   -56.2920     8.1771     9.9096    11.3521
 1634.5000     8.2978   106.7922     2.5385     0.0170   -56.2913     8.1776    10.0472    11.0327
 1635.0000     8.2675   106.7771     2.5323     0.0170   -56.2906     8.0667     9.9109    10.7494
 1635.5000     8.2665   105.9709     2.5292     0.0154   -55.9948     8.0672     9.9116    10.4601
 1636.0000     8.2733   105.5422     2.5246     0.0145   -55.9941     8.0678    10.0492    10.4925
 1636.5000     8.2939   105.5271     2.5230     0.0138   -55.9934     8.0683    10.1902    10.6446
 1637.0000     8.2927   105.5120     2.5368     0.0123   -55.9925     7.9589    10.3303    10.5666
 1637.5000     8.2917   106.7018     2.5521     0.0122   -55.6968     7.9594    10.1559    10.4657
 1638.0000     8.2906   107.3455     2.5612     0.0137   -55.6961     7.9556     9.3699    10.6665
 1638.5000     8.2896   109.0783     2.5658     0.0168   -55.6953     7.8520     9.0072    11.0588
 1639.0000     8.2886   109.6660     2.5673     0.0183   -55.6946     7.8525     8.9841    10.9248
 1639.5000     8.2874   110.2560     2.5655     0.0182   -55.6939     7.8531     9.0085    10.4014
 1640.0000     8.2864   111.4458     2.5573     0.0182   -55.6932     7.8536     9.0091    10.1900
 1640.5000     8.2854   112.0331     2.5215     0.0151   -55.6924     7.8541     8.9725    10.2720
 1641.0000     8.2844   112.6205     2.4911     0.0120   -55.6917     7.8547     8.7662    10.4763
 1641.5000     8.2834   113.2078     2.4860     0.0120   -55.6910     7.8900     8.7669    10.1944
 1642.0000     8.2824   112.5898     2.4990     0.0120   -55.7031     7.9643     8.7675    10.1958
 1642.5000     8.2814   112.5751     2.5084     0.0118   -56.0103     7.9649     8.7681    10.1971
 1643.0000     8.2804   111.3473     2.5147     0.0088   -56.3176     7.9654     8.8899    10.3392
 1643.5000     8.3086   109.4970     2.5171     0.0106   -56.5731     7.9660     8.8906    10.1999
 1644.0000     8.3076   108.2491     2.5210     0.0118   -56.5723     7.9665     9.0140    10.2012
 1644.5000     8.3066   107.6958     2.5241     0.0122   -56.8666     7.9671     9.0148    10.2026
 1645.0000     8.3056   107.8011     2.5295     0.0137   -56.8658     7.9677     9.0154    10.3448
 1645.5000     8.3077   108.4167     2.5347     0.0168   -57.1602     7.9683     9.0160    10.4890
 1646.0000     8.3329   108.8576     2.5408     0.0178   -57.2763     7.8601     9.0166    10.2067
 1646.5000     8.3317   109.4453     2.5469     0.0184   -57.4535     7.8607     9.1418    10.0619
 1647.0000     8.3307   110.0330     2.5484     0.0199   -57.7478     7.8612     9.2688     9.9334
 1647.5000     8.3297   110.8785     2.5484     0.0215   -57.7471     7.8617     9.2694     9.9531
 1648.0000     8.3287   111.2048     2.5346     0.0223   -57.7463     7.9709     9.3982    10.2123
 1648.5000     8.3276   111.1898     2.5340     0.0238   -57.7454     7.9715     9.3988    10.2137
 1649.0000     8.3266   111.1747     2.5360     0.0238   -57.7447     7.9720     9.2713    10.2151
 1649.5000     8.3254   111.1568     2.5238     0.0237   -57.7440     7.9725     9.2719    10.2165
 1650.0000     8.3244   111.1421     2.5130     0.0237   -57.7433     7.9731     9.2726    10.2179
 1650.5000     8.3526   111.1274     2.4977     0.0237   -57.7425     7.9736     9.1468    10.3604
 1651.0000     8.3516   109.9079     2.5010     0.0236   -57.7418     7.9742     9.2738    10.2207
 1651.5000     8.3507   109.2907     2.5072     0.0231   -57.7411     8.0849     9.4169    10.3510
 1652.0000     8.3496   108.6736     2.5152     0.0224   -57.4454     8.0855     9.5525    10.7252
 1652.5000     8.3486   108.6589     2.5205     0.0218   -57.4447     8.1084     9.6657    10.8012
 1653.0000     8.3769   108.0418     2.5170     0.0212   -57.4440     8.1984     9.6663    10.5105
 1653.5000     8.3759   108.0271     2.5159     0.0204   -57.4607     8.1989     9.6670    10.3692
 1654.0000     8.3749   108.0123     2.5174     0.0204   -57.7375     8.1995     9.8013    10.3706
 1654.5000     8.3738   108.6000     2.5262     0.0219   -58.0318     8.2001     9.9827    10.5151
 1655.0000     8.3728   109.2671     2.5324     0.0219   -58.0875     8.3140    10.2146    10.6616
 1655.5000     8.3718   110.4849     2.5378     0.0218   -58.3253     8.3145    10.1592    10.8102
 1656.0000     8.3708   111.1005     2.5457     0.0233   -58.3245     8.4300     9.8040    11.1121
 1656.5000     8.3697   112.3183     2.5526     0.0233   -58.0288     8.4306     9.4771    10.9622
 1657.0000     8.3687   112.7433     2.5601     0.0263   -58.0280     8.4312     9.2815    10.8145
 1657.5000     8.3677   111.9025     2.5662     0.0278   -57.9056     8.4319     9.2821    10.8160
