~VERSION INFORMATION
 VERS.                2.0:   CWLS LOG ASCII STANDARD - VERSION 2.0
 WRAP.                 NO:   ONE LINE PER DEPTH STEP
~WELL INFORMATION
#MNEM.UNIT      DATA TYPE    INFORMATION
#----------   ------------   ------------------------------
 STRT.F           10.0000:   START DEPTH
 STOP.F         3234.0000:   STOP DEPTH
 STEP.F            0.5000:   STEP LENGTH
 NULL.          -999.2500:   NO VALUE
 COMP. LAWRENCE ALLISON & ASSOSCIATES:   COMPANY
 WELL. 		  38-X-10:   WELL
 FLD .             NPR #3:   FIELD
 LOC .      S10 T38N R78W:   LOCATION
 CNTY.            NATRONA:   COUNTY
 STAT.            WYOMING:   STATE
 CTRY. UNITED STATES OF AMERICA:   COUNTRY
 SRVC.      DRESSER ATLAS:   SERVICE COMPANY
 DATE.        02-AUG-1986:   LOGDATE
 API .       490251120600:   API NUMBER
~CURVE INFORMATION
#MNEM.UNIT       API CODE    CURVE DESCRIPTION
#----------   ------------   ------------------------------
 DEPT.F                  :   
 GRR .GAPI   07 310 01 00:   GAMMA RAY FROM RESISTIVITY
 SPR .MV     07 010 01 00:   SPONTANEOUS POTENTIAL
 TENR.LBS    07 635 01 00:   TENSION FROM RESISTIVITY
 RILM.OHMM   07 120 44 00:   RESISTIVITY INDUCTION LOG MEDIUM
 CNC .DEC    42 890 03 00:   NEUTRON POROSITY SANDSTONE
 CALD.IN     45 280 60 00:   CALIPER FROM DENSITY LOG
 GRD .GAPI   45 310 01 00:   GAMMA RAY FROM DENSITY LOG
 RHOB.G/C3   45 350 01 00:   BULK DENSITY
 TEND.LBS    45 635 01 00:   TENSION FORM DENSITY LOG
 CORR.G/C3   45 356 01 00:   DENSITY CORRECTION
 RILD.OHMM   07 120 46 00:   RESISTIVITY INDUCTION LOG DEEP
 RFOC.OHMM   07 220 04 00:   RESISTIVITY FOCUSED
~PARAMETER INFORMATION
#MNEM.UNIT          VALUE    DESCRIPTION
#----------   ------------   ------------------------------
 EKB .F         5224.0000:   Kelly bushing
 EGL .F         5212.0000:   Ground level
 EDF .F            0.0000:   Drilling floor
 TD  .F         3231.0000:   Total depth
 CLNT.            A2DTECH:   Client Code
 SL  . 296' FSL & 1435' FWL:   Surface Location
 PD  .                 GL:   Permanent Datum
 EPD .F              5212:   Elevation Permanent Datum
 LMF .                 KB:   Log Measured From
 DMF .                 KB:   Drilling Measured From
 DAPD.F                12:   Feet Above Permanent Datum
 DATE.        02-AUG-1986:   Date Logged [DD-MMM-YYYY]
 DD  .F              3230:   Depth driller
 DL  .F              3231:   Depth logger
 BLI .F              3229:   Bottom log interval
 TLI .F                11:   Top log interval
 CS1 .IN            8.625:   Casing size
 CBD1.      8.625" @ 626':   Casing driller 1
 CBL1.F               626:   Casing logger 1
 BS1 .IN            7.875:   Bit size
 BSD1.F              3230:   Depth drilled with bit1
 DFT .            KCL-GEL:   Type fluid in hole
 DFD .                  9:   Density
 DFV .                 36:   Viscosity
 DFPH.               10.5:   pH
 DFL .                 12:   Fluid loss
 MSS .           FLOWLINE:   Source of sample
 RMS .OHMM          0.263:   Rm
 MST .F               100:   Rm Meas. temp.
 RMF .OHMM          0.197:   Rmf
 MFST.F               100:   Rmf Meas. temp.
 MFSS.               MEAS:   Source Rmf.
 RMC .OHMM          0.329:   Rmc
 MCST.F               100:   Rmc Meas. temp.
 MCSS.               CALC:   Source Rmc.
 RMB .OHMM          0.193:   Rm. at BHT
 BHT .F               136:   BHT.
 TCS .HRS               5:   Time Circ. stopped
 MRT .F               136:   Maximum recorded temp.
 LUN .            HL-6274:   Logging unit number
 LUL .           GILLETTE:   Logging unit location
 ENGI.            PANASUK:   Recorded By
 WITN.             STRONG:   Witnessed by
 ORIG.        2" 5" PRINT:   Origin of data
 UWI .       490251120600:   Unique Well ID
 DICO. A2D TECHNOLOGIES, INC.:   Digitizing Company
~OTHER INFORMATION
~A   DEPT       GRR       SPR       TENR       RILM        CNC       CALD        GRD       RHOB       TEND       CORR       RILD       RFOC   
# ...
 2474.0000   126.8354   -41.4431    -2.1804  -999.2500     0.2510     9.8945   124.1636     2.5215   -17.5833     0.0412     3.2990     5.6949
 2474.5000   130.9946   -41.6560    -9.5336  -999.2500     0.2568     9.8947   128.2803     2.5215   -25.2337     0.0533     3.2450     5.2376
 2475.0000   134.5284   -41.7549   -20.6767  -999.2500     0.2838     9.8948   132.2254     2.5170   -25.3539     0.0488     3.1107     4.7926
 2475.5000   139.2027   -41.7608   -33.0812  -999.2500     0.2926     9.8950   135.5652     2.5117   -10.4139     0.0411     3.0609     4.1141
 2476.0000   140.8057   -41.7650   -39.1729  -999.2500     0.2898     9.8952   139.2077     2.5065    -3.0040    -0.0041     3.0068     3.3333
 2476.5000   137.8135   -41.6185   -39.0226  -999.2500     0.2785     9.9105   140.1270     2.5163    -3.1543    -0.0071     2.9514     3.6305
 2477.0000   134.0474   -41.6245   -40.2225  -999.2500     0.2719     9.9259   136.5106     2.5300   -10.8047     0.0051     2.8730     3.9352
 2477.5000   133.6926   -41.5630   -46.2406  -999.2500     0.2728     9.9261   132.8914     2.5368   -33.5153     0.0096     2.8445     4.2357
 2478.0000   138.1011   -41.4658   -46.0902  -999.2500     0.2855     9.9262   134.4158     2.5308   -41.1657     0.0127     2.7921     4.2774
 2478.5000   140.0704   -41.3364   -47.3688  -999.2500     0.2937     9.9264   138.0583     2.5239   -48.8203     0.0127     2.7891     3.8413
 2479.0000   141.2737   -41.2713   -53.3082  -999.2500     0.2958     9.9113   141.3981     2.5187   -48.9663     0.0143     2.7871     3.3936
 2479.5000   136.7342   -41.1741   -53.1579  -999.2500     0.2946     9.9115   139.2365     2.5172   -41.5264     0.0219     2.7846     3.3755
 2480.0000   135.3905   -40.8982   -53.0075  -999.2500     0.2906     9.8964   135.3728     2.5188   -41.6767     0.0280     2.8579     3.5575
 2480.5000   134.2147   -40.8285   -52.8455  -999.2500     0.2845     9.8965   134.1712     2.5233   -49.3270     0.0265     2.8872     3.8413
 2481.0000   133.3916   -40.7312   -52.7068  -999.2500     0.2815     9.8966   133.8802     2.5302   -49.4478     0.0160     3.0121     3.9479
 2481.5000   132.3307   -40.6102   -52.5564  -999.2500     0.2836     9.8968   133.5892     2.5380   -49.5976     0.0053     3.1534     4.0644
 2482.0000   130.0403   -40.6152   -52.3952  -999.2500     0.2836     9.8970   133.3011     2.5491   -49.7178    -0.0006     3.2968     4.0614
 2482.5000   124.0067   -40.6203   -52.2557  -999.2500     0.2833     9.8971   131.4527     2.5544   -49.8381     0.0070     3.4733     4.1351
 2483.0000   117.8904   -40.6257   -52.1053  -999.2500     0.2823     9.8973   127.5784     2.5575   -49.9583     0.0055     3.6770     4.3009
 2483.5000   113.1291   -40.7816   -51.9450  -999.2500     0.2807     9.8974   119.4205     2.5635   -42.5452     0.0040     3.8643     4.9643
 2484.0000   108.8817   -40.7867   -51.8045  -999.2500     0.2678     9.8976   112.4710     2.5765   -42.6707     0.0071     3.9892     5.6129
 2484.5000   110.2969   -40.7920   -51.6541  -999.2500     0.2438     9.8977   108.2476     2.5901   -42.8190     0.0163     4.0491     6.0507
 2485.0000   113.4222   -40.8836   -51.4948  -999.2500     0.2386     9.8979   110.6826     2.5856   -50.4694     0.0223     4.1224     5.9432
 2485.5000   117.3215   -41.1044   -51.3534  -999.2500     0.2520     9.8980   114.3251     2.5674   -58.1197     0.0269     4.1961     5.5463
 2486.0000   124.5268   -41.2609   -51.2030  -999.2500     0.2685     9.9134   117.6650     2.5440   -58.2399     0.0254     4.2689     5.0515
 2486.5000   131.1001   -41.4170   -51.0445  -999.2500     0.2783     9.9441   126.4511     2.5281   -58.3602     0.0179     4.2666     4.6458
 2487.0000   134.2206   -41.5734   -43.3835  -999.2500     0.2752     9.9595   132.8614     2.5244   -43.4202     0.0240     4.2640     4.3711
 2487.5000   132.5025   -41.4273   -41.3549  -999.2500     0.2710     9.9596   134.6467     2.5365   -36.0103     0.0224     4.3373     4.4190
 2488.0000   127.5260   -41.4322   -35.5567  -999.2500     0.2631     9.9598   128.3042     2.5448   -36.1606     0.0074     4.3349     5.0176
 2488.5000   120.6061   -41.4372   -35.4135  -999.2500     0.2503     9.9599   122.8695     2.5479   -51.3411     0.0044     4.3323     5.6891
 2489.0000   118.3585   -41.2910   -27.7444  -999.2500     0.2455     9.9601   119.5528     2.5479   -58.9914     0.0105     4.3298     5.8477
 2489.5000   116.7997   -41.1966   -27.5877  -999.2500     0.2437     9.9602   117.4464     2.5464   -66.6418     0.0151     4.3273     5.3136
 2490.0000   116.0696   -40.0306   -40.0205     4.6517     0.2476     9.9604   116.5503     2.5442   -66.7921     0.0091     4.6090     5.0581
 2490.5000   116.8982   -40.0364   -24.4277     4.8485     0.2612     9.9605   116.2593     2.5480   -59.3522    -0.0005     5.0446     5.0668
 2491.0000   116.5806   -40.0424   -39.9397     4.5767     0.2633     9.9607   115.9683     2.5518   -59.5025    -0.0090     5.1499     5.3561
 2491.5000   115.9628   -40.2010   -47.8314     4.2743     0.2630     9.9608   115.6803     2.5541   -67.1529    -0.0105     4.6690     5.7819
 2492.0000   115.0421   -40.2069   -25.6023     4.0414     0.2666     9.9610   114.1790     2.5526   -67.2731    -0.0074     4.3229     5.9880
 2492.5000   114.7273   -40.2127   -26.0541     3.9841     0.2748     9.9612   114.1956     2.5458   -67.3946     0.0047     4.1724     5.8605
 2493.0000   119.2582   -40.5216   -41.4759     4.1817     0.2784     9.9613   117.5333     2.5375   -67.5236     0.0184     4.0856     5.3890
 2493.5000   124.3981   -40.5274   -56.8976     4.3586     0.2793     9.9614   121.7810     2.5383   -67.6638     0.0472     4.1702     4.7524
 2494.0000   125.2984   -40.2302   -49.7289     4.5140     0.2832     9.9616   122.7003     2.5436   -60.2239     0.0548     4.1983     4.3701
 2494.5000   121.6475   -39.7815   -35.0301     4.7020     0.2847     9.9617   120.8964     2.5504   -60.3742     0.0373     4.2853     4.3158
 2495.0000   120.1206   -39.9403   -27.8615     4.9009     0.2671     9.9619   117.8823     2.5588   -60.4945     0.0110     4.3744     5.3522
 2495.5000   118.8968   -40.0976   -28.2379     5.0376     0.2561     9.9621   116.6603     2.5588   -60.6175    -0.0071     4.5280     6.0608
 2496.0000   118.2788   -40.1034   -36.2048     5.1781     0.2510     9.9622   116.0900     2.5596   -60.7650     0.0005     4.7601     6.4971
 2496.5000   118.2645   -40.1093   -51.6265     5.2856     0.2571     9.9624   116.1045     2.5619   -60.8852     0.0156     4.9886     6.2297
 2497.0000   118.2528   -40.1152   -59.5182     5.4725     0.2601     9.9625   115.5110     2.5642   -61.0055     0.0247     5.1638     5.9732
 2497.5000   117.3321   -40.1224   -59.8795     5.7819     0.2622     9.9614   114.9145     2.5649   -68.6559     0.0278     5.2712     5.8893
 2498.0000   115.8052   -40.1282   -60.2410     6.1111     0.2634     9.9476   114.6263     2.5657   -68.7761     0.0157     5.3812     6.0559
 2498.5000   114.2784   -40.1340   -60.6174     6.3259     0.2649     9.9477   114.3355     2.5657   -68.9006     0.0037     5.4927     6.4007
 2499.0000   112.7355   -39.9869   -53.4337     6.1070     0.2673     9.9326   112.8371     2.5671   -61.4864    -0.0023     5.5292     6.2231
 2499.5000   110.6158   -39.9942   -46.2651     5.8552     0.2682     9.9328   110.7307     2.5657   -61.6368    -0.0144     5.5661     6.0930
 2500.0000   109.0919   -39.8485   -50.3980     5.6138     0.2667     9.9634   108.3217     2.5582   -61.1969    -0.0265     5.5637     6.2206
 2500.5000   112.1076   -39.8545   -61.7470     5.6118     0.2651     9.9634   109.5378     2.5491   -57.8773    -0.0204     5.5619     6.3952
 2501.0000   113.3110   -40.0131   -61.7470     5.6095     0.2648     9.9482   111.9643     2.5415   -54.7975    -0.0158     5.5214     6.4387
 2501.5000   111.7812   -40.0189   -46.6867     5.5301     0.2648     9.9177   110.7599     2.5358   -55.1603    -0.0264     5.4812     6.5278
