~VERSION INFORMATION
 VERS.                2.0:   CWLS LOG ASCII STANDARD - VERSION 2.0
 WRAP.                 NO:   ONE LINE PER DEPTH STEP
~WELL INFORMATION
#MNEM.UNIT      DATA TYPE    INFORMATION
#----------   ------------   ------------------------------
 STRT.F           58.0000:   START DEPTH
 STOP.F         5662.0000:   STOP DEPTH
 STEP.F            0.5000:   STEP LENGTH
 NULL.          -999.2500:   NO VALUE
 COMP. DEPARTMENT OF ENERGY:   COMPANY
 WELL. DEPARTMENT NPR 3 67 "X" #1-10:   WELL
 FLD .              NPR 3:   FIELD
 LOC .      S10 T38N R78W:   LOCATION
 CNTY.            NATRONA:   COUNTY
 STAT.            WYOMING:   STATE
 CTRY. UNITED STATES OF AMERICA:   COUNTRY
 SRVC.       SCHLUMBERGER:   SERVICE COMPANY
 DATE.        05-FEB-2002:   LOGDATE
 API .     49025230400000:   API NUMBER
~CURVE INFORMATION
#MNEM.UNIT       API CODE    CURVE DESCRIPTION
#----------   ------------   ------------------------------
 DEPT.F                  :   
 TEND.LBS    45 635 01 00:   TENSION FROM DENSITY LOG
 PEFZ.B/E    45 358 01 00:   HILT PHOTOELECTRIC FACTOR
 HDRA.G/C3   45 356 01 00:   DELTA RHO HIP TOOL
 NPHI.DEC    42 890 03 00:   NEUTRON POROSITY SANDSTONE
 TENS.LBS    60 635 01 00:   TENSION
 DT  .US/F   60 520 00 00:   DELTA TIME
 TENR.LBS    07 635 01 00:   TENSION FROM RESISTIVITY
 CALR.IN     07 280 01 00:   CALIPER FROM RESISTIVITY
 GRR .GAPI   07 310 01 00:   GAMMA RAY FROM RESISTIVITY
 RXOZ.OHMM   11 270 04 00:   STD. RES. INVADED ZONE RESISTIVITY
 HLLD.OHMM   11 220 10 00:   LATEROLOG DEEP RES.
 HLLS.OHMM   11 220 09 00:   LATEROLOG SHALLOW RES.
 HRLD.OHMM   11 120 46 00:   HIGH RESOULATION DEEP RESISTIVITY
 RHOZ.G/C3   45 350 01 00:   HILT BULK DENSITY
~PARAMETER INFORMATION
#MNEM.UNIT          VALUE    DESCRIPTION
#----------   ------------   ------------------------------
 EKB .F         5205.7000:   Kelly bushing
 EGL .F         5195.7000:   Ground level
 EDF .F            0.0000:   Drilling floor
 EPD .F         5195.7000:   Permanent datum
 TD  .F         5654.0000:   Total depth
 DATE.        05-FEB-2002:   Date logged
 CLNT.            A2DTECH:   Client Code
 SL  . 1503' FEL & 721' FSL:   Surface Location
 PD  .                 GL:   Permanent Datum
 DAPD.F                10:   Feet Above Permanent Datum
 DD  .F              5650:   Depth driller
 DL  .F              5654:   Depth logger
 BLI .F              5646:   Bottom log interval
 TLI .F               499:   Top log interval
 CS1 .IN            9.625:   Casing size
 CBD1.      9.625" @ 505':   Casing driller 1
 CBL1.F               499:   Casing logger 1
 BS1 .IN            8.875:   Bit size
 BSD1.F              5650:   Depth drilled with bit1
 DFT .           GEL/CHEM:   Type fluid in hole
 DFD .                9.2:   Density
 DFV .                 52:   Viscosity
 DFPH.                8.5:   pH
 DFL .                6.8:   Fluid loss
 MSS .           FLOWLINE:   Source of sample
 RMS .OHMM           .954:   Rm
 MST .F                57:   Rm Meas. temp.
 RMF .OHMM           .734:   Rmf
 MFST.F                57:   Rmf Meas. temp.
 MFSS.              PRESS:   Source Rmf.
 RMB .OHMM           .403:   Rm. at BHT
 BHT .F               143:   BHT.
 TLAB.HRS            1208:   Time logger at bottom
 MRT .F               143:   Maximum recorded temp.
 LUN .               2211:   Logging unit number
 LUL .             CASPER:   Logging unit location
 ENGI.           R. SROUR:   Recorded By
 WITN.        M. MILLIKEN:   Witnessed by
 ORIG.           5" PRINT:   Origin of data
 UWI .     49025230400000:   Unique Well ID
 DICO. A2D TECHNOLOGIES, INC.:   Digitizing Company
 RMC .               1.24:   Rmc
 MCST.                 57:   Rmc Meas. temp.
 MCSS.              PRESS:   Source Rmc.
 TCS .                200:   Time Circ. stopped
~OTHER INFORMATION
~A   DEPT     TEND       PEFZ       HDRA       NPHI       TENS         DT       TENR       CALR         GRR      RXOZ       HLLD       HLLS       HRLD       RHOZ   
# ...
 1871.0000  1521.9950     3.7310    -0.0030     0.3210   966.4470    96.2690  1505.3550     9.8530   116.0900     9.0300     9.3080    10.1180     9.4580     2.5020
 1871.5000  1522.1080     3.7420    -0.0040     0.3250   966.5210    96.2690  1505.4871     9.8450   116.0990     9.1080     9.4410    10.2360     9.5090     2.4940
 1872.0000  1522.2220     3.7550    -0.0020     0.3340   966.5940    96.2690  1505.6190     9.8380   116.1020     9.0250     9.7000    10.4750     9.5340     2.4850
 1872.5000  1522.3350     3.7690    -0.0010     0.3350   966.6670    95.7940  1505.7510     9.8360   117.0110     9.8660    10.2530    10.7380    10.2280     2.4810
 1873.0000  1522.5699     3.7830    -0.0020     0.3340   966.7410    95.3440  1505.8831     9.8480   119.4470    10.2580    10.6400    10.9380    10.6400     2.4790
 1873.5000  1522.9091     3.7970    -0.0070     0.3300   966.8140    95.0750  1506.0150     9.8590   123.4680    10.1750    10.5880    11.1380    10.5640     2.4870
 1874.0000  1523.2480     3.8110    -0.0010     0.3230   966.8870    95.2800  1506.1470     9.8700   124.2340    10.1120    10.5480    11.0910    10.4790     2.4980
 1874.5000  1523.5870     3.8240     0.0000     0.3220   966.9610    95.7710  1506.2791     9.9010   122.4670    10.0480    10.5080    11.0550    10.3940     2.5000
 1875.0000  1523.9250     3.8520     0.0000     0.3320   967.0340    96.0200  1506.4110     9.9330   120.7920     9.9850    10.4680    10.9910    10.3090     2.4930
 1875.5000  1524.2640     3.8400    -0.0010     0.3490   967.1080    95.6140  1506.5439     9.9580   121.4640     9.9210    10.4280    10.9000    10.2240     2.4820
 1876.0000  1524.6030     3.8300    -0.0010     0.3460   967.1810    95.0430  1506.6760     9.9760   125.0940     9.7780    10.3880    10.8370    10.1650     2.4820
 1876.5000  1524.9420     3.8190    -0.0020     0.3420   967.2540    94.5770  1506.8080     9.9820   127.6580     9.5340    10.3520    11.0300    10.1920     2.4870
 1877.0000  1525.2810     3.8180    -0.0020     0.3410   967.3280    95.2740  1506.9399     9.9880   125.7240     9.6960    10.3520    11.1800    10.2130     2.4870
 1877.5000  1525.6200     3.8660    -0.0050     0.3430   967.4010   100.9100  1507.0720    10.0000   121.0900     9.8750    10.3520    11.3440    10.2350     2.4770
 1878.0000  1525.9590     3.8920    -0.0030     0.3460   967.4740   105.3610  1507.2040     9.9960   116.7390    10.0720    10.1380    11.3440    10.2580     2.4720
 1878.5000  1526.2980     3.9030    -0.0010     0.3420   967.5480   107.5120  1507.3361    10.0030   112.6720     9.7260     9.4240    10.6990     9.4310     2.4680
 1879.0000  1526.6370     3.8650    -0.0010     0.3330   967.6210   106.1190  1507.4680    10.0090   111.2590     9.5340     8.7810    10.3520     8.5120     2.4710
 1879.5000  1526.9760     3.8290    -0.0030     0.3200   967.6950    99.9540  1507.6000    10.0140   111.0820     9.5340     9.4260    10.4470     8.2360     2.4750
 1880.0000  1527.3149     3.7930    -0.0040     0.3270   967.7680    93.0850  1507.7321    10.0200   112.1690     9.7100    10.0720    10.8910    10.3520     2.4830
 1880.5000  1527.6541     3.7710    -0.0020     0.3390   967.8410    92.2890  1507.8640    10.0250   114.0530     9.5330     9.8090    11.1380     9.8200     2.4960
 1881.0000  1527.9919     3.7530    -0.0010     0.3550   967.9150    92.6870  1507.9960    10.0310   115.4160     9.3350     9.5950    11.1380     9.3370     2.5030
 1881.5000  1528.3311     3.7330     0.0000     0.3500   967.9880    93.9180  1508.1281    10.0290   118.7550     9.2760     9.5340    11.1380     9.1920     2.5030
 1882.0000  1528.6700     3.7790     0.0000     0.3430   968.0610    95.2450  1508.2600    10.0170   119.3090     9.5340    11.0370    11.2400    10.2580     2.4930
 1882.5000  1529.0090     3.8380    -0.0020     0.3350   968.1350    96.5730  1508.3920    10.0220   116.1720     9.4390     9.7100    10.8640     9.5120     2.4800
 1883.0000  1529.3480     3.8570    -0.0060     0.3340   968.2080    97.7400  1508.5240    10.0330   113.9650     9.1920     9.3610    10.7380     8.8610     2.4730
 1883.5000  1529.6870     3.8670    -0.0050     0.3330   968.2810    97.5620  1508.6560    10.0240   115.9930     9.4670     9.7050    11.0140     9.2990     2.4680
 1884.0000  1530.0260     3.8490    -0.0010     0.3210   968.3550    96.4760  1508.7880    10.0140   121.9700    10.0720    10.1970    11.4480     9.9250     2.4830
 1884.5000  1530.3650     3.8110     0.0000     0.3260   968.4280    95.4870  1508.9200    10.0140   125.6070    10.4470    10.7380    11.5910    10.5500     2.4990
 1885.0000  1530.7040     3.7720     0.0000     0.3360   968.5020    94.7760  1509.0520    10.0140   124.9350    10.3520    10.9360    11.7660    10.7380     2.5090
 1885.5000  1531.0430     3.7330     0.0000     0.3460   968.5750    95.7020  1509.1840    10.0140   122.3910    10.2020    10.7850    11.6590    10.5970     2.5080
 1886.0000  1531.3820     3.7440     0.0000     0.3550   968.6480    96.4250  1509.3170    10.0140   121.4600    10.0660    10.5690    11.4860    10.3940     2.5020
 1886.5000  1531.7209     3.7690     0.0000     0.3570   968.7220    96.7660  1509.4490    10.0140   122.8220     9.9300    10.3530    11.3440    10.1920     2.4950
 1887.0000  1532.0590     3.7940     0.0000     0.3520   968.7950    95.2900  1509.5811    10.0140   124.0630     9.7100    10.1370    11.0690     9.9900     2.4880
 1887.5000  1532.3979     3.8100     0.0000     0.3470   968.8680    93.8060  1509.7130    10.0140   121.8810     9.3140     9.7960    10.8180     9.7430     2.4920
 1888.0000  1532.7371     3.7740     0.0000     0.3520   968.9420    93.1230  1509.8450    10.0140   118.5770     8.9530     9.3610    10.5430     9.4490     2.5020
 1888.5000  1533.0760     3.7390     0.0000     0.3540   969.0150    93.1680  1509.9771    10.0140   113.6580     8.7010     9.2760    10.5430     9.3610     2.5030
 1889.0000  1533.4150     3.7050     0.0000     0.3320   969.0890    92.8050  1510.1090    10.0140   113.2160     9.3070     9.5900    10.7270    10.1400     2.5070
 1889.5000  1533.7540     3.6710     0.0000     0.3240   969.1620    92.3660  1510.2410    10.0140   116.6110     9.5030     9.7260    10.9630    10.3520     2.5050
 1890.0000  1534.0930     3.6370     0.0000     0.3300   969.2350    92.7820  1510.3730    10.0140   118.5690     9.5820     9.7580    11.2400    10.1600     2.5030
 1890.5000  1534.4320     3.6650     0.0000     0.3390   969.3090    93.9400  1510.5050    10.0140   118.9140     9.6610     9.7900    11.2510     9.7100     2.5010
 1891.0000  1534.7710     3.7030     0.0000     0.3420   969.3820    96.0570  1510.6370    10.0050   115.6670     9.7400     9.8220    11.2660     9.8360     2.4980
 1891.5000  1535.1100     3.7410    -0.0010     0.3520   969.4550    98.6400  1510.7690     9.9970   113.9950     9.8190     9.8540    11.2810     9.9320     2.4940
 1892.0000  1535.4490     3.7650    -0.0010     0.3470   969.5290    99.2490  1510.9010     9.9850   115.8800     9.8890     9.8890    11.2970     9.9800     2.4950
 1892.5000  1535.7880     3.7290    -0.0010     0.3390   969.6020    97.5320  1511.0330     9.9720   119.2690     9.7800     9.7560    11.3120     9.8730     2.4980
 1893.0000  1536.1260     3.6940    -0.0010     0.3460   969.6760    95.4540  1511.1650     9.9580   122.5220     9.7100     9.6220    11.3270     9.7990     2.5010
 1893.5000  1536.4650     3.6600    -0.0010     0.3580   969.7490    92.8830  1511.2970     9.9540   123.0500     9.8270     9.8890    11.3430     9.9800     2.5040
 1894.0000  1536.8040     3.6260    -0.0020     0.3480   969.8220    91.5540  1511.4290     9.9570   122.9690     9.8890     9.8580    11.2660    10.0220     2.5060
 1894.5000  1537.1429     3.6340    -0.0020     0.3260   969.8960    91.3390  1511.5610     9.9600   123.9630     9.7990     9.8130    11.1810    10.0720     2.5010
 1895.0000  1537.4821     3.6920    -0.0020     0.3360   969.9690    91.4630  1511.6930     9.9630   124.5510     9.7990     9.6300    11.0480     9.9440     2.4970
