~VERSION INFORMATION
 VERS.                2.0:   CWLS LOG ASCII STANDARD - VERSION 2.0
 WRAP.                 NO:   ONE LINE PER DEPTH STEP
~WELL INFORMATION
#MNEM.UNIT      DATA TYPE    INFORMATION
#----------   ------------   ------------------------------
 STRT.F           16.0000:   START DEPTH
 STOP.F         2834.0000:   STOP DEPTH
 STEP.F            0.5000:   STEP LENGTH
 NULL.          -999.2500:   NO VALUE
 COMP.    FENIX & SCISSON:   COMPANY
 WELL. FENIX NPR 3 "AX" #14-21:   WELL
 FLD .              N P R:   FIELD
 LOC .      S21 T39N R78W:   LOCATION
 CNTY.            NATRONA:   COUNTY
 STAT.            WYOMING:   STATE
 CTRY. UNITED STATES OF AMERICA:   COUNTRY
 SRVC.           BIRDWELL:   SERVICE COMPANY
 DATE.        26-JUL-1978:   LOGDATE
 API .     49025106740000:   API NUMBER
~CURVE INFORMATION
#MNEM.UNIT       API CODE    CURVE DESCRIPTION
#----------   ------------   ------------------------------
 DEPT.F                  :   
 GRD .GAPI   45 310 01 00:   GAMMA RAY FROM DENSITY LOG
 CALD.IN     45 280 60 00:   CALIPER FROM DENSITY LOG
 RHOB.G/C3   45 350 01 00:   BULK DENSITY
 CORR.G/C3   45 356 01 00:   DENSITY CORRECTION
 SPR .MV     05 010 01 00:   SPONTANEOUS POTENTIAL
 ILD .OHMM   05 120 46 00:   DEEP INDUCTION RESISTIVITY
 SN  .OHMM   05 040 00 00:   SHORT NORMAL
~PARAMETER INFORMATION
#MNEM.UNIT          VALUE    DESCRIPTION
#----------   ------------   ------------------------------
 EKB .F         4998.0000:   Kelly bushing
 EGL .F         4988.0000:   Ground level
 EDF .F            0.0000:   Drilling floor
 EPD .F            0.0000:   Permanent datum
 TD  .F         2850.0000:   Total depth
 DATE.        26-JUL-1978:   Date logged
 CLNT.            A2DTECH:   Client Code
 SL  . 2640' FNL & 500' FWL:   Surface Location
 PD  .                 GL:   Permanent Datum
 DD  .F              2850:   Depth driller
 DL  .F              2838:   Depth logger
 BLI .F              2832:   Bottom log interval
 CS1 .IN            8.625:   Casing size
 CBD1.      8.625" @ 208':   Casing driller 1
 BS1 .IN            7.875:   Bit size
 DFT .            MUD/GEL:   Type fluid in hole
 DFD .                9.4:   Density
 DFV .                 37:   Viscosity
 DFPH.                 11:   pH
 TCS .HRS               4:   Time Circ. stopped
 LUN .               2958:   Logging unit number
 LUL .               CASP:   Logging unit location
 ENGI.             MILLER:   Recorded By
 WITN.           MCGINLEY:   Witnessed by
 ORIG.           5" PRINT:   Origin of data
 UWI .     49025106740000:   Unique Well ID
 DICO. A2D TECHNOLOGIES, INC.:   Digitizing Company
 DAPD.                 12:   Feet Above Permanent Datum
 BSD1.               3950:   Depth drilled with bit1
 MCSS.               CALC:   Source Rmc.
 TLI .F               230:   Top log interval
~OTHER INFORMATION
~A   DEPT       GRD      CALD       RHOB       CORR        SPR        ILD         SN   
# ...
  562.0000    95.2700     9.7840     2.3510     0.3220   -41.6770     8.7380     9.4310
  562.5000    95.7390     9.7840     2.3580     0.3210   -41.3590     8.7070     9.3800
  563.0000    94.4070     9.7840     2.3660     0.3210   -40.9030     8.6750     9.3290
  563.5000    91.6650     9.7840     2.3690     0.3210   -40.4790     8.6430     9.2780
  564.0000    88.8470     9.7890     2.3630     0.3210   -40.9770     8.6380     9.2260
  564.5000    88.9190     9.7990     2.3620     0.3210   -41.5260     8.6680     9.2080
  565.0000    91.1880     9.8080     2.3630     0.3210   -41.5010     8.6960     9.2080
  565.5000    92.0920     9.8180     2.3650     0.3210   -41.2470     8.7180     9.2080
  566.0000    91.1340     9.8270     2.3620     0.3210   -42.6140     8.7180     9.2080
  566.5000    90.1050     9.8370     2.3570     0.3210   -44.3300     8.7090     9.2080
  567.0000    89.0760     9.8450     2.3570     0.3210   -44.5170     8.6980     9.2080
  567.5000    88.0420     9.8500     2.3570     0.3210   -44.5590     8.6880     9.2080
  568.0000    87.6060     9.8540     2.3570     0.3210   -44.4650     8.6780     9.2080
  568.5000    87.5470     9.8590     2.3500     0.3210   -44.3760     8.6670     9.2080
  569.0000    87.4800     9.8640     2.3380     0.3210   -44.2900     8.6570     9.2080
  569.5000    87.3720     9.8690     2.3260     0.3210   -44.1840     8.6460     9.2080
  570.0000    88.9510     9.8740     2.3200     0.3220   -43.5010     8.6380     9.2080
  570.5000    90.9130     9.8790     2.3190     0.3230   -42.7650     8.6380     9.2080
  571.0000    92.8560     9.8840     2.3190     0.3240   -42.0310     8.6470     9.2080
  571.5000    93.2520     9.8880     2.3180     0.3250   -41.1150     8.6600     9.2080
  572.0000    93.1200     9.8920     2.3240     0.3270   -40.5350     8.6740     9.2080
  572.5000    92.8990     9.8960     2.3290     0.3280   -40.3110     8.6880     9.2080
  573.0000    92.7980     9.9000     2.3300     0.3290   -40.0860     8.7010     9.2080
  573.5000    93.2930     9.9040     2.3270     0.3310   -39.8620     8.7150     9.2080
  574.0000    93.6990     9.9080     2.3250     0.3330   -39.6720     8.7170     9.2080
  574.5000    93.0090     9.9120     2.3260     0.3330   -39.8580     8.7180     9.2080
  575.0000    91.2440     9.9160     2.3280     0.3320   -40.5890     8.7170     9.2080
  575.5000    89.4950     9.9200     2.3290     0.3320   -41.2980     8.7170     9.2080
  576.0000    87.7740     9.9210     2.3300     0.3310   -42.0260     8.7170     9.2080
  576.5000    86.2980     9.9210     2.3310     0.3300   -42.3120     8.7180     9.2080
  577.0000    85.6330     9.9220     2.3370     0.3290   -42.4520     8.7180     9.2080
  577.5000    87.5120     9.9230     2.3400     0.3280   -42.5840     8.7180     9.2080
  578.0000    90.2240     9.9240     2.3390     0.3280   -42.7210     8.6810     9.2080
  578.5000    92.9030     9.9240     2.3380     0.3270   -42.9510     8.6430     9.2080
  579.0000    94.8970     9.9250     2.3410     0.3260   -43.5040     8.6060     9.2080
  579.5000    96.5150     9.9260     2.3440     0.3260   -43.7970     8.5690     9.2080
  580.0000    96.5720     9.9270     2.3430     0.3270   -43.7970     8.5320     9.2080
  580.5000    96.5380     9.9280     2.3420     0.3270   -43.8050     8.4950     9.2080
  581.0000    96.3640     9.9290     2.3420     0.3280   -43.4490     8.4580     9.2080
  581.5000    93.9560     9.9300     2.3390     0.3280   -42.9220     8.4210     9.2080
  582.0000    91.2780     9.9310     2.3390     0.3290   -42.8400     8.3970     9.2080
  582.5000    89.3690     9.9320     2.3380     0.3290   -43.3340     8.3840     9.2080
  583.0000    89.5280     9.9330     2.3460     0.3300   -43.7890     8.3710     9.2080
  583.5000    90.0670     9.9330     2.3540     0.3300   -43.5730     8.3580     9.0720
  584.0000    90.2830     9.9340     2.3500     0.3310   -42.4490     8.3450     8.9310
  584.5000    90.4340     9.9350     2.3450     0.3310   -41.6460     8.3320     8.7910
  585.0000    90.5530     9.9360     2.3450     0.3320   -41.0330     8.3290     8.6500
  585.5000    90.4760     9.9370     2.3450     0.3320   -40.4280     8.3290     8.5600
  586.0000    90.3050     9.9380     2.3470     0.3330   -40.2670     8.3290     8.5600
  586.5000    90.1920     9.9390     2.3520     0.3330   -40.2910     8.3290     8.5600
  587.0000    91.1990     9.9400     2.3530     0.3330   -40.0270     8.3290     8.5600
  587.5000    93.1970     9.9410     2.3510     0.3330   -39.7640     8.3290     8.5600
  588.0000    95.2460     9.9470     2.3490     0.3340   -39.5000     8.3290     8.5600
  588.5000    96.1240     9.9590     2.3500     0.3340   -39.2390     8.3290     8.5600
  589.0000    96.5850     9.9720     2.3510     0.3320   -39.2210     8.3150     8.5600
  589.5000    97.4800     9.9850     2.3630     0.3280   -39.6110     8.2970     8.5620
  590.0000    98.1490     9.9970     2.3800     0.3250   -39.9950     8.2790     8.5620
  590.5000    97.7870    10.0100     2.3710     0.3230   -40.3810     8.2610     8.3240
  591.0000    96.1420    10.0220     2.3700     0.3220   -40.7710     8.2430     8.3180
  591.5000    92.9400    10.0360     2.3700     0.3210   -41.1490     8.2240     8.3120
  592.0000    90.1400    10.0370     2.3690     0.3210   -41.2890     8.2060     8.3060
  592.5000    89.2280    10.0330     2.3630     0.3220   -41.0760     8.1880     8.3010
  593.0000    90.1900    10.0300     2.3520     0.3220   -40.8230     8.1700     8.2950
  593.5000    91.7910    10.0260     2.3400     0.3230   -40.5870     8.1520     8.2890
  594.0000    92.8400    10.0220     2.3300     0.3240   -40.0560     8.1340     8.2830
  594.5000    93.8950    10.0230     2.3290     0.3240   -38.7370     8.1160     8.2770
  595.0000    94.9750    10.0390     2.3270     0.3250   -37.8750     8.1030     8.2710
  595.5000    95.2980    10.0540     2.3250     0.3250   -37.8920     8.1030     8.2650
  596.0000    95.4350    10.0970     2.3250     0.3260   -37.6520     8.1030     8.2590
  596.5000    96.3330    10.1400     2.3200     0.3270   -37.2120     8.1040     8.2530
  597.0000    99.7870    10.1440     2.3140     0.3280   -36.9510     8.1040     8.4160
  597.5000   101.2780    10.1490     2.3080     0.3300   -37.1270     8.1570     8.6450
  598.0000   101.7540    10.1550     2.3030     0.3300   -37.2900     8.3290     8.8740
  598.5000   101.1760    10.1680     2.3270     0.3280   -37.4540     8.5010     9.1030
  599.0000    99.9280    10.1920     2.3390     0.3250   -37.6180     8.6730     9.3320
  599.5000    98.2570    10.1270     2.3340     0.3240   -37.9330     8.8440     9.5610
  600.0000    97.5670    10.0290     2.3290     0.3250   -38.3950     9.0160     9.7900
  600.5000    97.2400     9.9590     2.3130     0.3250   -38.8570     9.1880     9.9970
  601.0000    97.3350     9.9570     2.3120     0.3260   -39.2890     9.3600     9.9850
  601.5000    97.4030     9.9540     2.3090     0.3260   -39.4800     9.3780     9.9750
  602.0000    96.2570     9.9510     2.3020     0.3260   -39.6670     9.3690     9.9640
  602.5000    95.0020     9.9490     2.2950     0.3270   -39.8580     9.3570     9.9540
  603.0000    94.0250     9.9460     2.2980     0.3270   -40.0470     9.3440     9.9430
  603.5000    93.2430     9.9430     2.3020     0.3270   -39.6830     9.3320     9.9320
  604.0000    92.4560     9.9400     2.3050     0.3280   -39.2660     9.3190     9.9220
  604.5000    92.2430     9.9370     2.3080     0.3280   -38.8500     9.3070     9.9110
  605.0000    92.1470     9.9350     2.3100     0.3280   -38.4640     9.2920     9.8790
  605.5000    91.4190     9.9320     2.3070     0.3270   -38.2890     9.2940     9.7820
  606.0000    90.6020     9.9290     2.3050     0.3270   -38.1150     9.2290     9.6850
  606.5000    90.0680     9.9260     2.3050     0.3270   -37.9370     9.1790     9.5890
  607.0000    90.4640     9.9230     2.3050     0.3270   -37.8920     9.1280     9.4920
