~VERSION INFORMATION
 VERS.                2.0:   CWLS LOG ASCII STANDARD - VERSION 2.0
 WRAP.                 NO:   ONE LINE PER DEPTH STEP
~WELL INFORMATION
#MNEM.UNIT      DATA TYPE    INFORMATION
#----------   ------------   ------------------------------
 STRT.F          224.0000:   START DEPTH
 STOP.F         2912.0000:   STOP DEPTH
 STEP.F            0.5000:   STEP LENGTH
 NULL.          -999.2500:   NO VALUE
 COMP.    FENIX & SCISSON:   COMPANY
 WELL. FENIX & SCISSON NPR 34 "A" #3-21:   WELL
 FLD .             NPR #3:   FIELD
 LOC .      S21 T39N R78W:   LOCATION
 CNTY.            NATRONA:   COUNTY
 STAT.            WYOMING:   STATE
 CTRY. UNITED STATES OF AMERICA:   COUNTRY
 SRVC.              WELEX:   SERVICE COMPANY
 DATE.        15-JUL-1977:   LOGDATE
 API .     49025103970000:   API NUMBER
~CURVE INFORMATION
#MNEM.UNIT       API CODE    CURVE DESCRIPTION
#----------   ------------   ------------------------------
 DEPT.F                  :   
 CALD.IN     45 280 60 00:   CALIPER FROM DENSITY LOG
 CORR.G/C3   45 356 01 00:   DENSITY CORRECTION
 RHOB.G/C3   45 350 01 00:   BULK DENSITY
 GRD .GAPI   45 310 01 00:   GAMMA RAY FROM DENSITY LOG
 SPR .MV     07 010 01 00:   SPONTANEOUS POTENTIAL
 ILD .OHMM   07 120 46 00:   DEEP INDUCTION RESISTIVITY
 ILM .OHMM   07 120 44 00:   INDUCTION LOG MEDIUM RESISTIVITY
 SGRD.OHMM   07 220 05 00:   SHALLOW SHORT GUARD RESISTIVITY
~PARAMETER INFORMATION
#MNEM.UNIT          VALUE    DESCRIPTION
#----------   ------------   ------------------------------
 EKB .F         4921.0000:   Kelly bushing
 EGL .F         4911.0000:   Ground level
 TD  .F         2914.0000:   Total depth
 CLNT.            A2DTECH:   Client Code
 SL  . 2310' FNL & 1650' FWL:   Surface Location
 DATE.        15-JUL-1977:   Date Logged [DD-MMM-YYYY]
 DD  .F              2900:   Depth driller
 DL  .F              2914:   Depth logger
 BLI .F              2912:   Bottom log interval
 TLI .F               218:   Top log interval
 CS1 .              8.625:   Casing size
 CBD1.      8.625" @ 230':   Casing driller 1
 CBL1.IN              226:   Casing logger 1
 BS1 .IN            7.875:   Bit size
 BSD1.F              2900:   Depth drilled with bit1
 DFT .                KCL:   Type fluid in hole
 DFD .                8.9:   Density
 DFV .               1.42:   Viscosity
 DFPH.                7.5:   pH
 DFL .               19.6:   Fluid loss
 MSS .            MUD PIT:   Source of sample
 RMS .OHMM           3.75:   Rm
 MST .F                83:   Rm Meas. temp.
 RMF .OHMM           3.40:   Rmf
 MFST.F                83:   Rmf Meas. temp.
 MFSS.           MEASURED:   Source Rmf.
 RMC .OHMM            9.0:   Rmc
 MCST.F                83:   Rmc Meas. temp.
 MCSS.           MEASURED:   Source Rmc.
 RMB .OHMM           2.80:   Rm. at BHT
 BHT .F               111:   BHT.
 TCS .HRS               3:   Time Circ. stopped
 MRT .F               111:   Maximum recorded temp.
 LUN .               8766:   Logging unit number
 LUL .             CASPER:   Logging unit location
 ENGI.          T. JOYNER:   Recorded By
 WITN.     MR. PETTINGILL:   Witnessed by
 ORIG.           5" PRINT:   Origin of data
 UWI .     49025103970000:   Unique Well ID
 DICO. A2D TECHNOLOGIES, INC.:   Digitizing Company
 PD  .                 GL:   Permanent Datum
 EPD .F              4911:   Elevation Permanent Datum
 LMF .                 KB:   Log Measured From
 DMF .                 KB:   Drilling Measured From
 DAPD.F                10:   Feet Above Permanent Datum
~OTHER INFORMATION
~A   DEPT      CALD        CORR       RHOB       GRD       SPR        ILD        ILM       SGRD   
# ...
 1439.0000     8.5671     0.0043     2.4406   115.5366   -63.0992     7.0437     7.0549     9.7099
 1439.5000     8.5694     0.0014     2.4444   116.7618   -63.0770     7.0463     7.1067     9.8469
 1440.0000     8.5563     0.0060     2.4580   112.0361   -63.0591     7.0982     7.2086     9.9859
 1440.5000     8.5592     0.0136     2.4752   114.4428   -63.1944     7.2001     7.2616     9.9880
 1441.0000     8.5616     0.0271     2.4889   111.4570   -63.1721     7.2531     7.3657     9.9208
 1441.5000     8.5639     0.0377     2.4987   111.2322   -63.3073     7.3068     7.3688     9.6530
 1442.0000     8.5663     0.0422     2.5050   114.8276   -63.4336     7.3603     7.3718     9.3920
 1442.5000     8.5686     0.0453     2.5130   112.1822   -63.4158     7.3125     7.2236     9.2009
 1443.0000     8.5555     0.0439     2.5101   116.9735   -63.3980     7.3156     7.0783     9.0771
 1443.5000     8.5584     0.0439     2.4975   115.8140   -63.5332     7.2681     6.9841     9.0160
 1444.0000     8.5608     0.0440     2.4909   115.2416   -63.6640     7.2210     6.8436     8.9558
 1444.5000     8.5631     0.0456     2.4970   119.4313   -63.4917     7.1246     6.7525     8.8965
 1445.0000     8.5655     0.0472     2.5026   116.4960   -63.4753     6.9812     6.7081     8.8984
 1445.5000     8.5679     0.0472     2.5118   115.9235   -63.4575     6.8881     6.6188     8.7780
 1446.0000     8.5701     0.0458     2.5197   117.7431   -63.2911     6.7494     6.6222     8.7799
 1446.5000     8.5576     0.0459     2.5251   118.9610   -63.2733     6.7057     6.6709     8.7213
 1447.0000     8.5605     0.0445     2.5214   119.5846   -63.2555     6.7550     6.6736     8.7231
 1447.5000     8.5629     0.0430     2.5133   119.3165   -63.2377     6.7578     6.6764     8.7249
 1448.0000     8.5652     0.0401     2.5089   120.8799   -63.2199     6.7606     6.7255     8.8481
 1448.5000     8.5527     0.0387     2.5098   123.9074   -63.2020     6.8104     6.7283     8.9729
 1449.0000     8.5550     0.0373     2.5076   124.7607   -63.1842     6.8605     6.7310     8.9130
 1449.5000     8.5574     0.0329     2.5040   125.6814   -63.1664     6.8634     6.7338     8.9149
 1450.0000     8.5595     0.0269     2.4996   125.7107   -63.1486     6.8662     6.6442     8.7941
 1450.5000     8.5504     0.0240     2.4952   124.2540   -63.1308     6.8691     6.6005     8.6756
 1451.0000     8.5412     0.0271     2.5006   123.0872   -62.9644     6.8239     6.5133     8.6774
 1451.5000     8.5365     0.0317     2.5021   123.4209   -62.9466     6.7335     6.3823     8.6792
 1452.0000     8.5240     0.0273     2.4918   123.1680   -62.7801     6.5979     6.2539     8.6810
 1452.5000     8.5270     0.0258     2.4710   124.6985   -62.7623     6.5084     6.2128     8.7429
 1453.0000     8.5139     0.0219     2.4636   125.6257   -62.5959     6.3771     6.2160     8.7448
 1453.5000     8.5169     0.0188     2.4562   124.4727   -62.4295     6.2483     6.2186     8.8072
 1454.0000     8.5192     0.0134     2.4503   122.4193   -62.4117     6.2098     6.2212     8.8091
 1454.5000     8.5062     0.0076     2.4467   121.8606   -62.3939     6.2124     6.3103     8.8719
 1455.0000     8.5091     0.0033     2.4527   123.3911   -62.5247     6.3046     6.4008     8.9971
 1455.5000     8.5264     0.0050     2.4655   123.7240   -62.6599     6.4397     6.4926     9.0613
 1456.0000     8.5288     0.0112     2.4761   121.6794   -62.7907     6.5779     6.6313     9.1264
 1456.5000     8.5460     0.0173     2.4791   119.6349   -62.7684     6.7190     6.7264     9.1283
 1457.0000     8.5484     0.0235     2.4762   119.0673   -62.7506     6.8587     6.7758     9.0669
 1457.5000     8.5508     0.0297     2.4816   122.0837   -62.8814     6.9091     6.8256     9.0068
 1458.0000     8.5532     0.0358     2.4891   123.9024   -62.8635     6.9120     6.8758     8.9462
 1458.5000     8.5556     0.0390     2.4974   124.8296   -62.8457     6.9149     6.7842     8.7651
 1459.0000     8.5579     0.0407     2.5035   125.4597   -62.9765     6.9177     6.7403     8.7669
 1459.5000     8.5603     0.0334     2.5073   124.6038   -62.9587     6.9206     6.6505     8.7079
 1460.0000     8.5472     0.0231     2.4932   121.6678   -62.9409     6.9235     6.6068     8.7101
 1460.5000     8.5502     0.0187     2.4814   122.0006   -62.9230     6.9263     6.5195     8.7028
 1461.0000     8.5371     0.0279     2.4949   124.4137   -63.0538     6.8813     6.4320     8.6933
 1461.5000     8.5401     0.0356     2.5054   125.9353   -63.0360     6.8770     6.3033     8.4018
 1462.0000     8.5270     0.0403     2.5085   126.5654   -63.0182     6.7924     6.2194     8.0642
 1462.5000     8.5300     0.0404     2.5041   126.3039   -63.0004     6.6942     6.2220     7.9014
 1463.0000     8.5472     0.0376     2.5019   125.4391   -63.1311     6.5668     6.2677     8.0709
 1463.5000     8.5645     0.0333     2.4953   123.7007   -63.1133     6.4346     6.2703     8.1865
 1464.0000     8.5669     0.0305     2.4857   121.0618   -63.1909     6.3407     6.2729     8.4192
 1464.5000     8.5538     0.0276     2.4843   119.3055   -63.3296     6.2641     6.2755     8.6586
 1465.0000     8.5567     0.0263     2.4866   123.2134   -63.3103     6.2566     6.2781     8.7826
 1465.5000     8.5591     0.0280     2.4890   125.0321   -63.4444     6.2250     6.2807     8.8471
 1466.0000     8.5615     0.0312     2.4928   125.6622   -63.5737     6.1934     6.2376     8.5505
 1466.5000     8.5639     0.0344     2.4959   123.0233   -63.4009     6.1618     6.1748     8.1504
 1467.0000     8.5663     0.0376     2.4982   120.9787   -63.3816     6.1482     6.2459     7.9866
 1467.5000     8.5532     0.0377     2.5005   119.8168   -63.3623     6.2424     6.3367     8.2137
 1468.0000     8.5407     0.0349     2.4805   120.4558   -63.3430     6.3765     6.4735     8.5646
 1468.5000     8.5437     0.0306     2.4656   122.2745   -63.3237     6.5135     6.5676     8.6873
 1469.0000     8.5306     0.0278     2.4679   124.3904   -63.3044     6.6456     6.6173     8.6302
 1469.5000     8.5335     0.0280     2.4725   124.7233   -63.2850     6.6945     6.6674     8.4577
 1470.0000     8.5359     0.0297     2.4883   122.6788   -63.1171     6.7443     6.6715     8.2307
 1470.5000     8.5228     0.0328     2.5018   120.9225   -63.0978     6.7471     6.6287     8.1212
 1471.0000     8.5258     0.0345     2.5094   124.8304   -63.0785     6.7499     6.5871     8.0678
 1471.5000     8.5282     0.0347     2.5124   125.1543   -63.0592     6.7055     6.5459     8.0156
 1472.0000     8.5153     0.0349     2.5073   121.9300   -63.0399     6.6167     6.4601     7.9638
 1472.5000     8.5181     0.0321     2.5037   120.1737   -63.0206     6.4387     6.3764     7.9679
 1473.0000     8.5204     0.0277     2.4978   124.0816   -63.0012     6.3091     6.2928     7.9712
 1473.5000     8.5073     0.0234     2.4904   124.4145   -62.9819     6.1820     6.2103     7.9745
 1474.0000     8.5103     0.0251     2.4823   124.1530   -62.9626     6.0996     6.1279     7.9778
 1474.5000     8.5127     0.0268     2.4883   123.8826   -62.9433     6.1021     6.0895     8.0921
 1475.0000     8.5151     0.0270     2.4944   123.9272   -62.9240     6.1046     6.0943     8.2080
 1475.5000     8.5175     0.0271     2.4945   124.5572   -62.9047     6.1922     6.1404     8.3256
 1476.0000     8.5198     0.0288     2.4931   125.1873   -62.8853     6.2811     6.1868     8.4449
 1476.5000     8.5222     0.0305     2.4977   127.6004   -62.8660     6.3713     6.1907     8.4484
 1477.0000     8.5246     0.0307     2.4955   129.1220   -62.8467     6.4628     6.2807     8.5104
 1477.5000     8.5270     0.0293     2.4889   123.5113   -62.8274     6.5103     6.3282     8.5729
 1478.0000     8.5294     0.0265     2.4830   120.8635   -62.9615     6.5583     6.3761     8.4007
 1478.5000     8.5317     0.0162     2.4778   125.0686   -62.9373     6.6065     6.4688     8.2310
 1479.0000     8.5341     0.0059     2.4750   124.8071   -62.9180     6.5184     6.4729     8.0656
