~VERSION INFORMATION
 VERS.                2.0:   CWLS LOG ASCII STANDARD - VERSION 2.0
 WRAP.                 NO:   ONE LINE PER DEPTH STEP
~WELL INFORMATION
#MNEM.UNIT      DATA TYPE    INFORMATION
#----------   ------------   ------------------------------
 STRT.F            0.0000:   START DEPTH
 STOP.F         3040.0000:   STOP DEPTH
 STEP.F            0.5000:   STEP LENGTH
 NULL.          -999.2500:   NO VALUE
 COMP. LAWRENCE ALLISON & ASSOCIATES:   COMPANY
 WELL. LAWRENCE NPR 3 "AX" #77-28:   WELL
 FLD .      NPR - WILDCAT:   FIELD
 LOC .      S28 T39N R78W:   LOCATION
 CNTY.            NATRONA:   COUNTY
 STAT.            WYOMING:   STATE
 CTRY. UNITED STATES OF AMERICA:   COUNTRY
 SRVC.      DRESSER ATLAS:   SERVICE COMPANY
 DATE.        19-OCT-1986:   LOGDATE
 API .     49025111150000:   API NUMBER
~CURVE INFORMATION
#MNEM.UNIT       API CODE    CURVE DESCRIPTION
#----------   ------------   ------------------------------
 DEPT.F                  :   
 TENR.LBS    07 635 01 00:   TENSION FROM RESISTIVITY
 RILD.OHMM   07 120 46 00:   DEEP INDUCTION RESISTIVITY
 RILM.OHMM   07 120 44 00:   INDUCTION LOG MEDIUM RESISTIVITY
 RFOC.OHMM   07 220 04 00:   RESISTIVITY FOCUSED LOG RES.
 SPR .MV     07 010 01 00:   SPONTANEOUS POTENTIAL
 GRR .GAPI   07 310 01 00:   GAMMA RAY FROM RESISTIVITY
 CNC .DEC    42 890 03 00:   NEUTRON POROSITY SANDSTONE
 RHOB.G/C3   45 350 01 00:   BULK DENSITY
 TEND.LBS    45 635 01 00:   TENSION FROM DENSITY LOG
 CORR.G/C3   45 356 01 00:   DENSITY CORRECTION
 CALD.IN     45 280 60 00:   CALIPER FROM DENSITY LOG
~PARAMETER INFORMATION
#MNEM.UNIT          VALUE    DESCRIPTION
#----------   ------------   ------------------------------
 EKB .F         5086.0000:   Kelly bushing
 EGL .F         5074.0000:   Ground level
 EDF .F            0.0000:   Drilling floor
 TD  .F         3025.0000:   Total depth
 DATE.        19-OCT-1986:   Date logged
 CLNT.            A2DTECH:   Client Code
 SL  . 967' FSL @ 763' FEL:   Surface Location
 PD  .                 GL:   Permanent Datum
 EPD .F              5074:   Elevation Permanent Datum
 LMF .                 KB:   Log Measured From
 DMF .                 KB:   Drilling Measured From
 DAPD.F                12:   Feet Above Permanent Datum
 DD  .F              3021:   Depth driller
 DL  .F              3025:   Depth logger
 BLI .F              3023:   Bottom log interval
 CS1 .IN            8.625:   Casing size
 CBD1.      8.625" @ 620':   Casing driller 1
 CBL1.F               615:   Casing logger 1
 BS1 .IN            7.875:   Bit size
 BSD1.F              3021:   Depth drilled with bit1
 DFT .        KCL/POLTMER:   Type fluid in hole
 DFD .                8.9:   Density
 DFV .                 38:   Viscosity
 DFPH.                9.5:   pH
 DFL .                 11:   Fluid loss
 MSS .           FLOWLINE:   Source of sample
 RMS .OHMM            .25:   Rm
 MST .F                65:   Rm Meas. temp.
 RMF .OHMM           .203:   Rmf
 MFST.F                65:   Rmf Meas. temp.
 RMC .OHMM            .31:   Rmc
 MCST.F                65:   Rmc Meas. temp.
 MFSS.               MEAS:   Source Rmf.
 MCSS.               CALC:   Source Rmc.
 RMB .OHMM           .136:   Rm. at BHT
 BHT .F               119:   BHT.
 TCS .HRS               5:   Time Circ. stopped
 MRT .F               119:   Maximum recorded temp.
 LUN .               6274:   Logging unit number
 LUL .               GLTE:   Logging unit location
 ENGI.             RAUTIO:   Recorded By
 WITN.             STRONG:   Witnessed by
 ORIG.         2.5" PRINT:   Origin of data
 UWI .     49025111150000:   Unique Well ID
 DICO. A2D TECHNOLOGIES, INC.:   Digitizing Company
~OTHER INFORMATION
~A    DEPT    TENR       RILD       RILM       RFOC        SPR         GRR       CNC       RHOB       TEND       CORR       CALD   
# ...
 2196.0000   -71.1240     8.0640     8.4190    10.3180   -78.4930   139.4870  -999.2500  -999.2500  -999.2500  -999.2500  -999.2500
 2196.5000   -67.8300     8.0130     8.3740    10.2600   -78.6280   138.7460  -999.2500  -999.2500  -999.2500  -999.2500  -999.2500
 2197.0000   -64.5360     7.9630     8.3290    10.1450   -78.7610   134.6460  -999.2500  -999.2500  -999.2500  -999.2500  -999.2500
 2197.5000   -64.8210     7.9120     8.2850    10.0290   -78.9440   129.9200  -999.2500  -999.2500  -999.2500  -999.2500  -999.2500
 2198.0000   -66.2750     7.8610     8.2400     9.3060   -79.1460   127.3590  -999.2500  -999.2500  -999.2500  -999.2500  -999.2500
 2198.5000   -67.7280     7.8110     8.1950     9.3490   -79.3480   126.6840  -999.2500  -999.2500  -999.2500  -999.2500  -999.2500
 2199.0000   -69.1810     7.7600     8.1500     9.4340   -79.5490   128.3730  -999.2500  -999.2500  -999.2500  -999.2500  -999.2500
 2199.5000   -70.6340     7.6680     8.1060     9.1910   -79.7500   130.1020  -999.2500  -999.2500  -999.2500  -999.2500  -999.2500
 2200.0000   -72.0880     7.5650     8.0610     8.7940   -79.9510   128.6990  -999.2500  -999.2500  -999.2500  -999.2500  -999.2500
 2200.5000   -73.5410     7.4620     8.0060     9.1880   -80.1520   127.2430  -999.2500  -999.2500  -999.2500  -999.2500  -999.2500
 2201.0000   -74.9940     7.3410     7.9370     9.6800   -80.3530   124.5260  -999.2500  -999.2500  -999.2500  -999.2500  -999.2500
 2201.5000   -76.4480     7.3190     7.8680    10.1600   -80.5550   121.1490  -999.2500  -999.2500  -999.2500  -999.2500  -999.2500
 2202.0000   -77.9010     7.2670     7.7980     9.5380   -80.7560   120.7530  -999.2500  -999.2500  -999.2500  -999.2500  -999.2500
 2202.5000   -79.3540     7.2160     7.7290     8.9540   -80.9570   120.4000  -999.2500  -999.2500  -999.2500  -999.2500  -999.2500
 2203.0000   -80.8070     7.1640     7.6600     8.6100   -81.1590   120.7060  -999.2500  -999.2500  -999.2500  -999.2500  -999.2500
 2203.5000   -82.2610     7.1130     7.5900     8.1130   -81.3590   122.7750  -999.2500  -999.2500  -999.2500  -999.2500  -999.2500
 2204.0000   -84.3290     7.0610     7.5210     8.1350   -81.5600   122.8170  -999.2500  -999.2500  -999.2500  -999.2500  -999.2500
 2204.5000   -88.1300     7.0100     7.4520     8.7090   -81.7650   121.6810  -999.2500  -999.2500  -999.2500  -999.2500  -999.2500
 2205.0000   -91.9310     6.9580     7.3830     8.6850   -81.9060   120.7700  -999.2500  -999.2500  -999.2500  -999.2500  -999.2500
 2205.5000   -95.7320     6.9060     7.3130     8.3300   -81.9050   119.3870  -999.2500  -999.2500  -999.2500  -999.2500  -999.2500
 2206.0000   -99.5320     6.8550     7.2440     8.6720   -81.9060   116.1670  -999.2500  -999.2500  -999.2500  -999.2500  -999.2500
 2206.5000  -102.9410     6.6300     7.0150     8.9860   -81.9090   110.2870  -999.2500  -999.2500  -999.2500  -999.2500  -999.2500
 2207.0000   -99.7350     6.2320     6.6280     9.4520   -81.9160   104.2310  -999.2500  -999.2500  -999.2500  -999.2500  -999.2500
 2207.5000   -96.8280     5.8340     6.2400     9.0210   -82.1140   101.7420  -999.2500  -999.2500  -999.2500  -999.2500  -999.2500
 2208.0000   -93.9220     5.4360     5.8520     8.1860   -82.3370   105.2830  -999.2500  -999.2500  -999.2500  -999.2500  -999.2500
 2208.5000   -91.0150     4.9340     5.4640     7.3500   -82.5710   108.3230  -999.2500  -999.2500  -999.2500  -999.2500  -999.2500
 2209.0000   -88.1080     4.9580     5.2090     6.5140   -82.7850   110.9480  -999.2500  -999.2500  -999.2500  -999.2500  -999.2500
 2209.5000   -85.2020     5.0300     5.3130     5.8050   -83.0100   112.4060  -999.2500  -999.2500  -999.2500  -999.2500  -999.2500
 2210.0000   -82.2950     5.1020     5.5030     5.5990   -82.7960   111.7720  -999.2500  -999.2500  -999.2500  -999.2500  -999.2500
 2210.5000   -79.3890     5.1730     5.6930     5.8050   -82.3750   109.7630  -999.2500  -999.2500  -999.2500  -999.2500  -999.2500
 2211.0000   -76.4820     5.2450     5.8840     7.1270   -81.9950   107.0160  -999.2500  -999.2500  -999.2500  -999.2500  -999.2500
 2211.5000   -73.5760     5.3030     6.0740     8.2610   -81.6840   103.9830  -999.2500  -999.2500  -999.2500  -999.2500  -999.2500
 2212.0000   -70.6690     5.5020     6.2640     9.1170   -81.9350   104.1030  -999.2500  -999.2500  -999.2500  -999.2500  -999.2500
 2212.5000   -67.7620     5.7550     6.4550     8.7360   -81.8660   104.1700  -999.2500  -999.2500  -999.2500  -999.2500  -999.2500
 2213.0000   -64.8560     6.0070     6.6450     8.0950   -81.8730   104.3520  -999.2500  -999.2500  -999.2500  -999.2500  -999.2500
 2213.5000   -63.2540     6.2600     6.8350     7.4540   -81.8510   104.4460  -999.2500  -999.2500  -999.2500  -999.2500  -999.2500
 2214.0000   -62.4820     6.5120     7.0260     6.8290   -81.8330   104.7070  -999.2500  -999.2500  -999.2500  -999.2500  -999.2500
 2214.5000   -61.7100     6.7070     7.2160     7.6540   -81.8200   103.7020  -999.2500  -999.2500  -999.2500  -999.2500  -999.2500
 2215.0000   -60.9370     6.7530     7.4060     8.4590   -81.8020   101.8000  -999.2500  -999.2500  -999.2500  -999.2500  -999.2500
 2215.5000   -60.1650     6.8080     7.4900     9.2650   -81.7860   100.0900  -999.2500  -999.2500  -999.2500  -999.2500  -999.2500
 2216.0000   -59.3930     6.8630     7.5510    10.3460   -81.7700    98.5040  -999.2500  -999.2500  -999.2500  -999.2500  -999.2500
 2216.5000   -58.6210     6.9180     7.6120     9.9620   -81.7530    98.0330  -999.2500  -999.2500  -999.2500  -999.2500  -999.2500
 2217.0000   -57.8490     6.9730     7.6740     9.3800   -81.7370    97.7060  -999.2500  -999.2500  -999.2500  -999.2500  -999.2500
 2217.5000   -57.0770     7.0280     7.7350     8.7970   -81.7200    98.5730  -999.2500  -999.2500  -999.2500  -999.2500  -999.2500
 2218.0000   -56.3050     7.0830     7.7960     8.2150   -81.7040   100.7200  -999.2500  -999.2500  -999.2500  -999.2500  -999.2500
 2218.5000   -55.5330     7.1380     7.8580     8.0340   -81.6880   102.8920  -999.2500  -999.2500  -999.2500  -999.2500  -999.2500
 2219.0000   -54.7610     7.1930     7.9190     8.1810   -81.6710   101.5270  -999.2500  -999.2500  -999.2500  -999.2500  -999.2500
 2219.5000   -53.9890     7.3200     7.9800     9.1130   -81.6550   100.5420  -999.2500  -999.2500  -999.2500  -999.2500  -999.2500
 2220.0000   -53.2170     7.4760     8.0340    11.3230   -81.6390    99.1290  -999.2500  -999.2500  -999.2500  -999.2500  -999.2500
 2220.5000   -52.4450     7.6320     8.1810    11.0800   -81.6220    97.3240  -999.2500  -999.2500  -999.2500  -999.2500  -999.2500
 2221.0000   -51.6730     7.8910     8.1810    10.3340   -81.6060    95.6400  -999.2500  -999.2500  -999.2500  -999.2500  -999.2500
 2221.5000   -50.9010     7.7800     8.1810     9.5880   -81.5900    93.9390  -999.2500  -999.2500  -999.2500  -999.2500  -999.2500
 2222.0000   -50.1290     7.4580     7.9970     8.9540   -81.5730    94.5770  -999.2500  -999.2500  -999.2500  -999.2500  -999.2500
 2222.5000   -49.3570     7.1350     7.6630     9.6150   -81.5570    95.3580  -999.2500  -999.2500  -999.2500  -999.2500  -999.2500
 2223.0000   -48.5850     6.8120     7.3280    10.3460   -81.5430    96.3790  -999.2500  -999.2500  -999.2500  -999.2500  -999.2500
 2223.5000   -47.8120     6.4890     6.9930     9.0050   -81.5160    99.4600  -999.2500  -999.2500  -999.2500  -999.2500  -999.2500
 2224.0000   -47.0400     6.3530     6.6590     6.5870   -81.6020   105.5100  -999.2500  -999.2500  -999.2500  -999.2500  -999.2500
 2224.5000   -46.2680     6.2570     6.5870     6.7070   -81.7770   112.3030  -999.2500  -999.2500  -999.2500  -999.2500  -999.2500
 2225.0000   -45.4960     6.1760     6.5870     7.2540   -81.9390   114.4810  -999.2500  -999.2500  -999.2500  -999.2500  -999.2500
 2225.5000   -44.7240     6.1280     6.5870     8.1730   -82.1020   113.2120  -999.2500  -999.2500  -999.2500  -999.2500  -999.2500
 2226.0000   -45.5290     5.9380     6.5340     9.0920   -82.2670   112.0200  -999.2500  -999.2500  -999.2500  -999.2500  -999.2500
