~VERSION INFORMATION
 VERS.                2.0:   CWLS LOG ASCII STANDARD - VERSION 2.0
 WRAP.                 NO:   ONE LINE PER DEPTH STEP
~WELL INFORMATION
#MNEM.UNIT      DATA TYPE    INFORMATION
#----------   ------------   ------------------------------
 STRT.F          290.0000:   START DEPTH
 STOP.F         2884.0000:   STOP DEPTH
 STEP.F            0.5000:   STEP LENGTH
 NULL.          -999.2500:   NO VALUE
 COMP.   FENNIX & SCISSON:   COMPANY
 WELL. FENIX & SCISSON AX #22-28:   WELL
 FLD .             NPR #3:   FIELD
 LOC .      S28 T39N R78W:   LOCATION
 CNTY.            NATRONA:   COUNTY
 STAT.            WYOMING:   STATE
 CTRY. UNITED STATES OF AMERICA:   COUNTRY
 SRVC.              WELEX:   SERVICE COMPANY
 DATE.        29-DEC-1979:   LOGDATE
 API .     49025107930000:   API NUMBER
~CURVE INFORMATION
#MNEM.UNIT       API CODE    CURVE DESCRIPTION
#----------   ------------   ------------------------------
 DEPT.F                  :   
 GRD .GAPI   45 310 01 00:   GAMMA RAY FROM DENSITY LOG
 CALD.IN     45 280 60 00:   CALIPER FROM DENSITY LOG
 CORR.G/C3   45 356 01 00:   DENSITY CORRECTION
 RHOB.G/C3   45 350 01 00:   BULK DENSITY
 NPHI.DEC    42 890 03 00:   NEUTRON POROSITY SANDSTONE
 SPR .MV     07 010 01 00:   SPONTANEOUS POTENTIAL
 TENR.LBS    07 635 01 00:   TENSION FROM RESISTIVITY
 ILD .OHMM   07 120 46 00:   DEEP INDUCTION RESISTIVITY
 ILM .OHMM   07 120 44 00:   INDUCTION LOG MEDIUM RESISTIVITY
 SGRD.OHMM   07 220 08 00:   LATEROLOG-8 RES.
~PARAMETER INFORMATION
#MNEM.UNIT          VALUE    DESCRIPTION
#----------   ------------   ------------------------------
 EKB .F         4988.0000:   Kelly bushing
 EGL .F         4978.0000:   Ground level
 EPD .F         4978.0000:   Permanent datum
 TD  .F         2872.0000:   Total depth
 CLNT.            A2DTECH:   Client Code
 SL  . 803' FNL & 938' FWL:   Surface Location
 DATE.        29-DEC-1979:   Date Logged [DD-MMM-YYYY]
 DD  .F              2868:   Depth driller
 DL  .F              2872:   Depth logger
 BLI .F              2870:   Bottom log interval
 TLI .F               300:   Top log interval
 CS1 .              8.625:   Casing size
 CBD1.      8.625" @ 318':   Casing driller 1
 CBL1.IN              318:   Casing logger 1
 BS1 .IN            7.875:   Bit size
 BSD1.F              2868:   Depth drilled with bit1
 DFT .          GEL-BENEX:   Type fluid in hole
 DFD .                8.8:   Density
 TCS .HRS              10:   Time Circ. stopped
 MRT .F               109:   Maximum recorded temp.
 ENGI.               REIN:   Recorded By
 WITN.          MR. AMEND:   Witnessed by
 ORIG.      2.5" 5" PRINT:   Origin of data
 UWI .     49025107930000:   Unique Well ID
 DICO. A2D TECHNOLOGIES, INC.:   Digitizing Company
 PD  .                 GL:   Permanent Datum
 LMF .                 KB:   Log Measured From
 DMF .                 KB:   Drilling Measured From
~OTHER INFORMATION
~A   DEPT       GRD        CALD     CORR         RHOB       NPHI      SPR       TENR        ILD        ILM       SGRD   
# ...
 1663.5000   118.7357     8.9303     0.0859     2.3973     0.3033   -64.2030  1558.4822     3.9147     5.2561     5.6633
 1664.0000   118.7683     8.9254     0.0860     2.3951     0.3045   -64.2015  1558.3186     4.1077     5.1133     4.7898
 1664.5000   118.8009     8.9210     0.0763     2.3983     0.3017   -64.2000  1558.1710     4.2819     4.9861     5.2176
 1665.0000   117.9340     8.9166     0.0545     2.4074     0.3001   -64.1985  1558.0234     4.5073     4.9987     6.6843
 1665.5000   117.3670     8.8528     0.0275     2.4586     0.2998   -64.1971  1557.8759     4.7170     5.0548     7.5261
 1666.0000   116.7999     8.7303     0.0196     2.4820     0.3050   -64.1956  1557.7283     4.8957     4.9861     7.0643
 1666.5000   116.2328     8.6540     0.0431     2.4783     0.3090   -64.1941  1557.5807     4.9418     4.9861     6.7427
 1667.0000   116.2654     8.6241     0.0447     2.4611     0.3080   -64.1926  1557.4331     4.3894     4.9861     6.9733
 1667.5000   117.1976     8.6867     0.0309     2.4537     0.3033   -64.1912  1557.2855     4.0790     4.9861     7.4196
 1668.0000   119.9289     8.7496     0.0216     2.4643     0.2989   -64.1897  1557.1379     4.1000     5.0035     6.4475
 1668.5000   121.4792     8.7966     0.0342     2.4742     0.2982   -64.4851  1556.9904     4.3195     5.0548     5.5594
 1669.0000   119.3945     8.8284     0.0484     2.4788     0.2924   -64.4835  1556.8428     4.6926     5.0548     5.6483
 1669.5000   119.1272     8.8958     0.0500     2.4842     0.2886   -64.4820  1556.6952     4.9312     5.0548     6.5081
 1670.0000   121.2996     9.0002     0.0346     2.5091     0.2908   -64.4805  1556.5476     5.1403     5.0548     7.3995
 1670.5000   123.1244     8.8159     0.0176     2.5220     0.2892   -64.4790  1556.3988     5.3251     5.1245     7.8314
 1671.0000   123.4230     8.6779     0.0302     2.5281     0.2863   -64.4776  1556.2500     5.5855     5.1245     6.8665
 1671.5000   121.6647     8.5863     0.0428     2.5335     0.2832   -64.4761  1556.1012     5.9027     5.2191     6.6419
 1672.0000   121.0895     8.5563     0.0476     2.5388     0.2807   -64.4746  1555.9524     6.1530     5.5402     7.8034
 1672.5000   124.1288     8.5572     0.0477     2.5532     0.2847   -64.4731  1555.8036     6.4595     5.9130     8.2682
 1673.0000   122.6622     8.5581     0.0494     2.5601     0.2834   -64.4717  1555.6548     6.8717     6.3568     8.1545
 1673.5000   121.4872     8.5591     0.0448     2.5527     0.2815   -64.4702  1555.5060     7.2170     6.7733     8.9744
 1674.0000   123.3271     8.5600     0.0294     2.5354     0.2805   -64.4688  1555.3572     7.5122     7.0968     9.0217
 1674.5000   125.4587     8.5609     0.0046     2.5294     0.2808   -64.4672  1555.2084     7.8290     7.3552     9.0956
 1675.0000   126.6907     8.5618     0.0140     2.5163     0.2811   -64.4658  1555.0596     7.8753     7.6210     9.2198
 1675.5000   127.9228     8.5627    -0.0030     2.5024     0.2823   -64.4643  1554.9108     7.9840     7.7716     9.2185
 1676.0000   125.2567     8.5636    -0.0184     2.4983     0.2847   -64.4628  1554.7620     7.8753     7.9885     9.2172
 1676.5000   126.1889     8.5489    -0.0074     2.5078     0.2876   -64.4613  1554.6130     7.8753     8.0004     9.2160
 1677.0000   128.3205     8.5346     0.0036     2.5155     0.2905   -64.4599  1554.4642     7.8753     7.8904     9.2147
 1677.5000   126.5540     8.5355     0.0131     2.5137     0.2952   -64.4584  1554.3154     7.6624     7.5718     9.2739
 1678.0000   125.6790     8.5364     0.0163     2.5085     0.3038   -64.4569  1554.1666     7.3537     7.2150     9.2122
 1678.5000   129.0181     8.5373     0.0211     2.5041     0.3082   -64.4554  1554.0178     7.1549     6.9257     9.2109
 1679.0000   129.9949     8.5383     0.0228     2.5012     0.3109   -64.4539  1553.8690     6.9614     6.6911     8.7169
 1679.5000   128.7835     8.5237     0.0245     2.4983     0.3118   -64.4525  1553.7202     6.7732     6.6030     7.9133
 1680.0000   131.8146     8.5227     0.0246     2.4947     0.3111   -64.4510  1553.5714     6.7732     6.7873     7.6164
 1680.5000   136.3450     8.5101     0.0232     2.4896     0.3104   -64.4495  1553.4226     6.7732     6.8307     8.5429
 1681.0000   135.1725     8.4804     0.0217     2.4867     0.3092   -64.1513  1553.2738     6.7732     6.8307     8.4655
 1681.5000   133.6932     8.4659     0.0203     2.4876     0.3076   -64.1498  1553.1250     6.7732     6.7779     8.2476
 1682.0000   132.8136     8.4668     0.0173     2.4780     0.3041   -64.1484  1552.9762     6.6810     6.6847     8.8315
 1682.5000   131.6341     8.4521     0.0192     2.4758     0.3041   -64.1469  1552.8274     6.5003     6.5032     8.7592
 1683.0000   132.0186     8.4532     0.0288     2.4797     0.3041   -64.1454  1552.6787     6.3246     6.3789     8.5900
 1683.5000   134.7499     8.4541     0.0417     2.4813     0.3034   -64.1439  1552.5298     6.2385     6.1223     7.6969
 1684.0000   134.4826     8.4551     0.0536     2.4679     0.3015   -64.1424  1552.3811     5.9872     6.0391     7.1498
 1684.5000   134.2073     8.4560     0.0343     2.4478     0.2990   -64.1410  1552.2322     5.9872     5.9570     7.5901
 1685.0000   134.5479     8.4723     0.0150     2.4277     0.2926   -64.1395  1552.0834     5.9872     5.9570     7.4857
 1685.5000   134.8804     8.4576    -0.0036     2.4098     0.2837   -64.1508  1551.9346     5.9872     6.1223     6.8000
 1686.0000   136.1124     8.4587    -0.0144     2.3964     0.2781   -64.4333  1551.7858     6.3246     6.4668     7.9054
 1686.5000   139.4434     8.4596    -0.0142     2.4123     0.2756   -64.4318  1551.6370     6.6810     6.8307     9.4460
 1687.0000   143.9738     8.4449    -0.0126     2.4251     0.2749   -64.7271  1551.4882     6.9614     7.1169    10.6846
 1687.5000   147.6046     8.4306    -0.0124     2.4359     0.2789   -64.7503  1551.3394     7.3537     7.2150    10.6832
 1688.0000   150.6357     8.4161    -0.0092     2.4441     0.2838   -65.0208  1551.1906     7.6624     7.5174    10.2514
 1688.5000   152.4675     8.4170    -0.0060     2.4264     0.2894   -65.0193  1551.0416     7.9840     7.5174    10.1105
 1689.0000   153.9993     8.4025    -0.0027     2.4095     0.2921   -65.0178  1550.8928     7.5577     7.5174    10.3900
 1689.5000   156.4308     8.4034    -0.0010     2.3959     0.2915   -65.0529  1550.7440     7.2499     7.2150    10.4144
 1690.0000   163.9597     8.4043    -0.0040     2.3865     0.2896   -65.3117  1550.5952     6.9551     6.5559    10.9879
 1690.5000   173.8873     8.4052    -0.0071     2.3832     0.2892   -65.3526  1550.4464     6.6723     6.0391     9.3678
 1691.0000   176.9185     8.4061     0.0133     2.3863     0.2910   -65.9932  1550.2976     6.4063     5.7174     7.0631
 1691.5000   178.1505     8.3916     0.0275     2.3969     0.2906   -66.8393  1550.1488     6.2319     5.7174     6.8826
 1692.0000   179.3825     8.3773     0.0370     2.4128     0.2848   -67.4343  1549.9803     6.1535     6.3789     7.6696
 1692.5000   183.9432     8.3782     0.0309     2.4301     0.2801   -67.6782  1549.8328     6.2478     7.6210     8.9868
 1693.0000   190.3318     8.3635     0.0216     2.4520     0.2760   -67.7339  1549.6852     6.5226     8.3872     9.4515
 1693.5000   195.4666     8.3490     0.0124     2.4648     0.2741   -67.9720  1549.5376     6.9882     9.3576    11.1330
 1694.0000   197.2042     8.3347     0.0078     2.4777     0.2738   -68.0336  1549.3900     7.4870    10.1584    12.2645
 1694.5000   195.3256     8.3356     0.0111     2.4808     0.2781   -68.2657  1549.2424     7.9309    10.5841    13.4988
 1695.0000   196.0782     8.3209     0.0081     2.4652     0.2793   -68.5610  1549.0948     8.7579    10.5841    13.6447
 1695.5000   203.0020     8.3066     0.0051     2.4653     0.2771   -68.8563  1548.9473     9.6207     9.3576    13.4572
 1696.0000   208.7318     8.3075     0.0005     2.4624     0.2742   -68.7794  1548.7997    10.4832     8.9812    14.5055
 1696.5000   206.6390     8.2927    -0.0055     2.4587     0.2736   -68.1815  1548.6521    11.6701     8.9812    15.2723
