~VERSION INFORMATION
 VERS.                2.0:   CWLS LOG ASCII STANDARD - VERSION 2.0
 WRAP.                 NO:   ONE LINE PER DEPTH STEP
~WELL INFORMATION
#MNEM.UNIT      DATA TYPE    INFORMATION
#----------   ------------   ------------------------------
 STRT.F          417.0000:   START DEPTH
 STOP.F         4133.0000:   STOP DEPTH
 STEP.F            0.5000:   STEP LENGTH
 NULL.          -999.2500:   NO VALUE
 COMP.    FENIX & SCISSON:   COMPANY
 WELL. FENIX  "LX" #18-11:   WELL
 FLD .              NPR 3:   FIELD
 LOC .      S11 T38N R78W:   LOCATION
 CNTY.            NATRONA:   COUNTY
 STAT.            WYOMING:   STATE
 CTRY. UNITED STATES OF AMERICA:   COUNTRY
 SRVC.       SCHLUMBERGER:   SERVICE COMPANY
 DATE.        14-JAN-1978:   LOGDATE
 API .     49025105590000:   API NUMBER
~CURVE INFORMATION
#MNEM.UNIT       API CODE    CURVE DESCRIPTION
#----------   ------------   ------------------------------
 DEPT.F                  :   
 SPR .MV     07 010 01 00:   SPONTANEOUS POTENTIAL
 SFL .OHMM   07 220 01 00:   SHALLOW FOCUSED LOG RESISTIVITY
 ILD .OHMM   07 120 46 00:   DEEP INDUCTION RESISTIVITY
 ILM .OHMM   07 120 44 00:   INDUCTION LOG MEDIUM RESISTIVITY
 CALD.IN     45 280 60 00:   CALIPER FROM DENSITY LOG
 GRD .GAPI   45 310 01 00:   GAMMA RAY FROM DENSITY LOG
 RHOB.G/C3   45 350 01 00:   BULK DENSITY
 CORR.G/C3   45 356 01 00:   DENSITY CORRECTION
 NPHI.DEC    42 890 03 00:   NEUTRON POROSITY SANDSTONE
~PARAMETER INFORMATION
#MNEM.UNIT          VALUE    DESCRIPTION
#----------   ------------   ------------------------------
 EKB .F         5220.0000:   Kelly bushing
 EGL .F         5210.0000:   Ground level
 EDF .F            0.0000:   Drilling floor
 TD  .F         4125.0000:   Total depth
 DATE.        14-JAN-1978:   Date logged
 CLNT.            A2DTECH:   Client Code
 SL  . 330' FSL & 530' FWL:   Surface Location
 PD  .                 GL:   Permanent Datum
 EPD .F              5210:   Elevation Permanent Datum
 LMF .                 KB:   Log Measured From
 DMF .                 KB:   Drilling Measured From
 DAPD.F                10:   Feet Above Permanent Datum
 DD  .F              4125:   Depth driller
 DL  .F              4121:   Depth logger
 BLI .F              4116:   Bottom log interval
 TLI .F               427:   Top log interval
 CS1 .IN            8.625:   Casing size
 CBD1.      8.625" @ 513':   Casing driller 1
 CBL1.F               427:   Casing logger 1
 BS1 .IN            7.875:   Bit size
 BSD1.F              4125:   Depth drilled with bit1
 DFT .                KCL:   Type fluid in hole
 DFD .                8.8:   Density
 DFV .                 40:   Viscosity
 DFPH.                 12:   pH
 DFL .                7.4:   Fluid loss
 MSS .           MUD TANK:   Source of sample
 RMS .OHMM           .418:   Rm
 MST .F                60:   Rm Meas. temp.
 RMF .OHMM           .343:   Rmf
 MFST.F                60:   Rmf Meas. temp.
 MFSS.               MEAS:   Source Rmf.
 RMB .OHMM            .20:   Rm. at BHT
 BHT .F               123:   BHT.
 TCS .HRS            0600:   Time Circ. stopped
 TLAB.HRS            0845:   Time logger at bottom
 MRT .F               123:   Maximum recorded temp.
 LUN .               8035:   Logging unit number
 LUL .               CSPR:   Logging unit location
 ENGI.             MARTIN:   Recorded By
 WITN.         HARRINGTON:   Witnessed by
 ORIG.      2.5" 5" PRINT:   Origin of data
 UWI .     49025105590000:   Unique Well ID
 DICO. A2D TECHNOLOGIES, INC.:   Digitizing Company
~OTHER INFORMATION
~A   DEPT      SPR        SFL        ILD        ILM       CALD         GRD      RHOB       CORR       NPHI   
# ...
 2132.5000   -27.8460    10.3250     8.8350     8.3470     9.0720   148.7750     2.4670     0.0030     0.3410
 2133.0000   -27.9120    10.4860     8.7420     8.3470     9.0740   150.2770     2.4730     0.0080     0.3480
 2133.5000   -28.0600    10.7580     8.7550     8.4160     9.0750   151.8430     2.4750     0.0090     0.3560
 2134.0000   -28.2070    11.0300     8.7640     8.4740     9.0760   152.6140     2.4660     0.0060     0.3520
 2134.5000   -28.3550    11.2160     8.7740     8.5320     9.0780   152.6130     2.4560     0.0030     0.3520
 2135.0000   -28.5030    11.1520     8.7840     8.5810     9.0780   151.9840     2.4510     0.0010     0.3600
 2135.5000   -28.6510    11.0510     8.7930     8.6610     9.0780   150.7720     2.4520    -0.0020     0.3660
 2136.0000   -28.7980    10.8660     8.8030     8.6610     9.0780   149.5920     2.4540     0.0000     0.3730
 2136.5000   -28.9460    10.6150     8.8120     8.6210     9.0780   150.3950     2.4600     0.0020     0.3750
 2137.0000   -29.0940    10.6920     8.8220     8.5920     9.0780   150.5980     2.4700     0.0050     0.3750
 2137.5000   -29.2420    10.8100     8.8230     8.5630     9.0780   144.8990     2.4740     0.0070     0.3670
 2138.0000   -29.3890    10.9140     8.8230     8.5340     9.0780   140.2490     2.4790     0.0080     0.3550
 2138.5000   -29.5370    10.8010     8.8230     8.5050     9.0780   135.4390     2.4790     0.0080     0.3430
 2139.0000   -29.6870    10.7010     8.8230     8.4760     9.0780   135.8080     2.4750     0.0070     0.3330
 2139.5000   -29.8320    10.6010     8.8240     8.4470     9.0780   136.6050     2.4700     0.0070     0.3330
 2140.0000   -29.6500    10.5010     8.7680     8.4180     9.0780   137.4900     2.4680     0.0060     0.3440
 2140.5000   -29.4290    10.4010     8.6430     8.3890     9.0780   138.3170     2.4700     0.0060     0.3500
 2141.0000   -28.8820    10.3010     8.5190     8.3600     9.0780   139.2020     2.4720     0.0060     0.3400
 2141.5000   -28.3270    10.2020     8.3950     8.3380     9.0780   141.0540     2.4730     0.0080     0.3310
 2142.0000   -27.8380    10.1020     8.2700     8.2820     9.0780   141.7810     2.4750     0.0100     0.3280
 2142.5000   -27.9200    10.0420     8.3880     8.2260     9.0780   141.9970     2.4740     0.0080     0.3360
 2143.0000   -27.9920    10.0420     8.5020     8.1700     9.0780   142.3960     2.4740     0.0050     0.3510
 2143.5000   -28.0390    10.0420     8.5020     8.1180     9.0780   140.8090     2.4790     0.0030     0.3660
 2144.0000   -27.8570    10.0780     8.4300     8.1180     9.0780   137.6670     2.4870     0.0020     0.3700
 2144.5000   -27.6730    10.4000     8.2850     8.1940     9.0780   133.8650     2.4950     0.0060     0.3640
 2145.0000   -27.4840    10.7210     8.1410     7.9090     9.0780   128.0300     2.5010     0.0120     0.3460
 2145.5000   -27.4980    10.9140     7.9960     7.6600     9.0780   122.2720     2.4890     0.0120     0.3300
 2146.0000   -27.5690     9.9390     7.9700     7.4110     9.0780   121.2370     2.4830     0.0100     0.3140
 2146.5000   -27.6410     8.8690     7.9700     7.1620     9.0780   121.1160     2.4770     0.0090     0.3230
 2147.0000   -27.7120     8.1180     7.9700     6.8730     9.0780   121.3360     2.4740     0.0080     0.3370
 2147.5000   -27.7830     8.8640     7.9700     7.3750     9.0830   122.6820     2.4710     0.0070     0.3520
 2148.0000   -27.8870    10.2890     8.2930     7.8300     9.0890   125.7920     2.4660     0.0060     0.3530
 2148.5000   -28.1830    11.7150     8.8770     8.2840     9.0950   131.0670     2.4600     0.0040     0.3410
 2149.0000   -28.4900    12.5690     9.4610     8.7380     9.1010   132.4580     2.4570     0.0050     0.3410
 2149.5000   -29.1050    12.6450    10.0450     9.1920     9.1080   130.9180     2.4710     0.0080     0.3350
 2150.0000   -29.3540    13.1390    10.6280     9.6470     9.1140   129.6600     2.4800     0.0100     0.3280
 2150.5000   -29.4760    13.8540    11.1610    10.0690     9.1180   128.3830     2.4770     0.0060     0.3180
 2151.0000   -29.6020    14.4560    11.4270    10.4630     9.1150   128.1550     2.4730     0.0030     0.3230
 2151.5000   -29.5220    14.6830    11.6930    10.8560     9.1130   130.9990     2.4650     0.0000     0.3300
 2152.0000   -29.0050    14.9090    11.9590    11.2500     9.1110   133.9910     2.4550    -0.0030     0.3260
 2152.5000   -28.2460    15.1360    12.2250    11.4900     9.1090   135.5300     2.4440    -0.0060     0.3210
 2153.0000   -27.9310    15.3630    12.4920    11.6930     9.1070   137.6720     2.4370    -0.0090     0.3300
 2153.5000   -27.6360    15.5900    12.6540    11.8960     9.1050   139.3980     2.4380    -0.0100     0.3380
 2154.0000   -27.3350    15.8170    12.6540    12.0990     9.1030   143.5070     2.4390    -0.0100     0.3470
 2154.5000   -27.2880    16.0940    12.5380    12.3020     9.1010   151.1430     2.4390    -0.0060     0.3450
 2155.0000   -27.3460    16.0480    12.5380    12.4220     9.0990   155.7560     2.4400     0.0000     0.3390
 2155.5000   -27.4070    15.9890    12.5240    12.3960     9.0970   154.5520     2.4430     0.0040     0.3350
 2156.0000   -27.4680    15.9300    12.3980    12.3060     9.0950   152.6380     2.4420     0.0020     0.3330
 2156.5000   -27.5290    15.8720    12.2710    12.2160     9.0920   150.7620     2.4390    -0.0010     0.3370
 2157.0000   -27.5890    15.8130    12.1440    12.1260     9.0900   148.9810     2.4420    -0.0020     0.3490
 2157.5000   -27.6490    15.6160    12.0170    12.0360     9.0880   147.3650     2.4500    -0.0020     0.3620
 2158.0000   -27.7100    15.3750    11.9710    11.9460     9.0860   148.7630     2.4580     0.0010     0.3620
 2158.5000   -27.7700    15.1330    11.9710    11.8560     9.0840   157.8710     2.4660     0.0020     0.3520
 2159.0000   -27.8300    14.8080    11.9710    11.7660     9.0820   173.5520     2.4640     0.0040     0.3300
 2159.5000   -27.9540    15.2470    11.9710    11.7520     9.0800   188.7930     2.4570     0.0040     0.3380
 2160.0000   -28.0950    15.9130    12.1580    11.7520     9.0790   195.3600     2.4550     0.0040     0.3470
 2160.5000   -28.2360    16.5460    12.4140    11.7520     9.0820   183.0680     2.4520     0.0030     0.3570
 2161.0000   -28.3770    16.4510    12.6710    11.9110     9.0850   168.6530     2.4490     0.0020     0.3570
 2161.5000   -28.5180    16.3610    12.9270    12.1460     9.0880   156.1100     2.4380     0.0020     0.3570
 2162.0000   -28.6590    16.2520    13.1840    12.3800     9.0910   145.1570     2.4340     0.0010     0.3530
 2162.5000   -28.8000    16.7750    13.4410    12.6150     9.0940   140.7500     2.4390     0.0010     0.3410
 2163.0000   -28.9410    17.5360    13.5000    12.8500     9.0970   136.3440     2.4510     0.0040     0.3300
 2163.5000   -29.0840    18.2980    13.5000    13.0850     9.1000   132.3280     2.4630     0.0070     0.3260
 2164.0000   -29.2380    19.3630    13.5000    13.3190     9.1030   128.1610     2.4690     0.0100     0.3130
 2164.5000   -28.7560    19.2480    13.5000    13.5140     9.1060   123.7680     2.4630     0.0090     0.3000
 2165.0000   -28.1910    18.5640    13.3760    13.5760     9.1080   122.0300     2.4560     0.0010     0.2990
 2165.5000   -27.6350    17.4340    13.0390    13.6260     9.1110   124.3920     2.4510    -0.0030     0.2950
 2166.0000   -27.2390    16.1410    12.6510    13.0100     9.1140   129.4810     2.4460    -0.0040     0.2980
 2166.5000   -27.2460    14.8480    12.2630    12.4880     9.1170   132.5390     2.4430    -0.0030     0.3090
 2167.0000   -27.2450    14.1390    11.8760    11.9670     9.1200   134.4630     2.4430     0.0000     0.3270
 2167.5000   -27.2450    14.2100    11.4880    11.4450     9.1230   134.5700     2.4470     0.0030     0.3440
 2168.0000   -27.2450    14.2710    11.0150    10.9240     9.1260   133.3480     2.4510     0.0060     0.3440
 2168.5000   -27.2650    13.6840    11.0380    10.5180     9.1290   131.3850     2.4550     0.0040     0.3360
