~VERSION INFORMATION
 VERS.                2.0:   CWLS LOG ASCII STANDARD - VERSION 2.0
 WRAP.                 NO:   ONE LINE PER DEPTH STEP
~WELL INFORMATION
#MNEM.UNIT      DATA TYPE    INFORMATION
#----------   ------------   ------------------------------
 STRT.F          200.0000:   START DEPTH
 STOP.F         3014.0000:   STOP DEPTH
 STEP.F            0.5000:   STEP LENGTH
 NULL.          -999.2500:   NO VALUE
 COMP.    FENIX & SCISSON:   COMPANY
 WELL. FENIX NPR 3 "AX" #45-28:   WELL
 FLD .                NPR:   FIELD
 LOC .      S28 T39N R78W:   LOCATION
 CNTY.            NATRONA:   COUNTY
 STAT.            WYOMING:   STATE
 CTRY. UNITED STATES OF AMERICA:   COUNTRY
 SRVC.              WELEX:   SERVICE COMPANY
 DATE.        30-SEP-1977:   LOGDATE
 API .     49025104230000:   API NUMBER
~CURVE INFORMATION
#MNEM.UNIT       API CODE    CURVE DESCRIPTION
#----------   ------------   ------------------------------
 DEPT.F                  :   
 SPR .MV     07 010 01 00:   SPONTANEOUS POTENTIAL
 TENR.LBS    07 635 01 00:   TENSION
 SFL .OHMM   07 220 01 00:   SHALLOW FOCUSED LOG RESISTIVITY
 ILD .OHMM   07 120 46 00:   INDUCTION LOG DEEP RESISTIVITY
 ILM .OHMM   07 120 44 00:   INDUCTION LOG MEDIUM RESISTIVITY
 TEND.LBS    45 635 01 00:   TENSION FROM DENSITY LOG
 CALD.IN     45 280 60 00:   CALIPER FROM DENSITY LOG
 RHOB.G/C3   45 350 01 00:   BULK DENSITY
 CORR.G/C3   45 356 01 00:   DENSITY CORRECTION
 GRD .GAPI   45 310 01 00:   GAMMA RAY FROM DENSITY LOG
~PARAMETER INFORMATION
#MNEM.UNIT          VALUE    DESCRIPTION
#----------   ------------   ------------------------------
 EKB .F         5075.0000:   Kelly bushing
 EGL .F         5065.0000:   Ground level
 EDF .F            0.0000:   Drilling floor
 E TD.F         3008.0000:   Total depth
 DATE.        30-SEP-1977:   Date logged
 CLNT.            A2DTECH:   Client Code
 SL  . 2210' FSL & 2310' FWL:   Surface Location
 PD  .                 GL:   Permanent Datum
 EPD .F              5065:   Elevation Permanent Datum
 LMF .                 KB:   Log Measured From
 DMF .                 KB:   Drilling Measured From
 DAPD.F                10:   Feet Above Permanent Datum
 DD  .F              3005:   Depth driller
 DL  .F              3008:   Depth logger
 BLI .F              3006:   Bottom log interval
 TLI .F               200:   Top log interval
 CS1 .IN            8.625:   Casing size
 CBD1.      8.625" @ 205':   Casing driller 1
 CBL1.F               220:   Casing logger 1
 BS1 .IN            7.875:   Bit size
 BSD1.F              3005:   Depth drilled with bit1
 DFT .            KCL/MUD:   Type fluid in hole
 DFD .                9.1:   Density
 DFV .                 38:   Viscosity
 DFPH.                 11:   pH
 DFL .                6.8:   Fluid loss
 MSS .           FLOWLINE:   Source of sample
 RMS .OHMM            .31:   Rm
 MST .F                78:   Rm Meas. temp.
 RMF .OHMM            .15:   Rmf
 MFST.F                78:   Rmf Meas. temp.
 RMC .OHMM           1.02:   Rmc
 MCST.F                78:   Rmc Meas. temp.
 MFSS.               FANN:   Source Rmf.
 MCSS.                KIT:   Source Rmc.
 RMB .OHMM            .20:   Rm. at BHT
 BHT .F               117:   BHT.
 TCS .HRS               3:   Time Circ. stopped
 MRT .F               117:   Maximum recorded temp.
 LUN .               8611:   Logging unit number
 LUL .             CASPER:   Logging unit location
 ENGI.         G. BENTSEN:   Recorded By
 WITN.         HARRINGTON:   Witnessed by
 ORIG.           5" PRINT:   Origin of data
 UWI .     49025104230000:   Unique Well ID
 DICO. A2D TECHNOLOGIES, INC.:   Digitizing Company
~OTHER INFORMATION
~A   DEPT      SPR        TENR       SFL        ILD        ILM       TEND       CALD       RHOB       CORR        GRD   
# ...
 2243.5000   -68.9290   753.4040     4.4770     3.6250     3.8300   942.1730     9.1380     2.4160     0.0020   118.2800
 2244.0000   -68.8990   753.1620     4.7620     3.7780     4.0080   942.1730     9.1390     2.4350     0.0010   117.1020
 2244.5000   -68.8460   752.9200     4.4230     3.9320     4.1850   942.1730     9.1400     2.4540     0.0020   113.4690
 2245.0000   -68.7780   752.6780     4.7010     4.0850     4.3620   942.1730     9.1410     2.4710     0.0030   109.8550
 2245.5000   -68.7100   752.4360     4.9950     4.2380     4.5390   942.1730     9.1420     2.4790     0.0040   106.2410
 2246.0000   -68.6420   752.1930     5.2900     4.3920     4.7160   942.1730     9.1430     2.4880     0.0060   102.6250
 2246.5000   -68.5740   751.9510     5.3690     4.5450     4.8940   942.1730     9.1440     2.4960     0.0070    99.0070
 2247.0000   -68.5060   751.7090     5.4870     4.6980     5.0710   942.1730     9.1450     2.5010     0.0080    95.3950
 2247.5000   -68.4380   751.4670     6.4390     4.8520     5.2480   942.1730     9.1460     2.5010     0.0100    91.8110
 2248.0000   -68.3700   751.2250     7.2060     5.0800     5.3690   942.1730     9.1470     2.5000     0.0100    86.7710
 2248.5000   -68.3020   750.9830     6.5670     5.0680     5.3110   942.1730     9.1490     2.4950     0.0100    89.7040
 2249.0000   -68.2340   750.7410     6.0340     5.0450     5.2670   942.1730     9.1500     2.4900     0.0100    95.5690
 2249.5000   -68.1660   750.4990     6.3980     5.0220     5.2230   942.1730     9.1510     2.4840     0.0090   101.5850
 2250.0000   -68.0980   750.2570     5.4690     4.9870     5.1740   942.1730     9.1510     2.4790     0.0090   104.3890
 2250.5000   -68.0300   750.0150     5.5200     5.1220     5.3350   942.1730     9.1510     2.4770     0.0090   103.2040
 2251.0000   -67.9620   749.7730     6.1880     5.3690     5.6220   942.1730     9.1510     2.4840     0.0080   101.0060
 2251.5000   -67.8940   749.5310     6.7980     5.3240     5.6010   942.1730     9.1480     2.4920     0.0080    98.6970
 2252.0000   -67.8260   749.2890     7.4090     5.2820     5.5570   942.1730     9.1430     2.4990     0.0070    96.4310
 2252.5000   -67.7580   749.0460     6.1090     5.2400     5.5130   942.1730     9.1370     2.5010     0.0070    97.9250
 2253.0000   -67.6960   748.8040     6.1820     5.1980     5.4680   942.1730     9.1320     2.4950     0.0070   101.2180
 2253.5000   -67.7120   748.5620     6.3360     5.1570     5.4240   942.1730     9.1260     2.4900     0.0060   103.8930
 2254.0000   -67.7310   748.3200     6.4910     5.1150     5.3800   942.1730     9.1210     2.4930     0.0060   102.2260
 2254.5000   -67.7490   748.0780     6.6840     5.0730     5.3360   942.1730     9.1150     2.5010     0.0050   100.1050
 2255.0000   -67.7660   748.1480     6.5190     5.0320     5.2920   942.1730     9.1090     2.5090     0.0050    98.1550
 2255.5000   -67.7840   748.3900     6.2390     4.9900     5.2470   942.1730     9.1040     2.5130     0.0050    99.6570
 2256.0000   -67.8020   748.6320     5.9580     4.9410     5.2220   942.1730     9.0980     2.5080     0.0040   102.3380
 2256.5000   -67.8200   748.8740     5.6070     5.0530     5.3890   942.1730     9.0930     2.5010     0.0040   104.9990
 2257.0000   -67.8380   749.1160     5.9920     5.1890     5.5250   942.1730     9.0920     2.4950     0.0030   106.2700
 2257.5000   -67.8560   749.3580     6.6710     5.3240     5.6610   942.1730     9.0960     2.4960     0.0030   101.3780
 2258.0000   -67.8750   749.6000     7.3510     5.4600     5.7970   942.1730     9.1000     2.5000     0.0030    97.4080
 2258.5000   -67.8890   749.8420     7.5900     5.5950     5.9330   942.1730     9.1040     2.5040     0.0020    93.6060
 2259.0000   -67.7710   750.0840     7.6950     5.7310     6.0690   942.1730     9.1080     2.5080     0.0010    95.7770
 2259.5000   -67.6430   750.3260     7.4380     5.8670     6.2050   942.1730     9.1120     2.5110     0.0020    99.8090
 2260.0000   -67.5160   750.5670     7.2800     6.0020     6.3410   942.1730     9.1160     2.5100     0.0030    97.9770
 2260.5000   -67.3890   750.8090     7.5980     6.1380     6.4220   942.1730     9.1200     2.5100     0.0030    94.0540
 2261.0000   -67.2610   751.0510     7.9840     6.2280     6.4860   942.1730     9.1240     2.5090     0.0040    90.1430
 2261.5000   -67.1300   751.2930     7.8070     6.2580     6.5500   942.1730     9.1280     2.5130     0.0050    86.1990
 2262.0000   -67.1070   751.5350     7.4930     6.2880     6.6140   942.1730     9.1310     2.5170     0.0060    81.7730
 2262.5000   -67.1180   751.7770     7.2800     6.3180     6.6780   942.1730     9.1350     2.5210     0.0070    83.9500
 2263.0000   -67.1300   752.0190     7.6700     6.3480     6.7420   942.1730     9.1390     2.5240     0.0080    87.2980
 2263.5000   -67.1420   752.2610     7.9580     6.3770     6.8060   942.1730     9.1430     2.5250     0.0080    90.6570
 2264.0000   -67.1540   752.5030     8.1920     6.4070     6.8700   942.1730     9.1470     2.5210     0.0090    94.0010
 2264.5000   -67.1660   752.7450     8.0690     6.4370     6.9520   942.1730     9.1510     2.5180     0.0100    96.0580
 2265.0000   -67.1780   752.9870     7.9110     6.4570     6.8770   942.1730     9.1420     2.5140     0.0110    96.1800
 2265.5000   -67.1900   753.2290     7.9510     6.3550     6.7730   942.1730     9.1330     2.5110     0.0120    96.3230
 2266.0000   -67.2020   753.4710     8.0080     6.2640     6.6690   942.1730     9.1240     2.5130     0.0120    96.6290
 2266.5000   -67.2140   753.7130     8.0580     6.1730     6.5650   942.1730     9.1160     2.5150     0.0120    97.7510
 2267.0000   -67.2260   753.9550     7.5790     6.0820     6.4610   942.1730     9.1070     2.5160     0.0110   100.4460
 2267.5000   -67.2380   754.1970     7.1450     5.9910     6.3570   942.1730     9.0980     2.5170     0.0090   105.0060
 2268.0000   -67.2500   754.4390     6.7110     5.9010     6.2530   942.1730     9.0890     2.5120     0.0080   110.2930
 2268.5000   -67.2620   754.6810     6.3980     5.8100     6.1490   942.1730     9.0800     2.5070     0.0070   108.8760
 2269.0000   -67.2740   754.9230     7.0170     5.7190     6.0450   942.1730     9.0710     2.5020     0.0060   106.4710
 2269.5000   -67.2860   755.1650     8.4390     5.6280     5.9410   942.1730     9.0620     2.4970     0.0050   104.0060
 2270.0000   -67.2810   755.4070     8.2060     5.5370     5.7800   942.1730     9.0540     2.4920     0.0040   101.5180
 2270.5000   -67.1930   755.6490     7.7040     5.4690     5.8500   942.1730     9.0450     2.4880     0.0030    99.1350
 2271.0000   -67.1060   755.8910     7.2010     5.6200     6.0020   942.1730     9.0360     2.4830     0.0020   103.4370
 2271.5000   -67.0190   756.1330     6.5480     5.7630     6.1540   942.1730     9.0270     2.4780     0.0010   108.6100
 2272.0000   -66.9310   756.3750     6.6560     5.9060     6.3060   942.1730     9.0180     2.4740     0.0000   113.8080
 2272.5000   -66.8440   756.6170     6.8730     6.0490     6.4580   942.1730     9.0090     2.4880     0.0010   116.5140
 2273.0000   -66.7570   756.8590     7.0910     6.1920     6.6100   942.1730     9.0000     2.5020     0.0040   112.3530
 2273.5000   -66.6700   757.1010     7.3080     6.3350     6.7620   942.1730     8.9920     2.5160     0.0080   107.8270
 2274.0000   -66.5820   757.3430     8.8270     6.4790     6.9140   942.1730     8.9830     2.5300     0.0110   103.2230
 2274.5000   -66.4950   757.5850     9.5140     6.6220     7.0660   942.1730     8.9740     2.5380     0.0120    98.6130
 2275.0000   -66.4080   757.8270     9.6030     6.7650     7.2180   942.1730     8.9740     2.5290     0.0120    94.1270
 2275.5000   -66.3200   758.0690     9.3290     6.9080     7.3700   942.1730     8.9810     2.5240     0.0120    92.4080
 2276.0000   -66.2330   758.3110     8.8600     7.0510     7.5220   942.1730     8.9880     2.5260     0.0120    90.5900
 2276.5000   -66.1460   758.5530     8.3910     7.1180     7.6040   942.1730     8.9950     2.5210     0.0120    92.5760
