~VERSION INFORMATION
 VERS.                2.0:   CWLS LOG ASCII STANDARD - VERSION 2.0
 WRAP.                 NO:   ONE LINE PER DEPTH STEP
~WELL INFORMATION
#MNEM.UNIT      DATA TYPE    INFORMATION
#----------   ------------   ------------------------------
 STRT.F          620.0000:   START DEPTH
 STOP.F         4350.5000:   STOP DEPTH
 STEP.F            0.5000:   STEP LENGTH
 NULL.          -999.2500:   NO VALUE
 COMP.    FENIX & SCISSON:   COMPANY
 WELL. FENIX NPR 3 "LX" #25-10:   WELL
 FLD .                NPR:   FIELD
 LOC .      S10 T38N R78W:   LOCATION
 CNTY.            NATRONA:   COUNTY
 STAT.            WYOMING:   STATE
 CTRY. UNITED STATES OF AMERICA:   COUNTRY
 SRVC.              WELEX:   SERVICE COMPANY
 DATE.        06-MAR-1980:   LOGDATE
 API .     49025108070000:   API NUMBER
~CURVE INFORMATION
#MNEM.UNIT       API CODE    CURVE DESCRIPTION
#----------   ------------   ------------------------------
 DEPT.F                  :   
 CALD.IN     45 280 60 00:   CALIPER FROM DENSITY LOG
 GRD .GAPI   45 310 01 00:   GAMMA RAY FROM DENSITY LOG
 RHOB.G/C3   45 350 01 00:   BULK DENSITY
 CORR.G/C3   45 356 01 00:   DENSITY CORRECTION
 NPHI.DEC    42 890 03 00:   NEUTRON POROSITY SANDSTONE
 SPR .MV     07 010 01 00:   SPONTANEOUS POTENTIAL
 ILD .OHMM   07 120 46 00:   DEEP INDUCTION RESISTIVITY
 ILM .OHMM   07 120 44 00:   INDUCTION LOG MEDIUM RESISTIVITY
 SGRD.OHMM   07 220 05 00:   SHALLOW SHORT GUARD RESISTIVITY
~PARAMETER INFORMATION
#MNEM.UNIT          VALUE    DESCRIPTION
#----------   ------------   ------------------------------
 EKB .F         5247.0000:   Kelly bushing
 EGL .F         5237.0000:   Ground level
 EDF .F            0.0000:   Drilling floor
 TD  .F         4352.0000:   Total depth
 DATE.        06-MAR-1980:   Date logged
 CLNT.            A2DTECH:   Client Code
 SL  . 1075' FWL & 2450' FSL:   Surface Location
 PD  .                 GL:   Permanent Datum
 EPD .F              5237:   Elevation Permanent Datum
 LMF .                 KB:   Log Measured From
 DMF .                 KB:   Drilling Measured From
 DAPD.F                10:   Feet Above Permanent Datum
 DD  .F              4350:   Depth driller
 DL  .F              4352:   Depth logger
 BLI .F              4350:   Bottom log interval
 TLI .F               630:   Top log interval
 CS1 .IN            8.625:   Casing size
 CBD1.      8.625" @ 600':   Casing driller 1
 CBL1.F               632:   Casing logger 1
 BS1 .IN            7.875:   Bit size
 BSD1.F              4350:   Depth drilled with bit1
 DFT .           CHEM/GEL:   Type fluid in hole
 DFD .                8.9:   Density
 DFV .                 47:   Viscosity
 DFPH.               10.3:   pH
 DFL .                 10:   Fluid loss
 MSS .           FLOWLINE:   Source of sample
 RMS .OHMM            .89:   Rm
 MST .F                90:   Rm Meas. temp.
 RMF .OHMM            .71:   Rmf
 MFST.F                90:   Rmf Meas. temp.
 RMC .OHMM           1.06:   Rmc
 MCST.F                90:   Rmc Meas. temp.
 MFSS.               MEAS:   Source Rmf.
 MCSS.               MEAS:   Source Rmc.
 RMB .OHMM            .60:   Rm. at BHT
 BHT .F               112:   BHT.
 TCS .HRS               1:   Time Circ. stopped
 MRT .F               132:   Maximum recorded temp.
 LUN .               1892:   Logging unit number
 LUL .             CASPER:   Logging unit location
 ENGI.               REIN:   Recorded By
 WITN.           DINSMORE:   Witnessed by
 ORIG.           5" PRINT:   Origin of data
 UWI .     49025108070000:   Unique Well ID
 DICO. A2D TECHNOLOGIES, INC.:   Digitizing Company
~OTHER INFORMATION
~A   DEPT     CALD        GRD       RHOB       CORR       NPHI         SPR       ILD        ILM         SGRD 
# ...
 3284.5000    10.8280    93.8770     2.1590    -0.1090     0.1090   -27.8660     5.2970     6.8830     7.4310
 3285.0000    10.8320    95.0480     2.1590    -0.1080     0.1140   -27.9370     5.2840     7.6590     7.9030
 3285.5000    10.8360    94.8420     2.1600    -0.1080     0.1190   -28.0080     5.2700     7.5090     8.8780
 3286.0000    10.8400    95.6930     2.1640    -0.1070     0.1240   -28.0740     5.2570     7.2180     8.2950
 3286.5000    10.8440    97.6760     2.1710    -0.1060     0.1260   -28.1530     5.2440     6.9280     7.3820
 3287.0000    10.8480    99.5360     2.1770    -0.1060     0.1290   -28.2160     5.2310     6.6370     6.9160
 3287.5000    10.8510    98.5480     2.1820    -0.1050     0.1310   -28.2450     5.2190     6.3460     6.4950
 3288.0000    10.8550    97.1040     2.1800    -0.1040     0.1340   -27.9090     5.2060     6.0250     6.3450
 3288.5000    10.8590    95.1810     2.1730    -0.1050     0.1360   -27.6310     5.1280     5.9490     6.2680
 3289.0000    10.8630    93.3830     2.1610    -0.1090     0.1390   -27.3260     4.9850     5.8640     6.1900
 3289.5000    10.8670    91.7290     2.1530    -0.1130     0.1410   -27.0320     4.8420     5.7790     6.1120
 3290.0000    10.8710    91.7870     2.1480    -0.1180     0.1440   -26.7420     4.6990     5.6940     6.0250
 3290.5000    10.8750    92.9000     2.1500    -0.1180     0.1430   -26.4370     4.5560     5.6090     5.9360
 3291.0000    10.8790    94.0180     2.1520    -0.1120     0.1420   -26.1490     4.4130     5.5240     5.8340
 3291.5000    10.8830    94.0440     2.1690    -0.1060     0.1400   -25.9230     4.2710     5.4390     5.7320
 3292.0000    10.8870    93.2740     2.1800    -0.1000     0.1390   -26.2170     4.1570     5.3540     5.6310
 3292.5000    10.8910    93.7300     2.1910    -0.0980     0.1410   -26.4760     4.1230     5.2690     5.5290
 3293.0000    10.8950    94.8900     2.1950    -0.0950     0.1450   -26.7650     4.0890     5.1840     5.3890
 3293.5000    10.8990    95.2470     2.1930    -0.0930     0.1440   -27.0390     4.0560     5.1030     5.3700
 3294.0000    10.8960    94.2070     2.1880    -0.0900     0.1420   -27.3090     4.0220     5.0840     5.3510
 3294.5000    10.8840    93.2750     2.1840    -0.0880     0.1390   -27.6020     3.9890     5.0670     5.3320
 3295.0000    10.8740    92.2340     2.1750    -0.0880     0.1350   -27.6020     3.9550     5.0490     5.3130
 3295.5000    10.8630    92.2150     2.1660    -0.0970     0.1320   -27.4510     3.9220     5.0310     5.2950
 3296.0000    10.8880    92.6110     2.1580    -0.1050     0.1290   -27.3170     3.8690     5.0100     5.2950
 3296.5000    10.9160    93.3220     2.1490    -0.1120     0.1250   -27.1820     3.8770     5.0100     5.5750
 3297.0000    10.9410    93.9820     2.1390    -0.1190     0.1230   -27.1140     3.8950     5.0100     5.7010
 3297.5000    10.9520    94.6630     2.1350    -0.1250     0.1200   -27.2420     3.9130     5.0100     5.6480
 3298.0000    10.9620    94.8600     2.1400    -0.1250     0.1160   -27.3580     3.9310     5.0100     5.5840
 3298.5000    10.9720    93.5160     2.1480    -0.1210     0.1110   -27.4800     3.9490     5.0100     5.4940
 3299.0000    10.9800    92.3880     2.1510    -0.1160     0.1070   -27.6260     3.9670     5.0410     5.5970
 3299.5000    10.9770    91.1710     2.1520    -0.1160     0.1020   -27.5270     3.9860     5.1920     5.7080
 3300.0000    10.9740    89.9870     2.1530    -0.1160     0.1000   -27.1040     4.0040     5.3420     5.9830
 3300.5000    10.9710    88.8000     2.1570    -0.1170     0.1000   -26.6980     4.0980     5.4920     6.2570
 3301.0000    10.9690    87.6150     2.1610    -0.1180     0.1000   -26.3040     4.3090     5.6420     6.6690
 3301.5000    10.9660    86.4040     2.1650    -0.1180     0.1000   -25.9180     4.5190     5.7930     7.1750
 3302.0000    10.9630    85.4060     2.1680    -0.1190     0.1010   -25.9640     4.7300     5.9150     7.6810
 3302.5000    10.9610    84.8650     2.1720    -0.1190     0.1030   -26.0200     4.9400     6.4410     8.1870
 3303.0000    10.9580    84.8310     2.1730    -0.1150     0.1060   -26.0940     5.1510     6.8840     8.4000
 3303.5000    10.9550    85.8520     2.1740    -0.1100     0.1080   -26.1560     5.4570     7.2010     8.5850
 3304.0000    10.9520    87.3510     2.1770    -0.1070     0.1090   -26.2230     5.7910     7.6590     8.7160
 3304.5000    10.9500    88.8730     2.1820    -0.1060     0.1090   -26.2900     6.1380     7.6030     8.2810
 3305.0000    10.9470    89.8790     2.1860    -0.1040     0.1100   -26.3560     6.0400     7.4500     7.9080
 3305.5000    10.9440    90.3750     2.1820    -0.1030     0.1140   -26.4220     5.9380     7.2960     7.5190
 3306.0000    10.9400    90.9010     2.1790    -0.1020     0.1160   -26.4880     5.8360     7.1420     7.3850
 3306.5000    10.9510    91.4600     2.1760    -0.1010     0.1230   -26.5540     5.7350     6.9890     7.2450
 3307.0000    10.9700    91.9960     2.1750    -0.1000     0.1210   -26.6210     5.6330     6.8350     7.1050
 3307.5000    10.9880    92.3570     2.1780    -0.1010     0.1190   -26.6860     5.5310     6.6810     6.9650
 3308.0000    11.0050    91.5370     2.1770    -0.1030     0.1190   -26.7530     5.4290     6.5000     6.7310
 3308.5000    11.0160    90.6250     2.1740    -0.1050     0.1200   -26.8200     5.3280     6.5280     6.7710
 3309.0000    10.9760    90.1520     2.1690    -0.1060     0.1200   -26.8820     5.2260     6.5830     6.8900
 3309.5000    10.9420    90.3200     2.1620    -0.1090     0.1230   -26.9570     5.1700     6.6380     7.0090
 3310.0000    10.9060    91.9320     2.1550    -0.1140     0.1260   -27.0120     5.1310     6.7310     7.1140
 3310.5000    10.8700    93.4290     2.1470    -0.1190     0.1290   -27.0590     5.0920     6.6770     7.1140
 3311.0000    10.8620    94.5070     2.1380    -0.1210     0.1270   -26.6710     5.0530     6.5080     7.1140
 3311.5000    10.8670    93.6190     2.1250    -0.1240     0.1250   -26.2760     5.0100     6.3390     6.8600
 3312.0000    10.8720    92.0490     2.1230    -0.1260     0.1220   -25.8710     4.9870     6.1700     6.5020
 3312.5000    10.8770    90.6740     2.1260    -0.1280     0.1220   -25.4380     4.9620     6.0000     6.2520
 3313.0000    10.8810    89.1220     2.1300    -0.1300     0.1200   -25.4270     4.9370     5.9150     6.1380
 3313.5000    10.8860    89.7560     2.1280    -0.1340     0.1190   -25.7230     4.9120     5.9610     6.3550
 3314.0000    10.8910    90.5430     2.1270    -0.1390     0.1180   -25.9810     4.8870     6.1180     6.6680
 3314.5000    10.8950    91.3360     2.1250    -0.1430     0.1180   -26.2390     4.8620     6.2750     6.9800
 3315.0000    10.9000    91.3990     2.1270    -0.1390     0.1190   -26.5120     4.8280     6.4320     7.2930
 3315.5000    10.8990    90.9570     2.1330    -0.1360     0.1190   -26.7580     4.8950     6.6080     7.4870
 3316.0000    10.8960    89.9750     2.1400    -0.1330     0.1170   -27.0660     4.9920     6.6080     7.3690
 3316.5000    10.8930    89.0920     2.1430    -0.1290     0.1140   -26.9890     5.1030     6.6080     7.2510
 3317.0000    10.8910    90.0750     2.1450    -0.1270     0.1110   -26.7360     5.1780     6.6390     7.1330
 3317.5000    10.8880    91.0800     2.1470    -0.1280     0.1070   -26.4850     5.2640     6.7060     7.0150
 3318.0000    10.8860    91.8820     2.1520    -0.1270     0.1030   -26.2490     5.3490     6.7730     6.8560
 3318.5000    10.8830    91.1660     2.1550    -0.1270     0.1030   -25.9690     5.4350     6.8400     7.1110
 3319.0000    10.8810    90.6210     2.1540    -0.1270     0.1030   -26.0690     5.5210     6.9070     7.5000
 3319.5000    10.8780    89.7000     2.1540    -0.1270     0.1040   -26.4490     5.6070     6.9840     7.8890
 3320.0000    10.8750    90.9820     2.1540    -0.1280     0.1040   -26.7860     5.6930     7.0910     8.2780
 3320.5000    10.8730    91.8450     2.1540    -0.1270     0.1080   -27.1230     5.7790     7.3330     8.6670
