~VERSION INFORMATION
 VERS.                2.0:   CWLS LOG ASCII STANDARD - VERSION 2.0
 WRAP.                 NO:   ONE LINE PER DEPTH STEP
~WELL INFORMATION
#MNEM.UNIT      DATA TYPE    INFORMATION
#----------   ------------   ------------------------------
 STRT.F          230.0000:   START DEPTH
 STOP.F         3480.0000:   STOP DEPTH
 STEP.F            0.5000:   STEP LENGTH
 NULL.          -999.2500:   NO VALUE
 COMP.    FENIX & SCISSON:   COMPANY
 WELL. FENIX NPR 3 "AX" #33-15:   WELL
 FLD .                NPR:   FIELD
 LOC .      S15 T38N R78W:   LOCATION
 CNTY.            NATRONA:   COUNTY
 STAT.            WYOMING:   STATE
 CTRY. UNITED STATES OF AMERICA:   COUNTRY
 SRVC.       SCHLUMBERGER:   SERVICE COMPANY
 DATE.        19-MAR-1981:   LOGDATE
 API .     49025108760000:   API NUMBER
~CURVE INFORMATION
#MNEM.UNIT       API CODE    CURVE DESCRIPTION
#----------   ------------   ------------------------------
 DEPT.F                  :   
 TENR.LBS    07 635 01 00:   TENSION
 SFL .OHMM   07 220 01 00:   SHALLOW FOCUSED LOG RESISTIVITY
 ILM .OHMM   07 120 44 00:   INDUCTION LOG MEDIUM RESISTIVITY
 ILD .OHMM   07 120 46 00:   INDUCTION LOG DEEP RESISTIVITY
 SPR .MV     07 010 01 00:   SPONTANEOUS POTENTIAL
 CALD.IN     45 280 60 00:   CALIPER FROM DENSITY LOG
 GRD .GAPI   45 310 01 00:   GAMMA RAY FROM DENSITY LOG
 CORR.G/C3   45 356 01 00:   DENSITY CORRECTION
 RHOB.G/C3   45 350 01 00:   BULK DENSITY
~PARAMETER INFORMATION
#MNEM.UNIT          VALUE    DESCRIPTION
#----------   ------------   ------------------------------
 EKB .F         5286.0000:   Kelly bushing
 EGL .F         5276.0000:   Ground level
 EDF .F            0.0000:   Drilling floor
 TD  .F         3500.0000:   Total depth
 DATE.        19-MAR-1981:   Date logged
 CLNT.            A2DTECH:   Client Code
 SL  . 1545' FNL & 1467' FWL:   Surface Location
 PD  .                 GL:   Permanent Datum
 EPD .F              5276:   Elevation Permanent Datum
 LMF .                 KB:   Log Measured From
 DMF .                 KB:   Drilling Measured From
 DAPD.F                10:   Feet Above Permanent Datum
 DD  .F              3500:   Depth driller
 DL  .F              3476:   Depth logger
 BLI .F              3470:   Bottom log interval
 TLI .F               234:   Top log interval
 CS1 .IN            8.625:   Casing size
 CBD1.      8.625" @ 250':   Casing driller 1
 CBL1.F               234:   Casing logger 1
 BS1 .IN            7.875:   Bit size
 BSD1.F              3500:   Depth drilled with bit1
 DFT .                FGM:   Type fluid in hole
 DFD .                8.9:   Density
 DFV .                 39:   Viscosity
 DFPH.                9.5:   pH
 DFL .                 10:   Fluid loss
 MSS .               TANK:   Source of sample
 RMS .OHMM           2.26:   Rm
 MST .F                54:   Rm Meas. temp.
 RMF .OHMM           1.60:   Rmf
 MFST.F                54:   Rmf Meas. temp.
 MFSS.               MEAS:   Source Rmf.
 RMB .OHMM            .87:   Rm. at BHT
 BHT .F               140:   BHT.
 TCS .HRS            1030:   Time Circ. stopped
 TLAB.HRS            1300:   Time logger at bottom
 MRT .F               140:   Maximum recorded temp.
 LUN .               8039:   Logging unit number
 LUL .               CSPR:   Logging unit location
 ENGI.           C. PFARR:   Recorded By
 WITN.           R. SCOTT:   Witnessed by
 ORIG.     2.5", 5" PRINT:   Origin of data
 UWI .     49025108760000:   Unique Well ID
 DICO. A2D TECHNOLOGIES, INC.:   Digitizing Company
~OTHER INFORMATION
~A   DEPT     TENR          SFL      ILM        ILD        SPR         CALD       GRD      CORR         RHOB 
# ...
 2785.0000  1551.6960     7.1800     4.3760     4.3760   -30.8170     8.7650   119.0280     0.0390     2.5720
 2785.5000  1552.4170     6.4580     4.2550     4.2550   -30.6310     8.7650   120.3240     0.0310     2.5510
 2786.0000  1553.1370     5.9050     4.1430     4.1430   -30.4380     8.7640   122.5160     0.0220     2.5340
 2786.5000  1553.8580     5.2800     4.0630     4.0630   -30.2690     8.7630   128.1040     0.0240     2.5280
 2787.0000  1554.5780     4.6550     4.1020     4.0630   -30.0610     8.7620   131.2000     0.0260     2.5340
 2787.5000  1555.2990     4.2170     4.1810     4.1540   -29.8740     8.7610   131.8800     0.0280     2.5380
 2788.0000  1556.0190     5.2970     4.2590     4.2840   -29.5260     8.7600   129.5840     0.0280     2.5430
 2788.5000  1556.7400     6.4970     4.3380     4.4130   -29.5810     8.7580   122.5430     0.0290     2.5510
 2789.0000  1557.4600     7.2170     4.4160     4.5430   -29.5580     8.7570   120.2200     0.0270     2.5520
 2789.5000  1558.1810     6.8960     4.4940     4.6730   -29.5630     8.7560   119.9680     0.0240     2.5450
 2790.0000  1558.9010     5.9500     4.6260     4.8030   -29.5650     8.7550   121.4040     0.0230     2.5450
 2790.5000  1559.6219     6.0950     4.6120     4.8910   -29.5620     8.7540   124.5530     0.0210     2.5610
 2791.0000  1560.3420     6.3850     4.5700     4.7580   -29.5630     8.7520   127.1930     0.0140     2.5620
 2791.5000  1561.0630     6.5790     4.4750     4.6140   -29.5640     8.7510   127.0830     0.0080     2.5530
 2792.0000  1561.7830     6.4840     4.2750     4.3760   -29.5630     8.7500   125.5750     0.0040     2.5460
 2792.5000  1562.5040     5.9080     4.0630     4.3930   -29.5630     8.7490   125.0940     0.0050     2.5410
 2793.0000  1563.2240     5.1610     4.0630     4.4450   -29.5660     8.7470   128.1870     0.0070     2.5390
 2793.5000  1563.9449     4.2960     4.1910     4.4580   -29.5530     8.7460   131.2610     0.0050     2.5340
 2794.0000  1564.6660     4.7950     4.3400     4.6100   -29.6710     8.7450   132.8020     0.0020     2.5300
 2794.5000  1565.3860     5.7050     4.4900     4.7710   -29.8830     8.7440   130.7010     0.0020     2.5350
 2795.0000  1566.1071     6.6140     4.6390     4.9320   -30.0770     8.7430   126.3770     0.0060     2.5450
 2795.5000  1566.8270     7.9180     4.7890     5.0930   -30.2850     8.7410   122.2350     0.0120     2.5590
 2796.0000  1567.5480     7.8630     4.9380     5.2540   -30.4660     8.7400   122.5330     0.0220     2.5690
 2796.5000  1568.2679     7.7650     5.0880     5.4150   -30.6770     8.7390   123.9360     0.0300     2.5670
 2797.0000  1568.9890     7.6670     5.2370     5.5760   -30.8430     8.7380   122.9130     0.0290     2.5630
 2797.5000  1569.7090     7.5700     5.3860     5.7370   -31.1110     8.7370   120.8300     0.0260     2.5640
 2798.0000  1570.4301     7.4900     5.5360     5.8980   -30.8350     8.7350   119.7300     0.0250     2.5700
 2798.5000  1571.1500     7.5990     5.6720     5.9960   -30.6500     8.7340   116.4820     0.0310     2.5790
 2799.0000  1571.8710     7.7390     5.7240     6.0120   -30.4340     8.7330   115.4220     0.0360     2.5830
 2799.5000  1572.5909     7.8790     5.7780     6.0270   -30.2190     8.7320   113.5530     0.0370     2.5860
 2800.0000  1573.3120     8.0180     5.8860     6.0430   -30.0120     8.7310   111.5550     0.0330     2.5820
 2800.5000  1574.0320     8.1580     5.8860     6.0580   -29.7980     8.7290   109.5710     0.0310     2.5740
 2801.0000  1574.7531     8.2170     5.8860     6.0740   -29.5870     8.7280   111.1430     0.0360     2.5670
 2801.5000  1575.4730     8.1460     5.8860     6.0890   -29.3770     8.7270   114.0010     0.0410     2.5650
 2802.0000  1576.1940     8.0660     5.8860     6.1090   -29.1640     8.7260   117.9130     0.0420     2.5670
 2802.5000  1576.9139     7.9490     5.7780     5.9960   -28.9510     8.7250   123.3410     0.0510     2.5730
 2803.0000  1577.6350     7.8460     5.7780     5.9410   -28.7770     8.7230   127.9690     0.0530     2.5740
 2803.5000  1578.3550     7.6990     5.6440     5.8340   -28.7770     8.7200   128.5140     0.0530     2.5750
 2804.0000  1579.0760     7.4470     5.4520     5.7780   -28.9030     8.7080   127.0950     0.0530     2.5760
 2804.5000  1579.7960     7.1960     5.2600     5.5110   -29.0510     8.6960   126.9490     0.0570     2.5730
 2805.0000  1580.5170     6.9550     5.0750     5.2610   -29.1990     8.6850   131.4930     0.0640     2.5680
 2805.5000  1581.2371     6.4530     5.2120     5.1700   -29.3450     8.6730   138.5250     0.0650     2.5590
 2806.0000  1581.9580     5.7780     5.4280     5.3120   -29.4910     8.6630   141.6460     0.0680     2.5550
 2806.5000  1582.6780     6.0550     5.6450     5.4850   -29.6430     8.6760   140.0830     0.0520     2.5670
 2807.0000  1583.3990     6.7780     5.7780     5.6570   -29.7820     8.6890   135.1120     0.0570     2.5770
 2807.5000  1584.1190     7.9270     5.9350     5.8300   -29.9460     8.7030   128.1680     0.0480     2.5810
 2808.0000  1584.8400     9.0760     6.0210     6.0020   -29.9190     8.7160   121.1560     0.0330     2.5740
 2808.5000  1585.5601    10.0750     6.1060     6.1750   -29.8740     8.7300   115.6610     0.0040     2.5720
 2809.0000  1586.3450    10.4550     6.1920     6.3860   -29.8210     8.7430   113.6060     0.0190     2.5810
 2809.5000  1586.7030     9.8610     6.2780     6.5350   -29.7740     8.7420   115.1840     0.0320     2.5900
 2810.0000  1587.0950     9.2080     6.3390     6.7020   -29.7240     8.7410   117.9090     0.0300     2.5860
 2810.5000  1587.4871     8.5550     6.3390     6.8270   -29.6750     8.7410   118.8760     0.0110     2.5770
 2811.0000  1587.8800     7.9180     6.3040     6.7550   -29.6270     8.7400   115.9960     0.0050     2.5690
 2811.5000  1588.2720     8.0090     6.2700     6.6870   -29.5770     8.7390   115.2220     0.0090     2.5610
 2812.0000  1588.6650     8.2180     6.2370     6.6190   -29.5810     8.7380   117.4160     0.0040     2.5550
 2812.5000  1589.0570     8.4260     6.2040     6.5790   -29.6080     8.7380   121.3030     0.0070     2.5690
 2813.0000  1589.4490     8.6340     6.1700     6.5560   -29.6340     8.7370   125.3280     0.0170     2.5780
 2813.5000  1589.8420     8.8490     6.1370     6.5180   -29.6590     8.7360   127.9750     0.0160     2.5780
 2814.0000  1590.2340     8.8490     6.1090     6.4800   -29.6850     8.7360   129.0550     0.0090     2.5740
 2814.5000  1590.6270     8.5500     6.1090     6.4420   -29.7110     8.7350   129.7960     0.0140     2.5750
 2815.0000  1591.0190     8.2910     6.1080     6.4040   -29.7370     8.7340   131.7500     0.0210     2.5790
 2815.5000  1591.4110     8.2170     6.1080     6.3660   -29.7630     8.7330   133.3520     0.0270     2.5750
 2816.0000  1591.8040     8.1350     6.1080     6.3280   -29.7880     8.7330   132.2930     0.0230     2.5620
 2816.5000  1592.1960     8.0440     6.1080     6.2900   -29.8140     8.7320   126.5730     0.0170     2.5560
 2817.0000  1592.5890     7.9530     6.1090     6.2330   -29.8400     8.7310   121.7590     0.0140     2.5530
 2817.5000  1592.9810     7.8610     6.1090     6.2370   -29.8660     8.7300   121.0560     0.0140     2.5520
 2818.0000  1593.3730     7.7730     6.1380     6.2970   -29.8910     8.7300   122.1860     0.0190     2.5570
 2818.5000  1593.7660     7.7730     6.2060     6.3570   -29.9170     8.7290   123.3530     0.0260     2.5700
 2819.0000  1594.1580     7.9050     6.2740     6.4180   -29.9470     8.7280   121.6580     0.0270     2.5740
 2819.5000  1594.5510     8.2380     6.3420     6.4780   -29.9340     8.7270   119.9750     0.0280     2.5720
 2820.0000  1594.9430     8.5700     6.4100     6.5380   -29.8430     8.7270   118.5640     0.0290     2.5740
 2820.5000  1595.3350     8.9030     6.4780     6.5980   -29.7590     8.7260   116.7800     0.0290     2.5780
 2821.0000  1595.7280     9.2350     6.5460     6.6580   -29.6720     8.7250   117.0010     0.0280     2.5810
