~VERSION INFORMATION
 VERS.                2.0:   CWLS LOG ASCII STANDARD - VERSION 2.0
 WRAP.                 NO:   ONE LINE PER DEPTH STEP
~WELL INFORMATION
#MNEM.UNIT      DATA TYPE    INFORMATION
#----------   ------------   ------------------------------
 STRT.F          197.0000:   START DEPTH
 STOP.F         3238.5000:   STOP DEPTH
 STEP.F            0.5000:   STEP LENGTH
 NULL.          -999.2500:   NO VALUE
 COMP.    FENIX & SCISSON:   COMPANY
 WELL. FENIX 28 "A" #28-11:   WELL
 FLD .              NPR-3:   FIELD
 LOC .      S11 T38N R78W:   LOCATION
 CNTY.            NATRONA:   COUNTY
 STAT.            WYOMING:   STATE
 CTRY. UNITED STATES OF AMERICA:   COUNTRY
 SRVC.              WELEX:   SERVICE COMPANY
 DATE.        25-OCT-1977:   LOGDATE
 API .     49025104350000:   API NUMBER
~CURVE INFORMATION
#MNEM.UNIT       API CODE    CURVE DESCRIPTION
#----------   ------------   ------------------------------
 DEPT.F                  :   
 SPR .MV     07 010 01 00:   SPONTANEOUS POTENTIAL
 TENR.LBS    07 635 01 00:   TENSION FROM RESISTIVITY
 ILM .OHMM   07 120 44 00:   INDUCTION LOG MEDIUM RESISTIVITY
 SGRD.OHMM   07 220 05 00:   SHALLOW SHORT GUARD RESISTIVITY
 ILD .OHMM   07 120 46 00:   INDUCTION LOG DEEP RESISTIVITY
 GRD .GAPI   45 310 01 00:   GAMMA RAY FROM DENSITY LOG
 CALD.IN     45 280 60 00:   CALIPER FROM DENSITY LOG
 CORR.G/C3   45 356 01 00:   DENSITY CORRECTION
 RHOB.G/C3   45 350 01 00:   BULK DENSITY
~PARAMETER INFORMATION
#MNEM.UNIT          VALUE    DESCRIPTION
#----------   ------------   ------------------------------
 EKB .F         5211.0000:   Kelly bushing
 EGL .F         5201.0000:   Ground level
 EDF .F            0.0000:   Drilling floor
 EPD .F         5201.0000:   Permanent datum
 TD  .F         3235.0000:   Total depth
 CLNT.            A2DTECH:   Client Code
 SL  . 330' FSL & 990' FWL:   Surface Location
 PD  .                 GL:   Permanent Datum
 DAPD.F                10:   Feet Above Permanent Datum
 DATE.        25-OCT-1977:   Date Logged [DD-MMM-YYYY]
 DD  .F              3235:   Depth driller
 DL  .F              3231:   Depth logger
 BLI .F              3229:   Bottom log interval
 TLI .F               200:   Top log interval
 CS1 .IN            8.625:   Casing size
 CBD1.      8.625" @ 217':   Casing driller 1
 CBL1.F               217:   Casing logger 1
 BS1 .              7.875:   Bit size
 BSD1.IN             3235:   Depth drilled with bit1
 DFT .            KCL MUD:   Type fluid in hole
 DFD .                8.9:   Density
 DFV .                 35:   Viscosity
 DFPH.               11.5:   pH
 DFL .               16.4:   Fluid loss
 MSS .           FLOWLINE:   Source of sample
 RMS .OHMM           1.18:   Rm
 MST .F                74:   Rm Meas. temp.
 RMF .OHMM           1.74:   Rmf
 MFST.F                74:   Rmf Meas. temp.
 MFSS.               MEAS:   Source Rmf.
 MCSS.               MEAS:   Source Rmc.
 RMB .OHMM           1.15:   Rm. at BHT
 BHT .F               116:   BHT.
 TCS .HRS               3:   Time Circ. stopped
 MRT .F               116:   Maximum recorded temp.
 LUN .               8611:   Logging unit number
 LUL .             CASPER:   Logging unit location
 ENGI.            C. DOAK:   Recorded By
 WITN.      W. PETTINGILL:   Witnessed by
 ORIG.           5" PRINT:   Origin of data
 UWI .     49025104350000:   Unique Well ID
 DICO. A2D TECHNOLOGIES, INC.:   Digitizing Company
~OTHER INFORMATION
~A   DEPT      SPR       TENR        ILM       SGRD        ILD         GRD      CALD       CORR       RHOB   
# ...
 3007.5000   -72.8829  2003.7032     5.5612     7.3321     4.2136   149.1422     8.1889    -0.0092     2.5193
 3008.0000   -72.7390  1989.7712     5.6090     7.6401     4.2412   147.6421     8.1962    -0.0077     2.5215
 3008.5000   -72.5931  1990.8818     5.6742     7.7441     4.2690   146.0669     8.1948    -0.0047     2.5110
 3009.0000   -72.2995  1976.8551     5.7506     7.2727     4.3263   144.8039     8.1932    -0.0047     2.5042
 3009.5000   -72.1557  1978.1250     5.7483     7.8989     4.3547   143.9730     8.1919    -0.0048     2.5035
 3010.0000   -72.0117  1963.9395     5.7459     7.7872     4.3851   143.8378     8.1906    -0.0048     2.5079
 3010.5000   -71.7165  1965.2094     5.7431     7.5714     4.4425   144.1575     8.1892    -0.0064     2.5102
 3011.0000   -71.7256  1981.1727     5.7011     7.2102     4.4711   144.7426     8.2035    -0.0080     2.5079
 3011.5000   -71.7329  1997.1600     5.6202     7.0104     4.4693   146.2850     8.2020    -0.0080     2.5056
 3012.0000   -71.7402  2013.3538     5.5791     7.2044     4.4367   147.3680     8.2006    -0.0112     2.5034
 3012.5000   -71.8988  2011.7189     5.4619     7.7268     4.4349   148.7498     8.1992    -0.0143     2.4981
 3013.0000   -72.2088  2000.1838     5.3845     8.3246     4.3721   149.9531     8.1977    -0.0144     2.4936
 3013.5000   -72.2178  2001.4537     5.2672     8.2638     4.3402   151.2484     8.2120    -0.0113     2.4936
 3014.0000   -72.2251  2002.4695     5.1602     7.3941     4.3085   152.7621     8.2192    -0.0098     2.5011
 3014.5000   -71.9280  2003.4852     5.0518     6.7548     4.2178   153.0591     8.2337    -0.0083     2.5088
 3015.0000   -71.9371  2004.5010     4.9801     6.7521     4.1295   152.4162     8.2545    -0.0053     2.5168
 3015.5000   -71.9444  2005.5305     4.9095     6.7494     4.0429   151.1531     8.2531    -0.0053     2.5213
 3016.0000   -71.8003  2003.9905     4.8399     6.2070     3.9582   148.6420     8.2518    -0.0047     2.5243
 3016.5000   -71.8077  1992.6011     4.7382     6.1628     3.8753   147.0669     8.2661    -0.0023     2.5227
 3017.0000   -71.7324  1993.8710     4.6036     6.2462     3.8470   147.7375     8.2804    -0.0008     2.5167
 3017.5000   -71.6705  1994.8867     4.4165     6.3748     3.7663   151.0892     8.2787     0.0007     2.5183
 3018.0000   -71.8290  1995.9030     4.3238     6.7352     3.6871   153.5703     8.2773     0.0053     2.5257
 3018.5000   -70.4766  1996.9187     4.2330     5.9848     3.6602   155.7393     8.2760     0.0099     2.5294
 3019.0000   -70.6525  1997.9344     4.4419     4.5262     3.6587   156.3521     8.2746     0.0068     2.5302
 3019.5000   -71.2495  1984.0026     4.7263     6.4533     3.7340   150.0930     8.2733     0.0021     2.5279
 3020.0000   -71.4081  1985.0525     4.7905     7.1139     3.7845   144.1498     8.2719    -0.0026     2.5234
 3020.5000   -71.5666  2001.2358     4.8555     7.2037     3.9163   138.0654     8.2702    -0.0058     2.5159
 3021.0000   -71.7252  1987.3044     4.9897     6.8593     4.0547   135.3796     8.2689    -0.0089     2.5033
 3021.5000   -71.7325  1988.3202     5.0926     6.3978     4.2225   134.1165     8.2675    -0.0136     2.4844
 3022.0000   -71.8911  1989.3359     5.0553     6.9015     4.3998   135.0375     8.2662    -0.0152     2.4761
 3022.5000   -72.0499  1990.2839     5.0533     7.4447     4.5216   139.0786     8.2492    -0.0122     2.4731
 3023.0000   -72.0588  1991.3679     5.0865     7.8657     4.6147   141.2477     8.2394    -0.0112     2.4753
 3023.5000   -72.0661  2007.3313     5.1199     7.5330     4.6776   142.1687     8.2306    -0.0034     2.4888
 3024.0000   -72.0734  2008.3705     5.2273     7.0832     4.7078   139.6538     8.2292     0.0044     2.5046
 3024.5000   -72.0807  1994.4150     5.4449     7.0315     4.7715   136.8306     8.2279     0.0000     2.5068
 3025.0000   -72.0881  1980.7373     5.7137     7.2268     4.8027   136.5073     8.2265    -0.0124     2.4918
 3025.5000   -71.9441  1981.7529     5.8321     7.4777     4.8342   139.2966     8.2252    -0.0187     2.4820
 3026.0000   -71.9516  1982.7693     5.7489     7.7380     4.8658   141.7777     8.2391    -0.0311     2.4715
 3026.5000   -71.9605  1983.7849     5.6673     7.8428     4.7965   143.9468     8.2537    -0.0404     2.4595
 3027.0000   -72.1191  1978.6781     5.5869     7.7855     4.6636   146.1465     8.2836    -0.0454     2.4505
 3027.5000   -71.8220  1970.8519     5.4683     7.5690     4.5030   148.2811     8.2819    -0.0437     2.4467
 3028.0000   -71.9824  1971.8983     5.2439     7.2080     4.2882   151.3862     8.2806    -0.0359     2.4572
 3028.5000   -72.2923  1972.9447     4.8565     6.7697     3.9928   155.7393     8.2792    -0.0282     2.4722
 3029.0000   -72.2996  1974.1708     4.5923     6.0993     3.7045   160.4045     8.2775    -0.0190     2.4879
 3029.5000   -72.1556  1975.1864     4.4959     5.7285     3.4792   164.1336     8.2762    -0.0097     2.5051
 3030.0000   -72.0116  1976.2021     4.2513     5.3062     3.3133   168.1747     8.2748    -0.0031     2.5141
 3030.5000   -71.8676  1977.2179     3.8029     4.8468     3.1552   174.2747     8.2735     0.0088     2.5156
 3031.0000   -71.7237  1978.2341     3.5210     3.8567     3.0466   179.6854     8.2721     0.0180     2.5096
 3031.5000   -71.7328  1979.2225     3.5357     3.2187     2.9828   183.1024     8.2708     0.0257     2.4983
 3032.0000   -71.5885  1980.2692     3.8511     3.4724     2.9816   185.8955     8.2691     0.0164     2.4870
 3032.5000   -71.4448  1981.3156     4.0412     4.8728     3.0638   176.5201     8.2521     0.0086     2.4818
 3033.0000   -71.3008  1982.5513     4.2702     6.1214     3.1925   149.0480     8.2509     0.0055     2.5028
 3033.5000   -71.3100  1983.5670     4.4192     6.8834     3.4200   132.0928     8.2495     0.0101     2.5222
 3034.0000   -71.4685  1984.5833     4.6696     6.7860     3.6385   126.5493     8.2325     0.0085     2.5290
 3034.5000   -71.4758  2000.5466     4.9686     6.7365     3.8177   124.0381     8.2301     0.0007     2.5297
 3035.0000   -71.6344  2001.5624     5.2868     6.9710     4.0335   125.8952     8.2138    -0.0056     2.5289
 3035.5000   -71.6417  2002.5781     5.3958     7.3136     4.3232   129.0002     8.1968    -0.0072     2.5394
 3036.0000   -71.8003  2003.5944     5.4312     7.6738     4.5079   131.1693     8.1486    -0.0021     2.5484
 3036.5000   -71.8079  1989.6625     5.4669     7.7784     4.5952   133.0263     8.1316     0.0113     2.5581
 3037.0000   -71.8168  1990.9324     5.4263     7.5099     4.5929   135.2570     8.1303     0.0175     2.5596
 3037.5000   -71.8241  1991.9481     5.2756     7.2014     4.5911   138.9207     8.0977     0.0143     2.5542
 3038.0000   -71.8314  1992.9639     5.2008     7.0478     4.5576   141.7138     8.0804     0.0034     2.5491
 3038.5000   -71.6874  1993.9796     5.2390     6.7602     4.5243   144.5069     8.0634     0.0002     2.5446
 3039.0000   -71.6947  1994.9958     5.3424     6.6185     4.4913   146.2712     8.0620     0.0082     2.5371
 3039.5000   -71.5507  1996.0116     5.3780     6.4351     4.4894   147.5975     8.0608     0.0172     2.5528
 3040.0000   -71.5582  1997.0273     5.3012     6.3881     4.4872   143.8378     8.0594     0.0203     2.5550
 3040.5000   -71.5671  2013.0045     5.2624     6.6105     4.4544   142.8867     8.0580     0.0265     2.5542
 3041.0000   -71.7257  2014.0509     5.2974     6.9361     4.4219   148.4841     8.0566     0.0280     2.5550
 3041.5000   -71.7330  2000.0751     5.2948     7.3283     4.3594   153.7733     8.0552     0.0233     2.5587
 3042.0000   -71.5890  2001.3450     5.2926     7.4275     4.2093   159.3745     8.0536     0.0170     2.5542
 3042.5000   -71.5963  2002.3607     5.1810     7.1216     4.0085   164.3516     8.0523     0.0108     2.5489
 3043.0000   -71.6036  2003.3765     5.0371     6.8290     3.8150   171.5129     8.0509     0.0045     2.5392
 3043.5000   -71.6112  2004.3922     4.8633     6.4138     3.5848   177.5020     8.0495     0.0045     2.5264
