~VERSION INFORMATION
 VERS.                2.0:   CWLS LOG ASCII STANDARD - VERSION 2.0
 WRAP.                 NO:   ONE LINE PER DEPTH STEP
~WELL INFORMATION
#MNEM.UNIT      DATA TYPE    INFORMATION
#----------   ------------   ------------------------------
 STRT.F          190.0000:   START DEPTH
 STOP.F         3050.0000:   STOP DEPTH
 STEP.F            0.5000:   STEP LENGTH
 NULL.          -999.2500:   NO VALUE
 COMP.    FENIX & SCISSON:   COMPANY
 WELL. FENIX NPR 3 "AX" #86-29:   WELL
 FLD .      NPR - WILDCAT:   FIELD
 LOC .      S29 T39N R78W:   LOCATION
 CNTY.            NATRONA:   COUNTY
 STAT.            WYOMING:   STATE
 CTRY. UNITED STATES OF AMERICA:   COUNTRY
 SRVC.              WELEX:   SERVICE COMPANY
 DATE.        24-JUN-1977:   LOGDATE
 API .     49025103830000:   API NUMBER
~CURVE INFORMATION
#MNEM.UNIT       API CODE    CURVE DESCRIPTION
#----------   ------------   ------------------------------
 DEPT.F                  :   
 SPR .MV     07 010 01 00:   SPONTANEOUS POTENTIAL
 ILD .OHMM   07 120 46 00:   DEEP INDUCTION RESISTIVITY
 ILM .OHMM   07 120 44 00:   INDUCTION LOG MEDIUM RESISTIVITY
 SGRD.OHMM   07 220 05 00:   SHALLOW SHORT GUARD RESISTIVITY
 GRD .GAPI   45 310 01 00:   GAMMA RAY FROM DENSITY LOG
 CALD.IN     45 280 60 00:   CALIPER FROM DENSITY LOG
 RHOB.G/C3   45 350 01 00:   BULK DENSITY
 CORR.G/C3   45 356 01 00:   DENSITY CORRECTION
~PARAMETER INFORMATION
#MNEM.UNIT          VALUE    DESCRIPTION
#----------   ------------   ------------------------------
 EKB .F         5056.0000:   Kelly bushing
 EGL .F         5046.0000:   Ground level
 EDF .F            0.0000:   Drilling floor
 TD  .F         3051.0000:   Total depth
 DATE.        24-JUN-1977:   Date logged
 CLNT.            A2DTECH:   Client Code
 SL  . 1746' FSL & 534' FEL:   Surface Location
 PD  .                 GL:   Permanent Datum
 EPD .F              5046:   Elevation Permanent Datum
 LMF .                 KB:   Log Measured From
 DMF .                 KB:   Drilling Measured From
 DAPD.F                10:   Feet Above Permanent Datum
 DD  .F              3038:   Depth driller
 DL  .F              3051:   Depth logger
 BLI .F              3049:   Bottom log interval
 TLI .F               200:   Top log interval
 CS1 .IN            8.625:   Casing size
 CBD1.      8.625" @ 217':   Casing driller 1
 CBL1.F               213:   Casing logger 1
 BS1 .IN            7.875:   Bit size
 BSD1.F              3038:   Depth drilled with bit1
 DFT .            KCL/MUD:   Type fluid in hole
 DFD .                8.7:   Density
 DFV .                134:   Viscosity
 DFPH.                7.5:   pH
 DFL .                7.2:   Fluid loss
 MSS .           FLOWLINE:   Source of sample
 RMS .OHMM            .62:   Rm
 MST .F                82:   Rm Meas. temp.
 RMF .OHMM            .28:   Rmf
 MFST.F                82:   Rmf Meas. temp.
 RMC .OHMM            .78:   Rmc
 MCST.F                82:   Rmc Meas. temp.
 MFSS.               MEAS:   Source Rmf.
 MCSS.               MEAS:   Source Rmc.
 RMB .OHMM            .45:   Rm. at BHT
 BHT .F               111:   BHT.
 TCS .HRS               2:   Time Circ. stopped
 MRT .F               111:   Maximum recorded temp.
 LUN .               8766:   Logging unit number
 LUL .             CASPER:   Logging unit location
 ENGI.          D. LAWSON:   Recorded By
 WITN.      B. HARRINGTON:   Witnessed by
 ORIG.           5" PRINT:   Origin of data
 UWI .     49025103830000:   Unique Well ID
 DICO. A2D TECHNOLOGIES, INC.:   Digitizing Company
~OTHER INFORMATION
~A   DEPT      SPR        ILD        ILM       SGRD        GRD       CALD         RHOB      CORR  
# ...
 2458.0000   -59.2230     6.6230     8.6860    10.4210    63.9870     8.4940     2.5100     0.0000
 2458.5000   -59.2060     6.6830     8.5460    10.3500    64.8680     8.4840     2.5090    -0.0030
 2459.0000   -59.1890     6.7430     8.4020    10.2780    65.8950     8.4730     2.5070    -0.0060
 2459.5000   -59.1710     6.7860     8.2220    10.2060    66.9250     8.4630     2.5030    -0.0070
 2460.0000   -59.1540     6.7960     8.3770    10.1350    67.9960     8.4520     2.4980    -0.0060
 2460.5000   -59.1370     6.8060     8.5850    10.0580    68.2980     8.4510     2.4960    -0.0060
 2461.0000   -59.1190     6.8160     8.7660     9.9660    68.3100     8.4510     2.4950    -0.0050
 2461.5000   -59.1020     6.8260     8.6850    10.0340    68.3050     8.4510     2.4950    -0.0040
 2462.0000   -59.0850     6.8360     8.5290    10.0850    68.2950     8.4510     2.4950    -0.0030
 2462.5000   -59.0670     6.8450     8.3720    10.1510    68.3710     8.4510     2.4960    -0.0030
 2463.0000   -59.0500     6.7850     8.2160     9.8380    70.0960     8.4500     2.4980    -0.0020
 2463.5000   -59.0330     6.7310     8.0720     9.6080    72.4450     8.4540     2.4990     0.0000
 2464.0000   -59.0150     6.6760     8.1470     9.7210    75.5720     8.4900     2.5040     0.0010
 2464.5000   -58.9990     6.6220     8.3270     9.7850    78.5120     8.5160     2.5080     0.0030
 2465.0000   -58.9190     6.5380     8.4940     9.7850    79.3220     8.5410     2.5120     0.0050
 2465.5000   -58.8110     6.5820     8.6860     9.7850    79.1200     8.5500     2.5120     0.0070
 2466.0000   -58.7020     6.6790     8.6490     9.5410    78.9470     8.5570     2.5110     0.0080
 2466.5000   -58.5930     6.7750     8.6070     9.8770    78.7780     8.5630     2.5110     0.0090
 2467.0000   -58.4850     6.8720     9.0000    10.4330    78.6000     8.5700     2.5120     0.0100
 2467.5000   -58.4010     7.0450     9.3790    11.0360    78.8780     8.5760     2.5130     0.0120
 2468.0000   -58.4230     7.2650     9.7580    11.6470    79.3980     8.5820     2.5130     0.0130
 2468.5000   -58.4420     7.4840    10.1370    12.2590    79.9220     8.5880     2.5140     0.0140
 2469.0000   -58.4610     7.7040    10.5160    12.8710    80.4450     8.5890     2.5150     0.0170
 2469.5000   -58.4800     7.9260    10.9230    13.1200    80.9690     8.5890     2.5170     0.0170
 2470.0000   -58.5000     7.9570    10.8460    12.7650    81.4990     8.5890     2.5200     0.0180
 2470.5000   -58.5190     8.0370    10.7140    12.2730    81.6840     8.5890     2.5220     0.0190
 2471.0000   -58.5380     8.0940    10.5820    11.7540    81.4650     8.5890     2.5240     0.0200
 2471.5000   -58.5570     8.1530    10.4510    11.6970    80.3630     8.5890     2.5270     0.0210
 2472.0000   -58.5770     8.2110    10.3390    11.6470    78.7850     8.5890     2.5300     0.0220
 2472.5000   -58.5960     8.2970    10.4890    11.8020    77.1740     8.5890     2.5320     0.0220
 2473.0000   -58.5970     8.2910    10.6190    11.9380    76.0680     8.5850     2.5360     0.0220
 2473.5000   -58.5970     8.2780    10.7500    12.0730    75.7610     8.5800     2.5390     0.0220
 2474.0000   -58.5970     8.2660    10.8810    12.1930    75.4280     8.5750     2.5420     0.0220
 2474.5000   -58.5970     8.2530    11.0240    12.0520    76.0440     8.5700     2.5440     0.0220
 2475.0000   -58.5970     8.2410    10.8170    11.7540    76.8410     8.5650     2.5410     0.0220
 2475.5000   -58.5970     8.2280    10.5890    11.8130    77.6450     8.5600     2.5380     0.0220
 2476.0000   -58.5970     8.1910    10.3610    11.9330    78.4470     8.5550     2.5370     0.0210
 2476.5000   -58.5970     8.1270    10.0580    12.0980    78.9460     8.5500     2.5350     0.0190
 2477.0000   -58.5970     8.0640    10.1850    12.2830    78.9160     8.5490     2.5320     0.0180
 2477.5000   -58.5970     8.0010    10.3730    12.4690    78.2100     8.5490     2.5300     0.0170
 2478.0000   -58.5970     7.9380    10.6270    12.5330    77.4720     8.5490     2.5270     0.0180
 2478.5000   -58.5970     7.8740    10.4760    11.9070    76.7250     8.5490     2.5250     0.0210
 2479.0000   -58.5970     7.8110    10.2440    11.4090    76.9240     8.5490     2.5220     0.0230
 2479.5000   -58.5970     7.7480    10.0130    10.9100    77.4940     8.5490     2.5190     0.0230
 2480.0000   -58.5970     7.6840     9.7850    10.8230    78.0650     8.5490     2.5160     0.0210
 2480.5000   -58.5970     7.6210     9.8430    11.0140    78.5570     8.5490     2.5140     0.0180
 2481.0000   -58.5970     7.5710     9.8990    11.1250    78.6350     8.5490     2.5140     0.0170
 2481.5000   -58.5970     7.5870     9.9550    11.1250    78.7470     8.5470     2.5170     0.0190
 2482.0000   -58.5970     7.6020     9.9660    11.2350    78.8600     8.5440     2.5230     0.0220
 2482.5000   -58.5970     7.6180     9.9660    11.4190    78.6590     8.5400     2.5300     0.0240
 2483.0000   -58.5970     7.6340     9.9210    11.6470    77.8820     8.5370     2.5350     0.0270
 2483.5000   -58.5970     7.6540     9.7990    11.5480    77.1130     8.5330     2.5350     0.0290
 2484.0000   -58.5970     7.6790     9.6960    11.3750    76.3520     8.5300     2.5350     0.0320
 2484.5000   -58.5970     7.7030     9.9380    11.2280    75.6050     8.5260     2.5370     0.0340
 2485.0000   -58.5990     7.7280    10.1470    11.3870    75.2130     8.5230     2.5390     0.0350
 2485.5000   -58.6140     7.7520    10.2440    11.5250    75.5830     8.5190     2.5420     0.0370
 2486.0000   -58.6290     7.7760    10.2440    11.6470    75.9470     8.5160     2.5440     0.0380
 2486.5000   -58.6430     7.8010    10.2440    11.9190    76.5580     8.5120     2.5470     0.0390
 2487.0000   -58.6580     7.8250    10.2440    12.0280    77.6610     8.5110     2.5490     0.0400
 2487.5000   -58.6730     7.8500    10.2440    12.0820    78.1450     8.5140     2.5520     0.0410
 2488.0000   -58.6880     7.8740    10.2440    11.7320    78.1470     8.5170     2.5520     0.0420
 2488.5000   -58.7030     7.8980    10.2450    11.5400    78.1500     8.5200     2.5500     0.0410
 2489.0000   -58.7180     7.9260    10.1850    11.8460    78.1490     8.5220     2.5450     0.0350
 2489.5000   -58.7330     7.9070    10.1390    11.9710    78.1440     8.5250     2.5390     0.0300
 2490.0000   -58.7470     7.8800    10.0930    11.4350    78.1690     8.5280     2.5310     0.0250
 2490.5000   -58.7620     7.8520    10.0470    11.5930    79.3000     8.5330     2.5190     0.0200
 2491.0000   -58.7770     7.8250    10.0010    11.7990    80.5300     8.5380     2.5070     0.0150
 2491.5000   -58.7910     7.7970     9.9270    12.0060    81.7620     8.5430     2.4990     0.0100
 2492.0000   -58.8340     7.7320     9.7600    12.0820    83.1280     8.5490     2.4910     0.0060
 2492.5000   -58.8800     7.6150     9.5940    11.3210    84.5480     8.5540     2.4910     0.0030
 2493.0000   -58.9270     7.4990     9.4270    10.5820    85.9650     8.5600     2.4940     0.0080
 2493.5000   -58.9730     7.3830     9.2610     9.6960    87.2000     8.5650     2.5030     0.0130
 2494.0000   -59.0200     7.2670     9.0940    10.2420    87.2080     8.5680     2.5120     0.0180
 2494.5000   -59.0670     7.1510     8.9680    11.3870    87.2040     8.5630     2.5210     0.0180
 2495.0000   -59.1130     7.0350     8.8420    12.0820    87.1190     8.5590     2.5230     0.0180
 2495.5000   -59.1600     6.9180     8.7150    10.5970    86.9550     8.5550     2.5200     0.0170
 2496.0000   -59.2070     6.8230     8.5890     9.5200    86.7460     8.5510     2.5150     0.0100
 2496.5000   -59.2540     6.7650     8.4630     9.6950    86.2030     8.5470     2.5060     0.0040
 2497.0000   -59.3000     6.7070     8.3360    10.0080    85.6580     8.5420     2.4980    -0.0020
 2497.5000   -59.3480     6.6490     8.2100    10.2440    85.1140     8.5380     2.4900    -0.0030
 2498.0000   -59.3850     6.5980     8.0840     9.6640    84.9650     8.5340     2.4850    -0.0040
