~VERSION INFORMATION
 VERS.                2.0:   CWLS LOG ASCII STANDARD - VERSION 2.0
 WRAP.                 NO:   ONE LINE PER DEPTH STEP
~WELL INFORMATION
#MNEM.UNIT      DATA TYPE    INFORMATION
#----------   ------------   ------------------------------
 STRT.F          180.0000:   START DEPTH
 STOP.F         3044.0000:   STOP DEPTH
 STEP.F            0.5000:   STEP LENGTH
 NULL.          -999.2500:   NO VALUE
 COMP.    FENIX & SCISSON:   COMPANY
 WELL.   FENIX "A" #55-29:   WELL
 FLD .           N P R #3:   FIELD
 LOC .      S29 T39N R78W:   LOCATION
 CNTY.            NATRONA:   COUNTY
 STAT.            WYOMING:   STATE
 CTRY. UNITED STATES OF AMERICA:   COUNTRY
 SRVC.              WELEX:   SERVICE COMPANY
 DATE.        21-JUL-1977:   LOGDATE
 API .     49025104020000:   API NUMBER
~CURVE INFORMATION
#MNEM.UNIT       API CODE    CURVE DESCRIPTION
#----------   ------------   ------------------------------
 DEPT.F                  :   
 CALD.IN     45 280 60 00:   CALIPER FROM DENSITY LOG
 RHOB.G/C3   45 350 01 00:   BULK DENSITY
 CORR.G/C3   45 356 01 00:   DENSITY CORRECTION
 GRD .GAPI   45 310 01 00:   GAMMA RAY FROM DENSITY LOG
 SPR .MV     07 010 01 00:   SPONTANEOUS POTENTIAL
 ILD .OHMM   07 120 46 00:   DEEP INDUCTION RESISTIVITY
 ILM .OHMM   07 120 44 00:   INDUCTION LOG MEDIUM RESISTIVITY
 SGRD.OHMM   07 220 05 00:   SHALLOW SHORT GUARD RESISTIVITY
~PARAMETER INFORMATION
#MNEM.UNIT          VALUE    DESCRIPTION
#----------   ------------   ------------------------------
 EKB .F         4995.0000:   Kelly bushing
 EGL .F         4985.0000:   Ground level
 EDF .F            0.0000:   Drilling floor
 EPD .F         4985.0000:   Permanent datum
 TD  .F         3045.0000:   Total depth
 DATE.        21-JUL-1977:   Date logged
 CLNT.            A2DTECH:   Client Code
 SL  . 2310' FSL & 2310' FEL:   Surface Location
 PD  .                 GL:   Permanent Datum
 DD  .F              3045:   Depth driller
 DL  .F              3045:   Depth logger
 BLI .F              3043:   Bottom log interval
 CS1 .IN            8.625:   Casing size
 CBD1.      8.625" @ 230':   Casing driller 1
 CBL1.F               216:   Casing logger 1
 BS1 .IN            7.875:   Bit size
 DFT .            KCL-MUD:   Type fluid in hole
 DFD .                8.8:   Density
 DFV .                 45:   Viscosity
 DFPH.                7.5:   pH
 DFL .                8.4:   Fluid loss
 MSS .           FLOWLINE:   Source of sample
 RMS .OHMM            .45:   Rm
 MST .F                86:   Rm Meas. temp.
 RMF .OHMM            .33:   Rmf
 MFST.F                86:   Rmf Meas. temp.
 RMC .OHMM            .72:   Rmc
 MCST.F                86:   Rmc Meas. temp.
 MFSS.               MEAS:   Source Rmf.
 RMB .OHMM            .30:   Rm. at BHT
 BHT .F               127:   BHT.
 TCS .HRS             2.5:   Time Circ. stopped
 MRT .F               127:   Maximum recorded temp.
 LUN .               8611:   Logging unit number
 LUL .             CASPER:   Logging unit location
 ENGI.            C. DOAK:   Recorded By
 WITN.      W. PETTINGILL:   Witnessed by
 ORIG.           5" PRINT:   Origin of data
 UWI .     49025104020000:   Unique Well ID
 DICO. A2D TECHNOLOGIES, INC.:   Digitizing Company
 DAPD.                 10:   Feet Above Permanent Datum
 BSD1.               3045:   Depth drilled with bit1
 MCSS.               MEAS:   Source Rmc.
 LMF .                 KB:   Log Measured From
 DMF .                 KB:   Drilling Measured From
 TLI .                200:   Top log interval
~OTHER INFORMATION
~A   DEPT       CALD     RHOB       CORR         GRD       SPR        ILD        ILM       SGRD   
# ...
 3015.0000     7.7270     2.4130     0.0390   104.5640   -70.9890     3.8310     4.9900     5.8140
 3015.5000     7.7380     2.4210     0.0330   105.5270   -70.9990     3.8080     5.0120     6.2450
 3016.0000     7.7490     2.4280     0.0280   105.4270   -71.0070     3.7840     5.0340     6.0960
 3016.5000     7.7490     2.4230     0.0280    98.2080   -71.0160     3.7610     5.0550     6.0210
 3017.0000     7.7480     2.4110     0.0320    98.3300   -71.0250     3.7380     5.0580     6.6590
 3017.5000     7.7240     2.4150     0.0370   102.7380   -71.0340     3.7380     4.9700     6.1670
 3018.0000     7.7010     2.4220     0.0420   100.0770   -71.0430     3.7080     4.8300     5.5780
 3018.5000     7.6900     2.4270     0.0460    96.7510   -71.0510     3.6580     4.6900     5.1050
 3019.0000     7.6890     2.4290     0.0510   101.0730   -71.0600     3.6080     4.5500     5.0580
 3019.5000     7.7080     2.4340     0.0550   105.1670   -71.0690     3.5580     4.4900     5.0980
 3020.0000     7.7340     2.4360     0.0590   109.2230   -71.0780     3.5060     4.4900     5.1520
 3020.5000     7.7610     2.4270     0.0560   111.9180   -71.0870     3.4940     4.4900     5.6460
 3021.0000     7.8000     2.4190     0.0530   112.7710   -71.0960     3.4810     4.4900     5.4600
 3021.5000     7.8450     2.4180     0.0510   112.5590   -71.1040     3.4690     4.4900     5.1990
 3022.0000     7.8900     2.4170     0.0480   109.9550   -71.1130     3.4560     4.4900     5.6980
 3022.5000     7.9340     2.4070     0.0470   107.3300   -71.1220     3.4430     4.4900     5.8570
 3023.0000     7.9700     2.3980     0.0470   106.9180   -71.1310     3.4310     4.4900     5.3380
 3023.5000     8.0430     2.3920     0.0470   106.9130   -71.1400     3.4180     4.4900     6.1320
 3024.0000     8.0650     2.3910     0.0470   106.9160   -71.1480     3.3850     4.4900     4.8320
 3024.5000  -999.2500     2.3920     0.0460  -999.2500   -71.1570     3.3290     4.4400     5.3050
 3025.0000  -999.2500     2.3860     0.0460  -999.2500   -71.1660     3.2720     4.3240     5.1500
 3025.5000  -999.2500     2.3800     0.0450  -999.2500   -71.1750     3.2150     4.2090     4.9670
 3026.0000  -999.2500     2.3780     0.0440  -999.2500   -71.1840     3.1680     4.0940     5.2470
 3026.5000  -999.2500     2.3850     0.0430  -999.2500   -71.1880     3.1580     3.9860     4.3290
 3027.0000  -999.2500     2.3920     0.0420  -999.2500   -71.1880     3.1490     3.9860     4.5260
 3027.5000  -999.2500     2.3990     0.0420  -999.2500   -71.1880     3.1400     4.0030     4.7390
 3028.0000  -999.2500     2.4050     0.0410  -999.2500   -71.1900     3.1300     4.0340     4.9670
 3028.5000  -999.2500     2.4070     0.0410  -999.2500   -71.1780     3.1210     4.0650     4.9670
 3029.0000  -999.2500     2.4110     0.0410  -999.2500   -70.9130     3.1120     4.0950     4.6580
 3029.5000  -999.2500     2.4180     0.0420  -999.2500   -70.6520     3.1120     4.1260     4.7880
 3030.0000  -999.2500     2.4260     0.0420  -999.2500   -70.4310     3.0120     4.1570     5.6980
 3030.5000  -999.2500     2.4250     0.0420  -999.2500   -69.5360     2.8660     4.1730     4.5730
 3031.0000  -999.2500     2.4180     0.0420  -999.2500   -68.5020     2.7880     4.1730     5.0480
 3031.5000  -999.2500     2.4110     0.0430  -999.2500   -67.4710     2.6950     4.0870     5.1990
 3032.0000  -999.2500     2.4050     0.0430  -999.2500   -66.2700     2.6060     3.9450     4.5650
 3032.5000  -999.2500     2.4020     0.0420  -999.2500   -64.6880     2.5910     3.8780     3.7730
 3033.0000  -999.2500     2.4030     0.0400  -999.2500   -61.4250     2.5910     3.8610     4.3290
 3033.5000  -999.2500     2.4040     0.0380  -999.2500   -57.9380     2.5910     3.8410     4.1380
 3034.0000  -999.2500     2.4040     0.0370  -999.2500   -51.6960     2.6470     3.8200     3.6040
 3034.5000  -999.2500     2.3930     0.0350  -999.2500   -44.2450     2.8370     3.8070     3.6370
 3035.0000  -999.2500     2.3820     0.0360  -999.2500   -31.3680     3.2160     3.9820     3.8070
 3035.5000  -999.2500     2.3800     0.0370  -999.2500   -13.8710     3.8420     4.2980     4.2920
 3036.0000  -999.2500     2.3900     0.0370  -999.2500    -2.2230     4.0380     4.6130     4.9490
 3036.5000  -999.2500     2.4020     0.0400  -999.2500    -0.2970     4.3070     4.9290     7.6510
 3037.0000  -999.2500     2.4140     0.0430  -999.2500    -0.3390     4.5760     5.2450    12.5730
 3037.5000  -999.2500     2.4290     0.0460  -999.2500    -0.4010     4.8450     5.5610    17.4940
 3038.0000  -999.2500     2.4460     0.0480  -999.2500    -0.4530     5.1140     5.8760    19.1040
 3038.5000  -999.2500     2.4460     0.0510  -999.2500    -0.5030     5.3830     6.1920     5.8040
 3039.0000  -999.2500     2.4390     0.0510  -999.2500    -0.5540     5.6520     6.5080     6.2410
 3039.5000  -999.2500     2.4340     0.0500  -999.2500    -0.6040     5.9110     6.8230     6.6570
 3040.0000  -999.2500     2.4320     0.0500  -999.2500    -0.6550     6.1650     7.1390     7.0730
 3040.5000  -999.2500     2.4340     0.0500  -999.2500    -0.7060     6.4190     7.4550     7.4890
 3041.0000  -999.2500     2.4380     0.0490  -999.2500    -0.7560     7.0100     7.7700     7.9050
 3041.5000  -999.2500     2.4460     0.0490  -999.2500    -0.8090     7.5020     8.0860     8.3210
 3042.0000  -999.2500     2.4480     0.0490  -999.2500    -0.8580     7.7730     8.4020     8.7370
 3042.5000  -999.2500     2.4460     0.0490  -999.2500    -0.8640     8.1330     8.7180     9.1170
 3043.0000  -999.2500     2.4440     0.0490  -999.2500    -1.8480     8.3980     9.0110     9.2620
 3043.5000  -999.2500     2.4350     0.0490  -999.2500    -2.4670     8.4510     9.0110     9.1770
 3044.0000  -999.2500     2.4350     0.0490  -999.2500    -2.4710     8.4510     9.0110     9.1770
