~VERSION INFORMATION
 VERS.                2.0:   CWLS LOG ASCII STANDARD - VERSION 2.0
 WRAP.                 NO:   ONE LINE PER DEPTH STEP
~WELL INFORMATION
#MNEM.UNIT      DATA TYPE    INFORMATION
#----------   ------------   ------------------------------
 STRT.F          176.0000:   START DEPTH
 STOP.F         3380.0000:   STOP DEPTH
 STEP.F            0.5000:   STEP LENGTH
 NULL.          -999.2500:   NO VALUE
 COMP.    PENIX & SCISSON:   COMPANY
 WELL.  FENIX "AX" #85-15:   WELL
 FLD .             NPR #3:   FIELD
 LOC .      S15 T38N R78W:   LOCATION
 CNTY.            NATRONA:   COUNTY
 STAT.            WYOMING:   STATE
 CTRY. UNITED STATES OF AMERICA:   COUNTRY
 SRVC.       SCHLUMBERGER:   SERVICE COMPANY
 DATE.        28-APR-1981:   LOGDATE
 API .     49025108700000:   API NUMBER
~CURVE INFORMATION
#MNEM.UNIT       API CODE    CURVE DESCRIPTION
#----------   ------------   ------------------------------
 DEPT.F                  :   
 TEND.LBS    45 635 01 00:   TENSION FROM DENSITY LOG
 CALD.IN     45 280 60 00:   CALIPER FROM DENSITY LOG
 CORR.G/C3   45 356 01 00:   DENSITY CORRECTION
 GRD .GAPI   45 310 01 00:   GAMMA RAY FROM DENSITY LOG
 RHOB.G/C3   45 350 01 00:   BULK DENSITY
 SFL .OHMM   07 220 01 00:   SHALLOW FOCUSED LOG RESISTIVITY
 ILD .OHMM   07 120 46 00:   INDUCTIONLOG DEEP RESISTIVITY
 ILM .OHMM   07 120 44 00:   INDUCTION LOG MEDIUM RESISTIVITY
 TENR.LBS    07 635 01 00:   TENSION FROM RESISTIVITY
 SPR .MV     07 010 01 00:   SPONTANEOUS POTENTIAL
~PARAMETER INFORMATION
#MNEM.UNIT          VALUE    DESCRIPTION
#----------   ------------   ------------------------------
 EKB .F         5259.0000:   Kelly bushing
 EGL .F         5249.0000:   Ground level
 EDF .F            0.0000:   Drilling floor
 TD  .F         3333.0000:   Total depth
 DATE.        28-APR-1981:   Date logged
 CLNT.            A2DTECH:   Client Code
 SL  . 1927' FSL & 140' FEL:   Surface Location
 PD  .                 GL:   Permanent Datum
 DD  .F              3333:   Depth driller
 DL  .F              3382:   Depth logger
 BLI .F              3376:   Bottom log interval
 TLI .F               182:   Top log interval
 CS1 .IN            8.625:   Casing size
 CBD1.      8.625" @ 181':   Casing driller 1
 CBL1.F               182:   Casing logger 1
 BS1 .IN            7.875:   Bit size
 BSD1.F              3333:   Depth drilled with bit1
 DFT .                GEL:   Type fluid in hole
 DFD .                8.7:   Density
 DFV .                 35:   Viscosity
 DFPH.                9.5:   pH
 DFL .                  7:   Fluid loss
 MSS .               TANK:   Source of sample
 RMS .OHMM           1.79:   Rm
 MST .F                58:   Rm Meas. temp.
 RMF .OHMM           1.43:   Rmf
 MFST.F                58:   Rmf Meas. temp.
 MFSS.               MEAS:   Source Rmf.
 RMB .OHMM            .93:   Rm. at BHT
 BHT .F               112:   BHT.
 TCS .HRS             800:   Time Circ. stopped
 TLAB.HRS             200:   Time logger at bottom
 MRT .F               112:   Maximum recorded temp.
 LUN .               8039:   Logging unit number
 LUL .               CAPR:   Logging unit location
 ENGI.           HARRINER:   Recorded By
 WITN.              SCOTT:   Witnessed by
 ORIG.           5" PRINT:   Origin of data
 UWI .     49025108700000:   Unique Well ID
 DICO. A2D TECHNOLOGIES, INC.:   Digitizing Company
 EPD .               5249:   Elevation Permanent Datum
 LMF .                 KB:   Log Measured From
 DMF .                 KB:   Drilling Measured From
 DAPD.                 10:   Feet Above Permanent Datum
~OTHER INFORMATION
~A   DEPT     TEND       CALD       CORR         GRD      RHOB        SFL        ILD        ILM       TENR        SPR   
# ...
 1449.0000  1165.1830    10.6860     0.0390   101.3710     2.5460    10.0560     8.7000     7.8050  1157.5760   -32.0510
 1449.5000  1164.5710    10.6860     0.0440   100.7890     2.5480    10.0560     8.7010     7.7790  1156.0890   -32.0720
 1450.0000  1163.9580    10.6860     0.0400    99.9950     2.5480     9.9490     8.7000     7.7170  1154.6021   -31.9650
 1450.5000  1163.3450    10.6860     0.0330    99.1440     2.5460     9.7760     8.6990     7.6550  1153.1150   -31.8890
 1451.0000  1162.7321    10.6860     0.0330    98.3610     2.5400     9.6020     8.6980     7.5930  1151.6281   -31.8160
 1451.5000  1162.1200    10.6860     0.0380    97.5470     2.5340     9.4280     8.7050     7.5310  1150.1410   -31.7150
 1452.0000  1161.5070    10.6860     0.0420    96.6570     2.5330     9.3530     8.6450     7.4690  1148.6541   -31.7980
 1452.5000  1160.8940    10.6860     0.0430    96.4340     2.5380     9.1860     8.5380     7.4070  1147.1670   -32.0480
 1453.0000  1160.2810    10.6860     0.0430    97.3600     2.5450     9.1860     8.4330     7.3450  1145.6801   -32.2400
 1453.5000  1159.6689    10.6860     0.0430    97.0820     2.5490     9.3530     8.3330     7.2830  1144.1930   -32.4620
 1454.0000  1159.0560    10.6860     0.0400    95.7830     2.5440     9.5240     8.2430     7.2210  1142.7061   -32.5560
 1454.5000  1158.4430    10.6860     0.0350    97.2800     2.5380     9.2560     8.2330     7.1600  1141.2190   -32.9170
 1455.0000  1157.8311    10.6860     0.0330   100.4020     2.5310     9.0210     8.2410     7.1300  1139.7321   -32.8530
 1455.5000  1157.2180    10.6860     0.0410   103.5090     2.5410     8.8590     8.0930     7.0020  1138.2450   -32.8740
 1456.0000  1156.6050    10.6860     0.0560   104.9480     2.5540     8.8590     8.0930     7.0020  1136.7581   -32.7430
 1456.5000  1155.9919    10.6860     0.0720   104.3960     2.5620     8.8590     8.0930     7.0020  1135.2700   -32.5980
 1457.0000  1155.3800    10.6860     0.0790   101.8080     2.5460     8.7890     8.0930     7.0020  1133.7830   -32.4560
 1457.5000  1154.7670    10.6860     0.0650    99.1680     2.5320     8.7000     8.0930     7.0020  1132.2960   -32.3120
 1458.0000  1154.1541    10.6860     0.0570    97.2620     2.5280     8.9380     8.0930     7.0020  1130.8090   -32.1690
 1458.5000  1153.5410    10.6860     0.0830    95.7740     2.5440     9.2080     8.0930     7.0020  1129.3220   -32.0250
 1459.0000  1152.9290    10.6860     0.0950    97.2940     2.5580     9.3530     8.0930     7.0020  1127.8350   -31.8820
 1459.5000  1152.3160    10.6860     0.0850    98.6110     2.5600     9.1930     8.0930     7.0020  1126.3480   -31.7380
 1460.0000  1151.7030    10.6860     0.0680   100.1960     2.5460     8.9480     8.0930     7.0020  1124.8610   -31.5950
 1460.5000  1151.0900    10.6860     0.0530   100.2700     2.5340     8.7360     8.0930     7.0020  1123.3740   -31.4510
 1461.0000  1150.4780    10.6860     0.0400   100.0330     2.5200     8.5420     8.0930     7.0020  1121.8870   -31.3090
 1461.5000  1149.8650    10.6860     0.0280    99.8160     2.5000     8.3910     8.0930     7.0020  1120.4000   -31.1620
 1462.0000  1149.2520    10.6860     0.0220    99.7270     2.5040     8.7150     8.0930     7.0020  1118.9130   -31.0220
 1462.5000  1148.6390    10.6860     0.0290   101.2400     2.5330     9.1130     8.0930     7.0020  1117.4260   -30.9130
 1463.0000  1148.0270    10.6860     0.0430   103.3160     2.5450     9.3530     8.0930     7.0020  1115.9390   -31.1130
 1463.5000  1147.4139    10.6860     0.0560   104.4130     2.5410     9.0490     8.0930     7.0020  1114.4520   -31.3720
 1464.0000  1146.8010    10.6860     0.0530   102.6990     2.5330     8.8590     8.0930     7.0020  1112.9650   -31.6350
 1464.5000  1146.1880    10.6860     0.0460   100.9810     2.5180     8.8590     8.0930     7.0020  1111.4780   -31.8950
 1465.0000  1145.5760    10.6860     0.0380    99.9930     2.5160     8.8590     8.0930     7.0020  1109.9910   -32.1520
 1465.5000  1144.9630    10.6860     0.0310    99.0000     2.5200     8.8590     8.0930     7.0020  1108.5040   -32.4160
 1466.0000  1144.3500    10.6860     0.0260    98.0430     2.5240     8.8250     8.0930     7.0020  1107.0170   -32.4430
 1466.5000  1143.7371    10.6860     0.0280    97.2950     2.5360     8.7270     8.0930     7.0020  1105.5300   -32.3140
 1467.0000  1143.1250    10.6860     0.0380    96.7900     2.5480     8.7000     8.0970     7.0020  1104.0430   -32.1940
 1467.5000  1142.5120    10.6860     0.0480    97.8710     2.5520     8.7000     8.1120     7.0020  1102.5560   -32.0890
 1468.0000  1141.8990    10.6860     0.0460    99.9770     2.5510     9.0210     8.1260     7.0020  1101.0690   -32.1180
 1468.5000  1141.2870    10.6860     0.0420   101.6740     2.5500     9.0210     8.1400     7.0020  1099.5820   -32.2140
 1469.0000  1140.6740    10.6860     0.0380   101.7600     2.5490     8.9510     8.1540     7.0020  1098.0950   -32.3130
 1469.5000  1140.0610    10.6860     0.0350   100.9450     2.5540     8.8520     8.1680     7.0020  1096.6080   -32.4130
 1470.0000  1139.4480    10.6860     0.0410   100.0980     2.5640     8.7520     8.1820     7.0020  1095.1210   -32.4720
 1470.5000  1138.8361    10.6860     0.0500    99.3400     2.5730     8.7000     8.1960     7.0020  1093.6340   -32.5010
 1471.0000  1138.2230    10.6840     0.0580    97.7320     2.5770     8.8590     8.2100     7.0020  1092.1470   -32.2660
 1471.5000  1137.6100    10.6830     0.0660    95.5850     2.5810     8.9170     8.2240     7.0020  1090.6600   -31.8840
 1472.0000  1136.9969    10.6810     0.0750    94.5720     2.5770     9.0210     8.2400     7.0020  1089.1720   -31.5380
 1472.5000  1136.3850    10.6800     0.0770    95.2190     2.5710     8.9340     8.2400     7.0020  1087.6851   -31.1530
 1473.0000  1135.7720    10.6780     0.0730    97.7490     2.5660     8.7370     8.2410     7.0020  1086.1980   -30.9540
 1473.5000  1135.1591    10.6760     0.0630   101.4770     2.5610     8.5440     8.2410     7.0050  1084.7111   -30.5890
 1474.0000  1134.5460    10.6750     0.0410   103.2790     2.5590     8.7620     8.2410     7.0120  1083.2240   -30.5020
 1474.5000  1133.9340    10.6730     0.0330   104.8800     2.5590     8.8590     8.2420     7.0190  1081.7371   -30.5850
 1475.0000  1133.3210    10.6720     0.0320   104.7300     2.5530     9.0210     8.2590     7.0260  1080.5500   -30.9780
 1475.5000  1132.7080    10.6700     0.0420   104.5550     2.5490     9.0210     8.2760     7.0330  1081.7500   -31.2010
 1476.0000  1132.0950    10.6680     0.0530   103.9790     2.5550     9.0210     8.2950     7.0400  1083.2520   -31.4730
 1476.5000  1131.4830    10.6670     0.0600   103.1200     2.5600     9.0210     8.3110     7.0470  1084.7550   -31.7320
 1477.0000  1130.8700    10.6650     0.0590   102.3480     2.5670     9.0210     8.3300     7.0550  1086.2570   -31.9820
 1477.5000  1130.2570    10.6640     0.0560   101.5910     2.5720     9.0210     8.3500     7.0620  1087.7590   -32.2420
 1478.0000  1129.6440    10.6620     0.0540   102.2490     2.5580     9.0210     8.3620     7.0690  1089.2620   -32.5050
 1478.5000  1129.0320    10.6600     0.0350   103.1310     2.5350     9.0210     8.3990     7.0760  1090.7640   -32.7380
 1479.0000  1128.4280    10.6590     0.0180   102.6080     2.5150     9.0210     8.2250     7.0830  1092.2670   -33.1150
 1479.5000  1127.8340    10.6570     0.0080   101.8490     2.5140     9.0810     8.2460     7.0900  1093.7690   -33.2900
 1480.0000  1127.2400    10.6550     0.0110   101.2110     2.5180     9.1630     8.2360     7.0970  1095.2720   -33.2830
 1480.5000  1126.6460    10.6540     0.0150   100.2400     2.5240     9.1860     8.2410     7.1040  1096.7740   -33.8770
 1481.0000  1126.0520    10.6520     0.0190   101.6870     2.5290     9.0540     8.2420     7.1110  1098.2770   -33.7660
 1481.5000  1125.4580    10.6510     0.0230   105.9840     2.5340     8.9090     8.2410     7.1180  1099.7791   -33.5140
 1482.0000  1124.8640    10.6490     0.0210   107.1160     2.5310     8.7650     8.2400     7.1240  1101.2820   -33.2590
