~VERSION INFORMATION
 VERS.                2.0:   CWLS LOG ASCII STANDARD - VERSION 2.0
 WRAP.                 NO:   ONE LINE PER DEPTH STEP
~WELL INFORMATION
#MNEM.UNIT      DATA TYPE    INFORMATION
#----------   ------------   ------------------------------
 STRT.F          209.5000:   START DEPTH
 STOP.F         3130.0000:   STOP DEPTH
 STEP.F            0.5000:   STEP LENGTH
 NULL.          -999.2500:   NO VALUE
 COMP. FENIX & SCISSON-U.S. NAVY:   COMPANY
 WELL.   FENIX "A" #66-29:   WELL
 FLD .              NPR 3:   FIELD
 LOC .      S29 T39N R78W:   LOCATION
 CNTY.            NATRONA:   COUNTY
 STAT.            WYOMING:   STATE
 CTRY. UNITED STATES OF AMERICA:   COUNTRY
 SRVC.       SCHLUMBERGER:   SERVICE COMPANY
 DATE.        12-JUN-1977:   LOGDATE
 API .     49025103850000:   API NUMBER
~CURVE INFORMATION
#MNEM.UNIT       API CODE    CURVE DESCRIPTION
#----------   ------------   ------------------------------
 DEPT.F                  :   
 CALD.IN     45 280 60 00:   CALIPER FROM DENSITY LOG
 GRD .GAPI   45 310 01 00:   GAMMA RAY FROM DENSITY LOG
 RHOB.G/C3   45 350 01 00:   BULK DENSITY
 CORR.G/C3   45 356 01 00:   DENSITY CORRECTION
 LL8 .OHMM   07 220 08 00:   LATEROLOG-8 RES.
 ILD .OHMM   07 120 46 00:   DEEP INDUCTION RESISTIVITY
 ILM .OHMM   07 120 44 00:   INDUCTION LOG MEDIUM RESISTIVITY
 SPR .MV     07 010 01 00:   SPONTANEOUS POTENTIAL
~PARAMETER INFORMATION
#MNEM.UNIT          VALUE    DESCRIPTION
#----------   ------------   ------------------------------
 EKB .F         5058.0000:   Kelly bushing
 EGL .F         5048.0000:   Ground level
 EDF .F            0.0000:   Drilling floor
 TD  .F         3120.0000:   Total depth
 DATE.        12-JUN-1977:   Date logged
 CLNT.            A2DTECH:   Client Code
 SL  . 1650' FSL & 1650' FEL:   Surface Location
 PD  .                 GL:   Permanent Datum
 EPD .F              5048:   Elevation Permanent Datum
 LMF .                 KB:   Log Measured From
 DMF .                 KB:   Drilling Measured From
 DAPD.F                10:   Feet Above Permanent Datum
 DD  .F              3120:   Depth driller
 DL  .F              3120:   Depth logger
 BLI .F              3120:   Bottom log interval
 TLI .F               219:   Top log interval
 CS1 .IN            8.625:   Casing size
 CBD1.      8.625" @ 225':   Casing driller 1
 CBL1.F               219:   Casing logger 1
 BS1 .IN            7.875:   Bit size
 BSD1.F              3120:   Depth drilled with bit1
 DFT .            KCL MUD:   Type fluid in hole
 DFD .                8.8:   Density
 DFV .                 32:   Viscosity
 DFPH.                7.5:   pH
 DFL .                  8:   Fluid loss
 MSS .              CIRC.:   Source of sample
 RMS .OHMM           2.01:   Rm
 MST .F                72:   Rm Meas. temp.
 RMF .OHMM            1.9:   Rmf
 MFST.F                72:   Rmf Meas. temp.
 RMC .OHMM           3.02:   Rmc
 MCST.F                72:   Rmc Meas. temp.
 MFSS.               MEAS:   Source Rmf.
 MCSS.               CALC:   Source Rmc.
 RMB .OHMM           1.21:   Rm. at BHT
 BHT .F               120:   BHT.
 TCS .HRS            1400:   Time Circ. stopped
 TLAB.HRS            1730:   Time logger at bottom
 MRT .F               120:   Maximum recorded temp.
 LUN .               7711:   Logging unit number
 LUL .               CSPR:   Logging unit location
 ENGI.             SAYLER:   Recorded By
 WITN.             RHODES:   Witnessed by
 ORIG.           5" PRINT:   Origin of data
 UWI .     49025103850000:   Unique Well ID
 DICO. A2D TECHNOLOGIES, INC.:   Digitizing Company
~OTHER INFORMATION
~A   DEPT     CALD         GRD      RHOB       CORR        LL8        ILD        ILM        SPR   
# ...
 1748.5000     8.2328   119.1161     2.5629     0.0018     7.9399     7.1929     7.3269   -44.4344
 1749.0000     8.2330   119.5134     2.5529    -0.0021     7.8654     7.0610     7.2580   -44.6394
 1749.5000     8.2332   120.5043     2.5579    -0.0011     7.7916     6.9308     7.1898   -45.0422
 1750.0000     8.2334   118.5292     2.5679     0.0019     7.7894     6.8025     7.1222   -45.6427
 1750.5000     8.2336   116.7525     2.5749     0.0128     7.7163     6.7386     7.0548   -46.0455
 1751.0000     8.2338   116.1615     2.5679     0.0108     7.5742     6.6752     6.9885   -46.2505
 1751.5000     8.2340   117.1517     2.5580     0.0059     7.5721     6.6734     6.9228   -46.4555
 1752.0000     8.1946   120.7111     2.5660     0.0049     7.5700     6.6107     6.9209   -46.8597
 1752.5000     8.2134   123.6775     2.5669     0.0109     7.6376     6.6089     6.9190   -46.8670
 1753.0000     8.2346   126.4461     2.5640     0.0109     7.6351     6.5467     6.8540   -46.8743
 1753.5000     8.2348   128.2267     2.5570     0.0029     7.6330     6.5449     6.7903   -46.6838
 1754.0000     8.2350   130.0074     2.5570     0.0020     7.6309     6.5431     6.7880   -46.2957
 1754.5000     8.2352   125.6618     2.5491     0.0010     7.4904     6.5414     6.7239   -46.1052
 1755.0000     8.2354   123.2922     2.5441     0.0000     7.4201     6.5396     6.7220   -45.7171
 1755.5000     8.2356   120.7249     2.5372     0.0010     7.3504     6.5378     6.7821   -45.1312
 1756.0000     8.2358   119.1458     2.5541     0.0040     7.3484     6.5962     6.8427   -44.9408
 1756.5000     8.2360   119.5431     2.5621     0.0020     7.3464     6.6552     6.9675   -44.3550
 1757.0000     8.2362   119.7427     2.5541     0.0010     7.4120     6.7765     7.0946   -44.1646
 1757.5000     8.2364   119.3493     2.5502     0.0010     7.5469     6.9001     7.1580   -43.7765
 1758.0000     8.2168   116.7821     2.5402     0.0001     7.6844     6.9618     7.1560   -43.3884
 1758.5000     8.2170   114.2152     2.5402     0.0021     7.7529     6.9599     7.0888   -43.0003
 1759.0000     8.1974   111.2526     2.5452     0.0021     7.8221     6.9580     6.7691   -43.2054
 1759.5000     8.2372   109.2783     2.5502     0.0041     8.0379     6.9561     5.8971   -43.2127
 1760.0000     8.2374   108.2925     2.5651     0.0081     9.2191     6.7037     5.0908   -43.2200
 1760.5000     8.2376   107.3059     2.5522     0.0160     9.4739     5.4769     4.6009   -43.0296
 1761.0000     8.2180   109.6795     2.5224     0.0180     8.2550     5.2299     4.4748   -43.2346
 1761.5000     8.2380   112.4483     2.5035     0.0340     5.0688     4.9941     4.5564   -43.2420
 1762.0000     8.2382   115.0195     2.4906     0.0529     3.7565     4.8129     4.4724   -43.2493
 1762.5000     8.2384   116.0093     2.4817     0.0459     4.1169     4.7676     4.8116   -43.8496
 1763.0000     8.2385   117.7900     2.4707     0.0121     4.9900     4.7663     5.1292   -44.4500
 1763.5000     8.2386   119.7683     2.5443     0.0171     5.6404     4.8533     5.3685   -44.8526
 1764.0000     8.2587   120.5609     2.5553     0.0072     6.8526     5.1264     5.6189   -45.2552
 1764.5000     8.2787   120.5628     2.5563     0.0052     7.5873     5.4649     5.9352   -45.6579
 1765.0000     8.2591   120.3671     2.5563     0.0032     7.7255     5.8794     6.4442   -45.6652
 1765.5000     8.2593   119.7774     2.5553     0.0032     7.7234     6.3253     6.8696   -45.2771
 1766.0000     8.2200   119.3829     2.5553     0.0082     7.7213     7.0594     7.1248   -44.6914
 1766.5000     8.2795   119.1873     2.5554     0.0052     7.7902     7.3216     7.3890   -44.6987
 1767.0000     8.2797   120.5727     2.5504     0.0062     7.7880     7.3870     7.5927   -44.1131
 1767.5000     8.2601   123.7369     2.5484     0.0132     7.8576     7.3850     7.5217   -43.9227
 1768.0000     8.2603   125.9128     2.5514     0.0142     7.8554     7.3152     7.3826   -43.9300
 1768.5000     8.2605   123.5431     2.5604     0.0192     7.9255     7.1802     7.2464   -43.7397
 1769.0000     8.2607   120.3830     2.5554     0.0192     7.9221     6.9834     7.0478   -43.3517
 1769.5000     8.2609   118.2109     2.5385     0.0152     7.9208     6.6686     6.7300   -43.1614
 1770.0000     8.2611   118.0153     2.5356    -0.0017     7.7749     6.2521     6.3679   -43.1687
 1770.5000     8.2613   117.6220     2.5356     0.0103     7.2236     5.8073     6.1934   -43.5713
 1771.0000     8.2615   118.2169     2.5346     0.0123     6.5895     5.7011     6.0791   -43.5786
 1771.5000     8.2617   119.2071     2.5227     0.0143     6.1223     5.6475     6.0775   -43.7850
 1772.0000     8.2619   122.7665     2.4968     0.0143     5.4839     5.8034     6.0758   -43.7923
 1772.5000     8.2621   123.1637     2.5028     0.0133     6.1791     5.8019     6.1866   -44.1949
 1773.0000     8.2623   123.7586     2.5147     0.0143     6.9624     5.8537     6.4752   -44.5974
 1773.5000     8.2822   125.1440     2.5516     0.0054     7.5497     5.9605     6.7153   -45.0000
 1774.0000     8.2824   126.9247     2.5595     0.0054     7.9013     6.1251     6.9644   -45.4025
 1774.5000     8.2826   128.3097     2.5526     0.0064     8.1192     6.3522     7.1567   -45.6074
 1775.0000     8.2828   124.3594     2.5536     0.0064     8.1170     6.6485     7.2872   -45.8123
 1775.5000     8.2830   118.8287     2.5526     0.0104     8.0408     6.8951     7.4201   -46.0172
 1776.0000     8.2832   118.8295     2.5516     0.0064     8.0386     7.0856     7.4864   -46.0245
 1776.5000     8.2834   120.8079     2.5516     0.0015     8.0364     7.1489     7.5534   -46.0318
 1777.0000     8.2638   122.3909     2.5576     0.0005     8.1082     7.2128     7.5513   -45.6439
 1777.5000     8.2640   123.1835     2.5586    -0.0015     8.1059     7.2108     7.5492   -45.2559
 1778.0000     8.2642   122.3949     2.5427     0.0015     8.1037     7.2088     7.5472   -44.8680
 1778.5000     8.2643   120.0253     2.5348    -0.0035     8.1015     7.1411     7.4762   -44.2825
 1779.0000     8.2844   119.4343     2.5288    -0.0034     8.0993     7.1391     7.4059   -43.8946
 1779.5000     8.2846   117.4611     2.5358    -0.0014     8.0971     7.0074     7.3363   -43.7043
 1780.0000     8.2848   118.6477     2.5487     0.0035     8.0211     7.0701     7.2673   -43.3165
 1780.5000     8.2652   121.4166     2.5527     0.0055     7.9458     7.0044     7.1990   -42.9754
 1781.0000     8.2654   124.5807     2.5557     0.0055     7.7994     7.0017     7.1313   -42.9783
 1781.5000     8.2656   125.7685     2.5627     0.0066     7.7262     6.9355     7.0643   -42.9857
 1782.0000     8.2658   125.9681     2.5657     0.0076     7.6537     6.9336     7.1270   -43.1906
 1782.5000     8.2660   124.3890     2.5548     0.0106     7.6516     6.9317     7.0600   -43.3955
 1783.0000     8.2860   122.6123     2.5548     0.0106     7.6495     6.9298     7.0581   -43.7979
 1783.5000     8.2664   122.0213     2.5597     0.0136     7.6474     6.9279     7.1212   -44.2004
 1784.0000     8.2864   122.0233     2.5717     0.0146     7.6453     6.9260     7.1848   -44.8019
 1784.5000     8.2668   123.8040     2.5478     0.0056     7.7148     6.9241     7.2491   -45.2043
 1785.0000     8.2669   124.0036     2.5449     0.0017     7.7119     6.9860     7.3139   -45.6067
 1785.5000     8.2672   123.8080     2.5399     0.0007     7.7799     7.0485     7.3792   -45.8116
 1786.0000     8.2674   124.2052     2.5429     0.0007     7.7777     7.1111     7.4452   -46.2140
 1786.5000     8.2676   123.2190     2.5519     0.0037     8.1395     7.1095     7.4432   -46.2213
 1787.0000     8.2876   123.0233     2.5539     0.0047     8.4419     7.0427     7.3059   -46.0310
 1787.5000     8.2680   125.1993     2.5638     0.0127     8.7545     7.0407     7.3039   -45.9958
 1788.0000     8.2089   127.5725     2.5668     0.0137     8.5933     7.0388     7.3019   -45.4104
 1788.5000     8.2684   133.1083     2.5599     0.0167     8.1311     7.0369     7.2999   -45.4177
