~VERSION INFORMATION
 VERS.                2.0:   CWLS LOG ASCII STANDARD - VERSION 2.0
 WRAP.                 NO:   ONE LINE PER DEPTH STEP
~WELL INFORMATION
#MNEM.UNIT      DATA TYPE    INFORMATION
#----------   ------------   ------------------------------
 STRT.F            0.5000:   START DEPTH
 STOP.F         3195.0000:   STOP DEPTH
 STEP.F            0.5000:   STEP LENGTH
 NULL.          -999.2500:   NO VALUE
 COMP.   TESORO PETROLEUM:   COMPANY
 WELL. TESORO NPR 3 "A" #15-10:   WELL
 FLD .        TEAPOT DOME:   FIELD
 LOC .      S10 T38N R78W:   LOCATION
 CNTY.            NATRONA:   COUNTY
 STAT.            WYOMING:   STATE
 CTRY. UNITED STATES OF AMERICA:   COUNTRY
 SRVC.       SCHLUMBERGER:   SERVICE COMPANY
 DATE.        03-JUL-1969:   LOGDATE
 API .     49025600130000:   API NUMBER
~CURVE INFORMATION
#MNEM.UNIT       API CODE    CURVE DESCRIPTION
#----------   ------------   ------------------------------
 DEPT.F                  :   
 SPR .MV     05 010 01 00:   SPONTANEOUS POTENTIAL FROM RES.
 ASN .OHMM   05 041 16 00:   AMPLIFIED SHORT NORMAL 16"
 ILD .OHMM   05 120 46 00:   INDUCTION LOG DEEP
 CALD.IN     45 280 60 00:   CALIPER FROM DENSITY LOG
 GRD .GAPI   45 310 01 00:   GAMMA RAY FROM DENSITY LOG
 RHOB.G/C3   45 350 01 00:   BULK DENSITY
~PARAMETER INFORMATION
#MNEM.UNIT          VALUE    DESCRIPTION
#----------   ------------   ------------------------------
 EKB .F         5250.0000:   Kelly bushing
 EGL .F         5237.0000:   Ground level
 EDF .F            0.0000:   Drilling floor
 TD  .F         3200.0000:   Total depth
 CLNT.            A2DTECH:   Client Code
 SL  . 990' FWL & 1980' FSL:   Surface Location
 PD  .                 GL:   Permanent Datum
 EPD .F              5237:   Elevation Permanent Datum
 LMF .                 KB:   Log Measured From
 DMF .                 KB:   Drilling Measured From
 DAPD.F                13:   Feet Above Permanent Datum
 DATE.        03-JUL-1969:   Date Logged [DD-MMM-YYYY]
 DD  .F              3200:   Depth driller
 DL  .F              3196:   Depth logger
 BLI .F              3195:   Bottom log interval
 TLI .F               676:   Top log interval
 CS1 .IN            10.75:   Casing size
 CBD1.      10.75" @ 675':   Casing driller 1
 CBL1.F               676:   Casing logger 1
 BS1 .IN            6.125:   Bit size
 BSD1.F              3200:   Depth drilled with bit1
 DFT .      FRESH GEL MUD:   Type fluid in hole
 DFD .                9.5:   Density
 DFV .                 46:   Viscosity
 DFPH.                9.5:   pH
 DFL .                6.4:   Fluid loss
 MSS .           FLOWLINE:   Source of sample
 RMS .OHMM           2.05:   Rm
 MST .F                76:   Rm Meas. temp.
 RMF .OHMM           1.49:   Rmf
 MFST.F                78:   Rmf Meas. temp.
 MFSS.               MEAS:   Source Rmf.
 RMB .OHMM           1.34:   Rm. at BHT
 BHT .F               116:   BHT.
 TCS .HRS               2:   Time Circ. stopped
 MRT .F               116:   Maximum recorded temp.
 LUN .               4507:   Logging unit number
 LUL .               CSPR:   Logging unit location
 ENGI.             KNOBEL:   Recorded By
 WITN.                MAY:   Witnessed by
 ORIG.        2" 5" PRINT:   Origin of data
 UWI .     49025600130000:   Unique Well ID
 DICO. A2D TECHNOLOGIES, INC.:   Digitizing Company
~OTHER INFORMATION
~A    DEPT     SPR          ASN      ILD       CALD        GRD       RHOB   
# ...
  884.5000   -26.8113     9.8615     8.6974  -999.2500  -999.2500  -999.2500
  885.0000   -27.0148     9.9955     8.7626  -999.2500  -999.2500  -999.2500
  885.5000   -27.0152     9.1717     8.9357  -999.2500  -999.2500  -999.2500
  886.0000   -26.9236     9.3016     9.1495  -999.2500  -999.2500  -999.2500
  886.5000   -26.9182     9.4245     9.2433  -999.2500  -999.2500  -999.2500
  887.0000   -27.0076     9.5751     9.3532  -999.2500  -999.2500  -999.2500
  887.5000   -27.0674     9.5752     9.5324  -999.2500  -999.2500  -999.2500
  888.0000   -27.3827     9.5753     9.6012  -999.2500  -999.2500  -999.2500
  888.5000   -27.4086     9.5755     9.6008  -999.2500  -999.2500  -999.2500
  889.0000   -27.4238     9.5005     9.6005  -999.2500  -999.2500  -999.2500
  889.5000   -27.5933     9.4254     9.5998  -999.2500  -999.2500  -999.2500
  890.0000   -27.5133     9.3379     9.4486  -999.2500  -999.2500  -999.2500
  890.5000   -27.4323     9.2753     9.3783  -999.2500  -999.2500  -999.2500
  891.0000   -27.2105     9.2755     9.2968  -999.2500  -999.2500  -999.2500
  891.5000   -27.0220     9.2756     9.2964  -999.2500  -999.2500  -999.2500
  892.0000   -26.8293     9.2758     9.1712  -999.2500  -999.2500  -999.2500
  892.5000   -26.6222     9.2760     9.1446  -999.2500  -999.2500  -999.2500
  893.0000   -26.6216     9.2761     9.1443  -999.2500  -999.2500  -999.2500
  893.5000   -26.6217     9.2762     9.1438  -999.2500  -999.2500  -999.2500
  894.0000   -26.6219     9.3516     9.1435  -999.2500  -999.2500  -999.2500
  894.5000   -26.8278     9.4269     9.1660  -999.2500  -999.2500  -999.2500
  895.0000   -27.0266     9.4270     9.2938  -999.2500  -999.2500  -999.2500
  895.5000   -27.0134     9.5131     9.4444  -999.2500  -999.2500  -999.2500
  896.0000   -27.0143     9.5778     9.4814  -999.2500  -999.2500  -999.2500
  896.5000   -27.0081     9.5779     9.5948  -999.2500  -999.2500  -999.2500
  897.0000   -26.8381     9.6018     9.6699  -999.2500  -999.2500  -999.2500
  897.5000   -26.8141     9.7286     9.7451  -999.2500  -999.2500  -999.2500
  898.0000   -26.8168     9.7362     9.7447  -999.2500  -999.2500  -999.2500
  898.5000   -27.0182     9.8041     9.7443  -999.2500  -999.2500  -999.2500
  899.0000   -27.1634     9.8042     9.7439  -999.2500  -999.2500  -999.2500
  899.5000   -27.3012     9.7836     9.6980  -999.2500  -999.2500  -999.2500
  900.0000   -27.4213     9.7293     9.5921  -999.2500  -999.2500  -999.2500
  900.5000   -27.4794     9.6543     9.6695  -999.2500  -999.2500  -999.2500
  901.0000   -27.5387     9.5454     9.6405  -999.2500  -999.2500  -999.2500
  901.5000   -27.5910     9.3407     9.5211  -999.2500  -999.2500  -999.2500
  902.0000   -27.4232     9.3854     9.5228  -999.2500  -999.2500  -999.2500
  902.5000   -27.2233     9.5898     9.3731  -999.2500  -999.2500  -999.2500
  903.0000   -27.2044     9.7943     9.2234  -999.2500  -999.2500  -999.2500
  903.5000   -27.0255     9.8662     9.1496  -999.2500  -999.2500  -999.2500
  904.0000   -26.9926     9.7485     8.9849  -999.2500  -999.2500  -999.2500
  904.5000   -26.8269     9.4539     8.8052  -999.2500  -999.2500  -999.2500
  905.0000   -26.7548     9.0692     8.6254  -999.2500  -999.2500  -999.2500
  905.5000   -26.7589     8.9898     8.3250  -999.2500  -999.2500  -999.2500
  906.0000   -26.6210     8.9587     8.2961  -999.2500  -999.2500  -999.2500
  906.5000   -26.6195     8.9493     8.1692  -999.2500  -999.2500  -999.2500
  907.0000   -26.6343     8.9345     8.0274  -999.2500  -999.2500  -999.2500
  907.5000   -26.4190     8.9114     7.9154  -999.2500  -999.2500  -999.2500
  908.0000   -26.2704     8.8762     7.7279  -999.2500  -999.2500  -999.2500
  908.5000   -26.0482     8.8597     7.6542  -999.2500  -999.2500  -999.2500
  909.0000   -26.0336     8.8391     7.5801  -999.2500  -999.2500  -999.2500
  909.5000   -26.2180     8.7872     7.5816  -999.2500  -999.2500  -999.2500
  910.0000   -26.3389     8.7274     7.5076  -999.2500  -999.2500  -999.2500
  910.5000   -26.5396     8.5477     7.4335  -999.2500  -999.2500  -999.2500
  911.0000   -26.6732     8.1725     7.2538  -999.2500  -999.2500  -999.2500
  911.5000   -26.8158     7.8809     7.1344  -999.2500  -999.2500  -999.2500
  912.0000   -26.8184     7.7244     6.9851  -999.2500  -999.2500  -999.2500
  912.5000   -26.7191     7.5836     6.7598  -999.2500  -999.2500  -999.2500
  913.0000   -26.6206     7.4586     6.6556  -999.2500  -999.2500  -999.2500
  913.5000   -26.6338     7.3635     6.5363  -999.2500  -999.2500  -999.2500
  914.0000   -26.4178     7.2611     6.2961  -999.2500  -999.2500  -999.2500
  914.5000   -26.2459     7.1879     6.0408  -999.2500  -999.2500  -999.2500
  915.0000   -26.0381     7.0978     5.8610  -999.2500  -999.2500  -999.2500
  915.5000   -25.8433     7.0446     5.6362  -999.2500  -999.2500  -999.2500
  916.0000   -25.8316     6.9367     5.5770  -999.2500  -999.2500  -999.2500
  916.5000   -25.8350     6.6755     5.3368  -999.2500  -999.2500  -999.2500
  917.0000   -25.8350     6.5856     5.1875  -999.2500  -999.2500  -999.2500
  917.5000   -25.8350     6.4949     5.0755  -999.2500  -999.2500  -999.2500
  918.0000   -25.8350     6.4957     5.3716  -999.2500  -999.2500  -999.2500
  918.5000   -25.8350     6.5629     5.6451  -999.2500  -999.2500  -999.2500
  919.0000   -25.8350     6.6364     5.7371  -999.2500  -999.2500  -999.2500
  919.5000   -25.8349     6.7706     5.9954  -999.2500  -999.2500  -999.2500
  920.0000   -25.8339     6.9227     6.2538  -999.2500  -999.2500  -999.2500
  920.5000   -25.8698     7.0174     6.4066  -999.2500  -999.2500  -999.2500
  921.0000   -25.9107     7.0954     6.5136  -999.2500  -999.2500  -999.2500
  921.5000   -25.9517     7.1671     6.5604  -999.2500  -999.2500  -999.2500
  922.0000   -25.9925     7.2438     6.6376  -999.2500  -999.2500  -999.2500
  922.5000   -26.0334     7.2896     6.7145  -999.2500  -999.2500  -999.2500
  923.0000   -26.0743     7.3054     6.7160  -999.2500  -999.2500  -999.2500
  923.5000   -26.1152     7.2909     6.6421  -999.2500  -999.2500  -999.2500
  924.0000   -26.1562     7.2916     6.6435  -999.2500  -999.2500  -999.2500
  924.5000   -26.1969     7.2922     6.6450  -999.2500  -999.2500  -999.2500
  925.0000   -26.2185     7.2887     6.5710  -999.2500  -999.2500  -999.2500
  925.5000   -26.1683     7.2936     6.5728  -999.2500  -999.2500  -999.2500
  926.0000   -26.1202     7.3265     6.5740  -999.2500  -999.2500  -999.2500
  926.5000   -26.0721     7.3556     6.5831  -999.2500  -999.2500  -999.2500
  927.0000   -26.0240     7.4258     6.7283  -999.2500  -999.2500  -999.2500
  927.5000   -25.9760     7.4851     6.7296  -999.2500  -999.2500  -999.2500
  928.0000   -25.9278     7.5546     6.7311  -999.2500  -999.2500  -999.2500
  928.5000   -25.8799     7.6296     6.7327  -999.2500  -999.2500  -999.2500
  929.0000   -25.8338     7.7227     6.8852  -999.2500  -999.2500  -999.2500
  929.5000   -25.8356     7.8153     6.9094  -999.2500  -999.2500  -999.2500
  930.0000   -25.6350     7.8755     7.0393  -999.2500  -999.2500  -999.2500
  930.5000   -25.7190     7.8560     7.0411  -999.2500  -999.2500  -999.2500
  931.0000   -25.7898     7.7815     7.0423  -999.2500  -999.2500  -999.2500
  931.5000   -25.8600     7.7108     6.8927  -999.2500  -999.2500  -999.2500
  932.0000   -25.9305     7.6494     6.7434  -999.2500  -999.2500  -999.2500
  932.5000   -26.0009     7.5833     6.6692  -999.2500  -999.2500  -999.2500
  933.0000   -26.0714     7.5461     6.5950  -999.2500  -999.2500  -999.2500
  933.5000   -26.1419     7.5468     6.5968  -999.2500  -999.2500  -999.2500
  934.0000   -26.2123     7.5474     6.5529  -999.2500  -999.2500  -999.2500
  934.5000   -26.2828     7.5784     6.4484  -999.2500  -999.2500  -999.2500
  935.0000   -26.3532     7.5944     6.4502  -999.2500  -999.2500  -999.2500
  935.5000   -26.4237     7.6101     6.4519  -999.2500  -999.2500  -999.2500
  936.0000   -26.4948     7.6132     6.4532  -999.2500  -999.2500  -999.2500
