~VERSION INFORMATION
 VERS.                2.0:   CWLS LOG ASCII STANDARD - VERSION 2.0
 WRAP.                 NO:   ONE LINE PER DEPTH STEP
~WELL INFORMATION
#MNEM.UNIT      DATA TYPE    INFORMATION
#----------   ------------   ------------------------------
 STRT.F          192.0000:   START DEPTH
 STOP.F         3016.0000:   STOP DEPTH
 STEP.F            0.5000:   STEP LENGTH
 NULL.          -999.2500:   NO VALUE
 COMP. FENIX & SCISSON U.S. NAVY:   COMPANY
 WELL.  FENIX "AX" #81-33:   WELL
 FLD .              NPR-3:   FIELD
 LOC .      S33 T39N R78W:   LOCATION
 CNTY.            NATRONA:   COUNTY
 STAT.            WYOMING:   STATE
 CTRY. UNITED STATES OF AMERICA:   COUNTRY
 SRVC.              WELEX:   SERVICE COMPANY
 DATE.        12-MAY-1977:   LOGDATE
 API .     49025109850000:   API NUMBER
~CURVE INFORMATION
#MNEM.UNIT       API CODE    CURVE DESCRIPTION
#----------   ------------   ------------------------------
 DEPT.F                  :   
 SPR .MV     07 010 01 00:   SPONTANEOUS POTENTIAL
 RILM.OHMM   07 120 44 00:   INDUCTION LOG MEDIUM RESISTIVITY
 RILD.OHMM   07 120 46 00:   DEEP INDUCTION RESISTIVITY
 SGRD.OHMM   07 220 05 00:   SHALLOW GUARD LOG RESISTIVITY
 NPHI.DEC    42 890 03 00:   NEUTRON POROSITY SANDSTONE
 GRD .GAPI   45 310 01 00:   GAMMA RAY FROM DENSITY LOG
 CALD.IN     45 280 60 00:   CALIPER FROM DENSITY LOG
 RHOB.G/C3   45 350 01 00:   BULK DENSITY
 DCOR.G/C3   45 356 01 00:   DENSITY CORRECTION
~PARAMETER INFORMATION
#MNEM.UNIT          VALUE    DESCRIPTION
#----------   ------------   ------------------------------
 EKB .F         5114.0000:   Kelly bushing
 EGL .F         5100.0000:   Ground level
 EDF .F         5112.0000:   Drilling floor
 TD  .F         3014.0000:   Total depth
 DATE.        12-MAY-1977:   Date logged
 CLNT.            A2DTECH:   Client Code
 SL  . 660' FEL & 660' FNL:   Surface Location
 PD  .                 GL:   Permanent Datum
 EPD .F              5100:   Elevation Permanent Datum
 LMF .                 KB:   Log Measured From
 DMF .                 KB:   Drilling Measured From
 DD  .F              3000:   Depth driller
 DL  .F              3014:   Depth logger
 BLI .F              3012:   Bottom log interval
 TLI .F              1500:   Top log interval
 CS1 .IN            8.625:   Casing size
 CBD1.      8.625" @ 217':   Casing driller 1
 CBL1.F               209:   Casing logger 1
 BS1 .IN            7.875:   Bit size
 BSD1.F              3000:   Depth drilled with bit1
 DFT .            KCL MUD:   Type fluid in hole
 DFD .                  9:   Density
 DFV .                 33:   Viscosity
 DFPH.                7.5:   pH
 DFL .                7.8:   Fluid loss
 MSS .           FLOWLINE:   Source of sample
 RMS .OHMM           0.69:   Rm
 MST .F                68:   Rm Meas. temp.
 RMF .OHMM           0.66:   Rmf
 MFST.F                68:   Rmf Meas. temp.
 RMC .OHMM           1.27:   Rmc
 MCST.F                68:   Rmc Meas. temp.
 MFSS.                 BK:   Source Rmf.
 MCSS.                 BK:   Source Rmc.
 RMB .OHMM           0.39:   Rm. at BHT
 BHT .F               118:   BHT.
 TCS .HRS               6:   Time Circ. stopped
 MRT .F               118:   Maximum recorded temp.
 LUN .               9685:   Logging unit number
 LUL .           BRIGHTON:   Logging unit location
 ENGI.          T. JOYNER:   Recorded By
 WITN.            K. JAPP:   Witnessed by
 ORIG.           5" PRINT:   Origin of data
 UWI .     49025109850000:   Unique Well ID
 DICO. A2D TECHNOLOGIES, INC.:   Digitizing Company
~OTHER INFORMATION
~A   DEPT      SPR       RILM       RILD       SGRD       NPHI         GRD        CALD       RHOB     DCOR   
# ...
 1469.5000   -24.7060     6.5030     5.8640     8.8850  -999.2500   126.6080     8.5330     2.5810     0.0580
 1470.0000   -24.7260     6.4860     5.7980     8.9050  -999.2500   126.4240     8.5370     2.5780     0.0520
 1470.5000   -24.7460     6.5460     5.7320     8.9240  -999.2500   126.2390     8.5280     2.5760     0.0450
 1471.0000   -24.7670     6.4960     5.6970     8.9480  -999.2500   126.0530     8.5200     2.5750     0.0450
 1471.5000   -24.7860     6.4270     5.6850     8.7720  -999.2500   125.8670     8.5110     2.5770     0.0520
 1472.0000   -24.7930     6.3100     5.6730     8.3140  -999.2500   125.6820     8.5030     2.5810     0.0580
 1472.5000   -24.7150     6.3770     5.6610     8.4450  -999.2500   125.4960     8.4940     2.5810     0.0610
 1473.0000   -24.6370     6.4670     5.6520     8.6870  -999.2500   125.3110     8.4860     2.5810     0.0630
 1473.5000   -24.5590     6.5500     5.6920     8.9480  -999.2500   125.1250     8.4770     2.5840     0.0620
 1474.0000   -24.4810     6.5800     5.7290     9.0080  -999.2500   124.9400     8.4690     2.5870     0.0580
 1474.5000   -24.4190     6.6110     5.7650     9.0740  -999.2500   124.7540     8.4610     2.5850     0.0570
 1475.0000   -24.4790     6.6460     5.8020     9.1390  -999.2500   124.5680     8.4700     2.5830     0.0580
 1475.5000   -24.5400     6.6820     5.8390     9.1980  -999.2500   124.3830     8.4800     2.5850     0.0590
 1476.0000   -24.6000     6.7290     5.8750     9.1850  -999.2500   124.1970     8.4900     2.5880     0.0600
 1476.5000   -24.6150     6.7230     5.9120     9.1730  -999.2500   124.0120     8.5000     2.5890     0.0580
 1477.0000   -24.6230     6.7130     5.9480     9.1610  -999.2500   123.8260     8.5100     2.5830     0.0530
 1477.5000   -24.6310     6.7030     5.9850     9.1500  -999.2500   123.6410     8.5200     2.5760     0.0490
 1478.0000   -24.6390     6.6930     6.0210     9.1380     0.2990   123.4550     8.5300     2.5690     0.0450
 1478.5000   -24.6470     6.6830     6.0450     9.1270     0.2960   123.2690     8.5400     2.5630     0.0400
 1479.0000   -24.6550     6.6680     6.0660     9.1140     0.2980   123.0810     8.5500     2.5560     0.0360
 1479.5000   -24.6630     6.6850     6.0880     9.3220     0.2980   122.9230     8.5590     2.5540     0.0310
 1480.0000   -24.6710     6.7250     6.1090     9.5220     0.2980   123.2280     8.5410     2.5540     0.0300
 1480.5000   -24.6790     6.7660     6.1310     9.7200     0.2990   123.5370     8.5240     2.5580     0.0360
 1481.0000   -24.6870     6.8060     6.1520     9.5600     0.2990   123.8430     8.5060     2.5640     0.0420
 1481.5000   -24.6950     6.8540     6.1730     9.3690     0.2990   124.1490     8.4890     2.5710     0.0480
 1482.0000   -24.7030     6.8500     6.1950     9.4550     0.2980   124.4560     8.4710     2.5750     0.0550
 1482.5000   -24.7110     6.8450     6.1810     9.6170     0.2990   124.7620     8.4540     2.5720     0.0550
 1483.0000   -24.7190     6.8390     6.1670     9.5710     0.2990   125.0680     8.4360     2.5680     0.0530
 1483.5000   -24.7270     6.8340     6.1530     9.4110     0.2990   125.3740     8.4210     2.5650     0.0520
 1484.0000   -24.7360     6.8290     6.1400     9.2500     0.2980   125.6800     8.4410     2.5620     0.0500
 1484.5000   -24.7440     6.8230     6.1260     9.1140  -999.2500   125.9860     8.4600     2.5660     0.0480
 1485.0000   -24.7520     6.8180     6.1120     9.1540  -999.2500   126.2930     8.4790     2.5690     0.0520
 1485.5000   -24.7600     6.8120     6.0980     9.1980  -999.2500   126.5980     8.4980     2.5720     0.0600
 1486.0000   -24.7680     6.8070     6.0840     9.1750  -999.2500   126.9050     8.5170     2.5760     0.0680
 1486.5000   -24.7760     6.8020     6.0700     9.1430  -999.2500   127.2320     8.5360     2.5790     0.0760
 1487.0000   -24.7840     6.7960     6.0560     9.1190  -999.2500   126.7620     8.5560     2.5800     0.0780
 1487.5000   -24.7920     6.7920     6.0420     9.1990  -999.2500   126.0620     8.5450     2.5770     0.0740
 1488.0000   -24.8000     6.8000     6.0280     9.2750  -999.2500   125.3540     8.5270     2.5700     0.0680
 1488.5000   -24.8370     6.8070     6.0270     9.3640  -999.2500   124.6460     8.5080     2.5630     0.0620
 1489.0000   -24.9050     6.8140     6.0270     9.4550  -999.2500   123.9370     8.4890     2.5580     0.0660
 1489.5000   -24.9720     6.8220     6.0270     9.5460  -999.2500   123.2240     8.4700     2.5620     0.0720
 1490.0000   -25.0390     6.8290     6.0270     9.6310  -999.2500   122.5450     8.4510     2.5660     0.0810
 1490.5000   -25.1070     6.8370     6.0270     9.5510  -999.2500   123.0270     8.4320     2.5690     0.0750
 1491.0000   -25.1750     6.8440     6.0270     9.4760  -999.2500   123.5670     8.4130     2.5710     0.0660
 1491.5000   -25.2420     6.8520     6.0270     9.4010  -999.2500   124.1030     8.3940     2.5720     0.0680
 1492.0000   -25.3100     6.8540     6.0270     9.2830  -999.2500   124.6330     8.3760     2.5720     0.0650
 1492.5000   -25.3770     6.8540     6.0270     9.2900  -999.2500   125.1660     8.3610     2.5710     0.0610
 1493.0000   -25.4450     6.8540     6.0270     9.3070  -999.2500   125.7710     8.3750     2.5700     0.0600
 1493.5000   -25.5120     6.8540     6.0270     9.3240  -999.2500   125.7810     8.3900     2.5720     0.0600
 1494.0000   -25.5800     6.8540     6.0270     9.3410  -999.2500   125.4360     8.4050     2.5770     0.0630
 1494.5000   -25.6470     6.8540     6.0270     9.3580  -999.2500   125.0710     8.4190     2.5810     0.0680
 1495.0000   -25.7160     6.8540     6.0270     9.3850  -999.2500   124.7050     8.4340     2.5850     0.0730
 1495.5000   -25.7800     6.8540     6.0270     9.4500  -999.2500   124.3400     8.4490     2.5890     0.0780
 1496.0000   -25.6990     6.8540     6.0270     9.4130  -999.2500   123.9760     8.4630     2.5860     0.0810
 1496.5000   -25.6180     6.8540     6.0270     9.2970  -999.2500   123.6120     8.4780     2.5810     0.0770
 1497.0000   -25.2540     6.8540     6.0270     9.1980  -999.2500   123.2470     8.4740     2.5760     0.0730
 1497.5000   -24.8140     6.8240     6.0270     9.2420  -999.2500   122.8830     8.4680     2.5770     0.0690
 1498.0000   -24.6100     6.7670     6.0290     9.2830  -999.2500   122.5190     8.4610     2.5800     0.0660
 1498.5000   -24.6090     6.7290     6.0450     9.1980  -999.2500   122.1560     8.4540     2.5840     0.0700
 1499.0000   -24.6080     6.8040     6.0620     9.3510  -999.2500   121.7910     8.4480     2.5870     0.0730
 1499.5000   -24.6080     6.8600     6.0780     9.5160     0.2990   121.4040     8.4410     2.5870     0.0760
 1500.0000   -24.6080     6.9160     6.0950     9.6790     0.2980   121.8130     8.4340     2.5810     0.0740
 1500.5000   -24.6080     6.9720     6.1110     9.8390     0.2990   122.5130     8.4280     2.5760     0.0610
 1501.0000   -24.6080     7.0280     6.1270    10.0000     0.2950   123.2200     8.4210     2.5710     0.0680
 1501.5000   -24.6080     7.0550     6.1440    10.0840     0.2970   123.9280     8.4320     2.5650     0.0610
 1502.0000   -24.6080     7.0690     6.1600     9.9270     0.2950   124.6350     8.4440     2.5600     0.0500
 1502.5000   -24.6080     7.0830     6.1770     9.5900     0.2990   125.3420     8.4570     2.5560     0.0440
 1503.0000   -24.6080     7.0970     6.1930     9.1980  -999.2500   126.0490     8.4700     2.5530     0.0380
 1503.5000   -24.6080     7.1110     6.2100     9.4510  -999.2500   126.7560     8.4830     2.5510     0.0320
 1504.0000   -24.6080     7.1960     6.2260     9.7540  -999.2500   127.4630     8.4950     2.5490     0.0260
 1504.5000   -24.6080     7.2780     6.2520     9.9920  -999.2500   128.1700     8.5080     2.5470     0.0260
 1505.0000   -24.6080     7.3770     6.2410     9.9190  -999.2500   128.8770     8.5200     2.5480     0.0270
 1505.5000   -24.6080     7.2580     6.2120     9.8590  -999.2500   129.5830     8.5080     2.5500     0.0310
