~VERSION INFORMATION
 VERS.                2.0:   CWLS LOG ASCII STANDARD - VERSION 2.0
 WRAP.                 NO:   ONE LINE PER DEPTH STEP
~WELL INFORMATION
#MNEM.UNIT      DATA TYPE    INFORMATION
#----------   ------------   ------------------------------
 STRT.F          240.0000:   START DEPTH
 STOP.F         2876.0000:   STOP DEPTH
 STEP.F            0.5000:   STEP LENGTH
 NULL.          -999.2500:   NO VALUE
 COMP.    FENIX & SCISSON:   COMPANY
 WELL. FENIX & SCISSON "A" #23-21:   WELL
 FLD .               NPR3:   FIELD
 LOC .      S21 T39N R78W:   LOCATION
 CNTY.            NATRONA:   COUNTY
 STAT.            WYOMING:   STATE
 CTRY. UNITED STATES OF AMERICA:   COUNTRY
 SRVC.              WELEX:   SERVICE COMPANY
 DATE.        05-MAR-1977:   LOGDATE
 API .     49025103030000:   API NUMBER
~CURVE INFORMATION
#MNEM.UNIT       API CODE    CURVE DESCRIPTION
#----------   ------------   ------------------------------
 DEPT.F                  :   
 GRD .GAPI   45 310 01 00:   GAMMA RAY FROM DENSITY LOG
 CALD.IN     45 280 60 00:   CALIPER FROM DENSITY LOG
 CORR.G/C3   45 356 01 00:   DENSITY CORRECTION
 RHOB.G/C3   45 350 01 00:   BULK DENSITY
 SPR .MV     07 010 01 00:   SPONTANEOUS POTENTIAL
 ILD .OHMM   07 120 46 00:   DEEP INDUCTION RESISTIVITY
 ILM .OHMM   07 120 44 00:   INDUCTION LOG MEDIUM RESISTIVITY
 SGRD.OHMM   07 220 05 00:   SHALLOW SHORT GUARD RESISTIVITY
~PARAMETER INFORMATION
#MNEM.UNIT          VALUE    DESCRIPTION
#----------   ------------   ------------------------------
 EKB .F         4986.0000:   Kelly bushing
 EGL .F         4976.0000:   Ground level
 TD  .F         2885.0000:   Total depth
 CLNT.            A2DTECH:   Client Code
 SL  . 990' FWL & 1650' FNL:   Surface Location
 DATE.        05-MAR-1977:   Date Logged [DD-MMM-YYYY]
 DD  .F              2885:   Depth driller
 DL  .F              2882:   Depth logger
 BLI .F              2876:   Bottom log interval
 TLI .F               238:   Top log interval
 CS1 .IN            8.625:   Casing size
 CBD1.      8.625" @ 251':   Casing driller 1
 CBL1.IN              251:   Casing logger 1
 BS1 .IN            7.875:   Bit size
 BSD1.F              2885:   Depth drilled with bit1
 DFT .                KCL:   Type fluid in hole
 DFD .                9.5:   Density
 TCS .HRS               3:   Time Circ. stopped
 MRT .F                78:   Maximum recorded temp.
 ENGI.          D. LAWSON:   Recorded By
 WITN.            K. JAPP:   Witnessed by
 ORIG.         2.5" PRINT:   Origin of data
 UWI .     49025103030000:   Unique Well ID
 DICO. A2D TECHNOLOGIES,INC.:   Digitizing Company
 PD  .                 GL:   Permanent Datum
 EPD .               4976:   Elevation Permanent Datum
 LMF .                 KB:   Log Measured From
 DMF .                 KB:   Drilling Measured From
 DAPD.                 10:   Feet Above Permanent Datum
 DFL .                8.8:   Fluid loss
 MSS .           FLOWLINE:   Source of sample
 RMS .OHMM            .40:   Rm
 MST .F                58:   Rm Meas. temp.
 RMF .OHMM            .37:   Rmf
 MFST.F                58:   Rmf Meas. temp.
 MFSS.OHMM            .67:   Source Rmf.
 MCST.F                58:   Rmc Meas. temp.
 MCSS.               MEAS:   Source Rmc.
 RMB .OHMM            .30:   Rm. at BHT
 BHT .F                78:   BHT.
~OTHER INFORMATION
~A   DEPT       GRD        CALD      CORR        RHOB      SPR        ILD        ILM       SGRD   
# ...
 1293.0000   130.9181     8.4391    -0.0007     2.4798   -48.5620     6.5464     8.6416    11.8136
 1293.5000   128.8668     8.4687    -0.0037     2.4887   -48.5591     6.5464     8.6405    11.0908
 1294.0000   127.1087     8.4688    -0.0065     2.5141   -48.5561     6.6372     8.6393    10.5778
 1294.5000   124.4709     8.4690     0.0026     2.5335   -48.5531     6.6372     8.7582    11.1807
 1295.0000   122.4196     8.4691     0.0085     2.5439   -48.5501     6.6372     8.7569    11.5719
 1295.5000   120.6615     8.4693     0.0146     2.5484   -48.5471     6.7294     8.7556    12.1397
 1296.0000   119.1967     8.4694     0.0176     2.5514   -48.5441     6.7693     8.7544    12.0743
 1296.5000   118.0252     8.4402     0.0176     2.5558   -48.5411     6.8228     8.7532    11.6570
 1297.0000   118.6131     8.4403     0.0177     2.5558   -48.5381     6.8228     8.7654    11.8898
 1297.5000   121.8404     8.4405     0.0177     2.5454   -48.5352     6.9175     8.8724    12.2215
 1298.0000   124.4812     8.4406     0.0148     2.5261   -48.5322     6.9175     8.8711    12.5626
 1298.5000   127.4152     8.4408     0.0148     2.5156   -48.5292     6.9175     8.8699    12.6688
 1299.0000   129.1762     8.4409     0.0119     2.5067   -48.5262     6.9175     8.8686    11.9282
 1299.5000   130.0574     8.4411     0.0089     2.4963   -48.5232     6.8848     8.8674    11.7677
 1300.0000   130.0589     8.4412     0.0090     2.4903   -48.5202     6.8228     8.8662    11.6625
 1300.5000   133.5794     8.4413     0.0060     2.4859   -48.5172     6.8228     8.7436    12.0976
 1301.0000   134.7539     8.4415     0.0061     2.4814   -48.5142     6.7294     8.7423    12.6057
 1301.5000   135.6351     8.4416     0.0031     2.4784   -48.5112     6.7019     8.7411    12.4301
 1302.0000   134.4636     8.4418     0.0032     2.4829   -48.5089     6.6372     8.6202    10.7970
 1302.5000   130.0663     8.4419     0.0032     2.4963   -48.5060     6.6372     8.3846    10.1597
 1303.0000   131.2408     8.4421     0.0033     2.5023   -48.5030     6.6372     8.3834    10.5403
 1303.5000   132.4152     8.4422     0.0063     2.5038   -48.5378     6.6372     8.3823    11.2950
 1304.0000   132.1234     8.4424     0.0063     2.5083   -48.5839     6.6372     8.6107    11.2031
 1304.5000   130.9519     8.4426     0.0064     2.5083   -48.6300     6.6372     8.7285    10.3569
 1305.0000   130.4839     8.4429     0.0094     2.5038   -48.6761     6.6372     8.7267    10.3047
 1305.5000   130.0748     8.4433     0.0095     2.4993   -48.7222     6.5563     8.6054    10.7893
 1306.0000   129.2669     8.4436     0.0095     2.4919   -48.7683     6.6483     8.6036    10.8923
 1306.5000   125.7374     8.4440     0.0096     2.4919   -48.8143     6.6492     8.4840    10.1219
 1307.0000   120.3551     8.4443     0.0096     2.4943   -48.8604     6.6501     8.3661    10.2996
 1307.5000   120.9020     8.4446     0.0097     2.5014   -48.9065     6.6510     8.3644    10.8380
 1308.0000   123.1142     8.4450     0.0127     2.5144   -48.9526     6.6519     8.3627    11.2489
 1308.5000   124.9985     8.4453     0.0127     2.5299   -48.9987     6.6529     8.3609    11.5159
 1309.0000   126.3001     8.4456     0.0158     2.5358   -49.0448     6.6538     8.4753    11.4688
 1309.5000   127.4708     8.4460     0.0158     2.5290   -49.0909     6.5636     8.5912    11.1111
 1310.0000   127.8789     8.4463     0.0159     2.5231   -49.1084     6.4745     8.5894    10.7045
 1310.5000   127.8978     8.4467     0.0159     2.5203   -49.1008     6.2994     8.4700    10.3126
 1311.0000   128.7772     8.4470     0.0130     2.5203   -49.0932     6.2139     8.4682    10.1717
 1311.5000   128.9194     8.4473     0.0100     2.5218   -49.0857     6.0458     8.4665    10.5443
 1312.0000   127.8886     8.4477     0.0101     2.5210   -49.0781     5.9638     8.5823    10.9460
 1312.5000   126.1364     8.4480     0.0071     2.5195   -49.0705     5.9646     8.5805    11.2079
 1313.0000   124.3841     8.4483     0.0042     2.5150   -49.0630     5.9655     8.6979    10.7105
 1313.5000   123.0679     8.4487    -0.0018     2.5075   -49.0554     5.9663     8.6960    10.2761
 1314.0000   122.0411     8.4490    -0.0017     2.4963   -49.0479     6.0500     8.6942    10.1759
 1314.5000   122.0289     8.4493    -0.0047     2.4890   -49.0403     6.1348     8.8132    11.1010
 1315.0000   122.7517     8.4497    -0.0046     2.4973   -49.0327     6.2208     8.8112    10.6731
 1315.5000   123.7640     8.4500    -0.0046     2.5033   -49.0252     6.3081     8.8094    10.0382
 1316.0000   124.7996     8.4504    -0.0045     2.5040   -49.0176     6.3965     8.8076    10.8422
 1316.5000   125.8392     8.4507    -0.0045     2.5017   -49.0100     6.4862     8.8058    11.4145
 1317.0000   126.5895     8.4510    -0.0045     2.4988   -49.0025     6.5772     8.8040    11.7350
 1317.5000   124.4896     8.4514    -0.0044     2.4972   -48.9949     6.6694     8.9244    12.0187
 1318.0000   123.8672     8.4517    -0.0037     2.5017   -48.9873     6.7630     8.9225    11.7661
 1318.5000   125.3739     8.4521    -0.0023     2.5106   -48.9798     6.7639     8.9206    11.3311
 1319.0000   126.0595     8.4524    -0.0009     2.5218   -48.9722     6.7648     8.9188    10.9826
 1319.5000   124.2411     8.4527     0.0006     2.5352   -48.9646     6.7658     8.9169    10.2499
 1320.0000   122.7859     8.4530     0.0066     2.5310   -48.9571     6.7667     8.9151    10.5090
 1320.5000   125.1863     8.4533     0.0096     2.5227   -48.9495     6.7676     8.9132    10.7644
 1321.0000   126.8280     8.4536     0.0126     2.5226   -48.9419     6.7686     8.9114    10.7652
 1321.5000   126.1569     8.4539     0.0126     2.5256   -48.9344     6.7695     8.9096    10.7659
 1322.0000   123.5270     8.4542     0.0156     2.5264   -48.9268     6.7704     8.9077    10.3987
 1322.5000   121.4831     8.4544     0.0156     2.5244   -48.9193     6.7714     8.9059     9.9771
 1323.0000   119.4400     8.4547     0.0157     2.5134   -48.9117     6.7723     8.7821    10.1579
 1323.5000   116.9135     8.4550     0.0127     2.4985   -48.9041     6.6804     8.7803    10.8459
 1324.0000   117.6325     8.4553     0.0097     2.4896   -48.8966     6.4997     8.6582    11.0717
 1324.5000   119.8726     8.4556     0.0067     2.4811   -48.8890     6.3237     8.5379    10.7331
 1325.0000   121.7250     8.4559     0.0037     2.4887   -48.8814     6.2380     8.4193    10.2979
 1325.5000   123.4843     8.4562     0.0038     2.5000   -48.8739     6.1535     8.1886    10.0521
 1326.0000   123.6833     8.4565     0.0068     2.5041   -48.8663     6.1543     8.0748    10.0875
 1326.5000   123.9780     8.4568     0.0098     2.5026   -48.8587     6.0709     7.9625    10.3356
 1327.0000   123.9794     8.4571     0.0128     2.5005   -48.8512     6.0717     7.8519    10.3363
 1327.5000   123.8050     8.4574     0.0188     2.5035   -48.8436     6.0726     7.7428    10.1612
 1328.0000   120.1033     8.4871     0.0188     2.5205   -48.8360     5.9903     7.7412     9.7813
 1328.5000   116.3590     8.4874     0.0188     2.5363   -48.8285     5.9911     7.7396     9.9183
 1329.0000   117.3575     8.4877     0.0188     2.5470   -48.8209     5.9919     7.8456    10.0902
 1329.5000   120.7885     8.4880     0.0188     2.5452   -48.8166     5.9927     7.9529    10.2312
 1330.0000   123.4995     8.4883     0.0189     2.5277   -48.8166     5.9936     8.0616    10.5186
 1330.5000   125.6849     8.4886     0.0189     2.5236   -48.8166     5.9944     8.0597    10.6313
 1331.0000   127.2912     8.4889     0.0189     2.5321   -48.8166     5.9952     8.1701    10.3093
 1331.5000   128.2430     8.4892     0.0189     2.5355   -48.8166     5.9961     8.1682    10.2006
 1332.0000   129.3431     8.4895     0.0159     2.5299   -48.8166     6.0801     8.1665    10.5542
 1332.5000   128.8443     8.4898     0.0130     2.5221   -48.8166     6.2510     8.2782    11.1194
 1333.0000   127.5434     8.4900     0.0100     2.5256   -48.8166     6.3387     8.3914    11.0179
