~VERSION INFORMATION
 VERS.                2.0:   CWLS LOG ASCII STANDARD - VERSION 2.0
 WRAP.                 NO:   ONE LINE PER DEPTH STEP
~WELL INFORMATION
#MNEM.UNIT      DATA TYPE    INFORMATION
#----------   ------------   ------------------------------
 STRT.F          190.0000:   START DEPTH
 STOP.F         3215.0000:   STOP DEPTH
 STEP.F            0.5000:   STEP LENGTH
 NULL.          -999.2500:   NO VALUE
 COMP.    FENIX & SCISSON:   COMPANY
 WELL.  FENIX "AX" #78-34:   WELL
 FLD . NAVAL PET. RES. NO. 3:   FIELD
 LOC .      S34 T39N R78W:   LOCATION
 CNTY.            NATRONA:   COUNTY
 STAT.            WYOMING:   STATE
 CTRY. UNITED STATES OF AMERICA:   COUNTRY
 SRVC.       SCHLUMBERGER:   SERVICE COMPANY
 DATE.        16-DEC-1980:   LOGDATE
 API .     49025108670000:   API NUMBER
~CURVE INFORMATION
#MNEM.UNIT       API CODE    CURVE DESCRIPTION
#----------   ------------   ------------------------------
 DEPT.F                  :   
 TEND.LBS    45 635 01 00:   TENSION FORM DENSITY LOG
 GRD .GAPI   45 310 01 00:   GAMMA RAY FROM DENSITY LOG
 CALD.IN     45 280 60 00:   CALIPER FROM DENSITY LOG
 CORR.G/C3   45 356 01 00:   DENSITY CORRECTION
 RHOB.G/C3   45 350 01 00:   BULK DENSITY
 SPR .MV     07 010 01 00:   SPONTANEOUS POTENTIAL
 TENR.LBS    07 635 01 00:   TENSION FROM RESISTIVITY
 ILD .OHMM   07 120 46 00:   DEEP INDUCTION RESISTIVITY
 ILM .OHMM   07 120 44 00:   INDUCTION LOG MEDIUM RESISTIVITY
 SFL .OHMM   07 220 01 00:   SHALLOW FOCUSED LOG RESISTIVITY
~PARAMETER INFORMATION
#MNEM.UNIT          VALUE    DESCRIPTION
#----------   ------------   ------------------------------
 EKB .F         5068.0000:   Kelly bushing
 EGL .F         5058.0000:   Ground level
 EDF .F            0.0000:   Drilling floor
 EPD .F            0.0000:   Permanent datum
 TD  .F         3202.0000:   Total depth
 CLNT.            A2DTECH:   Client Code
 SL  . 542' FSL & 693' FEL:   Surface Location
 PD  .                 GL:   Permanent Datum
 DAPD.F                10:   Feet Above Permanent Datum
 DATE.        16-DEC-1980:   Date Logged [DD-MMM-YYYY]
 DD  .F              3200:   Depth driller
 DL  .F              3202:   Depth logger
 BLI .F              3199:   Bottom log interval
 TLI .F               193:   Top log interval
 CS1 .IN            8.625:   Casing size
 CBD1.      8.625" @ 215':   Casing driller 1
 CBL1.F               193:   Casing logger 1
 BS1 .IN            7.875:   Bit size
 BSD1.F              3200:   Depth drilled with bit1
 DFT .               LSND:   Type fluid in hole
 DFD .                9.1:   Density
 DFV .                 35:   Viscosity
 DFPH.                  8:   pH
 DFL .                 16:   Fluid loss
 MSS .            MUD PIT:   Source of sample
 RMS .OHMM            2.9:   Rm
 MST .F                56:   Rm Meas. temp.
 RMF .OHMM            2.4:   Rmf
 MFST.F                56:   Rmf Meas. temp.
 MFSS.               MEAS:   Source Rmf.
 RMC .OHMM            2.7:   Rmc
 MCST.F                56:   Rmc Meas. temp.
 MCSS.               CALC:   Source Rmc.
 RMB .OHMM           1.35:   Rm. at BHT
 BHT .F               120:   BHT.
 TCS .HRS            2100:   Time Circ. stopped
 MRT .F               120:   Maximum recorded temp.
 LUN .               8161:   Logging unit number
 ENGI.             SITTON:   Recorded By
 WITN.              FIVAS:   Witnessed by
 ORIG.           5" PRINT:   Origin of data
 UWI .     49025108670000:   Unique Well ID
 DICO. A2D TECHNOLOGIES, INC.:   Digitizing Company
~OTHER INFORMATION
~A   DEPT     TEND         GRD      CALD       CORR       RHOB        SPR       TENR        ILD        ILM        SFL   
# ...
 1195.0000   451.8072    94.5428     9.5461     0.0267     2.5313   -47.1392   329.4245     8.6539     8.2826     8.4392
 1195.5000   451.8072    95.6359     9.5463     0.0159     2.5178   -47.2550   328.3098     8.6586     8.2859     8.4426
 1196.0000   451.8072    96.7289     9.5463     0.0167     2.5127   -47.6513   327.1947     8.7843     8.2893     8.5048
 1196.5000   451.8072    97.8220     9.5453     0.0175     2.5129   -48.0163   326.0797     8.8502     8.2926     8.6869
 1197.0000   451.8072    99.4083     9.5302     0.0184     2.5145   -48.3173   324.9647     8.9167     8.2957     8.8729
 1197.5000   451.8072    96.2405     9.5259     0.0200     2.5220   -48.5432   323.8497     8.9215     8.2993     8.9390
 1198.0000   451.8072    92.3077     9.5272     0.0255     2.5520   -49.0230   322.7271     8.9884     8.2454     9.0048
 1198.5000   451.8072    93.7870     9.5425     0.0350     2.5738   -48.5208   321.5910     8.9312     8.2502     9.0084
 1199.0000   451.8072    95.8580     9.5467     0.0384     2.5746   -48.5581   320.4546     8.9362     8.3420     9.0121
 1199.5000   451.8072    97.6331     9.5463     0.0257     2.5664   -48.8596   319.1111     8.9420     8.4293     9.0158
 1200.0000   451.8072    99.5870     9.5505     0.0133     2.5379   -48.6677   317.9960     8.9469     8.4911     9.0818
 1200.5000   451.8072    99.1480     9.5602     0.0118     2.5260   -48.3267   316.8810     8.9517     8.5530     8.9605
 1201.0000   451.8072    98.1806     9.5820     0.0150     2.5253   -48.0754   315.7660     8.9566     8.5569     8.9023
 1201.5000   451.8072    97.1928     9.5895     0.0252     2.5328   -47.6841   314.6510     9.0238     8.5604     8.8445
 1202.0000   451.8072    95.4727     9.6034     0.0338     2.5471   -47.3603   313.5359     9.0287     8.5638     8.8489
 1202.5000   451.8072    93.7639     9.6043     0.0448     2.5615   -46.9797   312.4209     9.0336     8.5746     8.9140
 1203.0000   451.8072    92.8593     9.5892     0.0425     2.5705   -46.8065   311.3059     9.1647     8.6142     8.9796
 1203.5000   451.8072    93.7399     9.5850     0.0371     2.5743   -46.6149   312.6863     9.1697     8.6538     9.0457
 1204.0000   451.8072    94.1418     9.5853     0.0293     2.5766   -46.5017   315.0436     9.2350     8.6933     9.1123
 1204.5000   451.8072    94.1041     9.5855     0.0200     2.5774   -46.5750   317.4009     9.3556     8.7329     9.1160
 1205.0000   451.8072    94.1084     9.5855     0.0106     2.5745   -46.5734   319.7581     9.4698     8.7725     9.1830
 1205.5000   451.8072    95.5735     9.5855     0.0053     2.5572   -46.7635   322.1154     9.3406     8.8024     9.1868
 1206.0000   451.8072    98.0841     9.5855     0.0110     2.5392   -46.9839   324.4727     9.2132     8.8036     9.1914
 1206.5000   451.8072   100.2498     9.5855     0.0156     2.5317   -47.1039   326.8300     9.2144     8.8051     9.1951
 1207.0000   451.8072   100.1625     9.5856     0.0114     2.5264   -47.2426   330.2193     9.1517     8.6854     9.1345
 1207.5000   451.8072    97.1336     9.5850     0.0102     2.5190   -47.3788   335.0172     9.2169     8.6268     9.1386
 1208.0000   451.8072    94.2773     9.5626     0.0165     2.5276   -47.5147   339.8150     9.2182     8.6278     9.0797
 1208.5000   451.8072    93.2878     9.5459     0.0189     2.5395   -47.6507   344.6129     9.2194     8.6291     9.0834
 1209.0000   451.8072    94.8154     9.5462     0.0158     2.5358   -47.7874   349.4108     9.2207     8.5705     9.0871
 1209.5000   451.8072    98.0148     9.5462     0.0143     2.5275   -47.9255   354.2087     9.2223     8.5720     9.1539
 1210.0000   451.8072    99.3276     9.5462     0.0167     2.5298   -47.8538   356.0605     9.2877     8.6326     9.1576
 1210.5000   451.8072    99.9418     9.5462     0.0199     2.5329   -47.7520   355.6818     9.3000     8.6936     9.2292
 1211.0000   451.8072    97.1380     9.5462     0.0239     2.5344   -47.6496   355.3030     9.4200     8.7584     9.2930
 1211.5000   451.8072    94.8842     9.5462     0.0286     2.5375   -47.5476   354.9242     9.4213     8.8521     9.2976
 1212.0000   451.8072    94.5513     9.5462     0.0326     2.5428   -47.4457   368.8933     9.3571     8.8796     9.3014
 1212.5000   451.8072    96.2972     9.5462     0.0357     2.5541   -47.3438   368.8933     9.2298     8.8196     9.3051
 1213.0000   451.8663    98.7569     9.5461     0.0389     2.5624   -47.2425   368.8933     9.2310     8.7601     9.3089
 1213.5000   451.9202    99.2035     9.5462     0.0413     2.5722   -47.1416   368.8933     9.1685     8.7007     9.2475
 1214.0000   451.8217    96.9923     9.5490     0.0383     2.5753   -47.0241   363.6341     9.1697     8.6419     9.1874
 1214.5000   411.1098    95.6553     9.5633     0.0297     2.5655   -46.6760   357.4153     9.1076     8.5629     9.1921
 1215.0000   410.3236    97.2859     9.5659     0.0235     2.5476   -46.3666   351.1964     9.1089     8.5256     9.1958
 1215.5000   450.2477    99.9619     9.5743     0.0228     2.5416   -46.1655   352.9287     9.1735     8.5271     9.1996
 1216.0000   450.7931   100.3498     9.5859     0.0228     2.5424   -46.1165   359.1476     9.1750     8.5873     9.2034
 1216.5000   451.5263    98.7965     9.5855     0.0237     2.5424   -46.1338   365.3664     9.1763     8.6481     9.2079
 1217.0000   451.8133    96.8732     9.5854     0.0253     2.5409   -46.1745   368.8933     9.1775     8.6493     9.2116
 1217.5000   451.8072    95.9013     9.5855     0.0277     2.5440   -46.1786   368.8933     9.1150     8.6507     9.2154
 1218.0000   451.8072    96.0713     9.5855     0.0324     2.5614   -46.1461   368.8933     9.0533     8.5920     9.2191
 1218.5000   451.8072    97.5370     9.5855     0.0364     2.5674   -46.3924   385.3639     8.9919     8.4171     9.0960
 1219.0000   451.8072   101.1103     9.5855     0.0301     2.5562   -46.5694   381.9874     8.9310     8.3027     8.9745
 1219.5000   451.8072   105.0111     9.5855     0.0214     2.5450   -46.9145   373.6956     8.6881     8.1899     8.8547
 1220.0000   451.8072   107.9055     9.5855     0.0146     2.5390   -47.1689   368.8933     8.4515     8.1910     8.7364
 1220.5000   451.8072   108.7121     9.5855     0.0167     2.5533   -47.3506   368.8933     8.2214     8.0797     8.4993
 1221.0000   451.8072   107.2970     9.5855     0.0328     2.5579   -47.5677   368.8933     8.1093     7.9699     8.2723
 1221.5000   451.8072   106.0154     9.5855     0.0336     2.5557   -47.7004   368.8933     8.0543     7.8609     8.1618
 1222.0000   451.8072   106.2505     9.5855     0.0282     2.5527   -47.8176   375.1994     7.9444     7.7252     8.0528
 1222.5000   451.8072   107.7412     9.5855     0.0267     2.5535   -48.1910   381.4114     7.8906     7.5969     8.0569
 1223.0000   451.8072   110.3400     9.5855     0.0267     2.5543   -48.2046   387.7255     7.8919     7.4859     8.0602
 1223.5000   451.8072   110.6022     9.5855     0.0260     2.5483   -47.8902   384.0908     7.8930     7.3918     8.0070
 1224.0000   451.8072   109.8884     9.5855     0.0245     2.5416   -47.5762   378.2703     7.8393     7.2914     7.9009
 1224.5000   451.8072   110.2612     9.5855     0.0246     2.5386   -47.2612   372.4005     7.8406     7.2419     7.8487
 1225.0000   451.8072   111.8976     9.5855     0.0301     2.5470   -46.9463   365.5699     7.7334     7.1437     7.7447
 1225.5000   451.8072   112.3348     9.5855     0.0317     2.5530   -46.6284   357.2782     7.6279     7.1447     7.6413
 1226.0000   451.8072   109.8403     9.5855     0.0271     2.5500   -46.4610   348.9532     7.5241     7.1456     7.6444
 1226.5000   451.8072   108.3104     9.5855     0.0193     2.5486   -46.3256   343.4474     7.4215     7.0974     7.6482
 1227.0000   411.6466   109.0037     9.5855     0.0186     2.5532   -46.1910   337.9196     7.3712     7.0984     7.6513
 1227.5000   411.6466   108.6811     9.5854     0.0304     2.5600   -46.0557   332.3917     7.2706     7.0993     7.6544
 1228.0000   411.6466   106.2346     9.5856     0.0437     2.5705   -45.9191   333.8484     7.2213     7.1003     7.6575
