~VERSION INFORMATION
 VERS.                2.0:   CWLS LOG ASCII STANDARD - VERSION 2.0
 WRAP.                 NO:   ONE LINE PER DEPTH STEP
~WELL INFORMATION
#MNEM.UNIT      DATA TYPE    INFORMATION
#----------   ------------   ------------------------------
 STRT.F          590.0000:   START DEPTH
 STOP.F         3428.0000:   STOP DEPTH
 STEP.F            0.5000:   STEP LENGTH
 NULL.          -999.2500:   NO VALUE
 COMP.    FENIX & SCISSON:   COMPANY
 WELL. FENIX NPR 3 "AX" #25-27:   WELL
 FLD .                NPR:   FIELD
 LOC .      S27 T39N R78W:   LOCATION
 CNTY.            NATRONA:   COUNTY
 STAT.            WYOMING:   STATE
 CTRY. UNITED STATES OF AMERICA:   COUNTRY
 SRVC.       SCHLUMBERGER:   SERVICE COMPANY
 DATE.        13-AUG-1981:   LOGDATE
 API .     49025108780000:   API NUMBER
~CURVE INFORMATION
#MNEM.UNIT       API CODE    CURVE DESCRIPTION
#----------   ------------   ------------------------------
 DEPT.F                  :   
 CALD.IN     45 280 60 00:   CALIPER FROM DENSITY LOG
 GRD .GAPI   45 310 01 00:   GAMMA RAY FROM DENSITY LOG
 CORR.G/C3   45 356 01 00:   DENSITY CORRECTION
 RHOB.G/C3   45 350 01 00:   BULK DENSITY
 NPHI.DEC    42 890 03 00:   NEUTRON POROSITY SANDSTONE
 TENR.LBS    07 635 01 00:   TENSION
 SPR .MV     07 010 01 00:   SPONTANEOUS POTENTIAL
 ILD .OHMM   07 120 46 00:   INDUCTION LOG DEEP RESISTIVITY
 ILM .OHMM   07 120 44 00:   INDUCTION LOG MEDIUM RESISTIVITY
 SFL .OHMM   07 220 01 00:   SHALLOW FOCUSED LOG RESISTIVITY
 TEND.LBS    45 635 01 00:   TENSION FROM DENSITY LOG
~PARAMETER INFORMATION
#MNEM.UNIT          VALUE    DESCRIPTION
#----------   ------------   ------------------------------
 EKB .F         5057.0000:   Kelly bushing
 EGL .F         5047.0000:   Ground level
 EDF .F            0.0000:   Drilling floor
 TD  .F         3415.0000:   Total depth
 DATE.        13-AUG-1981:   Date logged
 CLNT.            A2DTECH:   Client Code
 SL  . 2100' FSL & 1050' FWL:   Surface Location
 PD  .                 GL:   Permanent Datum
 EPD .F              5047:   Elevation Permanent Datum
 LMF .                 KB:   Log Measured From
 DMF .                 KB:   Drilling Measured From
 DAPD.F                10:   Feet Above Permanent Datum
 DD  .F              3400:   Depth driller
 DL  .F              3415:   Depth logger
 BLI .F              3409:   Bottom log interval
 TLI .F               603:   Top log interval
 CS1 .IN            9.625:   Casing size
 CBD1.      9.625" @ 607':   Casing driller 1
 CBL1.F               603:   Casing logger 1
 BS1 .IN            7.875:   Bit size
 BSD1.F              3400:   Depth drilled with bit1
 DFT .                FGM:   Type fluid in hole
 DFD .                8.7:   Density
 DFV .                 36:   Viscosity
 DFPH.                  9:   pH
 DFL .                 13:   Fluid loss
 MSS .           MUD/TANK:   Source of sample
 RMS .OHMM           1.69:   Rm
 MST .F                75:   Rm Meas. temp.
 RMF .OHMM           1.34:   Rmf
 MFST.F                75:   Rmf Meas. temp.
 MFSS.               MEAS:   Source Rmf.
 RMB .OHMM           1.09:   Rm. at BHT
 BHT .F               120:   BHT.
 TCS .HRS            2145:   Time Circ. stopped
 TLAB.HRS            0200:   Time logger at bottom
 MRT .F               120:   Maximum recorded temp.
 LUN .               8039:   Logging unit number
 LUL .               CSPR:   Logging unit location
 ENGI.            PURPICH:   Recorded By
 WITN.              FIVAS:   Witnessed by
 ORIG.           5" PRINT:   Origin of data
 UWI .     49025108780000:   Unique Well ID
 DICO. A2D TECHNOLOGIES, INC.:   Digitizing Company
~OTHER INFORMATION
~A   DEPT     CALD         GRD      CORR       RHOB         NPHI     TENR        SPR        ILD        ILM        SFL       TEND   
# ...
  956.0000     8.8290    94.6400     0.0290     2.5070     0.3020   630.4640   -90.2810     8.2920     7.0630     8.9660   649.8020
  956.5000     8.8320    95.4640     0.0260     2.5020     0.3070   630.5220   -90.2190     8.4030     7.0990     8.9780   649.8020
  957.0000     8.8300    98.1450     0.0190     2.5010     0.3070   630.5810   -90.1570     8.3960     7.1300     8.9890   649.8020
  957.5000     8.8270    99.8340     0.0180     2.5030     0.3070   630.6390   -90.0940     8.3840     7.1170     9.0010   649.8020
  958.0000     8.8250    99.9550     0.0250     2.5100     0.3100   630.6970   -90.0320     8.3710     7.1070     9.0130   649.8020
  958.5000     8.8220   100.0750     0.0370     2.5230     0.3140   630.7550   -89.9700     8.3590     7.0960     9.0250   649.8020
  959.0000     8.8200   100.2610     0.0480     2.5280     0.3180   630.8140   -89.9080     8.3460     7.0860     9.0390   649.8020
  959.5000     8.8170   102.0560     0.0430     2.5210     0.3210   630.8720   -89.8460     8.3340     7.0760     8.8040   649.8020
  960.0000     8.8150   103.8620     0.0300     2.5100     0.3140   630.9300   -89.7800     8.2860     7.0660     8.4990   649.8020
  960.5000     8.8180   105.6580     0.0180     2.5000     0.3070   630.9880   -89.6360     8.0640     6.9930     8.2160   649.8020
  961.0000     8.8380   107.4440     0.0160     2.4980     0.3010   631.0470   -89.4860     7.8830     6.9000     8.1760   649.8020
  961.5000     8.8580   109.2290     0.0250     2.5030     0.2890   631.1050   -89.3340     8.0270     6.8080     8.4040   649.8020
  962.0000     8.8790   109.9320     0.0320     2.5100     0.2860   631.1630   -89.1960     8.1010     6.7150     8.5970   649.8020
  962.5000     8.9090   109.4900     0.0340     2.5120     0.2950   631.2220   -89.3720     8.0610     6.6230     8.6360   649.8020
  963.0000     8.9130   109.0500     0.0190     2.5030     0.3050   631.2800   -89.5610     7.9950     6.5670     8.5100   649.8020
  963.5000     8.9130   108.6010     0.0090     2.4940     0.3180   631.3380   -89.7500     7.9550     6.6470     8.4050   649.8020
  964.0000     8.9130   108.1520     0.0070     2.4910     0.3150   631.3960   -89.9370     7.8110     6.7130     8.3000   649.8020
  964.5000     8.9130   107.7840     0.0230     2.5070     0.3040   631.4550   -90.1250     7.8770     6.7800     8.1760   649.8020
  965.0000     8.9130   108.2490     0.0420     2.5350     0.2940   631.5130   -90.3130     7.9850     6.8460     8.2800   649.8020
  965.5000     8.9130   109.9100     0.0570     2.5480     0.2960   631.5710   -90.5010     8.0920     6.9280     8.4500   649.8020
  966.0000     8.9130   110.7590     0.0570     2.5440     0.3050   631.6290   -90.6900     8.1760     6.8930     8.5580   649.8020
  966.5000     8.9120   110.1000     0.0350     2.5350     0.3210   631.6880   -90.8760     8.0780     6.8240     8.4780   649.8020
  967.0000     8.9130   109.4840     0.0210     2.5210     0.3300   631.7460   -91.0610     7.9990     6.7540     8.4130   649.8020
  967.5000     8.9180   109.2010     0.0110     2.5070     0.3370   631.8040   -91.0060     7.9200     6.6850     8.3260   649.8020
  968.0000     8.9240   110.7040     0.0090     2.4910     0.3280   631.8630   -90.6460     7.8400     6.6150     8.2530   649.8020
  968.5000     8.9300   112.0540     0.0070     2.4770     0.3220   631.9210   -90.1520     7.7610     6.5460     8.1660   649.8020
  969.0000     8.9360   110.0270     0.0070     2.4790     0.3150   631.9790   -89.6580     7.6810     6.4480     8.1010   649.8020
  969.5000     8.9420   107.8710     0.0110     2.4900     0.3090   632.0370   -89.3010     7.6700     6.4480     8.0280   649.8020
  970.0000     8.9480   106.6850     0.0160     2.5000     0.3040   632.0960   -88.9670     7.7020     6.4480     8.0280   649.8020
  970.5000     8.9540   106.8800     0.0140     2.5020     0.3000   632.1540   -88.6360     7.7730     6.4680     7.9550   649.8020
  971.0000     8.9600   108.6510     0.0090     2.4980     0.2980   632.2120   -88.5910     7.8450     6.5430     8.1320   649.8020
  971.5000     8.9650   110.6620     0.0080     2.4930     0.2930   632.2700   -88.5910     7.9160     6.6180     8.2730   649.8020
  972.0000     8.9710   110.4090     0.0140     2.5020     0.2840   632.3290   -88.5910     7.9870     6.6930     8.4030   649.8020
  972.5000     8.9700   107.6640     0.0220     2.5130     0.2810   632.3870   -88.5910     8.0580     6.7680     8.4930   649.8020
  973.0000     8.9680   103.6990     0.0280     2.5160     0.2900   632.4450   -88.5890     8.1290     6.8430     8.5760   649.8020
  973.5000     8.9650   103.0680     0.0250     2.5070     0.2970   632.5030   -88.5950     8.2000     6.9180     8.6360   649.8020
  974.0000     8.9630   103.3680     0.0220     2.5030     0.3060   632.5620   -89.1200     8.2510     7.0010     8.5150   649.8020
  974.5000     8.9600   103.0170     0.0190     2.5100     0.3180   632.6200   -89.5420     8.1960     6.9710     8.4040   649.8020
  975.0000     8.9580   102.3120     0.0230     2.5170     0.3170   632.6780   -89.9440     8.1460     6.9290     8.3260   649.8020
  975.5000     8.9550   102.1150     0.0290     2.5160     0.3100   632.7370   -90.3600     8.1010     6.8860     8.2510   649.8020
  976.0000     8.9500   103.3220     0.0340     2.5130     0.3080   632.7950   -90.4440     8.1010     6.8740     8.4910   649.8020
  976.5000     8.8750   101.9300     0.0370     2.5220     0.3070   632.8530   -90.5130     8.3910     7.0450     8.8320   649.8020
  977.0000     8.8740   100.3090     0.0410     2.5400     0.3050   632.9110   -90.5890     8.6130     7.2330     9.1740   649.8020
  977.5000     8.8750    98.6900     0.0490     2.5590     0.3000   632.9700   -90.7060     8.8350     7.4210     9.5150   649.8020
  978.0000     8.8760    97.0720     0.0580     2.5740     0.2830   633.0280   -90.8230     9.0570     7.6090     9.8560   649.8020
  978.5000     8.8770    97.8540     0.0660     2.5710     0.2720   633.0860   -90.9430     9.3000     7.8110    10.0860   649.8020
  979.0000     8.8780   100.5510     0.0560     2.5600     0.2720   633.1440   -90.9720     9.3750     7.9290    10.1780   649.8020
  979.5000     8.8800   103.2730     0.0400     2.5420     0.2730   633.2030   -90.9730     9.4500     7.9930    10.1590   649.8020
  980.0000     8.8810   105.2260     0.0220     2.5200     0.2800   633.2610   -90.9490     9.5250     8.0560    10.1450   649.8020
  980.5000     8.8820   105.7240     0.0030     2.4980     0.2860   633.3190   -90.7840     9.6000     8.1200    10.1310   649.8020
  981.0000     8.8830   104.4510    -0.0020     2.4870     0.2890   633.3780   -90.6180     9.6750     8.1840    10.1170   649.8020
  981.5000     8.8840   104.1930    -0.0020     2.4880     0.2790   633.4360   -90.4030     9.7240     8.2510    10.1030   649.8020
  982.0000     8.8850   104.1750     0.0020     2.5010     0.2700   633.4940   -90.1730     9.6670     8.2190    10.0850   649.8020
  982.5000     8.8860   103.8260     0.0070     2.5130     0.2710   633.5520   -89.9440     9.6360     8.1760    10.1080   649.8020
  983.0000     8.8870   102.0320     0.0240     2.5360     0.2770   633.6110   -89.7140     9.7390     8.1910    10.1700   649.8020
  983.5000     8.8880   101.4130     0.0380     2.5560     0.2780   633.6690   -89.4830     9.8470     8.2180    10.2320   649.8020
  984.0000     8.8900   102.2850     0.0470     2.5660     0.2760   633.7270   -89.3850     9.9540     8.2450    10.2720   649.8020
  984.5000     8.8910   104.1450     0.0470     2.5670     0.2750   633.7850   -89.3490    10.0620     8.2720    10.4610   649.8020
  985.0000     8.8920   103.9930     0.0360     2.5530     0.2820   633.8440   -89.2480    10.0860     8.2990    10.5570   649.8020
  985.5000     8.8930   103.8140     0.0290     2.5370     0.2890   633.9020   -89.1860     9.9530     8.3260    10.4270   649.8020
  986.0000     8.8990   106.1720     0.0260     2.5260     0.2980   633.9600   -89.1870     9.8460     8.2420    10.3170   649.8020
