~VERSION INFORMATION
 VERS.                2.0:   CWLS LOG ASCII STANDARD - VERSION 2.0
 WRAP.                 NO:   ONE LINE PER DEPTH STEP
~WELL INFORMATION
#MNEM.UNIT      DATA TYPE    INFORMATION
#----------   ------------   ------------------------------
 STRT.F          387.0000:   START DEPTH
 STOP.F         2921.0000:   STOP DEPTH
 STEP.F            0.5000:   STEP LENGTH
 NULL.          -999.2500:   NO VALUE
 COMP.    FENIX & SCISSON:   COMPANY
 WELL.  FENIX  "A" #21-28:   WELL
 FLD .          N.P.R. #3:   FIELD
 LOC .      S28 T39N R78W:   LOCATION
 CNTY.            NATRONA:   COUNTY
 STAT.            WYOMING:   STATE
 CTRY. UNITED STATES OF AMERICA:   COUNTRY
 SRVC.       SCHLUMBERGER:   SERVICE COMPANY
 DATE.        30-APR-1977:   LOGDATE
 API .     49025103550000:   API NUMBER
~CURVE INFORMATION
#MNEM.UNIT       API CODE    CURVE DESCRIPTION
#----------   ------------   ------------------------------
 DEPT.F                  :   
 SPR .MV     07 010 01 00:   SPONTANEOUS POTENTIAL
 ILD .OHMM   07 120 46 00:   DEEP INDUCTION RESISTIVITY
 ILM .OHMM   07 120 44 00:   INDUCTION LOG MEDIUM RESISTIVITY
 LL8 .OHMM   07 220 08 00:   LATEROLOG-8 RES.
 GRD .GAPI   45 310 01 00:   GAMMA RAY FROM DENSITY LOG
 CALD.IN     45 280 60 00:   CALIPER FROM DENSITY LOG
 CORR.G/C3   45 356 01 00:   DENSITY CORRECTION
 RHOB.G/C3   45 350 01 00:   BULK DENSITY
~PARAMETER INFORMATION
#MNEM.UNIT          VALUE    DESCRIPTION
#----------   ------------   ------------------------------
 EKB .F         4977.0000:   Kelly bushing
 EGL .F         4967.0000:   Ground level
 EDF .F            0.0000:   Drilling floor
 TD  .F         2922.0000:   Total depth
 CLNT.            A2DTECH:   Client Code
 SL  . 330' FNL & 990' FWL:   Surface Location
 DATE.        30-APR-1977:   Date Logged [DD-MMM-YYYY]
 DD  .F              2915:   Depth driller
 DL  .F              2922:   Depth logger
 BLI .F              2916:   Bottom log interval
 TLI .F               394:   Top log interval
 CS1 .              8.625:   Casing size
 CBD1.      8.625" @ 390':   Casing driller 1
 CBL1.IN              394:   Casing logger 1
 BS1 .IN            7.875:   Bit size
 BSD1.F              2915:   Depth drilled with bit1
 DFT .            KCL MUD:   Type fluid in hole
 DFD .                8.9:   Density
 DFV .                 87:   Viscosity
 DFPH.                8.5:   pH
 DFL .                9.6:   Fluid loss
 MSS .                PIT:   Source of sample
 RMS .OHMM           0.25:   Rm
 MST .F                70:   Rm Meas. temp.
 RMF .OHMM           0.22:   Rmf
 MFST.F                70:   Rmf Meas. temp.
 MFSS.               MEAS:   Source Rmf.
 RMC .OHMM           0.38:   Rmc
 MCST.F                70:   Rmc Meas. temp.
 MCSS.               CALC:   Source Rmc.
 RMB .OHMM           0.09:   Rm. at BHT
 BHT .F               109:   BHT.
 TCS .HRS            1800:   Time Circ. stopped
 TLAB.HRS            2200:   Time logger at bottom
 MRT .F               109:   Maximum recorded temp.
 LUN .                711:   Logging unit number
 LUL .             CASPER:   Logging unit location
 ENGI.              SYLER:   Recorded By
 WITN.         PETTINGILL:   Witnessed by
 ORIG.           5" PRINT:   Origin of data
 UWI .     49025103550000:   Unique Well ID
 DICO. A2D TECHNOLOGIES, INC.:   Digitizing Company
 PD  .                 GL:   Permanent Datum
 EPD .F              4967:   Elevation Permanent Datum
 LMF .                 KB:   Log Measured From
 DMF .                 KB:   Drilling Measured From
 DAPD.F                10:   Feet Above Permanent Datum
~OTHER INFORMATION
~A   DEPT      SPR        ILD        ILM        LL8         GRD      CALD       CORR       RHOB   
# ...
 2412.0000    -0.6091    14.7862    14.3178    17.0789   106.0085     8.9232     0.0441     2.5035
 2412.5000    -0.7557    14.2881    14.0285    17.3218   106.4440     8.9550     0.0401     2.4877
 2413.0000    -1.2013    14.0957    13.9366    16.1653   103.6528     8.9711     0.0339     2.4847
 2413.5000    -1.4975    13.8112    13.7498    15.4030   102.5681     8.9873     0.0254     2.4900
 2414.0000    -2.0957    13.6266    13.6597    15.0892   103.6589     9.0346     0.0168     2.4878
 2414.5000    -2.5444    13.6336    13.5702    15.9527   104.7481     9.0507     0.0106     2.4856
 2415.0000    -3.1426    13.6393    13.5749    15.9560   104.4406     9.0669     0.0084     2.4826
 2415.5000    -3.7394    13.6450    13.5796    15.6301   104.5997     9.1142     0.0084     2.4939
 2416.0000    -4.0355    13.5558    13.1803    16.8726   106.3109     9.1459     0.0084     2.5098
 2416.5000    -4.3331    13.4677    12.4705    18.2130   107.7114     9.1932     0.0099     2.5128
 2417.0000    -4.6278    13.3802    12.0467    17.4748   108.8015     9.2409     0.0138     2.5219
 2417.5000    -4.9239    13.2013    12.3893    15.1111   110.2020     9.2877     0.0239     2.5279
 2418.0000    -5.0705    13.2068    12.3062    14.1996   109.8945     9.3194     0.0418     2.5242
 2418.5000    -5.3666    13.1208    12.3945    14.4015   105.3945     9.4162     0.0511     2.5114
 2419.0000    -5.3591    13.0355    12.7464    14.8094   105.3976     9.5230     0.0480     2.5092
 2419.5000    -5.5057    12.9508    12.7490    15.2288   105.7121     9.6014     0.0565     2.5198
 2420.0000    -5.4982    12.7778    12.7517    15.8787   106.3564     9.5553     0.0449     2.5125
 2420.5000    -5.6433    12.7831    12.5784    15.4480   107.4452     9.4782     0.0209     2.4884
 2421.0000    -5.7883    12.7885    12.3215    14.3171   107.5837     9.4943     0.0147     2.4829
 2421.5000    -6.0845    12.7938    12.0693    13.9278   105.1031     9.5572     0.0139     2.4867
 2422.0000    -6.6827    12.7105    11.9883    14.0283   104.1744     9.5733     0.0147     2.5003
 2422.5000    -7.2809    12.7159    11.9914    14.1288   104.6433     9.6206     0.0162     2.5109
 2423.0000    -7.7281    12.8097    12.0775    14.3290   103.4042     9.6679     0.0170     2.5162
 2423.5000    -8.0243    12.8150    12.0800    14.4309   101.8544     9.6840     0.0178     2.5132
 2424.0000    -8.3343    12.9095    12.0825    13.6561   100.4600     9.7157     0.0170     2.5110
 2424.5000    -8.4655    13.0953    12.1693    13.2855    99.6866     9.7475     0.0170     2.5133
 2425.0000    -8.6105    13.1007    12.3421    13.6618    99.0686     9.7947     0.0186     2.5186
 2425.5000    -8.6030    13.1066    12.3446    14.1464    99.6928     9.8420     0.0194     2.5291
 2426.0000    -8.5971    13.1116    12.3472    14.4466   102.3356     9.8737     0.0163     2.5314
 2426.5000    -8.4400    13.1171    12.3498    14.5501   104.3573     9.9054     0.0171     2.5269
 2427.0000    -8.1319    13.1226    12.3524    14.1552   106.0684     9.9377     0.0202     2.5353
 2427.5000    -7.6727    13.1280    12.4410    13.7703   105.7609     9.9702     0.0256     2.5406
 2428.0000    -7.2136    13.1335    12.4436    14.2595   103.8806    10.0006     0.0280     2.5436
 2428.5000    -6.6034    13.1389    12.7083    14.4616   101.0557    10.0168     0.0287     2.5188
 2429.0000    -5.8421    13.1444    12.9786    14.4646    99.1574    10.0331     0.0256     2.5052
 2429.5000    -5.2319    13.1499    13.3470    14.5682    98.7856    10.0493     0.0195     2.4902
 2430.0000    -4.6217    13.1554    13.4429    14.0747   101.7397    10.0654     0.0171     2.4864
 2430.5000    -4.1625    13.0697    13.5394    13.4110   104.5378    10.0660     0.0179     2.4842
 2431.0000    -3.7033    13.1663    13.5422    13.0470   105.6278    10.0667     0.0218     2.4820
 2431.5000    -2.9421    13.1717    13.6394    12.9595   105.7854    10.0673     0.0187     2.4730
 2432.0000    -2.1808    13.1773    13.6423    12.9623   103.0561    10.0679     0.0156     2.4594
 2432.5000    -1.1174    13.1838    13.6451    12.9650    98.6242    10.0685     0.0164     2.4291
 2433.0000     0.2481    13.2811    13.8389    13.0578    94.1491    10.0691     0.0211     2.4074
 2433.5000  -999.2500    13.3900    13.9382    13.5213    91.6523    10.0697     0.0350     2.4036
 2434.0000  -999.2500    13.6073    14.2347    13.3379    87.4043    10.0703     0.0436     2.4006
 2434.5000  -999.2500    14.1531    14.5374    13.2479    85.2428    10.0710     0.0216     2.3905
 2435.0000  -999.2500    14.8634    14.9501    13.4362    83.9137    10.0716     0.0133     2.3790
 2435.5000  -999.2500    15.3942    15.5896    13.7214    83.4509    10.0877     0.0126     2.4039
 2436.0000  -999.2500    15.9440    16.4838    14.1100    82.8328    10.0728     0.0009     2.3986
 2436.5000  -999.2500    16.6284    17.4293    14.9174    82.0595    10.0734     0.0033     2.4047
 2437.0000  -999.2500    17.4628    18.3015    15.9912    80.8203    10.0745     0.0103     2.4190
 2437.5000  -999.2500    18.0865    18.8211    19.6909    82.8420    10.0902     0.0149     2.4356
 2438.0000  -999.2500    18.7361    19.3554    20.9625    90.6090    10.0908     0.0173     2.4567
 2438.5000  -999.2500    19.2711    19.9048    17.7541    94.0282    10.0914     0.0204     2.4651
 2439.0000  -999.2500    19.6808    20.3282    16.4544    91.8574    10.0922     0.0235     2.4508
 2439.5000  -999.2500    19.8336    20.6157    16.3433    89.6865    10.0928     0.0243     2.4305
 2440.0000  -999.2500    19.9721    20.0561    17.7651    90.3107    10.1090     0.0235     2.4388
 2440.5000  -999.2500    19.6944    19.1082    18.7818    91.5560    10.1096     0.0227     2.4569
 2441.0000  -999.2500    19.0170    18.3320    18.9163    92.0249    10.0945     0.0196     2.4705
 2441.5000  -999.2500    18.2595    16.9871    18.7896    91.4069    10.1108     0.0227     2.4773
 2442.0000  -999.2500    17.8893    16.0722    18.4068    89.1780    10.1114     0.0546     2.4901
 2442.5000  -999.2500    17.5268    16.0756    17.6607    85.9782    10.1120     0.1065     2.4984
 2443.0000  -999.2500    16.9348    15.6383    16.2548    86.9628    10.1282     0.1313     2.4996
 2443.5000  -999.2500    16.2498    14.6937    14.5517    89.8671    10.1444     0.1367     2.4864
 2444.0000  -999.2500    15.5925    13.9993    13.8655    93.1310    10.1450     0.1298     2.4820
 2444.5000     0.2363    14.9428    13.9046    13.4892    96.2396    10.1612     0.0910     2.4571
 2445.0000     0.0897    13.8878    14.0051    13.3988    97.6402    10.1773     0.0398     2.4111
 2445.5000    -0.3575    13.5120    14.3030    13.4948   100.2830    10.2090     0.0119     2.4421
 2446.0000    -1.1053    13.9941    14.1086    13.4976   102.9258    10.2252     0.0267     2.4913
 2446.5000    -1.8546    13.8070    13.8205    13.4070   104.4817    10.2725     0.0360     2.5109
 2447.0000    -2.4528    13.6225    13.2592    13.1345   103.2425    10.3047     0.0399     2.5185
 2447.5000    -3.2021    13.5340    12.8086    13.0458   100.7454    10.3541     0.0360     2.5238
 2448.0000    -3.3474    13.7301    12.6345    13.2313    98.1567    10.4630     0.0422     2.5274
 2448.5000    -3.3412    13.9277    12.8146    13.5121    95.3324    10.5974     0.0407     2.5237
 2449.0000    -3.4864    14.1281    12.9066    13.7988    96.5777    10.8822     0.0376     2.5199
 2449.5000    -3.3293    14.1339    12.9993    13.9943    99.5311    11.0850     0.0360     2.5267
 2450.0000    -3.3233    14.1293    13.0919    14.1137   100.9317    11.0234     0.0353     2.5132
 2450.5000    -3.1661    14.0751    12.9117    14.1930   100.1491    10.9463     0.0330     2.4837
 2451.0000    -3.4688    13.9387    12.7336    13.5145    99.0459    10.8691     0.0314     2.4690
 2451.5000    -3.3140    13.3899    12.6455    13.0622    98.0896    10.7764     0.0320     2.4721
 2452.0000    -3.4621    13.1956    12.4710    13.1540    97.1333    10.6993     0.0412     2.4791
