~VERSION INFORMATION
 VERS.                2.0:   CWLS LOG ASCII STANDARD - VERSION 2.0
 WRAP.                 NO:   ONE LINE PER DEPTH STEP
~WELL INFORMATION
#MNEM.UNIT      DATA TYPE    INFORMATION
#----------   ------------   ------------------------------
 STRT.F          216.0000:   START DEPTH
 STOP.F         3241.0000:   STOP DEPTH
 STEP.F            0.5000:   STEP LENGTH
 NULL.          -999.2500:   NO VALUE
 COMP.    FENIX & SCISSON:   COMPANY
 WELL.    FENIX "A" #72-4:   WELL
 FLD .             NPR #3:   FIELD
 LOC .       S4 T38N R78W:   LOCATION
 CNTY.            NATRONA:   COUNTY
 STAT.            WYOMING:   STATE
 CTRY. UNITED STATES OF AMERICA:   COUNTRY
 SRVC.              WELEX:   SERVICE COMPANY
 DATE.        09-JUL-1977:   LOGDATE
 API .     49025103900000:   API NUMBER
~CURVE INFORMATION
#MNEM.UNIT       API CODE    CURVE DESCRIPTION
#----------   ------------   ------------------------------
 DEPT.F                  :   
 CORR.G/C3   45 356 01 00:   DENSITY CORRECTION
 GRD .GAPI   45 310 01 00:   GAMMA RAY FROM DENSITY LOG
 RHOB.G/C3   45 350 01 00:   BULK DENSITY
 CALD.IN     45 280 60 00:   CALIPER FROM DENSITY LOG
 SPR .MV     07 010 01 00:   SPONTANEOUS POTENTIAL
 ILD .OHMM   07 120 46 00:   DEEP INDUCTION RESISTIVITY
 ILM .OHMM   07 120 44 00:   INDUCTION LOG MEDIUM RESISTIVITY
 SGRD.OHMM   07 220 05 00:   SHALLOW SHORT GUARD RESISTIVITY
~PARAMETER INFORMATION
#MNEM.UNIT          VALUE    DESCRIPTION
#----------   ------------   ------------------------------
 EKB .F         5192.0000:   Kelly bushing
 EGL .F         5182.0000:   Ground level
 TD  .F         3243.0000:   Total depth
 CLNT.            A2DTECH:   Client Code
 SL  . 990' FNL & 990' FEL:   Surface Location
 PD  .                 GL:   Permanent Datum
 EPD .F              5182:   Elevation Permanent Datum
 LMF .                 KB:   Log Measured From
 DMF .                 KB:   Drilling Measured From
 DAPD.F                10:   Feet Above Permanent Datum
 DATE.        09-JUL-1977:   Date Logged [DD-MMM-YYYY]
 DD  .F              3230:   Depth driller
 DL  .F              3243:   Depth logger
 BLI .F              3241:   Bottom log interval
 TLI .F               224:   Top log interval
 CS1 .IN            8.625:   Casing size
 CBD1.      8.625" @ 221':   Casing driller 1
 CBL1.F               224:   Casing logger 1
 BS1 .IN            7.875:   Bit size
 BSD1.F              3230:   Depth drilled with bit1
 DFT .                KCL:   Type fluid in hole
 DFD .                8.9:   Density
 DFV .                 44:   Viscosity
 DFPH.                7.5:   pH
 DFL .                5.8:   Fluid loss
 MSS .            MUD PIT:   Source of sample
 RMS .OHMM           0.24:   Rm
 MST .F                68:   Rm Meas. temp.
 RMF .OHMM           0.20:   Rmf
 MFST.F                68:   Rmf Meas. temp.
 MFSS.               MEAS:   Source Rmf.
 RMC .OHMM           0.31:   Rmc
 MCST.F                68:   Rmc Meas. temp.
 MCSS.               MEAS:   Source Rmc.
 RMB .OHMM           0.13:   Rm. at BHT
 BHT .F               117:   BHT.
 TCS .HRS               3:   Time Circ. stopped
 MRT .F               117:   Maximum recorded temp.
 LUN .               8766:   Logging unit number
 LUL .             CASPER:   Logging unit location
 ENGI.          T. JOYNER:   Recorded By
 WITN.         HARRINGTON:   Witnessed by
 ORIG.           5" PRINT:   Origin of data
 UWI .     49025103900000:   Unique Well ID
 DICO. A2D TECHNOLOGIES, INC.:   Digitizing Company
~OTHER INFORMATION
~A   DEPT     CORR         GRD        RHOB     CALD        SPR        ILD        ILM       SGRD   
# ...
 2605.5000     0.0333   118.2954     2.5582     9.7907   -66.5279     7.3411     6.7038     9.0050
 2606.0000     0.0318   117.4243     2.5560     9.8073   -66.5412     7.3467     6.6180     8.9470
 2606.5000     0.0311   118.0494     2.5568     9.8085   -66.5546     7.3513     6.7168     9.0136
 2607.0000     0.0311   120.1590     2.5575     9.8099   -66.5680     7.3567     6.8170     9.1479
 2607.5000     0.0311   120.7783     2.5523     9.8112   -66.5813     7.3825     6.9187     9.5473
 2608.0000     0.0297   120.4977     2.5477     9.8128   -66.5947     7.4410     7.0232    10.0156
 2608.5000     0.0267   120.5266     2.5403     9.8141   -66.6080     7.4748     7.1278    10.0900
 2609.0000     0.0267   120.8478     2.5426     9.8152   -66.6209     7.4800     7.1926    10.0947
 2609.5000     0.0268   121.7652     2.5441     9.8220   -66.6361     7.5373     7.2912    10.0995
 2610.0000     0.0253   122.3845     2.5419     9.8479   -66.7013     7.5961     7.3480     9.8282
 2610.5000     0.0208   123.9334     2.5351     9.8641   -66.7642     7.6013     7.4069     9.3676
 2611.0000     0.0176   125.4173     2.5232     9.8654   -66.8265     7.6065     7.4139     9.2431
 2611.5000     0.0149   123.3540     2.5105     9.8816   -66.8887     7.6117     7.4210     9.3118
 2612.0000     0.0164   122.4772     2.4992     9.8830   -66.9509     7.6168     7.3768     9.5118
 2612.5000     0.0195   122.2023     2.5060     9.8693   -67.0132     7.6220     7.3838     9.5164
 2613.0000     0.0210   121.9274     2.5172     9.8557   -67.0754     7.6272     7.2390     9.3898
 2613.5000     0.0233   121.9564     2.5255     9.8573   -67.1377     7.5796     7.1926     9.3294
 2614.0000     0.0240   122.2776     2.5330     9.8586   -67.2000     7.5310     7.1038     9.2694
 2614.5000     0.0211   123.2252     2.5413     9.8599   -67.2623     7.4334     6.9180     9.2749
 2615.0000     0.0158   124.4611     2.5353     9.8612   -67.3246     7.3360     6.8278     9.2793
 2615.5000     0.0122   125.1158     2.5240     9.8626   -67.3865     7.3411     6.7404     9.2185
 2616.0000     0.0107   126.2509     2.5110     9.8639   -67.4313     7.3461     6.6541     9.1601
 2616.5000     0.0092   126.2740     2.4994     9.8652   -67.4303     7.2008     6.4354     9.1646
 2617.0000     0.0085   126.2972     2.4956     9.8668   -67.4303     7.0560     6.0946     9.1057
 2617.5000     0.0078   126.3204     2.4934     9.8084   -67.4303     6.8687     5.7321     9.0471
 2618.0000     0.0078   126.3436     2.4934     9.7729   -67.4303     6.7317     5.5424     8.8663
 2618.5000     0.0086   126.3667     2.4949     9.7511   -67.4303     6.5519     5.4335     8.6282
 2619.0000     0.0109   127.6126     2.4964     9.7525   -67.4303     6.4201     5.3271     8.3964
 2619.5000     0.0124   129.3995     2.4972     9.7539   -67.4303     6.3801     5.2954     8.1145
 2620.0000     0.0147   130.6149     2.4987     9.7701   -67.4304     6.3402     5.4545     7.6808
 2620.5000     0.0155   130.3342     2.4995     9.7864   -67.4300     6.3898     5.6522     8.3503
 2621.0000     0.0155   130.9593     2.5003     9.7880   -67.4164     6.4386     5.8118     8.8302
 2621.5000     0.0170   133.0689     2.5010     9.8097   -67.3630     6.5332     5.8577     9.0198
 2622.0000     0.0185   133.0921     2.5025     9.8205   -67.3112     6.6291     5.8229     9.0241
 2622.5000     0.0186   132.5186     2.5063     9.8218   -67.2596     6.7525     5.7868     8.9042
 2623.0000     0.0178   132.5425     2.5108     9.8178   -67.2078     6.8297     5.7524     8.8469
 2623.5000     0.0171   133.1624     2.5146     9.7942   -67.1561     6.9262     5.7190     8.8521
 2624.0000     0.0164   134.0847     2.5191     9.7814   -67.1043     6.8830     5.7250     8.7942
 2624.5000     0.0172   134.4059     2.5243     9.7673   -67.0526     6.8389     5.7304     8.8605
 2625.0000     0.0195   135.9194     2.5303     9.7388   -67.0008     6.8447     5.7359     8.8025
 2625.5000     0.0187   137.4329     2.5356     9.7404   -66.9491     6.8489     5.7413     8.8689
 2626.0000     0.0173   135.9658     2.5296     9.7264   -66.8973     6.8055     5.6678     8.8731
 2626.5000     0.0143   134.4978     2.5199     9.7130   -66.8456     6.7630     5.5904     8.8773
 2627.0000     0.0113   133.9255     2.5109     9.7144   -66.7939     6.7688     5.4855     8.8815
 2627.5000     0.0099   134.5957     2.5062     9.7005   -66.7421     6.7734     5.4920     8.8859
 2628.0000     0.0099   136.3623     2.5020     9.6872   -66.6898     6.7780     5.5738     8.8909
 2628.5000     0.0114   136.0874     2.5027     9.6885   -66.6357     6.7826     5.6569     8.8951
 2629.0000     0.0130   135.8067     2.5050     9.6899   -66.6330     6.7927     5.8212     8.8993
 2629.5000     0.0145   135.8357     2.5102     9.6915   -66.6333     6.8880     6.1159     8.8421
 2630.0000     0.0168   136.1569     2.5148     9.6775   -66.6331     7.0377     6.4701     8.9697
 2630.5000     0.0183   137.0743     2.5208     9.6791   -66.6351     7.1906     6.8449     9.3546
 2631.0000     0.0191   137.6936     2.5261     9.6954   -66.6736     7.3981     7.1419     9.8922
 2631.5000     0.0199   136.5150     2.5305     9.6966   -66.7109     7.6646     7.3493    10.3884
 2632.0000     0.0199   134.1243     2.5328     9.7021   -66.7478     8.0516     7.5628    10.6952
 2632.5000     0.0191   132.1057     2.5343     9.7291   -66.7847     8.5172     7.5700    10.9150
 2633.0000     0.0168   130.9366     2.5336     9.7305   -66.8236     8.8854     7.6829    10.9212
 2633.5000     0.0147   132.7481     2.5298     9.7318   -66.7974     9.2695     7.6903    10.6279
 2634.0000     0.0148   133.6655     2.5209     9.7331   -66.7482     9.4710     7.6992    10.2710
 2634.5000     0.0140   130.7080     2.5239     9.7347   -66.6983     9.6100     7.8139    10.0646
 2635.0000     0.0156   130.0348     2.5315     9.7211   -66.6484     9.6835     7.8757     9.8612
 2635.5000     0.0178   131.9466     2.5381     9.7222   -66.5986     9.6903     8.0485    10.0741
 2636.0000     0.0186   127.1222     2.5367     9.7084   -66.5489     9.5630     8.2252    10.5795
 2636.5000     0.0179   126.6279     2.5314     9.7100   -66.4990     9.5049     7.9530    10.9574
 2637.0000     0.0149   130.2336     2.5240     9.7263   -66.4470     9.4440     7.4283    10.8821
 2637.5000     0.0133   130.8528     2.5180     9.7380   -66.4604     9.4521     7.1825    10.5826
 2638.0000     0.0120   127.8954     2.5113     9.7441   -66.4965     9.3915     7.3402    10.3100
 2638.5000     0.0135   126.4283     2.5128     9.7476   -66.5335     9.3329     7.6058    10.3161
 2639.0000     0.0166   124.9611     2.5159     9.7615   -66.5703     9.2105     7.7727    10.3209
 2639.5000     0.0181   125.5804     2.5203     9.7779   -66.6071     9.0897     7.8887    10.3976
 2640.0000     0.0196   127.3919     2.5240     9.7792   -66.6439     8.9705     7.8963    10.4748
 2640.5000     0.0204   128.6428     2.5278     9.8012   -66.6806     8.7931     7.7949    10.4797
 2641.0000     0.0212   129.2325     2.5323     9.8266   -66.7174     8.5582     7.5388    10.4122
 2641.5000     0.0212   128.6595     2.5361     9.8433   -66.7542     8.3876     7.3909    10.2740
 2642.0000     0.0197   125.7020     2.5338     9.8760   -66.7910     8.2776     7.2963     9.9246
 2642.5000     0.0190   124.2349     2.5339     9.9055   -66.8277     8.2259     7.2011     9.7971
 2643.0000     0.0183   123.6561     2.5346     9.9366   -66.8645     8.2329     7.1583     9.7341
 2643.5000     0.0183   125.1754     2.5309     9.9379   -66.9013     8.2959     7.2165     9.7398
 2644.0000     0.0184   126.0928     2.5257     9.9391   -66.9381     8.3016     7.3241     9.8121
 2644.5000     0.0169   127.0254     2.5219     9.9405   -66.9748     8.3072     7.4332     9.8850
 2645.0000     0.0184   127.6304     2.5212     9.9481   -67.0116     8.3129     7.5440    10.0276
 2645.5000     0.0207   128.2545     2.5242     9.9581   -67.0484     8.3185     7.6564    10.1021
