~VERSION INFORMATION
 VERS.                2.0:   CWLS LOG ASCII STANDARD - VERSION 2.0
 WRAP.                 NO:   ONE LINE PER DEPTH STEP
~WELL INFORMATION
#MNEM.UNIT      DATA TYPE    INFORMATION
#----------   ------------   ------------------------------
 STRT.F            0.0000:   START DEPTH
 STOP.F         3504.0000:   STOP DEPTH
 STEP.F            0.5000:   STEP LENGTH
 NULL.          -999.2500:   NO VALUE
 COMP. LAWRENCE-ALLISON AND ASSOCIATES:   COMPANY
 WELL. LAWRENCE "TX" #16-34:   WELL
 FLD .              NPR 3:   FIELD
 LOC .      S34 T39N R78W:   LOCATION
 CNTY.            NATRONA:   COUNTY
 STAT.            WYOMING:   STATE
 CTRY. UNITED STATES OF AMERICA:   COUNTRY
 SRVC.       SCHLUMBERGER:   SERVICE COMPANY
 DATE.        10-APR-1982:   LOGDATE
 API .     49025108970000:   API NUMBER
~CURVE INFORMATION
#MNEM.UNIT       API CODE    CURVE DESCRIPTION
#----------   ------------   ------------------------------
 DEPT.F                  :   
 SPR .MV     07 010 01 00:   SPONTANEOUS POTENTIAL
 ILD .OHMM   07 120 46 00:   DEEP INDUCTION RESISTIVITY
 SFLU.OHMM   07 220 01 00:   SPHERICALLY FOCUSED LOG UNAVERAGED RESISTIVITY
 TENR.LBS    07 635 01 00:   TENSION FROM RESISTIVITY
 ILM .OHMM   07 120 44 00:   INDUCTION LOG MEDIUM RESISTIVITY
 GRD .GAPI   45 310 01 00:   GAMMA RAY FROM DENSITY LOG
 CALD.IN     45 280 60 00:   CALIPER FROM DENSITY LOG
 RHOB.G/C3   45 350 01 00:   BULK DENSITY
 CORR.G/C3   45 356 01 00:   DENSITY CORRECTION
 TEND.LBS    45 635 01 00:   TENSION FROM DENSITY LOG
 NPHI.DEC    42 890 03 00:   NEUTRON POROSITY SANDSTONE
~PARAMETER INFORMATION
#MNEM.UNIT          VALUE    DESCRIPTION
#----------   ------------   ------------------------------
 EKB .F         5149.0000:   Kelly bushing
 EGL .F         5139.0000:   Ground level
 EDF .F            0.0000:   Drilling floor
 TD  .F         3500.0000:   Total depth
 DATE.        10-APR-1982:   Date logged
 CLNT.            A2DTECH:   Client Code
 SL  . 1406' FSL & 423' FWL:   Surface Location
 PD  .                 GL:   Permanent Datum
 EPD .F              5139:   Elevation Permanent Datum
 LMF .                 KB:   Log Measured From
 DMF .                 KB:   Drilling Measured From
 DAPD.F                10:   Feet Above Permanent Datum
 DD  .F              3500:   Depth driller
 DL  .F              3497:   Depth logger
 BLI .F              3491:   Bottom log interval
 TLI .F               658:   Top log interval
 CS1 .IN            9.625:   Casing size
 CBD1.      9.625" @ 632':   Casing driller 1
 CBL1.F               658:   Casing logger 1
 BS1 .IN             8.75:   Bit size
 BSD1.F              3500:   Depth drilled with bit1
 DFT .           SPUD MUD:   Type fluid in hole
 DFD .                  9:   Density
 DFV .                 44:   Viscosity
 DFPH.                 10:   pH
 DFL .                  7:   Fluid loss
 MSS .           FLOWLINE:   Source of sample
 RMS .OHMM              2:   Rm
 MST .F                53:   Rm Meas. temp.
 RMF .OHMM            1.9:   Rmf
 MFST.F                53:   Rmf Meas. temp.
 RMC .OHMM            1.5:   Rmc
 MCST.F                53:   Rmc Meas. temp.
 MFSS.               MEAS:   Source Rmf.
 MCSS.               CALC:   Source Rmc.
 RMB .OHMM              1:   Rm. at BHT
 BHT .F               106:   BHT.
 TCS .HRS            1100:   Time Circ. stopped
 TLAB.HRS            1330:   Time logger at bottom
 MRT .F               106:   Maximum recorded temp.
 LUN .               8151:   Logging unit number
 LUL .                GLT:   Logging unit location
 ENGI.            NEUFFER:   Recorded By
 WITN.           JENNINGS:   Witnessed by
 ORIG.           5" PRINT:   Origin of data
 UWI .     49025108970000:   Unique Well ID
 DICO. A2D TECHNOLOGIES, INC.:   Digitizing Company
~OTHER INFORMATION
~A    DEPT     SPR        ILD       SFLU       TENR        ILM        GRD       CALD       RHOB       CORR       TEND       NPHI   
# ...
 2684.0000   -22.8910     6.3370     7.6860  1575.2889     6.5670   108.5050     8.7750     2.5190     0.0300  1582.4220     0.2540
 2684.5000   -23.0420     6.3630     8.0430  1574.9570     6.5970   107.1330     8.7820     2.5220     0.0340  1581.8900     0.2490
 2685.0000   -23.1920     6.3900     7.9690  1574.6260     6.6300   108.4890     8.7880     2.5240     0.0480  1581.3580     0.2480
 2685.5000   -23.3430     6.6810     7.4080  1574.2939     6.9320   109.3970     8.7950     2.5230     0.0610  1580.8270     0.2600
 2686.0000   -23.4940     6.9970     6.9450  1573.9630     7.2590   108.0500     8.8010     2.5130     0.0620  1580.2950     0.2810
 2686.5000   -23.6440     7.3130     7.4500  1573.6310     7.5870   104.9330     8.8080     2.4980     0.0500  1580.8560     0.2750
 2687.0000   -23.7940     7.6290     8.7750  1573.3000     7.9150    99.0840     8.8150     2.4730     0.0340  1582.7810     0.2550
 2687.5000   -23.8630     7.9450    10.8970  1572.9680     8.2430    94.9000     8.8210     2.4520     0.0250  1584.7050     0.2320
 2688.0000   -23.7340     8.2610    11.8740  1572.6370     8.5700    93.7080     8.8280     2.4520     0.0300  1586.6290     0.2260
 2688.5000   -23.6080     8.5770    12.1690  1572.3051     8.8980    94.6080     8.8340     2.4670     0.0370  1588.5530     0.2220
 2689.0000   -23.4810     8.8920    11.8670  1571.9740     9.2260    95.4720     8.8410     2.4820     0.0420  1590.4780     0.2220
 2689.5000   -23.3550     9.2080    11.4720  1571.6420     9.5540    95.2370     8.8480     2.4830     0.0360  1592.4020     0.2230
 2690.0000   -23.2280     9.4050    11.1970  1571.3110     9.7580    95.0510     8.8540     2.4730     0.0260  1594.3260     0.2230
 2690.5000   -23.1020     9.4050    11.0110  1570.9790     9.7580    94.9620     8.8610     2.4600     0.0210  1596.2500     0.2270
 2691.0000   -22.9760     9.3660    10.8830  1570.6479     9.7170    96.5270     8.8670     2.4630     0.0210  1598.1740     0.2320
 2691.5000   -22.8490     9.3270    10.8470  1570.3170     9.6760    98.1310     8.8740     2.4660     0.0240  1600.0990     0.2380
 2692.0000   -22.7220     9.2740    10.8110  1569.9850     9.6490    99.4710     8.8810     2.4630     0.0250  1602.0229     0.2400
 2692.5000   -22.7090     9.2190    10.7760  1569.6541     9.6260    99.8700     8.8870     2.4560     0.0260  1603.9470     0.2380
 2693.0000   -22.7160     9.1640    10.7400  1569.3220     9.6030   100.2850     8.8940     2.4590     0.0260  1605.8710     0.2340
 2693.5000   -22.7230     9.1080    10.7040  1568.9910     9.5800   100.6820     8.9000     2.4650     0.0270  1607.7950     0.2320
 2694.0000   -22.7310     9.0480    10.5970  1568.6591     9.3870   102.0190     8.9070     2.4670     0.0260  1609.7200     0.2310
 2694.5000   -22.7380     8.9710    10.4360  1568.3280     9.3070   103.7910     8.9140     2.4690     0.0220  1611.6440     0.2310
 2695.0000   -22.7460     8.8940    10.2750  1567.9960     9.2270   105.6020     8.9200     2.4750     0.0200  1613.5680     0.2300
 2695.5000   -22.7530     8.8170    10.0240  1567.6650     9.1480   106.0910     8.9270     2.4830     0.0210  1615.4919     0.2290
 2696.0000   -22.7610     8.7400     9.7220  1567.3330     9.0680   106.0540     8.9330     2.4870     0.0240  1617.4160     0.2280
 2696.5000   -22.7680     8.6630     9.3190  1567.0020     8.9880   102.4490     8.9400     2.4910     0.0330  1619.3409     0.2270
 2697.0000   -22.7760     8.5860     9.6100  1566.6700     8.9080   100.1710     8.9470     2.5000     0.0490  1621.2650     0.2280
 2697.5000   -22.7830     8.5100    10.0510  1566.3390     8.8290    97.8550     8.9480     2.5110     0.0650  1623.1890     0.2290
 2698.0000   -22.7910     8.4320    10.4920  1566.0070     8.7480    95.8550     8.9460     2.5180     0.0780  1625.1130     0.2300
 2698.5000   -22.7980     8.3540    10.8970  1565.6760     8.6680    97.4800     8.9440     2.5170     0.0750  1627.0370     0.2290
 2699.0000   -22.8060     8.2770    10.4670  1565.3440     8.5870   102.2680     8.9430     2.5090     0.0630  1628.9620     0.2260
 2699.5000   -22.8130     8.2390    10.0690  1565.0129     8.5780   106.8410     8.9410     2.5000     0.0450  1630.8860     0.2250
 2700.0000   -22.8210     8.2050     9.6710  1564.6810     8.5780   108.8680     8.9400     2.4970     0.0340  1632.8101     0.2250
 2700.5000   -22.8280     8.1720     9.2330  1564.3500     8.5780   109.7370     8.9380     2.5260     0.0500  1634.7340     0.2240
 2701.0000   -22.8360     8.1390     9.4660  1564.0179     8.5780   108.0710     8.9370     2.5400     0.0640  1636.6591     0.2220
 2701.5000   -22.8430     8.1060     9.7250  1563.6870     8.5780   105.4160     8.9350     2.5450     0.0790  1638.5830     0.2190
 2702.0000   -22.8510     8.0730     9.9840  1563.3550     8.5780   102.6780     8.9330     2.5390     0.0820  1640.5070     0.2170
 2702.5000   -22.8580     8.0390    10.2170  1563.0240     8.5190   101.2820     8.9320     2.5280     0.0750  1642.4310     0.2170
 2703.0000   -22.8660     8.0060     9.8710  1562.6930     8.3990   100.9980     8.9300     2.5170     0.0570  1644.3550     0.2190
 2703.5000   -22.8730     7.9690     9.4870  1562.3610     8.2680   103.8770     8.9300     2.5070     0.0390  1646.2800     0.2260
 2704.0000   -22.8810     7.6510     9.1030  1562.0300     7.9380   109.1700     8.9350     2.5060     0.0250  1648.2040     0.2310
 2704.5000   -22.8890     7.3810     8.7190  1561.6980     7.6570   112.6590     8.9400     2.5040     0.0190  1650.1281     0.2300
 2705.0000   -22.8970     7.3030     8.3350  1561.3669     7.5770   115.6780     8.9450     2.5030     0.0130  1652.0520     0.2320
 2705.5000   -22.9890     7.2020     7.9500  1561.0350     7.4720   114.7910     8.9500     2.5020     0.0080  1653.9760     0.2390
 2706.0000   -23.1590     7.6380     7.6810  1560.7040     7.9240   112.6210     8.9550     2.5080     0.0040  1655.9010     0.2460
 2706.5000   -23.3290     8.2610     8.1170  1560.3719     8.5700   101.8200     8.9600     2.5260     0.0060  1657.8250     0.2460
 2707.0000   -23.4990     8.8830    10.6040  1560.0410     9.2160    90.1480     8.9660     2.5440     0.0140  1659.7490     0.2070
 2707.5000   -23.6700     9.3190    12.8650  1559.7090     9.6680    84.0850     8.9710     2.5620     0.0230  1658.3850     0.1730
 2708.0000   -23.8500     8.9200    15.7450  1559.3781     9.2550    86.1510     8.9760     2.5850     0.0380  1656.5280     0.1470
 2708.5000   -23.6660     8.0430    14.7630  1559.0460     8.3450    94.9410     8.9810     2.6020     0.0550  1654.6720     0.1530
 2709.0000   -23.3730     7.6980    12.8320  1558.7150     7.9860   105.1570     8.9860     2.6020     0.0600  1652.8149     0.1680
 2709.5000   -23.0760     7.3140    11.0780  1558.3831     7.5880   112.1590     8.9880     2.5840     0.0580  1650.9580     0.1890
 2710.0000   -22.7710     6.9300     9.3230  1558.0520     7.1900   117.0100     8.9890     2.5660     0.0500  1649.1010     0.2100
 2710.5000   -22.7360     6.5460     7.5690  1557.7200     6.7920   121.7590     8.9900     2.5530     0.0480  1647.2440     0.2310
 2711.0000   -22.7760     6.1620     6.5160  1557.3890     6.3930   129.7060     8.9910     2.5420     0.0460  1645.3870     0.2520
 2711.5000   -22.8200     5.9700     5.9920  1557.0570     6.1940   134.8410     8.9920     2.5310     0.0410  1643.5300     0.2740
 2712.0000   -22.8630     5.8960     6.2320  1556.7260     6.1180   133.3730     8.9930     2.5220     0.0370  1641.6730     0.2720
 2712.5000   -22.9060     5.8390     6.7120  1556.3940     6.0580   125.8840     8.9940     2.5250     0.0380  1639.8170     0.2580
 2713.0000   -22.9490     5.7750     7.3360  1556.0630     5.9920   121.2260     8.9950     2.5310     0.0430  1637.9600     0.2510
 2713.5000   -22.9920     6.0160     7.2270  1555.7321     6.3180   121.4110     8.9960     2.5420     0.0480  1636.1030     0.2520
 2714.0000   -23.0350     6.3590     6.9420  1555.4000     6.7830   121.1780     8.9970     2.5440     0.0400  1634.2460     0.2550
