~VERSION INFORMATION
 VERS.                2.0:   CWLS LOG ASCII STANDARD - VERSION 2.0
 WRAP.                 NO:   ONE LINE PER DEPTH STEP
~WELL INFORMATION
#MNEM.UNIT      DATA TYPE    INFORMATION
#----------   ------------   ------------------------------
 STRT.F          494.0000:   START DEPTH
 STOP.F         4999.5000:   STOP DEPTH
 STEP.F            0.5000:   STEP LENGTH
 NULL.          -999.2500:   NO VALUE
 COMP.    FENIX & SCISSON:   COMPANY
 WELL.  FENIX "LX" #26-23:   WELL
 FLD . MPR #3 (TEAPOT DOME):   FIELD
 LOC .      S23 T38N R78W:   LOCATION
 CNTY.            NATRONA:   COUNTY
 STAT.            WYOMING:   STATE
 CTRY. UNITED STATES OF AMERICA:   COUNTRY
 SRVC.       SCHLUMBERGER:   SERVICE COMPANY
 DATE.        11-AUG-1978:   LOGDATE
 API .     49025107340000:   API NUMBER
~CURVE INFORMATION
#MNEM.UNIT       API CODE    CURVE DESCRIPTION
#----------   ------------   ------------------------------
 DEPT.F                  :   
 NPHI.DEC    42 890 03 00:   NEUTRON POROSITY SANDSTONE
 TEND.LBS    45 635 01 00:   TENSION FORM DENSITY LOG
 GRD .GAPI   45 310 01 00:   GAMMA RAY FROM DENSITY LOG
 CALD.IN     45 280 60 00:   CALIPER FROM DENSITY LOG
 DRHO.G/C3   45 356 01 00:   DENSITY CORRECTION
 RHOB.G/C3   45 350 01 00:   BULK DENSITY
 SPR .MV     07 010 01 00:   SPONTANEOUS POTENTIAL
 TENR.LBS    07 635 01 00:   TENSION FROM RESISTIVITY LOG
 ILD .OHMM   07 120 46 00:   INDUCTION LOG DEEP RESISTIVITY
 ILM .OHMM   07 120 44 00:   INDUCTION LOG MEDIUM RESISTIVITY
 SFL .OHMM   07 220 01 00:   SPHERICALLY FOCUSED LOG RESISITIVITY
~PARAMETER INFORMATION
#MNEM.UNIT          VALUE    DESCRIPTION
#----------   ------------   ------------------------------
 EKB .F         5335.0000:   Kelly bushing
 EGL .F         5325.0000:   Ground level
 EDF .F            0.0000:   Drilling floor
 EPD .F         5325.0000:   Permanent datum
 TD  .F         5000.0000:   Total depth
 CLNT.            A2DTECH:   Client Code
 SL  . 1600' FSL & 903' FWL:   Surface Location
 PD  .                 GL:   Permanent Datum
 LMF .                 KB:   Log Measured From
 DMF .                 KB:   Drilling Measured From
 DAPD.F                10:   Feet Above Permanent Datum
 DATE.        11-AUG-1978:   Date Logged [DD-MMM-YYYY]
 DD  .F              5000:   Depth driller
 DL  .F              4998:   Depth logger
 BLI .F              4992:   Bottom log interval
 TLI .F               525:   Top log interval
 CS1 .IN            9.625:   Casing size
 CBD1.      9.625" @ 521':   Casing driller 1
 CBL1.F               521:   Casing logger 1
 BS1 .IN             8.75:   Bit size
 BSD1.F              5000:   Depth drilled with bit1
 DFD .                9.1:   Density
 MSS .            MUD PIT:   Source of sample
 RMS .OHMM          0.897:   Rm
 MST .F                64:   Rm Meas. temp.
 RMF .OHMM          0.821:   Rmf
 MFST.F                64:   Rmf Meas. temp.
 MFSS.               MEAS:   Source Rmf.
 BHT .F               135:   BHT.
 TCS .HRS              03:   00:   Time Circ. stopped
 TLAB.HRS              09:   00:   Time logger at bottom
 MRT .F               135:   Maximum recorded temp.
 LUL .               CSPR:   Logging unit location
 ENGI.              CRAIG:   Recorded By
 ORIG.           5" PRINT:   Origin of data
 UWI .     49025107340000:   Unique Well ID
 DICO. A2D TECHNOLOGIES, INC.:   Digitizing Company
 DFV .                 40:   Viscosity
 DFPH.                 12:   pH
 DFL .                  4:   Fluid loss
~OTHER INFORMATION
~A  DEPTH     NPHI       TEND        GRD       CALD       DRHO       RHOB        SPR       TENR        ILD        ILM        SFL
# ...
 4672.5000     0.2778  2486.4541   123.2783     9.6432     0.0291     2.5720   -15.2589  2208.5288     3.7724     4.0421     6.2569
 4673.0000     0.2520  2577.6545   125.7335     9.6433     0.0571     2.5795   -14.8539  2193.1738     3.7990     4.0988     5.9933
 4673.5000     0.2496  2608.3411   128.4039     9.6586     0.0783     2.5825   -14.1171  2193.3594     3.7984     4.0427     5.5521
 4674.0000     0.2483  2608.7747   130.5149     9.6740     0.1207     2.5863   -13.0593  2178.0039     3.7978     3.9323     5.0454
 4674.5000     0.2477  2563.9209   130.2198     9.6893     0.1599     2.5983   -12.0873  2178.1523     3.7165     3.7203     4.7984
 4675.0000     0.2495  2503.8357   128.4211     9.7046     0.1910     2.6065   -11.4712  2178.3008     3.5852     3.5198     4.4662
 4675.5000     0.2748  2473.9004   126.9230     9.7350     0.2084     2.5967   -10.8821  2178.4497     3.4587     3.4957     4.1274
 4676.0000     0.2941  2519.8228   129.0354     9.7351     0.1623     2.5197   -10.3308  2178.6348     3.3365     3.5203     3.9535
 4676.5000     0.2995  2535.4878   128.7404     9.7201     0.0919     2.5033   -10.6505  2178.7834     3.2187     3.4962     4.1127
 4677.0000     0.2869  2535.9167   127.8436     9.6749     0.1532     2.5545   -10.6963  2178.9319     3.1051     3.4483     4.5634
 4677.5000     0.2809  2536.3464   128.4909     9.6750     0.2213     2.6132   -10.7497  2179.0803     2.9248     3.3079     4.6962
 4678.0000     0.2803  2521.6467   131.1649     9.7055     0.2500     2.6320   -11.0272  2225.7402     2.7680     3.0865     4.2781
 4678.5000     0.2806  2522.0879   132.6744     9.8571     0.2500     2.6124   -11.3354  2256.8967     2.7283     2.8989     3.8417
 4679.0000     0.2941  2522.6125   132.9809    10.1300     0.2500     2.5514   -11.9027  2195.0669     2.7279     2.7627     3.4746
 4679.5000     0.3032  2523.0417   127.5731    10.5089     0.2500     2.4949   -12.7254  2179.6743     2.7868     2.7438     3.1996
 4680.0000     0.3675  2523.4707   117.1545    10.7212     0.1797     2.4158   -13.1733  2179.8599     2.9296     2.8017     2.9461
 4680.5000     0.3453  2523.9031   112.8491    10.7365     0.0715     2.3766   -14.8258  2164.4673     3.3008     3.0031     3.0537
 4681.0000     0.3137  2524.4365   111.3496    10.3427     0.0057     2.4414   -15.4112  2180.1570     3.7362     3.4263     3.9535
 4681.5000     0.2721  2524.8655   111.9582     9.7444     0.0004     2.5257   -15.3968  2180.3103     3.9560     3.8335     5.8657
 4682.0000     0.2375  2525.2947   114.6707     9.4946     0.0314     2.6047   -15.3823  2180.4910     4.2188     4.3987     9.6222
 4682.5000     0.2347  2525.7239   118.5876     9.4644     0.0321     2.6552   -15.2145  2180.6394     4.4670     4.7808     9.9735
 4683.0000     0.2290  2526.2605   120.6986     9.4645     0.0276     2.6410   -14.9003  2180.7881     4.7638     5.1601     9.2832
 4683.5000     0.2257  2526.6895   120.1028     9.4798     0.0286     2.6032   -14.5861  2180.9363     5.1659     5.4928     8.7028
 4684.0000     0.2230  2511.8831   121.9130     9.4952     0.0495     2.5903   -14.2719  2196.5894     5.4177     5.7665     8.1004
 4684.5000     0.2203  2512.4194   120.4150     9.5256     0.0745     2.6061   -14.5574  2212.2781     5.2638     5.6431     7.5940
 4685.0000     0.2194  2544.6169   126.7379     9.5409     0.1070     2.6264   -14.8548  2227.9304     5.0417     5.0905     7.0178
 4685.5000     0.2489  2573.8992   128.8489     9.5714     0.1411     2.6294   -15.2747  2228.0789     4.8637     4.6519     6.3174
 4686.0000     0.2850  2589.4570   128.2531     9.5867     0.1645     2.6113   -15.2603  2228.2273     4.6253     4.1636     5.1183
 4686.5000     0.3042  2589.8865   127.9579     9.6020     0.1713     2.5834   -14.9461  2212.8682     4.0361     3.8049     4.6626
 4687.0000     0.3212  2590.3179   127.9998     9.6173     0.1751     2.5872   -14.6319  2197.5168     3.6245     3.5256     4.3399
 4687.5000     0.3221  2605.9805   128.8731     9.6174     0.1759     2.5879   -14.3177  2213.2061     3.4716     3.4294     4.1870
 4688.0000     0.3184  2606.4099   125.5706     9.6176     0.1076     2.5683   -14.0030  2213.3545     3.3251     3.3824     4.0686
 4688.5000     0.3135  2591.6030   120.7643     9.6177     0.1169     2.5660   -13.6857  2213.5032     3.2077     3.3360     4.2273
 4689.0000     0.3109  2592.1396   118.9654     9.6179     0.1668     2.5773   -13.3715  2213.6514     3.1167     3.3363     4.4662
 4689.5000     0.3299  2562.3115   118.6704     9.6786     0.2288     2.5690   -12.9073  2213.8000     3.0463     3.2905     4.6962
 4690.0000     0.3307  2532.5908   122.5873     9.8151     0.2409     2.5274   -12.5931  2213.9534     2.9846     3.2230     4.4984
 4690.5000     0.3179  2533.0200   128.3073     9.8456     0.2256     2.4989   -12.1289  2214.1340     2.9629     3.1111     4.2475
 4691.0000     0.3058  2533.4492   134.3281     9.7321     0.2477     2.5682   -12.1110  2214.2825     2.9204     3.0707     3.9535
 4691.5000     0.3007  2533.8879   139.1706     9.6338     0.2500     2.5915   -12.6999  2214.4309     2.8375     3.0709     3.9582
 4692.0000     0.3000  2549.5435   142.4612     9.8612     0.2477     2.5817   -13.1318  2199.0698     2.7570     2.9871     4.0686
 4692.5000     0.3086  2534.7366   142.7663    10.1947     0.2036     2.5380   -13.3213  2183.7205     2.6724     2.8261     3.9819
 4693.0000     0.3265  2535.2732   137.3598    10.7100     0.1849     2.5048   -13.5532  2183.9060     2.5474     2.6187     3.7063
 4693.5000     0.3534  2535.7034   132.8543    11.1193     0.1872     2.5003   -13.8383  2168.5505     2.4751     2.5078     3.4251
 4694.0000     0.4073  2536.2388   128.6174    11.2709     0.1902     2.3805   -13.8203  2184.2031     2.3877     2.3932     3.1880
 4694.5000     0.4221  2536.6680   127.7529    11.3165     0.1683     2.3233   -13.8060  2199.8552     2.3199     2.3441     3.0450
 4695.0000     0.4039  2521.8616   124.4518    11.3167     0.0794     2.0974   -13.7916  2215.5076     2.3031     2.3770     2.9020
 4695.5000     0.3600  2522.3977   118.4425    11.3699     0.0685     2.0635   -13.7772  2231.1628     2.2700     2.4272     2.9251
 4696.0000     0.3310  2507.8057   117.8466    10.9533     0.1509     2.1146   -13.7629  2231.3455     2.3061     2.5305     3.2781
 4696.5000     0.3211  2508.2349   123.2673    10.3171     0.1986     2.3051   -13.7481  2231.4939     2.3383     2.6018     3.7968
 4697.0000     0.3356  2508.6638   129.5888    10.0597     0.2107     2.3928   -13.7306  2252.1372     2.3876     2.6020     4.0857
 4697.5000     0.3560  2524.2222   132.0006    10.1204     0.2114     2.4082   -13.5663  2267.7427     2.4042     2.5486     3.8120
 4698.0000     0.3690  2539.7881   131.4048    10.1433     0.2258     2.4150   -13.1021  2268.3103     2.4548     2.5136     3.4833
 4698.5000     0.3720  2555.4443   125.6962    10.0147     0.2403     2.4240   -12.6380  2238.8035     2.4548     2.4792     3.2052
 4699.0000     0.3687  2555.8740   128.7109    10.0300     0.2493     2.4271   -12.4737  2224.3335     2.4210     2.5315     3.1830
 4699.5000     0.3672  2571.4319   134.1301    10.1817     0.2500     2.4207   -12.8064  2210.0056     2.3710     2.5260     3.2499
 4700.0000     0.3672  2571.8608   138.0456    10.6364     0.2492     2.4111   -13.6408  2210.5740     2.3221     2.3459     3.2052
 4700.5000     0.3675  2560.7893   137.1535    11.0153     0.2356     2.4149   -14.0798  2226.1792     2.3061     2.3457     3.0322
 4701.0000     0.3720  2557.3372   135.6583    11.1518     0.2077     2.4179   -13.9042  2226.7668     2.2901     2.2814     2.9063
 4701.5000     0.3837  2557.6399   134.4638    11.2277     0.2016     2.3923   -14.0435  2257.5322     2.2742     2.3947     2.8487
 4702.0000     0.3755  2557.9871   132.0663    11.2430     0.1994     2.3245   -14.4842  2273.1377     2.2429     2.4790     2.9086
 4702.5000     0.3451  2558.2449   123.6559    11.0477     0.1561     2.2544   -15.0766  2273.7053     2.2119     2.4766     3.0959
