~VERSION INFORMATION
 VERS.                2.0:   CWLS LOG ASCII STANDARD - VERSION 2.0
 WRAP.                 NO:   ONE LINE PER DEPTH STEP
~WELL INFORMATION
#MNEM.UNIT      DATA TYPE    INFORMATION
#----------   ------------   ------------------------------
 STRT.F          220.0000:   START DEPTH
 STOP.F         3284.5000:   STOP DEPTH
 STEP.F            0.5000:   STEP LENGTH
 NULL.          -999.2500:   NO VALUE
 COMP.    FENIX & SCISSON:   COMPANY
 WELL. FENIX HARPEL "A" #85-28:   WELL
 FLD .              NPR-3:   FIELD
 LOC .      S28 T39N R78W:   LOCATION
 CNTY.            NATRONA:   COUNTY
 STAT.            WYOMING:   STATE
 CTRY. UNITED STATES OF AMERICA:   COUNTRY
 SRVC.      DRESSER ATLAS:   SERVICE COMPANY
 DATE.        07-AUG-1977:   LOGDATE
 API .     49025104040000:   API NUMBER
~CURVE INFORMATION
#MNEM.UNIT       API CODE    CURVE DESCRIPTION
#----------   ------------   ------------------------------
 DEPT.F                  :   
 GRD .GAPI   45 310 01 00:   GAMMA RAY FROM DENSITY LOG
 CALD.IN     45 280 60 00:   CALIPER FROM DENSITY LOG
 CORR.G/C3   45 356 01 00:   DENSITY CORRECTION
 RHOB.G/C3   45 350 01 00:   BULK DENSITY
 TEND.LBS    45 635 01 00:   TENSION FORM DENSITY LOG
 NPHI.DEC    42 890 03 00:   NEUTRON POROSITY SANDSTONE
 SPR .MV     11 010 01 00:   SPONTANEOUS POTENTIAL FROM RES.
 TENR.LBS    11 635 01 00:   TENSION FROM RES.
 LLD .OHMM   11 220 10 00:   LATEROLOG LOG DEEP
 LLS .OHMM   11 220 09 00:   LATEROLOG SHALLOW
 RXO .OHMM   11 270 04 00:   FLUSHED ZONE RESISTIVITY
~PARAMETER INFORMATION
#MNEM.UNIT          VALUE    DESCRIPTION
#----------   ------------   ------------------------------
 EKB .F         5059.0000:   Kelly bushing
 EGL .F         5049.0000:   Ground level
 EDF .F            0.0000:   Drilling floor
 EPD .F            0.0000:   Permanent datum
 TD  .F         3240.0000:   Total depth
 CLNT.            A2DTECH:   Client Code
 SL  . 2310' FSL & 330' FEL:   Surface Location
 PD  .                 GL:   Permanent Datum
 DAPD.F                10:   Feet Above Permanent Datum
 DATE.        07-AUG-1977:   Date Logged [DD-MMM-YYYY]
 DD  .F              3240:   Depth driller
 DL  .F              3267:   Depth logger
 BLI .F              3265:   Bottom log interval
 TLI .F               224:   Top log interval
 CS1 .IN            8.625:   Casing size
 CBD1.      8.625" @ 254':   Casing driller 1
 CBL1.F               224:   Casing logger 1
 BS1 .IN            7.875:   Bit size
 BSD1.F              3240:   Depth drilled with bit1
 DFT .                KCL:   Type fluid in hole
 DFD .                8.8:   Density
 DFV .                 36:   Viscosity
 DFPH.               10.5:   pH
 DFL .                9.6:   Fluid loss
 MSS .         CIRCULATED:   Source of sample
 RMS .OHMM           0.22:   Rm
 MST .F                78:   Rm Meas. temp.
 RMF .OHMM           0.16:   Rmf
 MFST.F                78:   Rmf Meas. temp.
 MFSS.               MEAS:   Source Rmf.
 RMC .OHMM           0.28:   Rmc
 MCST.F                78:   Rmc Meas. temp.
 MCSS.               MEAS:   Source Rmc.
 RMB .OHMM           0.14:   Rm. at BHT
 BHT .F               125:   BHT.
 TCS .HRS               7:   Time Circ. stopped
 MRT .F               125:   Maximum recorded temp.
 LUN .               6134:   Logging unit number
 LUL .              GLTTE:   Logging unit location
 ENGI.              GOULD:   Recorded By
 WITN.         HARRINGTON:   Witnessed by
 ORIG.      2.5" 5" PRINT:   Origin of data
 UWI .     49025104040000:   Unique Well ID
 DICO. A2D TECHNOLOGIES, INC.:   Digitizing Company
~OTHER INFORMATION
~A   DEPT      GRD       CALD       CORR       RHOB       TEND         NPHI      SPR       TENR        LLD        LLS        RXO   
# ...
 2446.5000    50.3031     9.0683     0.0260     2.5458  1020.4288     0.2498   -69.9970   710.1796    10.7059     8.8883     7.3778
 2447.0000    49.4229     9.0709     0.0246     2.5541  1033.8809     0.2459   -70.0073   681.6223    10.5554     9.5152     7.6871
 2447.5000    49.7469     9.0730     0.0249     2.5437  1062.3925     0.2425   -70.0157   682.6349    11.1503    10.0510     7.6844
 2448.0000    50.0659     9.0754     0.0251     2.5393  1060.7843     0.2431   -70.0241   683.8621    12.0142    10.6170     7.5655
 2448.5000    50.2591     9.0779     0.0252     2.5334  1059.1763     0.2461   -70.0329   685.0297    13.7973    11.2264     7.3680
 2449.0000    51.6436     9.0952     0.0269     2.5380  1042.4700     0.2427   -70.0419   686.2277    14.0819    11.3656     7.3654
 2449.5000    54.0128     9.0975     0.0271     2.5313  1055.9592     0.2406   -70.0509   687.4250    12.2467    11.2487     7.6241
 2450.0000    52.2371     9.1298     0.0258     2.5230  1054.3512     0.2427   -70.0599   688.6227    10.9781    10.2432     7.8852
 2450.5000    55.5463     9.1307     0.0244     2.5158  1066.7303     0.2559   -70.0704   690.0227    10.6761     8.8504     7.9921
 2451.0000    55.5668     9.1465     0.0231     2.5211  1080.1541     0.2489   -70.0788   691.1429    11.1234     8.9694     7.8802
 2451.5000    53.3486     9.1474     0.0217     2.5265  1077.5599     0.2570   -70.0872   692.2632    11.7503     9.0900     7.7696
 2452.0000    55.3094     9.1481     0.0219     2.5273  1059.8192     0.2630   -69.7845   695.0071    11.7096     9.4789     7.7670
 2452.5000    55.7777     9.1491     0.0282     2.5296  1042.5757     0.2551   -69.5052   724.5507    11.5231     9.8663     7.8038
 2453.0000    56.9922     9.1500     0.0284     2.5305  1040.3934     0.2469   -69.5150   725.7487    11.3416     9.2864     8.2040
 2453.5000    56.5642     9.1508     0.0240     2.5276  1038.2111     0.2461   -69.2246   726.9460    11.7333     9.2616     8.9055
 2454.0000    55.0929     9.1517     0.0196     2.5165  1036.0277     0.2547   -69.2353   728.3639    12.0574     9.8507     8.1958
 2454.5000    54.3672     9.1526     0.0183     2.5084  1063.9659     0.2595   -69.5431   729.4841    11.8885    10.0149     7.6473
 2455.0000    53.6414     9.1536     0.0153     2.5144  1061.7472     0.2595   -69.5515   730.6043    10.9017     9.4425     7.3283
 2455.5000    52.7664     9.1544     0.0097     2.5041  1074.6605     0.2609   -69.8593   731.7363     9.9309     8.7875     7.2117
 2456.0000    55.4787     9.1553     0.0099     2.5251  1056.8726     0.2687   -69.8683   732.9341    10.0237     8.3082     7.1310
 2456.5000    55.3499     9.1562     0.0147     2.5379  1054.6903     0.2750   -69.8772   734.1316    10.7763     8.3666     7.3770
 2457.0000    54.9227     9.1572     0.0211     2.5402  1022.3864     0.2746   -69.8862   735.3294    11.8674     9.0373     7.3245
 2457.5000    55.8387     9.1580     0.0257     2.5471   990.0837     0.2791   -69.8952   736.5270    12.3646     8.9142     7.2218
 2458.0000    57.0533     9.1589     0.0291     2.5479  1033.0822     0.2968   -70.2050   727.0516    11.5372     9.5462     7.1207
 2458.5000    57.0738     9.1598     0.0276     2.5413  1045.9591     0.2997   -69.9140   708.9822    10.3092     7.7558     7.0208
 2459.0000    57.8406     9.1607     0.0245     2.5287  1013.1107     0.2901   -69.9224   710.1855     9.7216     7.5411     7.0551
 2459.5000    58.3089     9.1615     0.0189     2.5168   980.8069     0.2865   -69.9311   711.3771     9.3726     7.4343     7.2449
 2460.0000    60.1170     9.1475     0.0131     2.5117   964.1099     0.2870   -69.9401   712.5751    10.3774     7.5343     7.5078
 2460.5000    57.7529     9.1484     0.0133     2.5264  1006.5629     0.2855   -69.9491   713.7725    11.0508     8.3447     7.7216
 2461.0000    56.5794     9.1495     0.0195     2.5406  1019.9852     0.2831   -69.8173   714.9698    10.8953     9.1150     7.8261
 2461.5000    54.5075     9.1502     0.0273     2.5478  1017.2574     0.2911   -69.9687   716.3461    10.8918     9.3844     7.7161
 2462.0000    55.4826     9.1513     0.0335     2.5472  1030.1355     0.2926   -69.9771   717.4664    11.2093     9.5843     7.5010
 2462.5000    56.3926     9.1522     0.0368     2.5458  1043.0123     0.2878   -69.9855   718.5860    12.1819    10.0439     7.3816
 2463.0000    57.8555     9.1529     0.0370     2.5489  1040.2844     0.2781   -69.9940   719.7606    12.3189    10.7570     7.2947
 2463.5000    56.0901     9.1687     0.0341     2.5535  1023.0421     0.2657   -70.0030   720.9580    11.5820    10.6047     7.2922
 2464.0000    53.4240     9.1697     0.0328     2.5550  1020.8586     0.2554   -70.0120   733.3245    10.8725     8.9325     7.2892
 2464.5000    54.9354     9.1556     0.0315     2.5394  1018.6764     0.2519   -70.0210   753.2935    10.4286     8.3462     7.2868
 2465.0000    57.6425     9.1565     0.0271     2.5258  1016.4930     0.2681   -69.7305   724.5508    10.2825     7.9881     7.2845
 2465.5000    59.1555     9.1423     0.0198     2.5344  1029.4591     0.2666   -69.7408   725.7484    10.4228     7.9199     7.2821
 2466.0000    57.3809     9.1286     0.0184     2.5412  1057.3092     0.2689   -69.7493   726.9871    10.7314     8.2504     7.2796
 2466.5000    55.6145     9.1294     0.0171     2.5495  1039.5201     0.2836   -69.7577   728.1436    11.0057     8.7149     7.2771
 2467.0000    55.9343     9.1152     0.0204     2.5466  1007.2173     0.2764   -69.7665   729.3416    10.4940     8.8322     7.2746
 2467.5000    56.5562     9.1014     0.0221     2.5378   974.9146     0.2788   -69.7754   730.5389     9.9084     8.6919     7.2721
 2468.0000    57.4722     9.0874     0.0207     2.5312   972.7313     0.2964   -69.7844   731.7363     9.4463     8.3495     7.2692
 2468.5000    58.3831     9.0822     0.0210     2.5275   985.6092     0.3006   -69.7934   733.1477     9.3139     8.3455     7.1674
 2469.0000    59.3043     9.0742     0.0226     2.5201   998.4938     0.2870   -69.8039   734.2679     9.8389     8.4052     7.1651
 2469.5000    58.7278     9.0602     0.0228     2.5240  1041.4845     0.2810   -69.8124   735.3882     9.9723     8.6894     6.9557
 2470.0000    58.4447     9.0611     0.0230     2.5435  1054.3625     0.2837   -69.8208   736.5271     9.2041     8.2188     6.8700
 2470.5000    60.5599     9.0620     0.0248     2.5369  1051.6337     0.2977   -69.8293   737.7245     8.7532     7.7736     6.7736
 2471.0000    59.6797     9.0629     0.0280     2.5355  1049.4514     0.2998   -69.8383   738.9221     8.6787     7.4427     6.7713
 2471.5000    60.0570     9.0638     0.0282     2.5393  1032.2089     0.2965   -69.8473   740.1199     8.5565     7.1233     6.7686
 2472.0000    60.3229     9.0796     0.0253     2.5461  1030.0255     0.2928   -69.8563   741.5488     8.3211     6.9506     6.5824
 2472.5000    61.8360     9.0655     0.0240     2.5364  1042.9222     0.2916   -69.8671   742.6690     7.9813     6.8010     6.4013
 2473.0000    60.6330     9.0665     0.0151     2.5279  1040.6628     0.2901   -69.8743   743.7892     7.7617     6.8481     6.2251
 2473.5000    59.0412     9.0674     0.0077     2.5225  1037.9923     0.2858   -69.8839   744.9100     8.5764     7.0367     6.4410
 2474.0000    56.5261     9.0684     0.0034     2.5241   975.5691     0.2852   -69.8923   746.1078     9.5895     7.1314     6.7005
 2474.5000    56.5466     9.0692     0.0051     2.5302   958.3265     0.2864   -69.9012   747.3054     9.3367     7.2272     6.8988
 2475.0000    57.3134     9.0702     0.0068     2.5363  1031.4445     0.2892   -69.9102   748.5031     9.1451     7.1245     7.1355
 2475.5000    57.5371     9.0711     0.0085     2.5408  1119.6237     0.2944   -69.9192   749.7008     9.3977     7.1211     7.1328
 2476.0000    56.1604     9.0718     0.0148     2.5499  1087.3209     0.2986   -69.9281   750.8982     9.9274     7.2239     7.0329
 2476.5000    57.3801     9.0727     0.0212     2.5461   964.6082     0.2973   -69.9386   752.0958     9.9123     7.5176     7.1367
