~VERSION INFORMATION
 VERS.                2.0:   CWLS LOG ASCII STANDARD - VERSION 2.0
 WRAP.                 NO:   ONE LINE PER DEPTH STEP
~WELL INFORMATION
#MNEM.UNIT      DATA TYPE    INFORMATION
#----------   ------------   ------------------------------
 STRT.F          218.5000:   START DEPTH
 STOP.F         3291.0000:   STOP DEPTH
 STEP.F            0.5000:   STEP LENGTH
 NULL.          -999.2500:   NO VALUE
 COMP.    FENIX & SCISSON:   COMPANY
 WELL.   FENIX SHX #63-23:   WELL
 FLD .  TEAPOT DOME NPR-3:   FIELD
 LOC .      S23 T38N R78W:   LOCATION
 CNTY.            NATRONA:   COUNTY
 STAT.            WYOMING:   STATE
 CTRY. UNITED STATES OF AMERICA:   COUNTRY
 SRVC.           BIRDWELL:   SERVICE COMPANY
 DATE.        08-JUL-1978:   LOGDATE
 API .     49025106600000:   API NUMBER
~CURVE INFORMATION
#MNEM.UNIT       API CODE    CURVE DESCRIPTION
#----------   ------------   ------------------------------
 DEPT.F                  :   
 GRD .GAPI   45 310 01 00:   GAMMA RAY FROM DENSITY LOG
 CALD.IN     45 280 60 00:   CALIPER FROM DENSITY LOG
 CORR.G/C3   45 356 01 00:   DENSITY CORRECTION
 RHOB.G/C3   45 350 01 00:   BULK DENSITY
 GR  .GAPI   35 310 01 00:   GAMMA RAY
 NEUT.NAPI   35 330 01 00:   NEUTRON
~PARAMETER INFORMATION
#MNEM.UNIT          VALUE    DESCRIPTION
#----------   ------------   ------------------------------
 EKB .F         5368.0000:   Kelly bushing
 EGL .F         5358.0000:   Ground level
 TD  .F         3299.0000:   Total depth
 CLNT.            A2DTECH:   Client Code
 PD  .                 GL:   Permanent Datum
 EPD .F              5358:   Elevation Permanent Datum
 LMF .                 KB:   Log Measured From
 DMF .                 KB:   Drilling Measured From
 DAPD.F                10:   Feet Above Permanent Datum
 DATE.        08-JUL-1978:   Date Logged [DD-MMM-YYYY]
 DD  .F              3299:   Depth driller
 DL  .F              3291:   Depth logger
 BLI .F              3291:   Bottom log interval
 TLI .F              1430:   Top log interval
 CS1 .IN            9.625:   Casing size
 CBD1.     9.625" @ 1450':   Casing driller 1
 CBL1.F              1442:   Casing logger 1
 BS1 .IN            8.750:   Bit size
 BSD1.F              3299:   Depth drilled with bit1
 DFT .          KCL WATER:   Type fluid in hole
 BHT .F               118:   BHT.
 TCS .HRS               2:   Time Circ. stopped
 MRT .F               118:   Maximum recorded temp.
 LUN .               2958:   Logging unit number
 LUL .               CASP:   Logging unit location
 ENGI.             MILLER:   Recorded By
 WITN.           MCGINLEY:   Witnessed by
 ORIG.           5" PRINT:   Origin of data
 UWI .     49025106600000:   Unique Well ID
 DICO. A2D TECHNOLOGIES, INC.:   Digitizing Company
 SL  . 1800' FNL & 1825' FEL:   Surface Location
~OTHER INFORMATION
~A   DEPT      GRD       CALD       CORR       RHOB          GR      NEUT   
# ...
 1414.5000  -999.2500  -999.2500  -999.2500  -999.2500    60.5473   354.5183
 1415.0000  -999.2500  -999.2500  -999.2500  -999.2500    60.2363   355.2752
 1415.5000  -999.2500  -999.2500  -999.2500  -999.2500    60.3826   353.6367
 1416.0000  -999.2500  -999.2500  -999.2500  -999.2500    60.6797   350.6714
 1416.5000    57.0039  -999.2500  -999.2500  -999.2500    60.8275   350.6640
 1417.0000    57.0013  -999.2500  -999.2500  -999.2500    60.8198   352.9502
 1417.5000    56.9990  -999.2500  -999.2500  -999.2500    60.6612   357.5299
 1418.0000    56.9966  -999.2500  -999.2500  -999.2500    60.1978   363.6406
 1418.5000    56.9936  -999.2500  -999.2500  -999.2500    59.4294   359.8087
 1419.0000    56.9913  -999.2500  -999.2500  -999.2500    56.8318   355.9277
 1419.5000    56.9889  -999.2500  -999.2500  -999.2500    56.0481   352.1469
 1420.0000    57.1348  -999.2500  -999.2500  -999.2500    55.9048   349.8459
 1420.5000    57.1318  -999.2500  -999.2500  -999.2500    56.2035   359.7773
 1421.0000    57.1295  -999.2500  -999.2500  -999.2500    55.5861   365.1216
 1421.5000    56.9449  -999.2500  -999.2500  -999.2500    54.8177   366.6432
 1422.0000    55.9424  -999.2500  -999.2500  -999.2500    54.2018   372.7520
 1422.5000    55.2015  -999.2500  -999.2500  -999.2500    56.4822   370.4510
 1423.0000    55.4946  -999.2500  -999.2500  -999.2500    59.5248   359.4322
 1423.5000    55.9353  -999.2500  -999.2500  -999.2500    60.7739   354.3794
 1424.0000    56.3762  -999.2500  -999.2500  -999.2500    62.5597   361.2527
 1424.5000    56.5214  -999.2500  -999.2500  -999.2500    63.7746   354.3646
 1425.0000    56.6668  -999.2500  -999.2500  -999.2500    63.3096   348.2410
 1425.5000    56.6638  -999.2500  -999.2500  -999.2500    60.5595   346.7045
 1426.0000    56.6614  -999.2500  -999.2500  -999.2500    59.6387   345.1681
 1426.5000    56.6591  -999.2500  -999.2500  -999.2500    59.6326   341.2361
 1427.0000    56.5090  -999.2500  -999.2500  -999.2500    58.2545   339.0370
 1427.5000    56.6543  -999.2500  -999.2500  -999.2500    52.6929   345.1440
 1428.0000    56.6517  -999.2500  -999.2500  -999.2500    56.5638   351.2528
 1428.5000    56.7971  -999.2500  -999.2500  -999.2500    59.4540   354.3054
 1429.0000    56.6466  -999.2500  -999.2500  -999.2500    60.3624   338.2411
 1429.5000    56.4965  -999.2500  -999.2500  -999.2500    60.9660   332.8820
 1430.0000    55.4602  -999.2500  -999.2500  -999.2500    61.5702   323.7003
 1430.5000    54.2767  -999.2500  -999.2500  -999.2500    62.3256   318.8000
 1431.0000    54.8646  -999.2500  -999.2500  -999.2500    62.9292   315.2757
 1431.5000    55.0099  -999.2500  -999.2500  -999.2500    63.6953   332.8506
 1432.0000    55.0070  -999.2500  -999.2500  -999.2500    63.9840   345.0756
 1432.5000    54.8569  -999.2500  -999.2500  -999.2500    62.9092   355.0070
 1433.0000    54.7068  -999.2500  -999.2500  -999.2500    62.5982   371.8192
 1433.5000    54.5567  -999.2500  -999.2500  -999.2500    62.8969   348.1115
 1434.0000    53.9635  -999.2500  -999.2500  -999.2500    63.0447   330.5200
 1434.5000    53.8134  -999.2500  -999.2500  -999.2500    60.1406   342.7450
 1435.0000    53.9587  -999.2500  -999.2500  -999.2500    58.9150   345.0312
 1435.5000    54.1041  -999.2500  -999.2500  -999.2500    58.1466   345.7883
 1436.0000    54.1011  -999.2500  -999.2500  -999.2500    57.6829   338.8983
 1436.5000    53.9510  -999.2500  -999.2500  -999.2500    58.5901   326.6586
 1437.0000    53.6532  -999.2500  -999.2500  -999.2500    59.3461   320.5349
 1437.5000    53.3554  -999.2500  -999.2500  -999.2500    59.3399   314.4113
 1438.0000    52.5947  -999.2500  -999.2500  -999.2500    59.3338   305.9941
 1438.5000    52.0207  -999.2500  -999.2500  -999.2500    59.9374   326.6271
 1439.0000    52.0183  -999.2500  -999.2500  -999.2500    60.2363   332.7377
 1439.5000    52.0160  -999.2500  -999.2500  -999.2500    60.2299   328.9077
 1440.0000    52.3090  -999.2500  -999.2500  -999.2500    57.7508   338.8373
 1440.5000    52.4549  -999.2500  -999.2500  -999.2500    56.8624   351.8268
 1441.0000    52.7474  -999.2500  -999.2500     2.2231    58.0757   364.8164
 1441.5000    53.5696  -999.2500  -999.2500     2.1902    58.5284   371.0269
 1442.0000    60.4230     8.5243     0.0076     2.2994    57.1488   375.5031
 1442.5000    68.3970     8.9484     0.0619     2.3284    56.5329   381.6119
 1443.0000    71.9397     9.1598     0.1374     2.3330    56.5267   387.7207
 1443.5000    73.4144     9.4690     0.1786     2.2679    56.6782   386.9488
 1444.0000    73.7075     9.5065     0.1435     2.1707    55.5040   379.2961
 1444.5000    73.2595     9.4283     0.1115     2.1279    52.5432   373.9371
 1445.0000    72.9395     9.4118     0.0977     2.1339    52.2322   387.6912
 1445.5000    72.8141     9.5162     0.1304     2.1094    56.4943   402.2596
 1446.0000    74.5836     8.9662     0.1689     2.1812    70.9699   460.7310
 1446.5000    76.2061     9.2385     0.1718     2.1872    76.9104   493.9387
 1447.0000    77.2377     9.4499     0.1838     2.1895    75.0734   464.8774
 1447.5000    77.8261     9.5399     0.2171     2.2261    74.1526   451.8730
 1448.0000    77.8237     9.3552     0.2719     2.4791    74.9187   420.4181
 1448.5000    77.8208     9.4139     0.3064     2.5616    79.1692   442.6821
 1449.0000    77.8184     9.4731     0.3048     2.5677    81.6021   461.0233
 1449.5000    78.6078     9.4871     0.1680     2.5668    84.4923   481.5362
 1450.0000    80.4703     9.4850     0.1390     2.5522    81.7422   530.2806
 1450.5000    80.6076     9.4665     0.1222     2.5384    73.5059   563.8442
 1451.0000    80.7413     9.4507     0.1089     2.5270    78.3762   597.3386
 1451.5000    80.7238     9.4338     0.0733     2.5100    82.1810   662.8366
 1452.0000    80.5587     9.4322     0.0610     2.5031    85.5487   805.0221
 1452.5000    80.1017     9.4305     0.0578     2.5015    87.9865   821.2703
 1453.0000    78.7583     9.4135     0.0608     2.5022    87.0605   827.9172
 1453.5000    78.1390     9.3962     0.0623     2.5084    85.1567   843.5261
 1454.0000    80.3517     9.3945     0.0650     2.5120    87.1786   839.4982
 1454.5000    80.6367     9.3929     0.0649     2.5096    88.8509   806.3270
 1455.0000    80.1761     9.4368     0.0663     2.5134    88.8432   805.0221
 1455.5000    79.2759     9.4804     0.0692     2.5271    88.8370   816.1005
 1456.0000    79.6160     9.5091     0.0752     2.5316    88.9833   825.7016
 1456.5000    80.7216     9.5227     0.0629     2.5300  -999.2500   833.8257
 1457.0000    80.7076     9.5667     0.0582     2.5322  -999.2500   845.6426
 1457.5000    80.6937     9.6563     0.0581     2.5345  -999.2500   857.4594
 1458.0000    80.8370     9.4563     0.0564     2.5382  -999.2500   866.3220
 1458.5000    81.9917     9.4703     0.0563     2.5420  -999.2500   816.8390
 1459.0000    80.7948     9.4682     0.0562     2.5473  -999.2500   814.6234
 1459.5000    80.7809     9.4665     0.0561     2.5526  -999.2500  -999.2500
 1460.0000    80.9146     9.4647     0.0559     2.5494  -999.2500  -999.2500
 1460.5000    79.2759     9.4627     0.0574     2.5394  -999.2500  -999.2500
 1461.0000    78.3555     9.4612     0.0587     2.5433  -999.2500  -999.2500
 1461.5000    77.9151     9.4593     0.0601     2.5523  -999.2500  -999.2500
 1462.0000    77.6057     9.4576     0.0585     2.5599  -999.2500  -999.2500
 1462.5000    77.4440     9.4555     0.0583     2.5583  -999.2500  -999.2500
 1463.0000    77.4298     9.4541     0.0582     2.5575  -999.2500  -999.2500
 1463.5000    77.2649     9.4523     0.0581     2.5480  -999.2500  -999.2500
 1464.0000    77.2510     9.4504     0.0580     2.5397  -999.2500  -999.2500
 1464.5000    77.3882     9.4640     0.0578     2.5435  -999.2500  -999.2500
 1465.0000    77.3708     9.4774     0.0562     2.5473  -999.2500  -999.2500
 1465.5000    77.6522     9.4754     0.0561     2.5533  -999.2500  -999.2500
 1466.0000    77.9302     9.4894     0.0575     2.5633  -999.2500  -999.2500
