~VERSION INFORMATION
 VERS.                2.0:   CWLS LOG ASCII STANDARD - VERSION 2.0
 WRAP.                 NO:   ONE LINE PER DEPTH STEP
~WELL INFORMATION
#MNEM.UNIT      DATA TYPE    INFORMATION
#----------   ------------   ------------------------------
 STRT.F          648.0000:   START DEPTH
 STOP.F         3196.0000:   STOP DEPTH
 STEP.F            0.5000:   STEP LENGTH
 NULL.          -999.2500:   NO VALUE
 COMP.    FENIX & SCISSON:   COMPANY
 WELL.   FENIX "AX" #18-2:   WELL
 FLD .             NPR #3:   FIELD
 LOC .       S2 T38N R78W:   LOCATION
 CNTY.            NATRONA:   COUNTY
 STAT.            WYOMING:   STATE
 CTRY. UNITED STATES OF AMERICA:   COUNTRY
 SRVC.              WELEX:   SERVICE COMPANY
 DATE.        05-OCT-1980:   LOGDATE
 API .     49025108500000:   API NUMBER
~CURVE INFORMATION
#MNEM.UNIT       API CODE    CURVE DESCRIPTION
#----------   ------------   ------------------------------
 DEPT.F                  :   
 GRD .GAPI   45 310 01 00:   GAMMA RAY FROM DENSITY LOG
 CALD.IN     45 280 60 00:   CALIPER FROM DENSITY LOG
 CORR.G/C3   45 356 01 00:   DENSITY CORRECTION
 RHOB.G/C3   45 350 01 00:   BULK DENSITY
 SPR .MV     07 010 01 00:   SPONTANEOUS POTENTIAL FROM RES.
 ILD .OHMM   07 120 46 00:   INDUCTION LOG DEEP RESISTIVITY
 ILM .OHMM   07 120 44 00:   INDUCTION LOG MEDIUM RESISTIVITY
 SGRD.OHMM   07 220 05 00:   SHORT GUARD RESISTIVITY
~PARAMETER INFORMATION
#MNEM.UNIT          VALUE    DESCRIPTION
#----------   ------------   ------------------------------
 EKB .F         5162.0000:   Kelly bushing
 EGL .F         5152.0000:   Ground level
 EDF .F            0.0000:   Drilling floor
 TD  .F         3200.0000:   Total depth
 CLNT.            A2DTECH:   Client Code
 PD  .                 GL:   Permanent Datum
 EPD .F              5152:   Elevation Permanent Datum
 LMF .                 KB:   Log Measured From
 DMF .                 KB:   Drilling Measured From
 DAPD.F                10:   Feet Above Permanent Datum
 DATE.        05-OCT-1980:   Date Logged [DD-MMM-YYYY]
 DD  .F              3200:   Depth driller
 DL  .F              3198:   Depth logger
 BLI .F              3196:   Bottom log interval
 TLI .F               646:   Top log interval
 CS1 .IN            8.625:   Casing size
 CBD1.      8.625" @ 647':   Casing driller 1
 CBL1.F               650:   Casing logger 1
 BS1 .IN            7.875:   Bit size
 BSD1.F              3200:   Depth drilled with bit1
 DFT .           CHEM GEL:   Type fluid in hole
 DFD .                8.6:   Density
 DFV .                 38:   Viscosity
 DFPH.                9.5:   pH
 MSS .           FLOWLINE:   Source of sample
 MFSS.               MEAS:   Source Rmf.
 MCSS.               MEAS:   Source Rmc.
 RMB .OHMM           1.24:   Rm. at BHT
 BHT .F               118:   BHT.
 TCS .HRS               5:   Time Circ. stopped
 MRT .F               118:   Maximum recorded temp.
 LUN .               1892:   Logging unit number
 LUL .             CASPER:   Logging unit location
 ORIG.           5" PRINT:   Origin of data
 UWI .     49025108500000:   Unique Well ID
 DICO. A2D TECHNOLOGIES, INC.:   Digitizing Company
 SL  . 313' FSL & 565' FWL:   Surface Location
 RMS .               2.34:   Rm
~OTHER INFORMATION
~A   DEPT       GRD      CALD       CORR       RHOB        SPR        ILD        ILM       SGRD   
# ...
 1984.5000    99.5471    10.9517     0.0348     2.4964   -38.2014     8.4746     9.3278    10.1876
 1985.0000   100.2647    10.9530     0.0395     2.4897   -38.1099     8.3613     9.3327    10.4046
 1985.5000   101.5902    10.9392     0.0381     2.4890   -38.0800     8.2502     9.1463     9.9870
 1986.0000   103.8219    10.9258     0.0323     2.4950   -38.1540     8.1956     9.0256     8.9475
 1986.5000   106.2741    10.9274     0.0325     2.5070   -38.2249     8.1990     8.9066     8.8282
 1987.0000   106.7346    10.9140     0.0417     2.5253   -38.2958     8.2017     8.7903     8.8326
 1987.5000   105.0022    10.9006     0.0557     2.5468   -38.3666     8.2050     8.6146     8.9588
 1988.0000   103.9250    10.8846     0.0707     2.5596   -38.4375     8.2078     8.4999     9.2129
 1988.5000   103.0684    10.8442     0.0769     2.5626   -38.5084     8.2105     8.5644     9.2803
 1989.0000   102.6529    10.7870     0.0801     2.5611   -38.5793     8.1561     8.6882     9.0940
 1989.5000   102.7000    10.7441     0.0818     2.5589   -38.6501     8.1034     8.7541     9.0351
 1990.0000   104.2552    10.7012     0.0759     2.5515   -38.7210     8.0431     8.8195     9.6848
 1990.5000   105.3774    10.6583     0.0579     2.5231   -38.7919     7.8346     8.7031     9.5559
 1991.0000   104.0861    10.6007     0.0385     2.5022   -38.8630     7.6241     8.4706     9.1724
 1991.5000   103.4502    10.5283     0.0326     2.4969   -38.9337     7.4705     8.2441     8.6836
 1992.0000   105.2406    10.4118     0.0313     2.4679   -39.0025     7.3706     8.0239     8.2210
 1992.5000   103.0605    10.3247     0.0252     2.4350   -38.9319     7.3224     7.9181     7.9915
 1993.0000   101.9834    10.3566     0.0120     2.4245   -38.7042     7.2745     7.8678     7.8941
 1993.5000    99.8054    10.4182     0.0076     2.4238   -38.4781     7.2775     8.0377     8.2316
 1994.0000    97.1777    10.5057     0.0108     2.4246   -38.2512     7.2799     8.3245     9.3228
 1994.5000   100.2982    10.5806    -0.0041     2.4172   -38.0242     7.2823     8.7413     9.1979
 1995.0000   102.7504    10.6408    -0.0115     2.4352   -37.7980     7.2847     8.7460     9.0141
 1995.5000   105.0000    10.6863    -0.0098     2.4644   -37.5690     7.3375     8.7518     8.8951
 1996.0000   106.5852    10.7318    -0.0006     2.4742   -37.5317     7.3405     8.7564     8.7165
 1996.5000   107.2460    10.7625     0.0086     2.4712   -37.6230     7.3938     8.6398     8.4827
 1997.0000   106.3894    10.7933     0.0119     2.4848   -37.7164     7.4474     8.4683     8.4270
 1997.5000   104.8711    10.8093     0.0213     2.4901   -37.8101     7.5014     8.2991     8.6074
 1998.0000   103.5733    10.8253     0.0303     2.5051   -37.9036     7.5557     8.3043     8.7303
 1998.5000   101.8344    10.8423     0.0320     2.5073   -37.9971     7.5583     8.6008     8.9789
 1999.0000   100.5367    10.8722     0.0291     2.4932   -38.0905     7.5614     8.8464     9.2975
 1999.5000    99.0183    10.9032     0.0277     2.4940   -38.1840     7.5113     9.0989     9.8285
 2000.0000    99.4853    10.9192     0.0279     2.5037   -38.2779     7.6187     9.2943     9.8995
 2000.5000   102.4263    10.9647     0.0296     2.5122   -38.3716     7.6841     9.1207     9.3085
 2001.0000   105.2786    11.0102     0.0267     2.5226   -38.4559     7.9509     8.7569     9.0590
 2001.5000   107.0691    11.0409     0.0239     2.5204   -38.3788     7.9557     8.4615     9.0003
 2002.0000   108.1978    11.0569     0.0209     2.5062   -38.2951     7.7439     8.2425     8.9420
 2002.5000   106.6795    11.0754     0.0122     2.4912   -38.2118     7.5378     8.1337     8.8231
 2003.0000   105.3817    11.0919     0.0078     2.4801   -38.1286     7.3879     8.1404     8.7066
 2003.5000   104.3046    11.1159     0.0049     2.4651   -38.0454     7.2911     8.2022     8.7703
 2004.0000   103.2274    11.1177     0.0051     2.4442   -37.9622     7.2453     8.3216     8.8956
 2004.5000   102.3708    11.1194     0.0068     2.4476   -37.8790     7.1998     8.4428     9.0855
 2005.0000   101.0589    11.1358     0.0070     2.4609   -37.7958     7.2052     8.5069     9.0891
 2005.5000    98.8649    11.1375     0.0252     2.4662   -37.7126     7.2594     8.5717     8.7243
 2006.0000    96.0972    11.1540     0.0178     2.4595   -37.6294     7.2637     8.6379     8.6678
 2006.5000    94.5327    11.1708     0.0195     2.4790   -37.5463     7.3184     8.7035     8.8534
 2007.0000    94.7853    11.1874     0.0287     2.4948   -37.4631     7.3736     8.8302     9.0420
 2007.5000    94.8110    11.2038     0.0394     2.5038   -37.3796     7.4299     8.8361     9.1712
 2008.0000    95.2777    11.2350     0.0472     2.5106   -37.2948     7.4858     8.8420     9.2383
 2008.5000    97.5092    11.2557     0.0473     2.5021   -37.2809     7.4903     8.8479     9.1784
 2009.0000    99.5500    11.2827     0.0399     2.4816   -37.3518     7.5466     8.7325     9.1191
 2009.5000   102.1992    11.2992     0.0341     2.4749   -37.5341     7.6034     8.8612     9.2503
 2010.0000   102.6596    11.3156     0.0297     2.4929   -37.7147     7.6606     9.0524     9.6448
 2010.5000   100.9269    11.3322     0.0283     2.5094   -37.8956     7.7193     9.2477     9.6486
 2011.0000   102.9379    11.3342     0.0316     2.5072   -38.0764     7.8311     9.3823     9.4549
 2011.5000   102.0811    11.3359     0.0287     2.4893   -38.2572     7.8900     9.1332     9.3927
 2012.0000   100.1214    11.3225     0.0243     2.4856   -38.4380     7.9494     8.8907     9.7270
 2012.5000   101.0294    11.3246     0.0245     2.4948   -38.6189     8.0645     8.7146    10.0722
 2013.0000   101.2756    11.3263     0.0307     2.5064   -38.7992     8.1252     8.9657    10.1459
 2013.5000   100.8601    11.3428     0.0475     2.5165   -38.9852     8.2431     9.1591    10.0119
 2014.0000   100.8921    11.3598     0.0597     2.5240   -38.8745     8.3061     9.1653     9.8099
 2014.5000   101.5795    11.3909     0.0584     2.5286   -38.6322     8.3686     8.9821     9.6795
 2015.0000   103.1492    11.4074     0.0404     2.4987   -38.3858     8.3736     8.8665     9.6843
 2015.5000   104.9395    11.4238     0.0165     2.4755   -38.1394     8.3198     8.9338     9.7552
 2016.0000   106.2887    11.4403     0.0030     2.4681   -37.8933     8.2119     9.0639     9.6920
 2016.5000   106.7559    11.4568     0.0112     2.4809   -37.6473     8.1011     9.1974     9.6293
 2017.0000   106.3463    11.4585     0.0169     2.4669   -37.4008     7.9982     9.1388     9.5021
 2017.5000   104.1660    11.4749     0.0036     2.4503   -37.1428     7.8946     8.9592     9.3758
 2018.0000   101.3240    11.4914     0.0022     2.4654   -37.1760     7.8450     8.7816     9.1875
 2018.5000    99.7991    11.5083     0.0205     2.4789   -37.3020     7.7411     8.7257     8.9412
 2019.0000    98.7282    11.5247     0.0282     2.4812   -37.4306     7.5883     8.9771     8.7014
 2019.5000    97.2097    11.5265     0.0314     2.4865   -37.5586     7.4888     9.3625     9.4566
 2020.0000    96.3529    11.5429     0.0330     2.4993   -37.6865     7.4418     9.5647     9.7922
 2020.5000    97.0412    11.5446     0.0362     2.5068   -37.8143     7.3951     9.3121     9.7961
 2021.0000    97.2929    11.5463     0.0304     2.5122   -37.9422     7.3487     9.1260     9.7327
 2021.5000    97.3186    11.5481     0.0245     2.5092   -38.0700     7.4563     9.0694     9.6696
 2022.0000    97.3442    11.5649     0.0231     2.4868   -38.1978     7.6167     9.1397     9.6735
 2022.5000    98.2521    11.5814     0.0233     2.4906   -38.3257     7.8343     9.3369     9.7444
 2023.0000   102.2483    11.5979     0.0295     2.5011   -38.4535     8.1731     9.4078     9.8166
 2023.5000   104.2593    11.6143     0.0372     2.5086   -38.5813     8.4629     9.2852    10.0257
 2024.0000   105.8735    11.6455     0.0359     2.5199   -38.7094     8.6449     9.1012    10.3102
 2024.5000   109.6110    11.6768     0.0330     2.5042   -38.8373     8.7702     9.0447    10.6027
