~VERSION INFORMATION
 VERS.                2.0:   CWLS LOG ASCII STANDARD - VERSION 2.0
 WRAP.                 NO:   ONE LINE PER DEPTH STEP
~WELL INFORMATION
#MNEM.UNIT      DATA TYPE    INFORMATION
#----------   ------------   ------------------------------
 STRT.F           50.0000:   START DEPTH
 STOP.F         5698.0000:   STOP DEPTH
 STEP.F            0.5000:   STEP LENGTH
 NULL.          -999.2500:   NO VALUE
 COMP. LAWRENCE - ALLISON:   COMPANY
 WELL. LAWRENCE TPX #57-3:   WELL
 FLD .              NPR 3:   FIELD
 LOC .       S3 T38N R78W:   LOCATION
 CNTY.            NATRONA:   COUNTY
 STAT.            WYOMING:   STATE
 CTRY. UNITED STATES OF AMERICA:   COUNTRY
 SRVC.       SCHLUMBERGER:   SERVICE COMPANY
 DATE.        09-AUG-1982:   LOGDATE
 API .     49025108900000:   API NUMBER
~CURVE INFORMATION
#MNEM.UNIT       API CODE    CURVE DESCRIPTION
#----------   ------------   ------------------------------
 DEPT.F                  :   
 TEND.LBS    45 635 01 00:   TENSION FROM DENSITY LOG
 CALD.IN     45 280 60 00:   CALIPER FROM DENSITY LOG
 NPHI.DEC    42 890 03 00:   NEUTRON POROSITY SANDSTONE
 CORR.G/C3   45 356 01 00:   DENSITY CORRECTION
 RHOB.G/C3   45 350 01 00:   BULK DENSITY
 SPR .MV     11 010 01 00:   SPONTANEOUS POTENTIAL FROM RESISTIVITY
 TENR.LBS    11 635 01 00:   TENSION FROM RESISTIVITY
 GRR .GAPI   11 310 01 00:   GAMMA RAY FROM RESISTIVITY
 LLD .OHMM   11 220 10 00:   LATEROLOG DEEP
 LLS .OHMM   11 220 09 00:   LATEROLOG LOG SHALLOW
 MSFL.OHMM   11 270 04 00:   MICRO SPHERICALLY FOCUSED
~PARAMETER INFORMATION
#MNEM.UNIT          VALUE    DESCRIPTION
#----------   ------------   ------------------------------
 EKB .F         5190.0000:   Kelly bushing
 EGL .F         5180.0000:   Ground level
 EDF .F         5189.0000:   Drilling floor
 TD  .F         5686.0000:   Total depth
 CLNT.            A2DTECH:   Client Code
 SL  . 1002' FSL & 2479' FEL:   Surface Location
 PD  .                 GL:   Permanent Datum
 EPD .F              5180:   Elevation Permanent Datum
 LMF .                 KB:   Log Measured From
 DMF .                 KB:   Drilling Measured From
 DAPD.F                10:   Feet Above Permanent Datum
 DATE.        09-AUG-1982:   Date Logged [DD-MMM-YYYY]
 DD  .F              5685:   Depth driller
 DL  .F              5686:   Depth logger
 BLI .F              5683:   Bottom log interval
 TLI .F               494:   Top log interval
 CS1 .IN            9.625:   Casing size
 CBD1.      9.625" @ 500':   Casing driller 1
 CBL1.F               494:   Casing logger 1
 BS1 .IN             8.75:   Bit size
 BSD1.F              5685:   Depth drilled with bit1
 DFT .                KCL:   Type fluid in hole
 DFD .                9.0:   Density
 DFV .                 38:   Viscosity
 DFPH.                8.5:   pH
 DFL .                9.0:   Fluid loss
 MSS .            MUDTANK:   Source of sample
 RMS .OHMM           0.27:   Rm
 MST .F                79:   Rm Meas. temp.
 RMF .OHMM           0.27:   Rmf
 MFST.F                79:   Rmf Meas. temp.
 MFSS.               MEAS:   Source Rmf.
 RMB .OHMM            .13:   Rm. at BHT
 BHT .F               164:   BHT.
 TCS .HRS            1300:   Time Circ. stopped
 MRT .F               164:   Maximum recorded temp.
 LUN .               8035:   Logging unit number
 LUL .               CSPR:   Logging unit location
 ENGI.            PERAKIS:   Recorded By
 WITN.           L. FIVAS:   Witnessed by
 ORIG.        2" 5" PRINT:   Origin of data
 UWI .     49025108900000:   Unique Well ID
 DICO. A2D TECHNIOLOGIES,INC.:   Digitizing Company
 RMC .OHMM           0.41:   Rmc
 MCST.F                79:   Rmc Meas. temp.
 MCSS.               CALC:   Source Rmc.
 TLAB.HRS            2000:   Time logger at bottom
~OTHER INFORMATION
~A  DEPTH     TEND       CALD       NPHI       CORR       RHOB        SPR       TENR        GRR        LLD        LLS       MSFL
# ...
 1514.0000   773.0923     9.8100     0.3356     0.0190     2.5447   -79.5123   766.9817   101.9600     8.4352     7.9997     9.6197
 1514.5000   773.1018     9.8100     0.3236     0.0131     2.5287   -79.7383   781.5401   101.0419     8.3235     8.0581     9.7584
 1515.0000   774.8093     9.8107     0.3044     0.0116     2.5250   -79.9943   781.1058    99.5504     8.1556     8.0613     9.6300
 1515.5000   777.5903     9.8171     0.2878     0.0124     2.5258   -80.2492   780.6597    98.6613     8.0469     7.9544     9.5032
 1516.0000   780.3538     9.8234     0.2800     0.0155     2.5295   -80.5031   780.1288    99.5794     7.9403     7.8497     9.1233
 1516.5000   783.1163     9.8298     0.2785     0.0207     2.5370   -80.7569   779.6947   102.0036     7.8886     7.7448     8.7510
 1517.0000   785.8787     9.8361     0.2845     0.0275     2.5415   -80.9418   779.3104   105.9338     7.8371     7.6429     8.4665
 1517.5000   788.6411     9.8424     0.3031     0.0305     2.5356   -81.0323   763.8336   108.4784     7.7860     7.6460     8.5897
 1518.0000   791.4034     9.8488     0.3151     0.0209     2.5266   -81.0621   763.3995   111.3882     7.7352     7.5958     8.6537
 1518.5000   794.1658     9.8551     0.3172     0.0113     2.5237   -80.8970   762.9652   112.0051     7.7384     7.5476     8.6583
 1519.0000   796.9283     9.8615     0.3123     0.0024     2.5238   -80.8075   762.5187   111.7148     7.6873     7.4931     8.6629
 1519.5000   799.6907     9.8679     0.3084    -0.0013     2.5246   -80.7187   746.9957   110.5281     7.6905     7.4505     8.6079
 1520.0000   802.4531     9.8700     0.3021     0.0002     2.5298   -80.7465   746.5616   108.7354     7.7002     7.4542     8.6722
 1520.5000   805.2159     9.8703     0.2967     0.0055     2.5388   -80.8092   746.1273   106.3403     7.8028     7.5604     8.7379
 1521.0000   807.9808     9.8684     0.2958     0.0132     2.5493   -80.8741   745.6931   106.3554     7.9134     7.6681     8.8638
 1521.5000   810.7450     9.8355     0.3003     0.0168     2.5484   -80.8338   745.2589   107.8790     8.1928     7.8309     9.0537
 1522.0000   813.2584     9.8031     0.3068     0.0191     2.5344   -80.7220   744.8246   110.3032     8.4240     7.9973     9.3760
 1522.5000   813.2530     9.7714     0.3131     0.0206     2.5248   -80.6090   744.3778   109.4141     8.6617     8.1672     9.6430
 1523.0000   813.2530     9.7495     0.3146     0.0363     2.5278   -80.4957   758.9488   105.8142     8.7243     8.3414     9.7820
 1523.5000   813.2530     9.7566     0.3107     0.0490     2.5509   -80.3833   758.4060   102.2142     8.7279     8.3448     9.8550
 1524.0000   813.2530     9.7654     0.3014     0.0588     2.5703   -80.3035   757.9717   101.6264     8.6116     8.2909     9.7937
 1524.5000   813.2530     9.7742     0.2957     0.0498     2.5750   -80.3297   757.5375   103.7530     8.4968     8.2366     9.7304
 1525.0000   813.2530     9.7831     0.2938     0.0363     2.5630   -80.3534   757.1033   105.8759     8.4407     8.1282     9.4722
 1525.5000   819.6411     9.7902     0.2971     0.0269     2.5478   -80.3771   756.6691   107.6977     8.2719     8.0204     9.0935
 1526.0000   826.0291     9.7900     0.3070     0.0277     2.5452   -80.4007   756.2219   109.5194     8.1057     7.7997     8.7300
 1526.5000   832.4172     9.7902     0.3151     0.0359     2.5534   -80.4244   755.6921   109.8315     7.9361     7.5981     8.4971
 1527.0000   832.5698     9.7835     0.3232     0.0464     2.5616   -80.4479   740.2654   108.0425     7.8911     7.6011     8.2058
 1527.5000   831.6903     9.7756     0.3244     0.0532     2.5691   -80.4711   754.9323   107.1335     7.9488     7.6041     7.8314
 1528.0000   830.7936     9.7654     0.3169     0.0599     2.5729   -80.4882   754.3894   107.4727     8.1171     7.7656     8.7497
 1528.5000   829.9020     9.7464     0.3072     0.0630     2.5714   -80.8875   753.9553   108.3909     8.2890     7.9306     8.9990
 1529.0000   829.0123     9.7273     0.3012     0.0571     2.5661   -80.9311   753.5210   108.7030     8.5229     8.0990     8.7579
 1529.5000   828.1225     9.7086     0.3036     0.0482     2.5573   -80.9588   768.0794   103.9019     8.6437     8.1583     8.4670
 1530.0000   827.2328     9.6891     0.3015     0.0415     2.5514   -80.9874   767.5366    95.4827     8.5880     8.1622     9.4586
 1530.5000   826.3430     9.6691     0.2976     0.0393     2.5552   -81.0165   767.1024    92.4851     8.4156     8.1655    10.5665
 1531.0000   825.4533     9.6529     0.2904     0.0580     2.5806   -81.0456   766.6682    95.3512     7.8053     7.9472     9.4700
 1531.5000   824.5635     9.7533     0.2858     0.0812     2.6097   -81.0744   766.2340   103.0600     7.4925     7.5769     8.3126
 1532.0000   823.6738     9.8611     0.2915     0.1051     2.6313   -81.1005   765.7997   106.6890     7.3920     7.2737     7.1968
 1532.5000   822.7841     9.9696     0.3062     0.1081     2.6209   -81.1114   765.3655   107.9083     7.3951     7.2259     7.0040
 1533.0000   821.8943    10.0095     0.3110     0.0619     2.5815   -81.1963   779.9238   108.8265     7.4486     7.2859     7.7183
 1533.5000   821.0046    10.0100     0.3017     0.0419     2.5472   -81.2846   779.3811   110.3470     7.5030     7.3839     8.1039
 1534.0000   820.1149    10.0034     0.2924     0.0233     2.5405   -81.2442   778.9468   110.3694     7.5055     7.4378     8.1082
 1534.5000   819.2251     9.9883     0.2820     0.0077     2.5316   -81.1740   793.6137   110.9789     7.4559     7.4407     8.0015
 1535.0000   818.3354     9.9733     0.2857     0.0033     2.5242   -81.0882   793.0709   111.5990     7.4073     7.4437     7.9508
 1535.5000   817.4457     9.9582     0.3106     0.0041     2.5205   -80.6874   792.6367   112.5172     7.4104     7.4467     7.9004
 1536.0000   816.5559     9.9432     0.3305     0.0124     2.5250   -80.2776   777.2099   108.9173     7.4128     7.3986     7.7975
 1536.5000   815.6662     9.9276     0.3355     0.0214     2.5319   -79.9048   776.7616   105.3173     7.3645     7.3509     7.6949
 1537.0000   814.7764     9.9111     0.3328     0.0281     2.5400   -79.8979   776.2330   104.1265     7.3165     7.2534     7.6461
 1537.5000   813.8867     9.8936     0.3292     0.0319     2.5423   -79.8996   790.8998   105.9488     7.2688     7.2066     7.5455
 1538.0000   812.9969     9.8900     0.3223     0.0356     2.5446   -79.8999   790.3570   111.0044     7.1725     7.1601     7.4977
 1538.5000   812.1072     9.8900     0.3205     0.0379     2.5483   -79.8995   789.9229   114.7164     7.1251     7.0658     7.3492
 1539.0000   811.2175     9.8896     0.3250     0.0402     2.5491   -79.8952   789.4886   115.3297     7.0792     6.9244     7.2027
 1539.5000   810.3278     9.8875     0.3264     0.0418     2.5484   -80.1059   804.0479   113.5407     7.1853     6.8325     7.0592
 1540.0000   809.4380     9.8854     0.3213     0.0426     2.5469   -80.3786   803.5982   112.0492     7.3322     6.8888     7.1118
 1540.5000   808.5483     9.8833     0.3243     0.0478     2.5478   -80.6528   803.0699   110.8589     7.5391     7.2252     7.2641
 1541.0000   807.6585     9.8812     0.3312     0.0546     2.5552   -80.9262   802.6357   109.3516     7.6987     7.5844     7.4756
 1541.5000   806.7688     9.8790     0.3339     0.0546     2.5582   -81.2024   802.2014   105.4699     7.8079     7.7989     7.9542
 1542.0000   805.8790     9.8769     0.3219     0.0443     2.5419   -81.2989   801.7673   100.6651     7.8643     7.8020     8.6443
 1542.5000   804.9893     9.8748     0.3056     0.0287     2.5307   -81.3000   801.3330    99.7724     7.8113     7.6458     8.3560
 1543.0000   804.0995     9.8727     0.3008     0.0175     2.5300   -81.3024   800.8987   101.8990     7.6567     7.3398     7.9669
 1543.5000   803.2098     9.8706     0.2984     0.0191     2.5375   -81.1230   800.4498   106.4316     7.5541     7.1371     7.7545
 1544.0000   802.3201     9.8685     0.3005     0.0376     2.5586   -80.8927   799.9219   106.4738     7.5048     6.9534     7.4959
