~VERSION INFORMATION
 VERS.                2.0:   CWLS LOG ASCII STANDARD - VERSION 2.0
 WRAP.                 NO:   ONE LINE PER DEPTH STEP
~WELL INFORMATION
#MNEM.UNIT      DATA TYPE    INFORMATION
#----------   ------------   ------------------------------
 STRT.F          200.0000:   START DEPTH
 STOP.F         3150.0000:   STOP DEPTH
 STEP.F            0.5000:   STEP LENGTH
 NULL.          -999.2500:   NO VALUE
 COMP.  FENIX AND SCISSON:   COMPANY
 WELL.  FENIX "AX" #88-10:   WELL
 FLD .              NPR 3:   FIELD
 LOC .      S10 T38N R78W:   LOCATION
 CNTY.            NATRONA:   COUNTY
 STAT.            WYOMING:   STATE
 CTRY. UNITED STATES OF AMERICA:   COUNTRY
 SRVC.              WELEX:   SERVICE COMPANY
 DATE.        13-JUN-1977:   LOGDATE
 API .     49025103780000:   API NUMBER
~CURVE INFORMATION
#MNEM.UNIT       API CODE    CURVE DESCRIPTION
#----------   ------------   ------------------------------
 DEPT.F                  :   
 CALD.IN     45 280 60 00:   CALIPER FROM DENSITY LOG
 GRD .GAPI   45 310 01 00:   GAMMA RAY FROM DENSITY LOG
 RHOB.G/C3   45 350 01 00:   BULK DENSITY
 CORR.G/C3   45 356 01 00:   DENSITY CORRECTION
 SPR .MV     07 010 01 00:   SPONTANEOUS POTENTIAL
 GURD.OHMM   07 220 05 00:   GUARD LOG RESISTIVITY
 ILD .OHMM   07 120 46 00:   INDUCTION LOG DEEP RESISTIVITY
 ILM .OHMM   07 120 44 00:   INDUCTION LOG MEDIUM RESISTIVITY
~PARAMETER INFORMATION
#MNEM.UNIT          VALUE    DESCRIPTION
#----------   ------------   ------------------------------
 EKB .F         5264.0000:   Kelly bushing
 EGL .F         5254.0000:   Ground level
 EDF .F            0.0000:   Drilling floor
 TD  .F         3160.0000:   Total depth
 DATE.        13-JUN-1977:   Date logged
 CLNT.            A2DTECH:   Client Code
 SL  . 430' FSL & 330' FEL:   Surface Location
 PD  .                 GL:   Permanent Datum
 EPD .F              5254:   Elevation Permanent Datum
 LMF .                 KB:   Log Measured From
 DMF .                 KB:   Drilling Measured From
 DAPD.F                10:   Feet Above Permanent Datum
 DD  .F              3160:   Depth driller
 DL  .F              3151:   Depth logger
 BLI .F              3149:   Bottom log interval
 CS1 .IN            8.625:   Casing size
 CBD1.      8.625" @ 208':   Casing driller 1
 BS1 .IN            7.875:   Bit size
 BSD1.F              3160:   Depth drilled with bit1
 DFT .            KCL MUD:   Type fluid in hole
 DFD .                9.1:   Density
 DFV .                 31:   Viscosity
 DFPH.                7.5:   pH
 DFL .                 20:   Fluid loss
 MSS .           FLOWLINE:   Source of sample
 RMS .OHMM            .90:   Rm
 MST .F                60:   Rm Meas. temp.
 RMF .OHMM            .53:   Rmf
 MFST.F                60:   Rmf Meas. temp.
 RMC .OHMM           1.47:   Rmc
 MCST.F                60:   Rmc Meas. temp.
 MFSS.               MEAS:   Source Rmf.
 MCSS.               MEAS:   Source Rmc.
 RMB .OHMM            .46:   Rm. at BHT
 BHT .F               116:   BHT.
 TCS .HRS               8:   Time Circ. stopped
 MRT .F               116:   Maximum recorded temp.
 LUN .               8611:   Logging unit number
 LUL .             CASPER:   Logging unit location
 ENGI.            C. DOAK:   Recorded By
 WITN.         D. RHOADES:   Witnessed by
 ORIG.           5" PRINT:   Origin of data
 UWI .     49025103780000:   Unique Well ID
 DICO. A2D TECHNOLOGIES, INC.:   Digitizing Company
~OTHER INFORMATION
~A   DEPT       CALD       GRD      RHOB       CORR        SPR       GURD        ILD        ILM   
# ...
 3116.0000     7.8983   113.0651     2.4689     0.0107   -51.5787     6.0108     4.0840     4.6871
 3116.5000     7.9176   112.2627     2.4599     0.0047   -51.5787     6.2902     4.0430     4.8158
 3117.0000     7.8971   111.8555     2.4549     0.0026   -51.5787     5.7877     4.0413     4.8577
 3117.5000     7.8970   111.4483     2.4539     0.0006   -51.5787     6.1127     4.0395     4.8556
 3118.0000     7.8763   111.0411     2.4529    -0.0015   -51.5787     6.5764     3.9994     4.8525
 3118.5000     7.8755   111.0292     2.4558    -0.0015   -51.5787     5.7257     3.9611     4.8499
 3119.0000     7.8751   112.2028     2.4608    -0.0016   -51.5787     6.1037     3.8506     4.8034
 3119.5000     7.8744   114.1645     2.4786     0.0004   -51.5787     6.4465     3.7783     4.6705
 3120.0000     7.8742   115.7382     2.4806     0.0023   -51.5787     6.0973     3.7085     4.5397
 3120.5000     7.8726   116.5166     2.4746     0.0062   -51.4444     5.3323     3.5815     4.2961
 3121.0000     7.8710   116.8999     2.4726     0.0102   -51.4020     4.9358     3.5085     4.1795
 3121.5000     7.8693   116.8879     2.4766     0.0141   -51.3714     4.8909     3.4768     4.0661
 3122.0000     7.8677   115.9062     2.4825     0.0140   -51.1702     4.8465     3.4136     4.0293
 3122.5000     7.8661   114.9245     2.4845     0.0120   -51.1659     5.4623     3.4459     4.0297
 3123.0000     7.8645   113.2951     2.4805     0.0119   -51.1630     5.1223     3.4146     4.0302
 3123.5000     7.8628   112.0975     2.4745     0.0119   -51.1594     4.9379     3.3839     4.0679
 3124.0000     7.8612   110.8999     2.4665     0.0109   -51.1558     4.7602     3.3531     4.1440
 3124.5000     7.8596   108.9119     2.4595     0.0100   -51.1537     5.5148     3.3537     4.2214
 3125.0000     7.8579   108.1095     2.4565     0.0090   -51.1486     5.4649     3.3541     4.2219
 3125.5000     7.8563   107.7024     2.4505     0.0076   -50.7498     5.2199     3.4484     4.0697
 3126.0000     7.8547   108.0856     2.4485     0.0056   -50.9438     5.1254     3.5454     3.9960
 3126.5000     7.8531   108.8640     2.4485     0.0056   -50.9416     5.0788     3.5785     4.0334
 3127.0000     7.8514   107.6665     2.4544     0.0036   -50.9381     5.0331     3.6121     4.1467
 3127.5000     7.8498   107.2593     2.4713     0.0035   -50.9337     4.8494     3.6796     4.3030
 3128.0000     7.8482   107.2473     2.4733     0.0035   -51.1271     5.5675     3.7831     4.4236
 3128.5000     7.8466   108.4210     2.4732     0.0059   -51.1249     7.4727     3.8537     4.7183
 3129.0000     7.8449   109.5922     2.4742     0.0083   -51.1206     6.4520     4.0357     5.0326
 3129.5000     7.8433   109.5827     2.4772     0.0107   -50.5241     5.9407     4.1111     5.0331
 3130.0000     7.8422   107.9899     2.4921     0.0131   -50.7196     5.9958     4.0741     5.0337
 3130.5000     7.8219   107.1875     2.4920     0.0111   -50.7153     6.1638     4.0743     5.0342
 3131.0000     7.8239   106.7803     2.4860     0.0091   -50.7117     6.3366     4.0747     5.0345
 3131.5000     7.8260   105.1875     2.4691     0.0090   -50.7074     6.3956     4.0753     4.8981
 3132.0000     7.8280   101.6187     2.4618     0.0075   -50.7038     6.3962     4.0384     4.7654
 3132.5000     7.8300     2.0031     2.4501     0.0060   -50.7009     5.4223     4.0019     4.5101
 3133.0000     7.8320  -999.2500     2.4442     0.0045   -50.6966     5.2759     3.7529     4.3878
 3133.5000     7.8340  -999.2500     2.4382     0.0028   -50.6944     5.2760     3.7190     4.3481
 3134.0000     7.8361  -999.2500     2.4362     0.0047   -50.6894     5.2765     3.6517     4.2694
 3134.5000     7.8381  -999.2500     2.4312     0.0067   -50.6872     5.4245     3.5856     4.2697
 3135.0000     7.8401  -999.2500     2.4391     0.0106   -50.6829     5.0410     3.5532     4.2703
 3135.5000     7.8421  -999.2500     2.4510     0.0185   -50.6793     4.9499     3.5212     4.2706
 3136.0000     7.8441  -999.2500     2.4579     0.0224   -50.6764     5.3274     3.4576     4.4315
 3136.5000     7.8462  -999.2500     2.4470     0.0383   -50.6729     5.7337     3.4264     4.3933
 3137.0000     7.8482  -999.2500     2.4370     0.0343   -50.4709     5.5275     3.3955     4.0804
 3137.5000     7.8502  -999.2500     2.4188     0.0218   -49.8744     4.9975     3.3959     4.1184
 3138.0000     7.8524  -999.2500     2.3892     0.0093   -49.8717     5.1374     3.3963     4.5153
 3138.5000     7.8520  -999.2500     2.4194    -0.0017   -49.0790     5.7357     3.6225     4.8157
 3139.0000     7.8497  -999.2500     2.4429    -0.0038   -47.8903     5.8962     3.7239     4.9508
 3139.5000     7.8261  -999.2500     2.4469    -0.0009   -41.9978     5.9509     3.9716     5.0430
 3140.0000     7.8243  -999.2500     2.4605     0.0020   -37.2074     5.8434     4.4759     5.0436
 3140.5000     7.8225  -999.2500     2.4766     0.0049   -25.9411     5.5821     4.7300     5.0442
 3141.0000     7.8207  -999.2500     2.4786     0.0078   -10.7191     5.6339     4.8626     5.1381
 3141.5000     7.8188  -999.2500     2.4796     0.0107    -1.8231     5.8987     4.9080     5.2338
 3142.0000     7.8170  -999.2500     2.4805     0.0136    -1.2266     5.9534     4.9537     5.2825
 3142.5000     7.8152  -999.2500     2.4815     0.0165    -1.2223     5.0950     4.9542     5.1869
 3143.0000     7.8134  -999.2500     2.4815     0.0197    -1.2201     5.0027     4.9545     5.1874
 3143.5000     7.8116  -999.2500     2.4804     0.0176    -1.2173     4.7793  -999.2500     5.0938
 3144.0000     7.8098  -999.2500     2.4745     0.0176    -1.2130     4.6930  -999.2500  -999.2500
 3144.5000     7.8079  -999.2500     2.4685     0.0175    -1.0110  -999.2500  -999.2500  -999.2500
 3145.0000     7.8061  -999.2500     2.4605     0.0135    -1.0070  -999.2500  -999.2500  -999.2500
 3145.5000     7.8043  -999.2500     2.4495     0.0075    -1.2015  -999.2500  -999.2500  -999.2500
 3146.0000     7.8025  -999.2500     2.4465     0.0054    -1.3955  -999.2500  -999.2500  -999.2500
 3146.5000     7.8007  -999.2500     2.4445     0.0054    -1.7872  -999.2500  -999.2500  -999.2500
 3147.0000     7.7989  -999.2500     2.4415     0.0053    -1.7836  -999.2500  -999.2500  -999.2500
 3147.5000     7.7970  -999.2500     2.4395     0.0112    -1.7807  -999.2500  -999.2500  -999.2500
 3148.0000     7.7952  -999.2500     2.4345     0.0171    -2.7646  -999.2500  -999.2500  -999.2500
 3148.5000     7.7934  -999.2500     2.4265     0.0250  -999.2500  -999.2500  -999.2500  -999.2500
 3149.0000     7.7916  -999.2500     2.4176     0.0329  -999.2500  -999.2500  -999.2500  -999.2500
 3149.5000  -999.2500  -999.2500     2.4046     0.0369  -999.2500  -999.2500  -999.2500  -999.2500
 3150.0000  -999.2500  -999.2500     2.3996  -999.2500  -999.2500  -999.2500  -999.2500  -999.2500
