~VERSION INFORMATION
 VERS.                2.0:   CWLS LOG ASCII STANDARD - VERSION 2.0
 WRAP.                 NO:   ONE LINE PER DEPTH STEP
~WELL INFORMATION
#MNEM.UNIT      DATA TYPE    INFORMATION
#----------   ------------   ------------------------------
 STRT.F          200.0000:   START DEPTH
 STOP.F         3248.0000:   STOP DEPTH
 STEP.F            0.5000:   STEP LENGTH
 NULL.          -999.2500:   NO VALUE
 COMP.    FENIX & SCISSON:   COMPANY
 WELL.   FENIX "AX" #28-3:   WELL
 FLD .              NPR-3:   FIELD
 LOC .       S3 T38N R78W:   LOCATION
 CNTY.            NATRONA:   COUNTY
 STAT.            WYOMING:   STATE
 CTRY. UNITED STATES OF AMERICA:   COUNTRY
 SRVC.              WELEX:   SERVICE COMPANY
 DATE.        30-JUN-1977:   LOGDATE
 API .     49025104200000:   API NUMBER
~CURVE INFORMATION
#MNEM.UNIT       API CODE    CURVE DESCRIPTION
#----------   ------------   ------------------------------
 DEPT.F                  :   
 CALD.IN     45 280 60 00:   CALIPER FROM DENSITY LOG
 GRD .GAPI   45 310 01 00:   GAMMA RAY FROM DENSITY LOG
 RHOB.G/C3   45 350 01 00:   BULK DENSITY
 CORR.G/C3   45 356 01 00:   DENSITY CORRECTION
 SPR .MV     07 010 01 00:   SPONTANEOUS POTENTIAL
 ILD .OHMM   07 120 46 00:   DEEP INDUCTION RESISTIVITY
 ILM .OHMM   07 120 44 00:   INDUCTION LOG MEDIUM RESISTIVITY
 SGRD.OHMM   07 220 05 00:   SHALLOW SHORT GUARD RESISTIVITY
~PARAMETER INFORMATION
#MNEM.UNIT          VALUE    DESCRIPTION
#----------   ------------   ------------------------------
 EKB .F         4969.0000:   Kelly bushing
 EGL .F         4959.0000:   Ground level
 TD  .F         3250.0000:   Total depth
 CLNT.            A2DTECH:   Client Code
 SL  . 500' FSL & 800' FWL:   Surface Location
 PD  .                 GL:   Permanent Datum
 EPD .F              4959:   Elevation Permanent Datum
 LMF .                 KB:   Log Measured From
 DMF .                 KB:   Drilling Measured From
 DAPD.F                10:   Feet Above Permanent Datum
 DATE.        30-JUN-1977:   Date Logged [DD-MMM-YYYY]
 DD  .F              3250:   Depth driller
 DL  .F              3250:   Depth logger
 BLI .F              3248:   Bottom log interval
 TLI .F               200:   Top log interval
 CS1 .IN            8.625:   Casing size
 CBD1.      8.625" @ 217':   Casing driller 1
 CBL1.F               225:   Casing logger 1
 BS1 .IN            7.875:   Bit size
 BSD1.F              3250:   Depth drilled with bit1
 DFT .                KCL:   Type fluid in hole
 DFD .                8.9:   Density
 RMS .OHMM           1.76:   Rm
 MST .F                63:   Rm Meas. temp.
 TCS .HRS             2.5:   Time Circ. stopped
 MRT .F                68:   Maximum recorded temp.
 LUN .               8611:   Logging unit number
 ENGI.         G. BENTSEN:   Recorded By
 WITN.         PETTINGILL:   Witnessed by
 ORIG.         2.5" PRINT:   Origin of data
 UWI .     49025104200000:   Unique Well ID
 DICO. A2D TECHNOLOGIES, INC.:   Digitizing Company
 DFV .                 30:   Viscosity
 DFPH.                  7:   pH
 DFL .                 10:   Fluid loss
 MSS .                PIT:   Source of sample
 RMF .OHMM           1.09:   Rmf
 MFST.F                68:   Rmf Meas. temp.
 MFSS.               MEAS:   Source Rmf.
 RMC .OHMM           2.01:   Rmc
 MCST.F                68:   Rmc Meas. temp.
 MCSS.               MEAS:   Source Rmc.
 RMB .OHMM           1.01:   Rm. at BHT
 BHT .F               118:   BHT.
 LUL .             CASPER:   Logging unit location
~OTHER INFORMATION
~A   DEPT       CALD       GRD        RHOB      CORR       SPR        ILD        ILM       SGRD   
# ...
 1010.0000     8.5205   103.4931     2.5340     0.0245   -49.2625     8.3885     9.4915    10.2319
 1010.5000     8.5193   102.2823     2.5241     0.0229   -49.2625     8.3896     9.4928    10.1841
 1011.0000     8.5181    99.2644     2.5179     0.0213   -49.2625     8.3908     9.4941    10.0939
 1011.5000     8.5170    98.0536     2.5090     0.0213   -49.5575     8.3919     9.4954    10.0947
 1012.0000     8.5158    99.8549     2.5054     0.0217   -49.5575     8.3931     9.4812    10.0954
 1012.5000     8.5146   102.8611     2.5033     0.0228   -49.5575     8.3942     9.3472    10.0961
 1013.0000     8.5135   104.6624     2.5064     0.0227   -49.8525     8.3956     9.2419    10.0157
 1013.5000     8.5120   107.0661     2.5148     0.0227   -49.8525     8.3967     9.2766     9.9601
 1014.0000     8.5109   108.2650     2.5259     0.0226   -49.8525     8.3978     9.3724     9.9609
 1014.5000     8.5098   108.2501     2.5343     0.0226   -49.8525     8.3990     9.3737     9.9615
 1015.0000     8.5086   107.0482     2.5413     0.0233   -49.8525     8.4001     9.2469     9.9622
 1015.5000     8.5075   107.0422     2.5430     0.0244   -49.8525     8.4012     9.4341     9.9629
 1016.0000     8.5063   107.7108     2.5344     0.0247   -49.8525     8.4023     9.5071     9.9635
 1016.5000     8.5052   108.2354     2.5323     0.0251   -49.8525     8.4035     9.4384     9.9642
 1017.0000     8.5040   108.2289     2.5417     0.0255   -49.8525     8.4046     9.3051    10.1024
 1017.5000     8.5029   106.7469     2.5520     0.0258   -49.5575     8.4058     9.2535    10.1031
 1018.0000     8.5018   104.4457     2.5643     0.0289   -49.5043     8.4069     9.5126    10.1037
 1018.5000     8.5006   103.2138     2.5704     0.0319   -49.5028     8.4081    10.0508    10.1044
 1019.0000     8.4994   101.7832     2.5734     0.0330   -49.5014     8.3825    10.6195     9.9675
 1019.5000     8.4982   100.5302     2.5535     0.0308   -49.5000     8.2956    11.0674     9.9683
 1020.0000     8.4971    98.5542     2.5458     0.0292   -49.4985     8.2969    11.6936     9.9689
 1020.5000     8.4959    96.4790     2.5442     0.0276   -49.5118     8.2980    12.1868    10.1072
 1021.0000     8.4947    94.9277     2.5350     0.0260   -49.7906     8.2501    12.3569    10.1079
 1021.5000     8.4936    95.8284     2.5227     0.0251   -49.7891     8.1871    12.1868    10.2481
 1022.0000     8.4924    96.4458     2.5212     0.0243   -50.0827     8.1882    11.0589    10.2488
 1022.5000     8.4912    98.0121     2.5212     0.0227   -50.0811     8.1894    10.4703    10.3214
 1023.0000     8.4901    99.1193     2.5211     0.0219   -50.3748     8.1907    10.0429    10.3917
 1023.5000     8.5043    98.5110     2.5196     0.0213   -50.3732     8.1918     9.7918    10.3925
 1024.0000     8.5170    97.3003     2.5150     0.0190   -50.6670     8.1929     9.4968    10.3932
 1024.5000     8.5156    96.0895     2.5104     0.0168   -50.6652     8.1940     9.2351    10.2524
 1025.0000     8.5144    95.4812     2.5057     0.0141   -50.6637     8.1951     9.0213    10.2531
 1025.5000     8.5133    96.0783     2.5027     0.0141   -50.6622     8.1962     9.0227    10.2538
 1026.0000     8.5121    98.4814     2.5089     0.0141   -50.6605     8.1973     9.0239    10.3960
 1026.5000     8.5110   100.2827     2.5118     0.0156   -50.6590     8.1984     9.0252    10.3967
 1027.0000     8.5099   101.4816     2.5135     0.0155   -50.3626     8.0877     9.0264    10.2558
 1027.5000     8.5087   102.0783     2.5183     0.0170   -50.3612     8.0888     8.9579    10.2565
 1028.0000     8.5076   102.6747     2.5232     0.0185   -50.3597     8.0899     8.7846    10.2572
 1028.5000     8.5064   102.0662     2.5270     0.0185   -50.0633     8.0910     8.7858    10.2579
 1029.0000     8.5053   100.8554     2.5304     0.0215   -50.0619     8.0922     8.7870    10.2586
 1029.5000     8.5041   100.2470     2.5342     0.0214   -50.0604     8.0933     8.6684    10.2593
 1030.0000     8.5029   100.8437     2.5443     0.0229   -49.7640     8.0944     8.7894    10.2274
 1030.5000     8.5018   102.1233     2.5539     0.0244   -49.7625     8.0955     8.7905     9.9832
 1031.0000     8.5006   103.2415     2.5580     0.0244   -49.4661     8.0966     8.9132     9.8480
 1031.5000     8.4994   103.9607     2.5626     0.0244   -49.4646     8.0977     9.0376     9.8488
 1032.0000     8.4982   104.4344     2.5678     0.0258   -49.4631     8.0988     9.0388     9.8494
 1032.5000     8.4971   104.5935     2.5697     0.0273   -49.4617     7.9895     9.0401     9.8501
 1033.0000     8.4959   105.0250     2.5677     0.0273   -49.4602     7.9908     9.0315     9.8508
 1033.5000     8.4947   104.4157     2.5622     0.0274   -49.4587     7.9919     8.7976     9.8515
 1034.0000     8.4936   104.4096     2.5559     0.0272   -49.4572     7.9929     8.7989     9.8523
 1034.5000     8.4924   104.4036     2.5535     0.0272   -49.7507     7.9940     8.8268     9.7188
 1035.0000     8.4910   104.3976     2.5504     0.0265   -49.7493     7.9951     8.9229     9.7194
 1035.5000     8.4899   105.2860     2.5434     0.0237   -49.7478     7.9962     8.9242     9.7201
 1036.0000     8.4889   105.5904     2.5217     0.0209   -49.7463     7.9972     8.8035     9.7207
 1036.5000     8.4876   105.9186     2.5098     0.0205   -49.7446     7.9983     8.8049     9.7214
 1037.0000     8.4864   107.7411     2.5052     0.0163   -49.4482     7.9994     8.8613     9.7220
 1037.5000     8.4853   109.7880     2.5021     0.0157   -49.4467     8.0005     8.9908     9.7227
 1038.0000     8.4841   110.3855     2.5021     0.0162   -49.4453     8.1122     9.0537     9.7233
 1038.5000     8.4830   109.1738     2.5045     0.0162   -49.4438     8.1133     8.9318     9.7240
 1039.0000     8.4819   108.5655     2.5063     0.0177   -49.4424     8.1144     8.8110     9.7386
 1039.5000     8.5100   109.7644     2.5083     0.0176   -49.4410     8.1155     8.8124     9.8596
 1040.0000     8.5088   110.3615     2.5133     0.0176   -49.4395     8.1166     8.8136     9.8602
 1040.5000     8.5076   110.3549     2.5044     0.0175   -49.4381     8.0753     8.8147     9.8609
 1041.0000     8.5064   109.1442     2.5120     0.0175   -49.4366     8.0082     8.9378     9.8616
 1041.5000     8.5053   107.9335     2.5030     0.0175   -49.4351     8.0093     9.0625     9.8623
 1042.0000     8.5041   106.7227     2.5051     0.0174   -49.4336     8.1211     9.0637     9.8629
 1042.5000     8.5029   106.1144     2.5124     0.0174   -49.4322     8.1222     9.1902     9.8636
 1043.0000     8.5018   105.5060     2.5102     0.0158   -49.4307     8.1235     9.1915     9.8643
 1043.5000     8.5006   104.8706     2.5117     0.0158   -49.4292     8.2369     9.3198     9.8650
 1044.0000     8.4994   104.2892     2.5013     0.0142   -49.4277     8.2380     9.3211     9.9455
 1044.5000     8.4982   103.6807     2.4924     0.0142   -49.4263     8.2391     9.3223    10.2806
 1045.0000     8.4971   104.2775     2.4880     0.0141   -49.4248     8.4696     9.3494    10.5670
 1045.5000     8.4959   104.8740     2.4806     0.0141   -49.4233     8.7065     9.4860    10.8614
 1046.0000     8.5238   104.1327     2.4805     0.0156   -49.4215     8.8280     9.8525    10.8621
 1046.5000     8.5226   102.5930     2.4835     0.0156   -49.4201     9.0749     9.9901    10.8628
 1047.0000     8.5215   100.6385     2.4864     0.0155   -49.4187     9.2016     9.9915    11.0135
 1047.5000     8.5496    99.8342     2.5012     0.0170   -49.4172     9.3300     9.9928    10.8643
 1048.0000     8.5484    99.4217     2.5027     0.0200   -49.4158     9.3313    10.0605    10.8650
 1048.5000     8.5765   100.2560     2.5027     0.0200   -49.1194     9.3562    10.1337    11.0157
 1049.0000     8.5754   101.4759     2.5073     0.0215   -49.1179     9.4629    10.1351    11.1685
 1049.5000     8.5742   102.0934     2.5150     0.0230   -48.8215     9.4642    10.2769    11.1693
 1050.0000     8.5731   103.3132     2.5226     0.0229   -48.5251     9.4655    10.2782    11.1700
