~VERSION INFORMATION
 VERS.                2.0:   CWLS LOG ASCII STANDARD - VERSION 2.0
 WRAP.                 NO:   ONE LINE PER DEPTH STEP
~WELL INFORMATION
#MNEM.UNIT      DATA TYPE    INFORMATION
#----------   ------------   ------------------------------
 STRT.F          196.5000:   START DEPTH
 STOP.F         2376.0000:   STOP DEPTH
 STEP.F            0.5000:   STEP LENGTH
 NULL.          -999.2500:   NO VALUE
 COMP.    FENIX & SCISSON:   COMPANY
 WELL. FENIX & SCISSON NPR-3 #55-10:   WELL
 FLD .  TEAPOT DOME NPR-3:   FIELD
 LOC .      S10 T38N R78W:   LOCATION
 CNTY.            NATRONA:   COUNTY
 STAT.            WYOMING:   STATE
 CTRY. UNITED STATES OF AMERICA:   COUNTRY
 SRVC.           BIRDWELL:   SERVICE COMPANY
 DATE.        09-MAY-1979:   LOGDATE
 API .     49025107780000:   API NUMBER
~CURVE INFORMATION
#MNEM.UNIT       API CODE    CURVE DESCRIPTION
#----------   ------------   ------------------------------
 DEPT.F                  :   
 CALD.IN     45 280 60 00:   CALIPER FROM DENSITY LOG
 GRD .GAPI   45 310 01 00:   GAMMA RAY FROM DENSITY LOG
 RHOB.G/C3   45 350 01 00:   BULK DENSITY
 CORR.G/C3   45 356 01 00:   DENSITY CORRECTION
~PARAMETER INFORMATION
#MNEM.UNIT          VALUE    DESCRIPTION
#----------   ------------   ------------------------------
 EKB .F         5203.0000:   Kelly bushing
 EGL .F         5193.0000:   Ground level
 EDF .F            0.0000:   Drilling floor
 TD  .F         2376.0000:   Total depth
 CLNT.            A2DTECH:   Client Code
 SL  . 2283' FSL & 2107' FEL:   Surface Location
 PD  .                 GL:   Permanent Datum
 EPD .F              5193:   Elevation Permanent Datum
 LMF .                 KB:   Log Measured From
 DMF .                 KB:   Drilling Measured From
 DAPD.F                10:   Feet Above Permanent Datum
 DATE.        09-MAY-1979:   Date Logged [DD-MMM-YYYY]
 DD  .F              2360:   Depth driller
 DL  .F              2376:   Depth logger
 BLI .F              2376:   Bottom log interval
 TLI .F               196:   Top log interval
 CS1 .IN            9.625:   Casing size
 CBD1.             9.625":   Casing driller 1
 CBL1.F               545:   Casing logger 1
 BS1 .IN             8.75:   Bit size
 BSD1.F              2360:   Depth drilled with bit1
 DFT .                AIR:   Type fluid in hole
 TCS .HRS               3:   Time Circ. stopped
 LUN .               2959:   Logging unit number
 LUL .             CASPER:   Logging unit location
 ENGI.         B. ROLLINS:   Recorded By
 WITN.             RHODES:   Witnessed by
 ORIG.           5" PRINT:   Origin of data
 UWI .     49025107780000:   Unique Well ID
 DICO. A2D TECHNIOLOGIES,INC.:   Digitizing Company
~OTHER INFORMATION
~A  DEPTH     CALD        GRD       RHOB       CORR
# ...
  707.5000     9.4479   117.3302     2.5638     0.1572
  708.0000     9.4333   115.8411     2.5646     0.1768
  708.5000     9.4185   115.7118     2.5676     0.1965
  709.0000     9.4191   118.5795     2.5586     0.1844
  709.5000     9.4195   121.5976     2.5473     0.1645
  710.0000     9.4048   124.1631     2.5353     0.1403
  710.5000     9.3902   125.8238     2.5217     0.1138
  711.0000     9.3906   124.1661     2.5073     0.0777
  711.5000     9.3911   123.5081     2.4900     0.0642
  712.0000     9.3887   121.2187     2.4915     0.0567
  712.5000     9.3618   119.9093     2.4932     0.0523
  713.0000     9.3623   119.7644     2.4901     0.0508
  713.5000     9.3477   120.6767     2.4910     0.0614
  714.0000     9.3329   123.3976     2.5039     0.0675
  714.5000     9.3334   125.9676     2.5108     0.0585
  715.0000     9.3339   125.6719     2.5084     0.0496
  715.5000     9.3343   124.1695     2.4988     0.0404
  716.0000     9.3650   124.0231     2.4875     0.0316
  716.5000     9.3956   126.5946     2.4762     0.0211
  717.0000     9.4112   129.6171     2.4573     0.0136
  717.5000     9.4268   130.4223     2.4695     0.0061
  718.0000     9.4423   125.8583     2.4839     0.0154
  718.5000     9.4579   122.7983     2.4969     0.0337
  719.0000     9.4583   120.1026     2.5007     0.0457
  719.5000     9.4588   119.5412     2.4962     0.0591
  720.0000     9.4593   123.1685     2.5091     0.0667
  720.5000     9.4598   124.8336     2.5274     0.0653
  721.0000     9.4753   124.0853     2.5184     0.0654
  721.5000     9.4757   122.8846     2.5055     0.0745
  722.0000     9.4913   122.4366     2.5018     0.0881
  722.5000     9.4614   122.2917     2.5247     0.1062
  723.0000     9.4620   123.2041     2.5423     0.1349
  723.5000     9.4321   122.6067     2.5579     0.1546
  724.0000     9.4327   117.6352     2.5725     0.1682
  724.5000     9.4028   119.3003     2.5597     0.1607
  725.0000     9.4033   122.4736     2.5143     0.0930
  725.5000     9.4038   126.4122     2.4681     0.0463
  726.0000     9.4042   124.9391     2.4401     0.0162
  726.5000     9.4349   123.9997     2.4516     0.0057
  727.0000     9.4656   125.9679     2.4728     0.0043
  727.5000     9.4834   128.3871     2.4880     0.0186
  728.0000     9.4968   130.8063     2.5025     0.0464
  728.5000     9.4821   130.3597     2.5086     0.0798
  729.0000     9.4523   128.7065     2.5056     0.1040
  729.5000     9.4226   126.9025     2.5171     0.1387
  730.0000     9.4078   125.0984     2.5368     0.1720
  730.5000     9.4084   123.2944     2.5513     0.1796
  731.0000     9.4088   124.2053     2.5406     0.1796
  731.5000     9.4093   126.9262     2.5252     0.1782
  732.0000     9.4248   130.8736     2.5113     0.1632
  732.5000     9.4404   132.9712     2.4909     0.1150
  733.0000     9.4408   132.3738     2.4720     0.0894
  733.5000     9.4412   134.6436     2.4622     0.0744
  734.0000     9.4417   135.8562     2.4684     0.0609
  734.5000     9.4421   132.2422     2.4684     0.0534
  735.0000     9.4426   132.8515     2.4677     0.0474
  735.5000     9.4431   134.2149     2.4670     0.0491
  736.0000     9.4436   129.9976     2.4686     0.0600
  736.5000     9.4440   125.6294     2.4891     0.0739
  737.0000     9.4293   124.7289     2.5202     0.0974
  737.5000     9.4298   125.0380     2.5339     0.1096
  738.0000     9.4303   123.8372     2.5105     0.0930
  738.5000     9.4307   120.8266     2.4636     0.0433
  739.0000     9.4312   121.9125     2.3840    -0.0079
  739.5000     9.4467   124.3651     2.3963    -0.0259
  740.0000     9.4472   126.8790     2.4364     0.0013
  740.5000     9.4778   126.7326     2.4706     0.0180
  741.0000     9.4783   126.5877     2.4889     0.0271
  741.5000     9.4636   126.4428     2.4957     0.0316
  742.0000     9.4489   127.6569     2.4822     0.0227
  742.5000     9.4192   128.7186     2.4701     0.0091
  743.0000     9.4196   128.8739     2.4618     0.0017
  743.5000     9.4201   128.2780     2.4695     0.0108
  744.0000     9.4054   127.6806     2.4839     0.0199
  744.5000     9.4211   127.9881     2.4900     0.0230
  745.0000     9.4215   128.8995     2.4689     0.0183
  745.5000     9.4220   131.9220     2.4629     0.0123
  746.0000     9.4224   134.3413     2.4690     0.0051
  746.5000     9.4229   136.0063     2.4819     0.0036
  747.0000     9.4384   138.5763     2.4918     0.0097
  747.5000     9.4540   140.2414     2.5003     0.0248
  748.0000     9.4544   137.0499     2.4963     0.0445
  748.5000     9.4700   133.3977     2.4698     0.0476
  749.0000     9.4704   125.1777     2.4630     0.0446
  749.5000     9.4709   124.5788     2.4743     0.0537
  750.0000     9.4864   126.9995     2.5694     0.0854
  750.5000     9.4869   128.2120     2.6592     0.1352
  751.0000     9.4873   126.9002     2.6756     0.2845
  751.5000     9.4879   120.2304     2.6811     0.3148
  752.0000     9.4732   115.5591     2.6026     0.3404
  752.5000     9.4585   117.2257     2.5506     0.3345
  753.0000     9.4590   119.6449     2.5460     0.2742
  753.5000     9.4594   121.7624     2.5460     0.2245
  754.0000     9.4599   119.2170     2.5174     0.1794
  754.5000     9.4603   118.1668     2.4940     0.1508
  755.0000     9.4608   118.4766     2.4909     0.1222
  755.5000     9.4612   118.6349     2.4964     0.0997
  756.0000     9.4464   117.7053     2.4985     0.0952
  756.5000     9.4319   115.8042     2.4826     0.0937
  757.0000     9.4323   109.7583     2.4713     0.0859
  757.5000     9.4328   110.9743     2.4683     0.0647
  758.0000     9.4179   113.3951     2.4718     0.0562
  758.5000     9.4035   115.6650     2.4774     0.0533
  759.0000     9.4039   118.6890     2.4757     0.0518
  759.5000     9.4045   116.2832     2.4645     0.0504
  760.0000     9.3747   114.4808     2.4502     0.0399
  760.5000     9.3752   115.5706     2.4426     0.0234
  761.0000     9.3689   118.5681     2.4381     0.0129
  761.5000     9.3694   118.8754     2.4434     0.0084
  762.0000     9.3699   115.7173     2.4502     0.0055
  762.5000     9.3703   115.2704     2.4600     0.0040
  763.0000     9.3859   114.9762     2.4660     0.0041
  763.5000     9.4316   117.7005     2.4683     0.0072
  764.0000     9.4622   120.2721     2.4721     0.0072
  764.5000     9.5079   122.5420     2.4796     0.0103
  765.0000     9.5234   123.1509     2.4940     0.0149
  765.5000     9.5540   121.9517     2.4977     0.0214
  766.0000     9.5695   124.3744     2.5189     0.0391
  766.5000     9.5248   126.0410     2.5377     0.0814
  767.0000     9.5101   124.9926     2.5528     0.1086
  767.5000     9.4654   122.2852     2.5717     0.1252
  768.0000     9.4506   123.6501     2.5626     0.1723
  768.5000     9.4360   125.0258     2.5581     0.1905
  769.0000     9.4366   126.6908     2.5581     0.2010
  769.5000     9.4218   126.8399     2.5604     0.2069
  770.0000     9.4224   125.5403     2.5619     0.2115
  770.5000     9.4379   122.9346     2.5574     0.2206
  771.0000     9.4384   124.1487     2.5234     0.1739
  771.5000     9.4388   124.4578     2.4992     0.1423
  772.0000     9.4392   123.5603     2.4864     0.1213
  772.5000     9.4397   121.7578     2.4842     0.1062
  773.0000     9.4401   120.7095     2.4830     0.0912
  773.5000     9.4406   120.1136     2.4494     0.0672
  774.0000     9.4410   119.5178     2.4298     0.0446
  774.5000     9.4415   119.3726     2.4268     0.0251
  775.0000     9.4419   121.7952     2.4291     0.0085
  775.5000     9.4273   123.7634     2.4411     0.0069
  776.0000     9.4127   123.6201     2.4547     0.0177
  776.5000     9.4110   121.2143     2.4555     0.0283
  777.0000     9.3985   120.6184     2.4570     0.0376
  777.5000     9.3838   120.4751     2.4592     0.0497
  778.0000     9.3844   120.6415     2.4766     0.0451
  778.5000     9.3848   121.4224     2.4804     0.0376
  779.0000     9.3853   122.9683     2.4660     0.0327
  779.5000     9.3857   124.4265     2.4668     0.0242
  780.0000     9.4013   121.1176     2.4675     0.0182
