~VERSION INFORMATION
 VERS.                2.0:   CWLS LOG ASCII STANDARD - VERSION 2.0
 WRAP.                 NO:   ONE LINE PER DEPTH STEP
~WELL INFORMATION
#MNEM.UNIT      DATA TYPE    INFORMATION
#----------   ------------   ------------------------------
 STRT.F          216.0000:   START DEPTH
 STOP.F         3184.0000:   STOP DEPTH
 STEP.F            0.5000:   STEP LENGTH
 NULL.          -999.2500:   NO VALUE
 COMP.    FENIX & SCISSON:   COMPANY
 WELL. FENIX & SCISSON INCNRP "A" #311-14:   WELL
 FLD .                NPR:   FIELD
 LOC .      S14 T38N R78W:   LOCATION
 CNTY.            NATRONA:   COUNTY
 STAT.            WYOMING:   STATE
 CTRY. UNITED STATES OF AMERICA:   COUNTRY
 SRVC.              WELEX:   SERVICE COMPANY
 DATE.        22-JUN-1977:   LOGDATE
 API .     49025103810000:   API NUMBER
~CURVE INFORMATION
#MNEM.UNIT       API CODE    CURVE DESCRIPTION
#----------   ------------   ------------------------------
 DEPT.F                  :   
 CALD.IN     45 280 60 00:   CALIPER FROM DENSITY LOG
 GRD .GAPI   45 310 01 00:   GAMMA RAY FROM DENSITY LOG
 DPHI.DEC    45 890 12 00:   DENSITY POROSITY SANDSTONE
 RHOB.G/C3   45 350 01 00:   BULK DENSITY
 CORR.G/C3   45 356 01 00:   DENSITY CORRECTION
 SPR .MV     07 010 01 00:   SPONTANEOUS POTENTIAL
 SFLU.OHMM   07 220 01 00:   SPHERICALLY FOCUSED LOG UNAVERAGED RESISTIVITY
 ILD .OHMM   07 120 46 00:   DEEP INDUCTION RESISTIVITY
 ILM .OHMM   07 120 44 00:   INDUCTION LOG MEDIUM RESISTIVITY
~PARAMETER INFORMATION
#MNEM.UNIT          VALUE    DESCRIPTION
#----------   ------------   ------------------------------
 EKB .F         5225.0000:   Kelly bushing
 EGL .F         5215.0000:   Ground level
 TD  .F         3183.0000:   Total depth
 DATE.        22-JUN-1977:   Date logged
 CLNT.            A2DTECH:   Client Code
 CTRY.                USA:   Country
 SL  . 330' FNL & 330' FWL:   Surface Location
 PD  .                 GL:   Permanent Datum
 EPD .F              5215:   Elevation Permanent Datum
 LMF .                 KB:   Log Measured From
 DMF .                 KB:   Drilling Measured From
 DAPD.F                10:   Feet Above Permanent Datum
 DD  .F              3178:   Depth driller
 DL  .F              3183:   Depth logger
 BLI .F              3181:   Bottom log interval
 TLI .F                20:   Top log interval
 CS1 .IN            8.625:   Casing size
 CBD1.      8.625" @ 217':   Casing driller 1
 BS1 .IN            7.875:   Bit size
 BSD1.F              3178:   Depth drilled with bit1
 DFT .            KCL MUD:   Type fluid in hole
 DFD .                9.5:   Density
 DFV .                 40:   Viscosity
 DFPH.                7.5:   pH
 DFL .               13.6:   Fluid loss
 MSS .           FLOWLINE:   Source of sample
 RMS .OHMM            .36:   Rm
 MST .F                80:   Rm Meas. temp.
 RMF .OHMM            .30:   Rmf
 MFST.F                80:   Rmf Meas. temp.
 RMC .OHMM            .86:   Rmc
 MCST.F                80:   Rmc Meas. temp.
 MFSS.               FANN:   Source Rmf.
 MCSS.                KIT:   Source Rmc.
 RMB .OHMM            .25:   Rm. at BHT
 BHT .F               114:   BHT.
 TCS .HRS             2.5:   Time Circ. stopped
 MRT .F               114:   Maximum recorded temp.
 LUN .               8766:   Logging unit number
 LUL .             CASPER:   Logging unit location
 ENGI.          T. TOYNER:   Recorded By
 WITN.      B. HARRINGTON:   Witnessed by
 PWI .                  -:   Primary Well Identifier
 ORIG.           5" PRINT:   Origin of data
 UWI .     49025103810000:   Unique Well ID
 DICO. A2D TECHNOLOGIES, INC.:   Digitizing Company
~OTHER INFORMATION
~A   DEPT       CALD       GRD        DPHI       RHOB       CORR      SPR         SFLU      ILD        ILM   
# ...
 1566.5000     9.2474    89.8494     0.0819     2.5173     0.0177   -65.7608     7.0545     6.4400     6.2306
 1567.0000     9.2476    88.6608     0.0807     2.5203     0.0203   -65.7529     7.1215     6.4676     6.2321
 1567.5000     9.2278    88.2660     0.0811     2.5203     0.0216   -65.7451     7.3227     6.4954     6.2336
 1568.0000     9.2478    87.4742     0.0819     2.5173     0.0196   -65.7372     7.5296     6.5232     6.2932
 1568.5000     9.2280    87.0794     0.0835     2.5163     0.0196   -65.7294     7.5314     6.5512     6.2947
 1569.0000     9.2480    85.8910     0.0843     2.5153     0.0177   -65.7215     7.3957     6.5793     6.3548
 1569.5000     9.2481    85.0992     0.0843     2.5153     0.0177   -65.7137     7.3297     6.6075     6.3564
 1570.0000     9.2878    84.7044     0.0823     2.5173     0.0177   -65.7058     7.1977     6.6358     6.2970
 1570.5000     9.2483    84.7064     0.0807     2.5223     0.0177   -65.6980     7.3332     6.6642     6.2985
 1571.0000     9.2484    85.1052     0.0747     2.5303     0.0237   -65.6901     7.5404     6.6928     6.3000
 1571.5000     9.2485    86.2976     0.0711     2.5363     0.0216   -65.6823     7.6823     6.7337     6.3016
 1572.0000     9.2486    85.9028     0.0703     2.5383     0.0237   -65.6744     7.6842     6.7340     6.3031
 1572.5000     9.2288    85.1112     0.0715     2.5373     0.0237   -65.6666     7.4766     6.7357     6.3620
 1573.0000     9.2289    85.1132     0.0743     2.5323     0.0216   -65.6587     7.5476     6.7373     6.4863
 1573.5000     9.2290    85.1152     0.0755     2.5273     0.0237   -65.6509     7.5494     6.7390     6.4879
 1574.0000     9.2490    85.1172     0.0803     2.5213     0.0196   -65.6430     7.6915     6.7407     6.4894
 1574.5000     9.2292    86.7064     0.0855     2.5133     0.0166   -65.6352     7.8363     6.7424     6.4913
 1575.0000     9.2491    87.1052     0.0899     2.5034     0.0137   -65.6273     7.9107     6.7440     6.4929
 1575.5000     9.2493    87.5040     0.0915     2.5014     0.0057   -65.6195     7.9126     6.7457     6.4945
 1576.0000     9.2295    89.0934     0.0947     2.4994     0.0077   -65.6116     7.7701     6.7474     6.4960
 1576.5000     9.2296    89.0954     0.0959     2.4974     0.0057   -65.6038     7.7007     6.7490     6.4976
 1577.0000     9.2496    88.3036     0.0963     2.4964    -0.0003   -65.5959     7.7025     6.7507     6.4992
 1577.5000     9.2496    87.5120     0.0967     2.4904     0.0057   -65.5881     7.7756     6.7524     6.5007
 1578.0000     9.2299    87.1172     0.0943     2.4974     0.0057   -65.5802     7.7778     6.7541     6.5023
 1578.5000     9.2102    87.5160     0.0920     2.5004     0.0017   -65.5724     7.8517     6.7563     6.3819
 1579.0000     9.2103    87.9148     0.0911     2.5024     0.0057   -65.5645     7.8535     6.7038     6.2667
 1579.5000     9.2104    89.1072     0.0919     2.5014     0.0057   -65.5567     7.8554     6.6958     6.2673
 1580.0000     9.2105    89.5060     0.0939     2.5004     0.0057   -65.5488     7.7139     6.5612     6.2122
 1580.5000     9.2106    89.9050     0.0955     2.4964     0.0017   -65.5410     7.1020     6.4293     6.1567
 1581.0000     9.2107    90.3038     0.0967     2.4954     0.0037   -65.5331     7.1405     6.2844     6.1582
 1581.5000     9.2107    91.0994     0.0963     2.4934     0.0017   -65.5253     7.1793     6.2862     6.2158
 1582.0000     9.2109    91.1014     0.0951     2.4934     0.0017   -65.5174     7.2182     6.2948     6.0493
 1582.5000     9.2110    90.3096     0.0951     2.4984     0.0017   -65.5096     7.2574     6.3034     6.0508
 1583.0000     9.2111    89.5180     0.0943     2.4984     0.0017   -65.5017     7.2968     6.3121     6.1086
 1583.5000     9.2111    89.9168     0.0935     2.4994     0.0017   -65.4939     7.3364     6.3207     6.1101
 1584.0000     9.2113    89.9188     0.0919     2.5004     0.0017   -65.4860     7.3814     6.3294     6.1115
 1584.5000     9.2114    89.9208     0.0911     2.5014     0.0037   -65.4782     7.4511     6.3380     6.1130
 1585.0000     9.2115    91.1132     0.0903     2.5024     0.0037   -65.4703     7.4528     6.3467     6.1145
 1585.5000     9.2116    91.5122     0.0895     2.5034     0.0017   -65.4625     7.4546     6.3554     6.1160
 1586.0000     9.2117    91.9110     0.0879     2.5054     0.0057   -65.4546     7.2533     6.3641     6.1175
 1586.5000     9.2117    92.3098     0.0863     2.5114     0.0057   -65.4468     7.5968     6.3728     6.1190
 1587.0000     9.2119    92.7086     0.0851     2.5143     0.0017   -65.4389     7.6688     6.3815     6.1774
 1587.5000     9.2120    92.3138     0.0847     2.5143     0.0057   -65.4311     7.6707     6.3903     6.1789
 1588.0000     9.2121    91.9188     0.0803     2.5173     0.0137   -65.4232     7.6022     6.3990     6.1804
 1588.5000     9.2122    91.5240     0.0799     2.5243     0.0117   -65.4154     7.3969     6.4078     6.1819
 1589.0000     9.2123    90.7324     0.0739     2.5333     0.0178   -65.4075     7.3987     6.4166     6.1834
 1589.5000     9.2124    90.3374     0.0679     2.5493     0.0240   -65.3997     7.4689     6.4275     6.1849
 1590.0000     9.2124    90.7364     0.0679     2.5493     0.0257   -65.3918     7.6095     6.4281     6.1864
 1590.5000     9.2125    91.1352     0.0683     2.5453     0.0276   -65.3840     7.6113     6.4889     6.2455
 1591.0000     9.2126    91.5340     0.0695     2.5413     0.0276   -65.3761     7.6835     6.5503     6.3052
 1591.5000     9.2127    90.7422     0.0703     2.5383     0.0276   -65.3683     7.9005     6.6122     6.3654
 1592.0000     9.1930    89.5538     0.0711     2.5373     0.0276   -65.3604     8.3510     6.6747     6.4238
 1592.5000     9.1733    88.7620     0.0747     2.5323     0.0257   -65.3526     9.0743     6.7379     6.1924
 1593.0000     9.1535    88.7640     0.0799     2.5243     0.0237   -65.3447     8.1274     6.8016     6.1372
 1593.5000     9.1933    89.1628     0.0815     2.5193     0.0237   -65.3369     7.8355     6.8676     6.1378
 1594.0000     9.2331    89.9586     0.0815     2.5183     0.0216   -65.3290     7.6240     6.8054     6.2542
 1594.5000     9.2530    91.1510     0.0815     2.5193     0.0216   -65.3212     7.5560     6.7364     6.3139
 1595.0000     9.2530    91.9466     0.0819     2.5183     0.0196   -65.3134     7.4199     6.6680     6.3738
 1595.5000     9.2334    91.9486     0.0811     2.5183     0.0196   -65.3055     7.3537     6.6004     6.3754
 1596.0000     9.2335    92.3474     0.0815     2.5193     0.0196   -65.2977     7.4235     6.5075     6.2606
 1596.5000     9.2515    92.3494     0.0819     2.5183     0.0177   -65.2898     7.4253     6.3898     6.1478
 1597.0000     9.2536    91.9546     0.0835     2.5173     0.0162   -65.2820     7.6349     6.3911     6.1504
 1597.5000     9.2536    92.3534     0.0839     2.5153     0.0157   -65.2741     7.8505     6.4190     6.2092
 1598.0000     9.2736    92.3554     0.0847     2.5153     0.0157   -65.2663     7.7793     6.4470     6.2107
 1598.5000     9.2538    91.9606     0.0847     2.5143     0.0157   -65.2584     7.5704     6.4752     6.2700
 1599.0000     9.2539    91.9626     0.0847     2.5143     0.0157   -65.2506     7.4345     6.5034     6.2715
 1599.5000     9.2540    92.3614     0.0851     2.5143     0.0157   -65.2427     7.5050     6.5318     6.2731
 1600.0000     9.2740    93.5538     0.0863     2.5133     0.0137   -65.2349     7.5762     6.5603     6.3330
 1600.5000     9.2741    94.5852     0.0881     2.5084     0.0137   -65.2270     7.6963     6.5890     6.3342
 1601.0000     9.2933    94.7346     0.0899     2.5034     0.0151   -65.2283     7.7197     6.6147     6.3943
 1601.5000     9.2930    94.3328     0.0907     2.5004     0.0157   -65.2296     7.7211     6.6405     6.3955
 1602.0000     9.2729    93.9310     0.0939     2.4994     0.0117   -65.2309     7.9387     6.6445     6.3967
 1602.5000     9.2727    93.9260     0.0923     2.5004     0.0117   -65.2322     8.0136     6.6454     6.3978
