~VERSION INFORMATION
 VERS.                2.0:   CWLS LOG ASCII STANDARD - VERSION 2.0
 WRAP.                 NO:   ONE LINE PER DEPTH STEP
~WELL INFORMATION
#MNEM.UNIT      DATA TYPE    INFORMATION
#----------   ------------   ------------------------------
 STRT.F          190.0000:   START DEPTH
 STOP.F         3215.0000:   STOP DEPTH
 STEP.F            0.5000:   STEP LENGTH
 NULL.          -999.2500:   NO VALUE
 COMP.    FENIX & SCISSON:   COMPANY
 WELL.  FENIX "AX" #78-34:   WELL
 FLD . NAVAL PET. RES. NO. 3:   FIELD
 LOC .      S34 T39N R78W:   LOCATION
 CNTY.            NATRONA:   COUNTY
 STAT.            WYOMING:   STATE
 CTRY. UNITED STATES OF AMERICA:   COUNTRY
 SRVC.       SCHLUMBERGER:   SERVICE COMPANY
 DATE.        16-DEC-1980:   LOGDATE
 API .     49025108670000:   API NUMBER
~CURVE INFORMATION
#MNEM.UNIT       API CODE    CURVE DESCRIPTION
#----------   ------------   ------------------------------
 DEPT.F                  :   
 TEND.LBS    45 635 01 00:   TENSION FORM DENSITY LOG
 GRD .GAPI   45 310 01 00:   GAMMA RAY FROM DENSITY LOG
 CALD.IN     45 280 60 00:   CALIPER FROM DENSITY LOG
 CORR.G/C3   45 356 01 00:   DENSITY CORRECTION
 RHOB.G/C3   45 350 01 00:   BULK DENSITY
 SPR .MV     07 010 01 00:   SPONTANEOUS POTENTIAL
 TENR.LBS    07 635 01 00:   TENSION FROM RESISTIVITY
 ILD .OHMM   07 120 46 00:   DEEP INDUCTION RESISTIVITY
 ILM .OHMM   07 120 44 00:   INDUCTION LOG MEDIUM RESISTIVITY
 SFL .OHMM   07 220 01 00:   SHALLOW FOCUSED LOG RESISTIVITY
~PARAMETER INFORMATION
#MNEM.UNIT          VALUE    DESCRIPTION
#----------   ------------   ------------------------------
 EKB .F         5068.0000:   Kelly bushing
 EGL .F         5058.0000:   Ground level
 EDF .F            0.0000:   Drilling floor
 EPD .F            0.0000:   Permanent datum
 TD  .F         3202.0000:   Total depth
 CLNT.            A2DTECH:   Client Code
 SL  . 542' FSL & 693' FEL:   Surface Location
 PD  .                 GL:   Permanent Datum
 DAPD.F                10:   Feet Above Permanent Datum
 DATE.        16-DEC-1980:   Date Logged [DD-MMM-YYYY]
 DD  .F              3200:   Depth driller
 DL  .F              3202:   Depth logger
 BLI .F              3199:   Bottom log interval
 TLI .F               193:   Top log interval
 CS1 .IN            8.625:   Casing size
 CBD1.      8.625" @ 215':   Casing driller 1
 CBL1.F               193:   Casing logger 1
 BS1 .IN            7.875:   Bit size
 BSD1.F              3200:   Depth drilled with bit1
 DFT .               LSND:   Type fluid in hole
 DFD .                9.1:   Density
 DFV .                 35:   Viscosity
 DFPH.                  8:   pH
 DFL .                 16:   Fluid loss
 MSS .            MUD PIT:   Source of sample
 RMS .OHMM            2.9:   Rm
 MST .F                56:   Rm Meas. temp.
 RMF .OHMM            2.4:   Rmf
 MFST.F                56:   Rmf Meas. temp.
 MFSS.               MEAS:   Source Rmf.
 RMC .OHMM            2.7:   Rmc
 MCST.F                56:   Rmc Meas. temp.
 MCSS.               CALC:   Source Rmc.
 RMB .OHMM           1.35:   Rm. at BHT
 BHT .F               120:   BHT.
 TCS .HRS            2100:   Time Circ. stopped
 MRT .F               120:   Maximum recorded temp.
 LUN .               8161:   Logging unit number
 ENGI.             SITTON:   Recorded By
 WITN.              FIVAS:   Witnessed by
 ORIG.           5" PRINT:   Origin of data
 UWI .     49025108670000:   Unique Well ID
 DICO. A2D TECHNOLOGIES, INC.:   Digitizing Company
~OTHER INFORMATION
~A   DEPT     TEND         GRD      CALD       CORR       RHOB        SPR       TENR        ILD        ILM        SFL   
# ...
 2367.5000   692.7711   118.4889     8.5613     0.0011     2.4859   -38.4130   596.7949     7.6312     7.6443     9.2151
 2368.0000   692.7711   124.0455     8.5471     0.0074     2.4949   -38.5114   602.0226     7.7401     7.7014     9.0921
 2368.5000   692.7711   129.5356     8.5477     0.0137     2.4964   -38.6287   607.3624     7.7964     7.7608     9.0329
 2369.0000   692.7711   129.5668     8.5335     0.0152     2.4919   -39.1541   601.2999     7.8534     7.8713     9.1627
 2369.5000   692.7711   125.8990     8.5341     0.0083     2.4739   -39.4995   593.0375     7.9105     7.8212     9.7715
 2370.0000   692.7711   119.2574     8.5347     0.0020     2.4603   -39.4666   588.2353     7.9129     7.7716    10.3523
 2370.5000   692.7711   117.6007     8.5353     0.0013     2.4589   -39.3201   588.2353     7.9154     7.6173    10.6099
 2371.0000   692.7711   120.1643     8.5360     0.0076     2.4654   -39.3128   588.2353     7.8631     7.5679    10.1130
 2371.5000   692.7711   123.7643     8.5366     0.0138     2.4800   -38.8461   589.6577     7.7035     7.5198     9.1823
 2372.0000   692.7711   121.8528     8.5519     0.0151     2.4815   -38.4704   596.2911     7.5472     7.5249     8.5714
 2372.5000   692.7711   116.8025     8.5376    -0.0009     2.4823   -38.1286   602.9246     7.4455     7.5289     8.3397
 2373.0000   692.7711   109.8144     8.5383     0.0030     2.4830   -37.9827   608.1755     7.3963     7.5852     8.4604
 2373.5000   692.7711   108.3288     8.5389     0.0085     2.4831   -37.7358   608.1755     7.3989     7.5911     8.7015
 2374.0000   692.7711   110.4658     8.5395     0.0117     2.4801   -37.3886   608.1755     7.5042     7.6762     9.0744
 2374.5000   692.7711   112.1764     8.5401     0.0226     2.4688   -37.1544   608.1755     7.5110     7.7043     9.5290
 2375.0000   692.7711   110.7136     8.5407     0.0047     2.4560   -37.0270   603.1904     7.6143     7.7619    10.1578
 2375.5000   692.7711   107.5000     8.5413     0.0016     2.4410   -36.7598   594.8986     7.6696     7.7661    10.5808
 2376.0000   692.7711   104.2525     8.5418     0.0016     2.4388   -36.6301   588.2353     7.7253     7.7702    10.0851
 2376.5000   692.7711   102.6430     8.5424     0.0063     2.4689   -37.0931   588.2353     7.7277     7.7744     9.5454
 2377.0000   692.7711   100.1923     8.5430     0.0212     2.4922   -38.1334   588.2353     7.7301     7.8326     8.9723
 2377.5000   692.7711    98.0595     8.5436     0.0205     2.5162   -39.1565   588.2353     7.7324     7.8911     8.8516
 2378.0000   692.7711    95.7397     8.5442     0.0213     2.5155   -39.8168   588.2353     7.8974     8.0052     9.6903
 2378.5000   692.7711    93.6378     8.5448     0.0260     2.5085   -40.6896   588.2353     8.0102     8.1232    10.6075
 2379.0000   692.7711    95.1080     8.5453     0.0315     2.4978   -41.0098   588.2353     8.1245     8.2386    10.9857
 2379.5000   692.7711   103.6435     8.5459     0.0331     2.4862   -40.8932   588.2353     8.1836     8.3012    10.6899
 2380.0000   675.2008   115.2869     8.5466     0.0267     2.4757   -40.2656   588.2353     8.1861     8.3056    10.3303
 2380.5000   669.9297   124.4088     8.5472     0.0164     2.4525   -39.5371   588.2353     8.1320     8.2529     9.9765
 2381.0000   672.6907   126.7056     8.5478     0.0062     2.4374   -39.2943   588.2353     8.0224     8.1994     9.5814
 2381.5000   692.7711   122.0817     8.5484     0.0004     2.4269   -39.2195   588.2311     7.9694     8.1362     9.3234
 2382.0000   692.7711   121.3175     8.5637     0.0043     2.4240   -38.9775   588.2353     7.9725     8.0956     9.2619
 2382.5000   692.7711   120.3964     8.5643     0.0052     2.4322   -38.7328   588.2353     7.9749     8.0451     9.3958
 2383.0000   692.7711   121.6093     8.5649    -0.0003     2.4405   -38.4886   593.4767     7.9773     7.9941    10.1436
 2383.5000   692.7711   123.2080     8.5506    -0.0010     2.4473   -38.2425   608.1755     7.8693     7.9434    10.5783
 2384.0000   692.7711   124.8279     8.5513     0.0076     2.4556   -38.1390   608.1755     7.8173     7.9479    10.4370
 2384.5000   692.7711   126.3460     8.5519     0.0170     2.4616   -38.1372   608.1755     7.8202     7.9531    10.0859
 2385.0000   692.7711   124.0932     8.5525     0.0241     2.4631   -38.1371   608.1755     7.8226     7.9574     9.8143
 2385.5000   692.7711   120.7894     8.5531     0.0280     2.4684   -38.1373   608.1755     7.8795     7.9617     9.8183
 2386.0000   692.7711   119.6412     8.5536     0.0351     2.4714   -38.1373   608.1755     7.9106     7.9659    10.0983
 2386.5000   692.7711   120.0892     8.5542     0.0273     2.4683   -38.1373   608.1755     7.9393     7.9143    10.3154
 2387.0000   692.7711   120.3524     8.5548     0.0148     2.4578   -38.1371   608.1755     7.9422     7.9196    10.2484
 2387.5000   692.7711   117.9591     8.5554     0.0086     2.4534   -38.1365   608.1755     7.8352     7.8693    10.1105
 2388.0000   692.7711   115.4634     8.5568     0.0070     2.4549   -38.1397   608.1755     7.7828     7.8193     9.7714
 2388.5000   692.7711   113.0096     8.5713     0.0494     2.4655   -38.2757   608.1755     7.8400     7.7679     9.3775
 2389.0000   692.7711   113.0438     8.5867     0.0735     2.4715   -38.4229   608.1755     7.7344     7.6144     9.3813
 2389.5000   692.7711   117.7622     8.5874     0.1001     2.4738   -38.5699   608.1755     7.6827     7.7256     9.3194
 2390.0000   692.7711   122.7721     8.5880     0.0572     2.4565   -38.7167   608.1755     7.8472     7.8917     9.3889
 2390.5000   692.7711   126.0271     8.5886     0.0447     2.4137   -38.8634   608.1755     7.9592     8.0613     9.5899
 2391.0000   692.7711   123.7158     8.5892     0.0651     2.4175   -39.0106   608.1755     8.0171     8.1216    10.1426
 2391.5000   692.7711   120.6565     8.6045     0.0870     2.4475   -39.1598   608.1755     7.9641     8.0689    10.6564
 2392.0000   692.7711   117.6213     8.6199     0.1058     2.4896   -39.3028   608.1755     7.7471     8.0187    10.0796
 2392.5000   692.7711   114.6362     8.6205     0.0694     2.4881   -39.0188   608.1755     7.6442     8.0231     9.4090
 2393.0000   692.7711   111.6462     8.6210     0.0285     2.4836   -38.6981   608.1755     7.8616     7.9721     8.6024
 2393.5000   692.7711   108.6755     8.6216     0.0215     2.4867   -38.3783   608.1755     7.2869     7.6459     7.7568
 2394.0000   692.7711   109.6798     8.6370     0.0262     2.4987   -38.0592   608.1755     7.1385     7.1885     7.9229
 2394.5000   692.7711   111.3789     8.6523     0.0247     2.5025   -37.7402   608.1755     7.1413     7.2498     8.2624
 2395.0000   692.7711   112.7529     8.6529     0.0216     2.4986   -37.4211   608.1755     7.1434     7.3546     8.2657
 2395.5000   692.7711   107.0788     8.6535     0.0177     2.4925   -37.1018   608.1829     7.0962     7.1580     8.3844
 2396.0000   692.7711   101.2317     8.6541     0.0169     2.4882   -36.7819   608.1755     6.9522     6.9187     9.1146
 2396.5000   692.7711    97.7038     8.6547     0.0217     2.4905   -36.4589   608.1755     6.4884     6.6413     9.3745
 2397.0000   692.7711    98.1050     8.6552     0.0272     2.5018   -36.5051   626.7198     6.0112     5.8678     8.2592
 2397.5000   692.7711   101.0894     8.6568     0.0334     2.5228   -36.7595   614.2822     5.3094     5.5937     7.1128
 2398.0000   692.7711   103.7795     8.6712     0.0374     2.5259   -36.8034   608.1755     5.2378     5.5582     5.6620
 2398.5000   692.7711   108.0812     8.6718     0.0405     2.5101   -37.1426   608.1755     5.3130     5.5229     4.6983
 2399.0000   692.7711   108.4985     8.6725     0.0343     2.4898   -37.4144   608.1637     5.4264     5.5260     4.5714
 2399.5000   692.7711   106.5326     8.6878     0.0289     2.4793   -37.7533   608.7955     5.4658     5.5296     4.8678
 2400.0000   692.7711   102.8974     8.7180     0.0242     2.4748   -38.2261   615.0224     5.4675     5.6096     6.3791
 2400.5000   692.7711    98.2929     8.8072     0.0195     2.4763   -38.7405   621.2488     5.6230     5.6907     7.1805
