~VERSION INFORMATION
 VERS.                2.0:   CWLS LOG ASCII STANDARD - VERSION 2.0
 WRAP.                 NO:   ONE LINE PER DEPTH STEP
~WELL INFORMATION
#MNEM.UNIT      DATA TYPE    INFORMATION
#----------   ------------   ------------------------------
 STRT.F          200.5000:   START DEPTH
 STOP.F         3164.0000:   STOP DEPTH
 STEP.F            0.5000:   STEP LENGTH
 NULL.          -999.2500:   NO VALUE
 COMP. FENIX & SCISSON U.S NAVY:   COMPANY
 WELL. FENIX & SCISSON "A" #83-4:   WELL
 FLD .              NPR-3:   FIELD
 LOC .       S4 T38N R78W:   LOCATION
 CNTY.            NATRONA:   COUNTY
 STAT.            WYOMING:   STATE
 CTRY. UNITED STATES OF AMERICA:   COUNTRY
 SRVC.       SCHLUMBERGER:   SERVICE COMPANY
 DATE.        25-MAY-1977:   LOGDATE
 API .     49025103660000:   API NUMBER
~CURVE INFORMATION
#MNEM.UNIT       API CODE    CURVE DESCRIPTION
#----------   ------------   ------------------------------
 DEPT.F                  :   
 CALD.IN     45 280 60 00:   CALIPER FROM DENSITY LOG
 GRD .GAPI   45 310 01 00:   GAMMA RAY FROM DENSITY LOG
 RHOB.G/C3   45 350 01 00:   BULK DENSITY
 CORR.G/C3   45 356 01 00:   DENSITY CORRECTION
 SPR .MV     07 010 01 00:   SPONTANEOUS POTENTIAL
 SFLU.OHMM   07 220 01 00:   SPHERICALLY FOCUSED LOG UNAVERAGED RESISTIVITY
 ILD .OHMM   07 120 46 00:   DEEP INDUCTION RESISTIVITY
 ILM .OHMM   07 120 44 00:   INDUCTION LOG MEDIUM RESISTIVITY
~PARAMETER INFORMATION
#MNEM.UNIT          VALUE    DESCRIPTION
#----------   ------------   ------------------------------
 EKB .F         5163.0000:   Kelly bushing
 EGL .F         5149.0000:   Ground level
 EDF .F            0.0000:   Drilling floor
 EPD .F            0.0000:   Permanent datum
 TD  .F         3173.0000:   Total depth
 DATE.        25-MAY-1977:   Date logged
 CLNT.            A2DTECH:   Client Code
 SL  . 1650' FNL & 330 ' FEL:   Surface Location
 PD  .                 GL:   Permanent Datum
 DAPD.F                14:   Feet Above Permanent Datum
 DD  .F              3173:   Depth driller
 DL  .F              3157:   Depth logger
 BLI .F              3165:   Bottom log interval
 TLI .F               200:   Top log interval
 CS1 .IN            8.625:   Casing size
 CBD1.      8.625" @ 204':   Casing driller 1
 CBL1.F               220:   Casing logger 1
 BS1 .IN            7.875:   Bit size
 BSD1.F              3173:   Depth drilled with bit1
 DFT .            KCL MUD:   Type fluid in hole
 DFD .                8.8:   Density
 DFV .                 37:   Viscosity
 DFPH.                7.5:   pH
 DFL .                4.4:   Fluid loss
 MSS .           FLOWLINE:   Source of sample
 RMS .OHMM            .39:   Rm
 MST .F                79:   Rm Meas. temp.
 RMF .OHMM            .31:   Rmf
 MFST.F                79:   Rmf Meas. temp.
 RMC .OHMM            .63:   Rmc
 MCST.F                79:   Rmc Meas. temp.
 MFSS.           FANN KIT:   Source Rmf.
 MCSS.           FANN KIT:   Source Rmc.
 RMB .OHMM            .27:   Rm. at BHT
 BHT .F               112:   BHT.
 TCS .HRS             2.5:   Time Circ. stopped
 MRT .F               112:   Maximum recorded temp.
 LUN .               8611:   Logging unit number
 LUL .             CASPER:   Logging unit location
 ENGI.            C. DOAK:   Recorded By
 WITN.      B. HARRINGTON:   Witnessed by
 ORIG.       2.5"5" PRINT:   Origin of data
 UWI .     49025103660000:   Unique Well ID
 DICO. A2D TECHNOLOGIES, INC.:   Digitizing Company
~OTHER INFORMATION
~A   DEPT     CALD        GRD         RHOB     CORR        SPR       SFLU        ILD        ILM   
# ...
  970.0000     9.1951   104.5755     2.4759     0.0205   -35.1876    12.3680    10.3136     8.4132
  970.5000     9.0397   101.6662     2.4759     0.0166   -35.1907    13.0576    10.3124     8.3926
  971.0000     9.0399   101.6685     2.4740     0.0166   -35.1928    13.5372    10.1255     8.3721
  971.5000     9.0791   100.8879     2.4720     0.0166   -35.1960    13.5357     9.9426     8.3517
  972.0000     9.0401   100.8903     2.4661     0.0166   -35.1981    13.5334     9.7624     8.3313
  972.5000     9.0011   100.1097     2.4759     0.0166   -35.2012    12.8159     9.5860     8.3109
  973.0000     9.0013   100.1121     2.4701     0.0167   -35.2033    13.0481     9.5843     8.2926
  973.5000     9.0405    99.3316     2.4642     0.0049   -35.2065    13.2852     9.4111     8.2916
  974.0000     9.0016    99.3340     2.4662     0.0089   -35.2086    13.7662     9.4095     8.1418
  974.5000     9.0017    98.5535     2.4740     0.0128   -35.2117    13.2754     9.4084     8.1091
  975.0000     9.0019    98.5559     2.4721     0.0128   -35.2138    12.3506     9.2379     8.0766
  975.5000     8.9238    99.3395     2.4741     0.0168   -35.2169    12.5751     9.2368     8.0442
  976.0000     8.9630    98.5599     2.4760     0.0168   -35.2190    12.5730     9.0694     8.0119
  976.5000     8.9631    98.5615     2.4760     0.0168   -35.2222    12.5716     9.0683     7.9895
  977.0000     8.9633   100.1278     2.4741     0.0090   -35.2243    12.3437     8.9039     7.9881
  977.5000     9.0025   100.1294     2.4741     0.0051   -35.2274    12.1206     8.9029     7.9852
  978.0000     8.9636   100.9136     2.4741     0.0051   -35.2295    12.1186     9.0647     7.9841
  978.5000     8.9246   101.4798     2.4741     0.0130   -35.2327    12.3388     9.0631     7.9833
  979.0000     8.9248   101.4813     2.4741     0.0130   -35.2358    12.3368     9.0616     7.9672
  979.5000     8.9249   102.2647     2.4741     0.0168   -35.2380    12.1138     9.0610     7.9511
  980.0000     8.9250   103.0489     2.4702     0.0169   -34.8548    11.8942     8.9794     7.9350
  980.5000     8.9642   103.0511     2.4683     0.0130   -35.2432    11.8929     8.8984     7.9190
  981.0000     8.9253   103.0526     2.4663     0.0130   -35.2464    12.1083     9.7367     7.9030
  981.5000     8.9645   102.2731     2.4663     0.0091   -35.2485    12.3284     9.5608     7.8870
  982.0000     8.9256   101.4928     2.4683     0.0091   -35.6389    12.3264     9.2193     7.8711
  982.5000     8.9258   100.1498     2.4781     0.0092   -35.6411    12.5504     9.2183     7.8552
  983.0000     8.9259    99.3695     2.5017     0.0210   -35.6442    12.5483     9.0512     7.8394
  983.5000     8.9260    99.3719     2.4938     0.0249   -35.6463    12.3215     9.0501     7.8286
  984.0000     8.9261    99.3735     2.4913     0.0249   -35.6495    12.0981     8.8860     7.8272
  984.5000     8.8863    99.3759     2.4880     0.0250   -35.6516    11.6661     8.8850     7.8565
  985.0000     8.8864    99.3774     2.4860     0.0211   -35.6548    12.0947     8.8835     7.8858
  985.5000     8.8866    99.3799     2.4801     0.0132   -35.6568    12.5398     8.8830     7.9153
  986.0000     8.8867   100.9448     2.4762     0.0172   -35.6600    12.5377     8.8809     7.9449
  986.5000     8.9260   100.9471     2.4860     0.0204   -35.6621    12.3111     8.8799     7.9648
  987.0000     8.9261   100.9487     2.4959     0.0251   -35.6653    12.5342     8.8789     7.9634
  987.5000     8.9262   100.9510     2.4900     0.0290   -35.6674    12.3077     8.8768     7.9625
  988.0000     8.9263   101.7342     2.4900     0.0212   -35.6705    11.6542     8.8758     7.9613
  988.5000     8.9265   104.0813     2.4743     0.0212   -35.6727    12.2987     8.8748     7.9601
  989.0000     8.9657   105.4283     2.4783     0.0212   -35.6758    12.0757     8.8733     7.9588
  989.5000     8.9659   106.2114     2.4841     0.0252   -35.6779    11.8575     8.8722     7.9576
  990.0000     8.9660   106.9944     2.4763     0.0252   -35.6811    12.0777     8.8707     7.9561
  990.5000     8.9661   107.7781     2.4822     0.0291   -35.6832    12.0764     8.8697     7.8142
  991.0000     8.8890   107.7795     2.4803     0.0291   -35.6864    11.8574     8.8682     7.9558
  991.5000     8.8892   107.7817     2.4842     0.0292   -35.6885    11.4339     8.5514     7.6697
  992.0000     8.8893   109.3468     2.4881     0.0213   -35.6916    11.6411     8.2455     7.6688
  992.5000     8.8895   109.3482     2.4960     0.0292   -36.0812    11.4306     8.2446     7.5301
  993.0000     8.9286   109.3496     2.5038     0.0292   -36.0844    11.6378     8.0950     7.5288
  993.5000     8.9288   106.4445     2.5038     0.0292   -35.6990    11.6365     8.0941     7.3927
  994.0000     8.9289   106.4459     2.5019     0.0292   -36.0897    11.0186     8.0927     7.3914
  994.5000     8.9291   106.4482     2.4920     0.0214   -36.0918    11.0173     8.0918     7.3906
  995.0000     8.9683   106.4496     2.4980     0.0214   -36.0950    10.8175     7.9450     7.3893
  995.5000     8.9684   106.4518     2.4980     0.0214   -36.0971    10.8163     7.9441     7.5236
  996.0000     8.9685   106.4533     2.4980     0.0293   -36.1003    11.4190     8.0880     7.5223
  996.5000     9.0078   107.2369     2.4902     0.0293   -36.1024    11.6266     8.0871     7.5214
  997.0000     8.9688   108.0197     2.4902     0.0293   -36.1056    11.6247     8.2336     7.3850
  997.5000     9.0080   109.5845     2.4980     0.0293   -35.7201    11.8360     8.2327     7.3841
  998.0000     9.0081   110.3672     2.5078     0.0294   -36.1109    11.2075     8.3818     7.3824
  998.5000     8.9692   109.5880     2.5079     0.0333   -35.7254    11.4113     8.5342     7.3816
  999.0000     8.9694   109.5895     2.5020     0.0255   -35.7286    11.4093     8.5327     7.3807
  999.5000     8.9695   108.8103     2.5000     0.0216   -35.7307    11.6168     8.6878     7.2472
 1000.0000     8.8916   108.0312     2.5040     0.0138   -35.7339    10.9999     8.5303     7.1171
 1000.5000     8.8917   108.6873     2.5073     0.0271   -35.7368    11.1945     8.2358     7.1159
 1001.0000     8.8922   108.8250     2.5158     0.0256   -35.7354    11.1990     8.0771     7.1158
 1001.5000     8.8927   108.0532     2.5197     0.0296   -35.7360    11.1982     8.0765     7.1153
 1002.0000     8.8539   108.8407     2.5158     0.0296   -35.7369    11.4019     7.7886     7.3772
 1002.5000     8.7763   108.0689     2.5099     0.0297   -35.7374    11.8221     8.2222     7.3764
 1003.0000     8.8545   108.0751     2.5080     0.0297   -35.7383    11.8208     8.2219     7.3759
 1003.5000     8.8552   108.0845     2.5139     0.0298   -35.7388    11.8199     8.2213     7.2428
 1004.0000     8.7774   108.0908     2.5198     0.0337   -35.7397    12.2551     8.3708     7.2420
 1004.5000     8.7388   108.8814     2.5218     0.0377   -35.7402    11.8178     8.3702     7.3743
 1005.0000     8.7391   109.6690     2.5218     0.0377   -35.7411    11.8165     8.2189     7.3729
 1005.5000     8.6614   108.1159     2.5159     0.0338   -35.7417    11.8157     8.2184     7.3727
 1006.0000     8.6617   108.1221     2.5160     0.0299   -35.7425    12.4749     8.2175     7.6441
 1006.5000     8.7011   106.5690     2.5140     0.0261   -35.7431    11.6012     8.3672     7.7834
 1007.0000     8.6235   105.7941     2.5081     0.0261   -35.7439    10.4042     8.5197     7.9250
 1007.5000     8.5849   100.3347     2.5062     0.0222   -35.7445    11.8114     8.5181     7.9244
 1008.0000     8.5852   101.9035     2.5023     0.0223   -35.3576    13.9036     8.5178     7.9235
 1008.5000     8.5466   101.1316     2.5043     0.0223   -35.3582    13.6528     8.5172     8.0679
 1009.0000     8.5469   101.1379     2.5023     0.0224   -35.3590    13.6513     8.8308     8.0670
 1009.5000     8.5083   101.1473     2.4984     0.0224   -35.3596    12.6953     9.1562     8.0665
 1010.0000     8.5477   101.1536     2.4945     0.0185   -35.3604    12.0165     9.3227     8.2132
