~VERSION INFORMATION
 VERS.                2.0:   CWLS LOG ASCII STANDARD - VERSION 2.0
 WRAP.                 NO:   ONE LINE PER DEPTH STEP
~WELL INFORMATION
#MNEM.UNIT      DATA TYPE    INFORMATION
#----------   ------------   ------------------------------
 STRT.F          164.0000:   START DEPTH
 STOP.F         3223.5000:   STOP DEPTH
 STEP.F            0.5000:   STEP LENGTH
 NULL.          -999.2500:   NO VALUE
 COMP.    FENIX & SCISSON:   COMPANY
 WELL. FENIX & SCISSON "AX" #64-34:   WELL
 FLD . NAVAL PETROLEUM RESERVE #3:   FIELD
 LOC .      S34 T39N R78W:   LOCATION
 CNTY.            NATRONA:   COUNTY
 STAT.            WYOMING:   STATE
 CTRY. UNITED STATES OF AMERICA:   COUNTRY
 SRVC.       SCHLUMBERGER:   SERVICE COMPANY
 DATE.        30-DEC-1980:   LOGDATE
 API .     49025108660000:   API NUMBER
~CURVE INFORMATION
#MNEM.UNIT       API CODE    CURVE DESCRIPTION
#----------   ------------   ------------------------------
 DEPT.F                  :   
 GRD .GAPI   45 310 01 00:   GAMMA RAY FROM DENSITY LOG
 RHOB.G/C3   45 350 01 00:   BULK DENSITY
 CALD.IN     45 280 60 00:   CALIPER FROM DENSITY LOG
 CORR.G/C3   45 356 01 00:   DENSITY CORRECTION
 SPR .MV     07 010 01 00:   SPONTANEOUS POTENTIAL
 TENR.LBS    06 635 01 00:   TENSION FROM RESISTIVITY
 ILD .OHMM   07 120 46 00:   DEEP INDUCTION RESISTIVITY
 ILM .OHMM   07 120 44 00:   INDUCTION LOG MEDIUM RESISTIVITY
 SFL .OHMM   07 220 01 00:   SHALLOW FOCUSED LOG RESISTIVITY
~PARAMETER INFORMATION
#MNEM.UNIT          VALUE    DESCRIPTION
#----------   ------------   ------------------------------
 EKB .F         5088.0000:   Kelly bushing
 EGL .F         5078.0000:   Ground level
 TD  .F         3225.0000:   Total depth
 CLNT.            A2DTECH:   Client Code
 SL  . 3107' FSL & 3680' FWL:   Surface Location
 PD  .                 GL:   Permanent Datum
 EPD .F              5078:   Elevation Permanent Datum
 LMF .                 KB:   Log Measured From
 DMF .                 KB:   Drilling Measured From
 DAPD.F                10:   Feet Above Permanent Datum
 DATE.        30-DEC-1980:   Date Logged [DD-MMM-YYYY]
 DD  .F              3225:   Depth driller
 DL  .F              3225:   Depth logger
 BLI .F              3219:   Bottom log interval
 TLI .F               190:   Top log interval
 CS1 .IN            8.625:   Casing size
 CBD1.      8.625" @ 205':   Casing driller 1
 CBL1.F               190:   Casing logger 1
 BS1 .IN            7.875:   Bit size
 BSD1.F              3225:   Depth drilled with bit1
 DFT .              FRESH:   Type fluid in hole
 DFD .                  9:   Density
 DFV .                 46:   Viscosity
 MSS .           MUD TANK:   Source of sample
 RMS .OHMM           2.47:   Rm
 MST .F                57:   Rm Meas. temp.
 RMF .OHMM           1.45:   Rmf
 MFST.F                57:   Rmf Meas. temp.
 MFSS.               MEAS:   Source Rmf.
 RMB .OHMM            1.2:   Rm. at BHT
 BHT .F               124:   BHT.
 TCS .HRS            0400:   Time Circ. stopped
 MRT .F               124:   Maximum recorded temp.
 LUN .               8034:   Logging unit number
 LUL .               CSPR:   Logging unit location
 ENGI.             LARSON:   Recorded By
 WITN.              FIVAS:   Witnessed by
 ORIG.        2" 5" PRINT:   Origin of data
 UWI .     49025108660000:   Unique Well ID
 DICO. A2D TECHNOLOGIES, INC:   Digitizing Company
 TLAB.HRS            2030:   Time logger at bottom
~OTHER INFORMATION
~A   DEPT       GRD      RHOB       CALD       CORR        SPR       TENR        ILD        ILM        SFL   
# ...
 2573.0000    99.9389     2.6026     9.6644     0.0381   -35.7165  1460.6361     8.7717     8.6857    22.2585
 2573.5000   120.0786     2.5746     9.6934     0.0420   -35.7241  1460.3203     8.4571     8.1335    11.1367
 2574.0000   136.1498     2.5901     9.6920     0.0475   -35.6881  1460.0043     7.7520     7.7283     8.7741
 2574.5000   138.2665     2.6003     9.6907     0.0515   -35.5869  1459.6885     7.3143     7.3965     7.4293
 2575.0000   136.8879     2.6056     9.7197     0.0488   -35.7469  1459.3724     7.2580     7.3388     7.2648
 2575.5000   135.6637     2.5667     9.7184     0.0436   -35.7560  1459.0565     7.3067     7.3896     7.4727
 2576.0000   133.8324     2.5527     9.7474     0.0387   -35.7632  1458.7405     7.3558     7.4889     8.7512
 2576.5000   131.0907     2.5543     9.7457     0.0317   -36.0753  1458.4247     7.4586     7.4843    10.2484
 2577.0000   129.8665     2.5620     9.7599     0.0303   -36.3875  1458.1086     7.4003     7.4797    10.5421
 2577.5000   130.8017     2.5697     9.7737     0.0303   -37.4820  1457.7928     7.1865     7.3680    10.5335
 2578.0000   132.5773     2.5681     9.8027     0.0295   -38.8428  1457.4768     7.0293     7.2531    10.0815
 2578.5000   131.3504     2.5447     9.8162     0.0295   -39.4598  1457.1609     6.8755     7.0972     9.2406
 2579.0000   129.5192     2.5352     9.8605     0.0287   -39.4670  1457.3741     6.7181     6.8911     8.2291
 2579.5000   124.0460     2.5447     9.9196     0.0295   -38.5596  1457.9968     6.5771     6.7882     6.3899
 2580.0000   119.1799     2.5711     9.7967     0.0295   -37.6321  1458.6196     6.6213     6.8332     6.5728
 2580.5000   114.4655     2.5851     9.7348     0.0303   -36.8990  1459.2426     6.9101     6.8854     7.0596
 2581.0000   108.8406     2.5897     9.7183     0.0313   -36.4490  1459.8655     7.1597     7.1770     8.1109
 2581.5000   106.7059     2.5912     9.7170     0.0327   -36.3020  1460.4882     7.5323     7.4898    10.5548
 2582.0000   109.2727     2.5974     9.7309     0.0366   -36.1585  1461.1110     7.9672     7.9298    10.7031
 2582.5000   111.2350     2.6044     9.7295     0.0406   -36.0134  1461.7339     8.2550     8.2159    10.6181
 2583.0000   113.1974     2.6100     9.7282     0.0476   -36.3273  1462.3566     8.4320     8.3904    10.6115
 2583.5000   113.4932     2.6136     9.7268     0.0499   -36.3338  1462.9795     8.4876     8.5071    10.5288
 2584.0000   111.8111     2.6167     9.7252     0.0499   -36.3415  1463.6023     8.3561     8.3788    10.6735
 2584.5000   111.1938     2.5980     9.7239     0.0498   -36.3491  1464.2251     8.1192     8.2537    10.6669
 2585.0000   110.8800     2.5910     9.7226     0.0483   -36.3703  1464.8479     7.9416     8.0701    10.1359
 2585.5000   109.9316     2.5801     9.7213     0.0376   -36.5177  1465.4707     7.7678     7.8932     8.6444
 2586.0000   109.4937     2.5599     9.7199     0.0090   -36.6774  1466.0936     7.6528     7.8316     7.9805
 2586.5000   111.7570     2.5521     9.7338     0.0061   -36.8371  1466.7163     7.5394     7.7705     8.2078
 2587.0000   113.2642     2.5522     9.7324     0.0038   -37.0015  1467.3391     7.4806     7.7099     9.3389
 2587.5000   114.1643     2.5551     9.7311     0.0021   -37.4631  1467.9620     7.4767     7.6497     8.9382
 2588.0000   115.0645     2.5504     9.7295     0.0015   -37.6228  1468.5847     7.4729     7.6439     8.1926
 2588.5000   113.8402     2.5256     9.7281     0.0015   -37.9923  1469.2076     7.5774     7.6957     7.6722
 2589.0000   111.0985     2.5317     9.7270     0.0023   -38.3994  1469.8304     7.7972     7.8015     7.9488
 2589.5000   108.0299     2.5496     9.7256     0.0038   -38.7134  1470.4534     8.1338     8.0249     8.7241
 2590.0000   107.1300     2.5643     9.7242     0.0082   -38.8719  1471.0760     8.5499     8.5827     9.8551
 2590.5000   106.5127     2.5751     9.7380     0.0119   -38.8803  1471.6990     8.9873     9.0591    10.8172
 2591.0000   105.7436     2.5749     9.7367     0.0132   -38.8875  1472.3218     9.1800     9.3200    11.4495
 2591.5000   105.5842     2.5673     9.7350     0.0140   -38.7423  1472.9445     9.3745     9.3816    11.5270
 2592.0000   106.1783     2.5634     9.7339     0.0143   -37.9892  1473.5674     9.4373     9.3744    11.1908
 2592.5000   106.1680     2.5765     9.7326     0.0148   -37.2342  1474.1902     9.3636     9.2999    10.7881
 2593.0000   106.3094     2.5983     9.7311     0.0148   -36.6317  1474.8131     9.3588     9.2950    10.3207
 2593.5000   108.0155     2.6091     9.7297     0.0148   -36.3338  1475.4358     9.2202     9.2890    10.0966
 2594.0000   111.5973     2.6137     9.7284     0.0156   -35.9803  1476.0586     9.1493     9.2162    10.0179
 2594.5000   115.0771     2.5904     9.7423     0.0164   -35.7388  1476.6815     9.0127     9.1432    10.0841
 2595.0000   117.4948     2.5754     9.7409     0.0183   -35.3836  1477.3042     8.9434     9.0067    10.1510
 2595.5000   118.5492     2.5670     9.7547     0.0230   -35.2959  1477.9271     8.8747     8.9364    10.1444
 2596.0000   118.3846     2.5701     9.7533     0.0367   -35.3049  1478.5499     8.8065     8.7397    10.5847
 2596.5000   118.3743     2.5825     9.7518     0.0470   -35.3140  1479.1729     8.8019     8.7330    11.2888
 2597.0000   118.3640     2.5941     9.7505     0.0511   -35.3212  1479.7955     8.7331     8.7276    10.8808
 2597.5000   117.7084     2.6034     9.7491     0.0523   -35.3285  1480.4185     8.6660     8.7222    10.1180
 2598.0000   114.8993     2.6119     9.7478     0.0523   -35.3357  1481.0413     8.6616     8.7169     9.4072
 2598.5000   110.5915     2.6135     9.7465     0.0513   -35.3430  1481.6639     8.6571     8.7091     9.2669
 2599.0000   108.7603     2.5962     9.7451     0.0500   -35.3520  1482.2869     8.5906     8.6422     9.4636
 2599.5000   108.3040     2.5854     9.7587     0.0464   -35.3592  1482.9097     8.5775     8.5748    10.6905
 2600.0000   109.4979     2.5994     9.7576     0.0359   -35.6713  1483.5325     8.4470     8.4950    10.3803
 2600.5000   110.9993     2.6071     9.7409     0.0328   -36.2213  1484.1553     8.2957     8.4048     9.6490
 2601.0000   111.8937     2.5877     9.7397     0.0305   -36.6388  1484.7781     8.1489     8.3145     8.8479
 2601.5000   113.4772     2.5756     9.7383     0.0305   -37.0610  1485.4010     8.0844     8.2243     8.1068
 2602.0000   116.5617     2.5718     9.7370     0.0305   -37.3732  1486.0237     8.0795     8.1852     7.5413
 2602.5000   116.0904     2.5749     9.7467     0.0305   -37.3790  1486.6466     8.0745     8.1802     7.6466
 2603.0000   113.9499     2.5749     9.7621     0.0308   -37.3841  1487.2694     8.1317     8.1751     8.0379
 2603.5000   112.2646     2.5695     9.7599     0.0324   -37.2367  1487.8921     8.2408     8.1689     9.0154
 2604.0000   114.3730     2.5586     9.7582     0.0368   -37.0915  1488.5150     8.2952     8.2242     9.6939
 2604.5000   117.4266     2.5532     9.7715     0.0395   -36.4890  1489.1379     8.4091     8.2787    10.1048
 2605.0000   119.9514     2.5531     9.7697     0.0436   -36.0375  1489.7607     8.5259     8.3926    10.0268
 2605.5000   118.2661     2.5586     9.7679     0.0493   -35.5859  1490.3834     8.4583     8.5092     9.6667
 2606.0000   113.8495     2.5852     9.7659     0.0500   -35.4378  1491.0063     8.4531     8.3809     9.5194
 2606.5000   111.2537     2.6215     9.7642     0.0499   -35.2899  1491.6292     8.3873     8.3156     9.4483
 2607.0000   110.7824     2.6199     9.7624     0.0484   -34.8426  1492.2520     8.3220     8.1915     9.4431
 2607.5000   110.9254     2.6153     9.7603     0.0429   -34.6959  1492.8748     8.2560     8.1275     9.5750
 2608.0000   113.7812     2.6114     9.7739     0.0332   -34.7017  1493.4976     8.1917     8.1213     9.6391
 2608.5000   116.4966     2.6044     9.7869     0.0236   -35.3173  1494.1204     8.0696     8.0580     9.7034
 2609.0000   116.3287     2.5849     9.7855     0.0163   -36.0935  1494.7432     8.0068     8.0531     9.5580
