~VERSION INFORMATION
 VERS.                2.0:   CWLS LOG ASCII STANDARD - VERSION 2.0
 WRAP.                 NO:   ONE LINE PER DEPTH STEP
~WELL INFORMATION
#MNEM.UNIT      DATA TYPE    INFORMATION
#----------   ------------   ------------------------------
 STRT.F            0.0000:   START DEPTH
 STOP.F         3982.0000:   STOP DEPTH
 STEP.F            0.5000:   STEP LENGTH
 NULL.          -999.2500:   NO VALUE
 COMP.   LAWRENCE ALLISON:   COMPANY
 WELL. LAWRENCE NPR 3 "LX" #61-10:   WELL
 FLD .                NPR:   FIELD
 LOC .      S10 T38N R78W:   LOCATION
 CNTY.            NATRONA:   COUNTY
 STAT.            WYOMING:   STATE
 CTRY. UNITED STATES OF AMERICA:   COUNTRY
 SRVC.      DRESSER ATLAS:   SERVICE COMPANY
 DATE.        14-APR-1983:   LOGDATE
 API .     49025109180000:   API NUMBER
~CURVE INFORMATION
#MNEM.UNIT       API CODE    CURVE DESCRIPTION
#----------   ------------   ------------------------------
 DEPT.F                  :   
 CALD.IN     45 280 60 00:   CALIPER FROM DENSITY LOG
 RHOB.G/C3   45 350 01 00:   BULK DENSITY
 DRHO.G/C3   45 356 01 00:   DENSITY CORRECTION
 TEND.LBS    45 635 01 00:   TENSION FROM DENSITY LOG
 CNC .DEC    42 890 03 00:   NEUTRON PORISITY SANDSTONE
 GRR .GAPI   07 310 01 00:   GAMMA RAY FROM RESISTIVITY
 SPR .MV     07 010 01 00:   SPONTANEOUS POTENTIAL
 ILD .OHMM   07 120 46 00:   DEEP INDUCTION RESISTIVITY
 ILM .OHMM   07 120 44 00:   INDUCTION LOG MEDIUM RESISTIVITY
 SFL .OHMM   07 220 01 00:   SHALLOW FOCUSED LOG RESISTIVITY
 TENS.LBS    60 635 01 00:   TENSION FROM SONIC LOG
 DT  .US/F   60 520 00 00:   DELTA TIME
 TENR.LBS    07 635 01 00:   TENSION FROM RESISTIVITY
~PARAMETER INFORMATION
#MNEM.UNIT          VALUE    DESCRIPTION
#----------   ------------   ------------------------------
 EKB .F         5164.0000:   Kelly bushing
 EGL .F         5154.0000:   Ground level
 EDF .F            0.0000:   Drilling floor
 TD  .F         3985.0000:   Total depth
 DATE.        14-APR-1983:   Date logged
 CLNT.            A2DTECH:   Client Code
 SL  . 138' FNL & 1331' FEL:   Surface Location
 PD  .                 GL:   Permanent Datum
 EPD .F              5154:   Elevation Permanent Datum
 LMF .                 KB:   Log Measured From
 DMF .                 KB:   Drilling Measured From
 DD  .F              3985:   Depth driller
 DL  .F              3948:   Depth logger
 BLI .F              3945:   Bottom log interval
 CS1 .IN            8.625:   Casing size
 CBD1.      8.625" @ 442':   Casing driller 1
 CBL1.F               453:   Casing logger 1
 BS1 .IN            7.875:   Bit size
 DFT .                KCI:   Type fluid in hole
 DFD .                8.9:   Density
 DFV .                 40:   Viscosity
 DFPH.                8.5:   pH
 DFL .                 10:   Fluid loss
 MSS .           FLOWLINE:   Source of sample
 RMS .OHMM           0.38:   Rm
 MST .F                68:   Rm Meas. temp.
 RMF .OHMM           0.30:   Rmf
 MFST.F                68:   Rmf Meas. temp.
 RMC .OHMM           0.49:   Rmc
 MCST.F                68:   Rmc Meas. temp.
 MFSS.               MEAS:   Source Rmf.
 RMB .OHMM           0.22:   Rm. at BHT
 BHT .F               122:   BHT.
 TCS .HRS               4:   Time Circ. stopped
 MRT .F               122:   Maximum recorded temp.
 LUN .               6764:   Logging unit number
 LUL .              WLSTN:   Logging unit location
 ENGI.            QUICKEL:   Recorded By
 WITN.           JENNINGS:   Witnessed by
 ORIG.           5" PRINT:   Origin of data
 UWI .     49025109180000:   Unique Well ID
 DICO. A2D TECHNOLOGIES, INC.:   Digitizing Company
 DAPD.                 10:   Feet Above Permanent Datum
 BSD1.               3985:   Depth drilled with bit1
 MCSS.               CALC:   Source Rmc.
~OTHER INFORMATION
~A    DEPT    CALD       RHOB       DRHO       TEND        CNC         GRR       SPR        ILD        ILM        SFL       TENS         DT       TENR   
# ...
 1612.0000     8.0830     2.5250     0.0050   -45.8170     0.2990   127.3060   -42.5690     7.2310     6.9040     7.2140  -999.2500  -999.2500   -76.5610
 1612.5000     8.0840     2.5630     0.0170   -45.8170     0.3030   127.6560   -42.5580     7.2500     6.8570     7.0620  -999.2500  -999.2500   -76.5610
 1613.0000     8.0850     2.5630     0.0390   -45.8170     0.2970   126.8360   -42.4750     7.2180     6.8090     7.0620  -999.2500  -999.2500   -76.5610
 1613.5000     8.0860     2.5600     0.0680   -45.8170     0.2910   123.4040   -42.4560     7.1520     6.8000     7.0620  -999.2500  -999.2500   -76.4490
 1614.0000     8.0870     2.5540     0.0740   -45.8170     0.2850   121.6340   -42.3930     7.1270     6.7900     7.0620  -999.2500  -999.2500   -76.1800
 1614.5000     8.0880     2.5430     0.0590   -45.8170     0.2860   122.5890   -42.3060     7.1270     6.7800     7.0620  -999.2500  -999.2500   -75.9120
 1615.0000     8.0890     2.5390     0.0420   -45.8170     0.2970   123.7450   -42.2000     7.1270     6.7700     7.0620  -999.2500  -999.2500   -75.6440
 1615.5000     8.0900     2.5390     0.0360   -45.8170     0.3100   124.3690   -42.0780     7.1270     6.7610     7.0620  -999.2500  -999.2500   -75.3760
 1616.0000     8.0910     2.5450     0.0290   -45.8170     0.3070   125.7160   -41.9640     7.1270     6.7480     7.0620  -999.2500  -999.2500   -75.1080
 1616.5000     8.0920     2.5550     0.0260   -45.8170     0.3040   127.7180   -41.8470     7.1270     6.7480     7.0620  -999.2500  -999.2500   -74.8400
 1617.0000     8.0940     2.5610     0.0220   -45.8170     0.3070   128.4720   -41.7470     7.1270     6.7480     7.0620  -999.2500  -999.2500   -74.5710
 1617.5000     8.0950     2.5640     0.0170   -45.8170     0.3190   128.3560   -41.6460     7.1270     6.7480     7.0620  -999.2500  -999.2500   -74.3030
 1618.0000     8.0960     2.5730     0.0220   -45.8170     0.3220   129.4480   -41.5520     7.1270     6.7480     7.0620  -999.2500  -999.2500   -74.0350
 1618.5000     8.0970     2.5760     0.0490   -45.8170     0.3170   131.0090   -41.4620     7.1270     6.7480     7.0620  -999.2500  -999.2500   -73.7670
 1619.0000     8.0980     2.5690     0.0760   -45.8170     0.3050   131.4120   -41.3960     7.1270     6.7480     7.0620  -999.2500  -999.2500   -73.4990
 1619.5000     8.0990     2.5540     0.0870   -45.8170     0.2930   130.3010   -41.6090     7.1270     6.7570     7.0620  -999.2500  -999.2500   -73.2300
 1620.0000     8.1000     2.5420     0.0770   -45.8170     0.2870   128.0750   -41.8070     7.1270     6.7690     7.0410  -999.2500  -999.2500   -72.9620
 1620.5000     8.1010     2.5400     0.0630   -45.8170     0.2910   127.2810   -41.3920     7.1270     6.7810     7.0230  -999.2500  -999.2500   -72.6940
 1621.0000     8.1020     2.5430     0.0510   -45.8170     0.3060   128.3190   -41.0380     7.1270     6.7930     7.0050  -999.2500  -999.2500   -72.4260
 1621.5000     8.1030     2.5490     0.0340   -45.8170     0.3190   126.2360   -41.4120     7.1270     6.8050     7.0130  -999.2500  -999.2500   -72.1580
 1622.0000     8.1040     2.5630     0.0310   -45.8170     0.3150   120.7020   -41.8200     7.1270     6.8090     7.0370  -999.2500  -999.2500   -71.8900
 1622.5000     8.1060     2.5710     0.0380   -45.8170     0.2940   118.8330   -41.9300     7.1270     6.8090     7.0610  -999.2500  -999.2500   -71.6210
 1623.0000     8.1070     2.5680     0.0370   -45.8170     0.2830   122.2790   -42.0780     7.1270     6.8090     7.0850  -999.2500  -999.2500   -71.3530
 1623.5000     8.1080     2.5630     0.0460   -45.8170     0.2790   125.1300   -42.2560     7.1270     6.8090     7.1090  -999.2500  -999.2500   -71.0850
 1624.0000     8.1090     2.5580     0.0570   -45.8170     0.2790   125.3170   -42.3730     7.1270     6.8090     7.1270  -999.2500  -999.2500   -70.8170
 1624.5000     8.1100     2.5530     0.0670   -45.8170     0.2850   125.4670   -42.4080     7.1270     6.8090     7.0750  -999.2500  -999.2500   -70.5490
 1625.0000     8.1110     2.5530     0.0580   -45.8170     0.2900   125.8270   -42.3830     7.1270     6.8380     7.0340  -999.2500  -999.2500   -70.2810
 1625.5000     8.1120     2.5560     0.0460   -45.8170     0.2950   125.1730   -42.3970     7.1270     6.8690     6.9980  -999.2500  -999.2500   -70.0120
 1626.0000     8.1140     2.5590     0.0410   -45.8170     0.2940   124.6990   -42.3900     7.1270     6.9010     7.0680  -999.2500  -999.2500   -69.7440
 1626.5000     8.1150     2.5590     0.0450   -45.8170     0.2890   125.9600   -42.2750     7.2270     6.9350     7.1310  -999.2500  -999.2500   -69.4760
 1627.0000     8.1160     2.5500     0.0610   -45.6680     0.2860   127.4380   -42.1260     7.2920     6.9740     7.1940  -999.2500  -999.2500   -69.2080
 1627.5000     8.1170     2.5410     0.0710   -45.2160     0.2780   127.6510   -41.9920     7.3570     7.0170     7.2570  -999.2500  -999.2500   -68.9400
 1628.0000     8.1180     2.5310     0.0590   -44.7630     0.2760   127.8660   -41.8350     7.4220     7.0590     7.3200  -999.2500  -999.2500   -68.6720
 1628.5000     8.1200     2.5280     0.0420   -44.3110     0.2790   127.8620   -41.7090     7.4880     7.1010     7.3830  -999.2500  -999.2500   -68.4030
 1629.0000     8.1210     2.5320     0.0260   -43.8590     0.2870   126.1040   -41.5940     7.5270     7.0980     7.4590  -999.2500  -999.2500   -68.1350
 1629.5000     8.1220     2.5400     0.0230   -43.4070     0.2900   123.6020   -41.3860     7.5270     7.0250     7.4590  -999.2500  -999.2500   -67.8670
 1630.0000     8.1230     2.5470     0.0250   -42.9540     0.2920   121.5880   -41.2040     7.3910     6.9520     7.2700  -999.2500  -999.2500   -67.5990
 1630.5000     8.1240     2.5540     0.0380   -42.5020     0.2930   120.3660   -41.1150     7.2220     6.8790     6.9980  -999.2500  -999.2500   -67.3310
 1631.0000     8.1260     2.5590     0.0510   -42.0500     0.3000   120.4240   -41.0180     7.1270     6.8090     6.9980  -999.2500  -999.2500   -67.0620
 1631.5000     8.1270     2.5580     0.0640   -41.5980     0.3020   120.6590   -40.9270     7.1270     6.8090     6.9980  -999.2500  -999.2500   -66.7940
 1632.0000     8.1280     2.5530     0.0590   -41.1450     0.3050   120.6010   -40.8070     7.1270     6.8090     6.9980  -999.2500  -999.2500   -76.5610
 1632.5000     8.1290     2.5470     0.0490   -40.6930     0.3070   121.1960   -40.6910     7.1270     6.8090     6.9980  -999.2500  -999.2500   -76.5610
 1633.0000     8.1290     2.5410     0.0430   -40.2410     0.3040   121.5740   -40.8350     7.1270     6.8090     6.9980  -999.2500  -999.2500   -76.5610
 1633.5000     8.1270     2.5390     0.0480   -39.7890     0.3020   123.3740   -41.2960     7.1270     6.8370     7.0260  -999.2500  -999.2500   -76.5610
 1634.0000     8.1260     2.5450     0.0520   -39.3360     0.3030   128.6160   -41.8600     7.1270     6.8580     7.0480  -999.2500  -999.2500   -76.5610
 1634.5000     8.1240     2.5510     0.0550   -38.8840     0.3070   132.3640   -42.1570     7.1270     6.8720     7.0700  -999.2500  -999.2500   -76.5610
 1635.0000     8.1220     2.5580     0.0470   -38.4320     0.3080   131.6850   -42.0440     7.1930     6.8720     7.0910  -999.2500  -999.2500   -76.5610
 1635.5000     8.1200     2.5640     0.0510   -37.9800     0.3070   128.7790   -41.8530     7.2520     6.8720     7.1130  -999.2500  -999.2500   -76.5610
 1636.0000     8.1190     2.5700     0.0540   -37.5270     0.3090   125.5860   -41.7320     7.3240     6.8720     7.1490  -999.2500  -999.2500   -76.5610
 1636.5000     8.1170     2.5730     0.0640   -37.0750     0.3120   126.6940   -41.6060     7.3340     6.9510     7.2090  -999.2500  -999.2500   -76.5610
 1637.0000     8.1150     2.5610     0.0720   -36.6230     0.3120   131.3880   -41.5600     7.3480     7.0540     7.2580  -999.2500  -999.2500   -76.5610
 1637.5000     8.1130     2.5470     0.0690   -36.1710     0.3000   131.7980   -41.5460     7.3610     7.1560     7.3510  -999.2500  -999.2500   -76.5610
