~VERSION INFORMATION
 VERS.                2.0:   CWLS LOG ASCII STANDARD - VERSION 2.0
 WRAP.                 NO:   ONE LINE PER DEPTH STEP
~WELL INFORMATION
#MNEM.UNIT      DATA TYPE    INFORMATION
#----------   ------------   ------------------------------
 STRT.F            0.0000:   START DEPTH
 STOP.F         4152.0000:   STOP DEPTH
 STEP.F            0.5000:   STEP LENGTH
 NULL.          -999.2500:   NO VALUE
 COMP. LAWRENCE ALLISON & ASSOCIATES:   COMPANY
 WELL. LAWRENCE "X" #28-27:   WELL
 FLD .             NPR #3:   FIELD
 LOC .      S27 T39N R78W:   LOCATION
 CNTY.            NATRONA:   COUNTY
 STAT.            WYOMING:   STATE
 CTRY. UNITED STATES OF AMERICA:   COUNTRY
 SRVC.      DRESSER ATLAS:   SERVICE COMPANY
 DATE.        26-FEB-1984:   LOGDATE
 API .     49025109630000:   API NUMBER
~CURVE INFORMATION
#MNEM.UNIT       API CODE    CURVE DESCRIPTION
#----------   ------------   ------------------------------
 DEPT.F                  :   
 GRR .GAPI   07 310 01 00:   GAMMA RAY FROM RES.
 TENR.LBS    07 635 01 00:   TENSION FROM RES.
 SPR .MV     07 010 01 00:   SPONTANEOUS POTENTIAL
 RILD.OHMM   07 120 46 00:   RESISTIVITY INDUCTION LOG DEEP
 RILM.OHMM   07 120 44 00:   RESISTIIVTY INDUCTION LOG MEDIUM
 RFOC.OHMM   07 220 04 00:   RESISTIVITY FOCUSED LOG
 DT  .US/F   60 520 00 00:   DELTA TIME
 TENS.LBS    60 635 01 00:   TENSION FROM SONIC
 CALD.IN     45 280 60 00:   CALIPER FROM DENSITY LOG
 TEND.LBS    45 635 01 00:   TENSION FORM DENSITY LOG
 CNC .DEC    42 890 03 00:   NEUTRON POROSITY SANDSTONE
 CORR.G/C3   45 356 01 00:   DENSITY CORRECTION
 DENS.G/C3   45 350 01 00:   DENSITY
~PARAMETER INFORMATION
#MNEM.UNIT          VALUE    DESCRIPTION
#----------   ------------   ------------------------------
 EKB .F         5088.0000:   Kelly bushing
 EGL .F         5078.0000:   Ground level
 EDF .F            0.0000:   Drilling floor
 TD  .F         4154.0000:   Total depth
 CLNT.            A2DTECH:   Client Code
 SL  . 250' FSL & 810' FWL:   Surface Location
 PD  .                 GL:   Permanent Datum
 EPD .F              5078:   Elevation Permanent Datum
 LMF .                 KB:   Log Measured From
 DMF .                 KB:   Drilling Measured From
 DAPD.F                10:   Feet Above Permanent Datum
 DATE.        26-FEB-1984:   Date Logged [DD-MMM-YYYY]
 DD  .F              4154:   Depth driller
 DL  .F              4148:   Depth logger
 BLI .F              4146:   Bottom log interval
 TLI .F                 0:   Top log interval
 CS1 .IN            8.625:   Casing size
 CBD1.      8.625" @ 537':   Casing driller 1
 CBL1.F               540:   Casing logger 1
 BS1 .IN            7.875:   Bit size
 BSD1.F              4154:   Depth drilled with bit1
 DFT .            GEL KCL:   Type fluid in hole
 DFD .                  9:   Density
 DFV .                 45:   Viscosity
 DFPH.                  8:   pH
 DFL .                 14:   Fluid loss
 MSS .           FLOWLINE:   Source of sample
 RMS .OHMM          0.595:   Rm
 MST .F                60:   Rm Meas. temp.
 RMF .OHMM          0.446:   Rmf
 MFST.F                60:   Rmf Meas. temp.
 MFSS.               CALC:   Source Rmf.
 RMC .OHMM          0.744:   Rmc
 MCST.F                60:   Rmc Meas. temp.
 MCSS.               CALC:   Source Rmc.
 RMB .OHMM           0.26:   Rm. at BHT
 BHT .F               138:   BHT.
 TCS .HRS               4:   Time Circ. stopped
 MRT .F               138:   Maximum recorded temp.
 LUN .               6307:   Logging unit number
 LUL .               GLTE:   Logging unit location
 ENGI.           FAHLSING:   Recorded By
 WITN.           JENNINGS:   Witnessed by
 ORIG.      1" 2.5" PRINT:   Origin of data
 UWI .     49025109630000:   Unique Well ID
 DICO. A2D TECHNOLOGIES, INC.:   Digitizing Company
~OTHER INFORMATION
~A    DEPT       GRR     TENR        SPR       RILD       RILM       RFOC         DT       TENS       CALD       TEND        CNC       CORR       DENS   
# ...
 3406.0000   180.0002   -19.5267   -26.9388     1.6176     1.4601     1.5421    97.1703   -39.6978     8.1251   -40.0000     0.2574     0.0680     2.4121
 3406.5000   168.3889   -20.0444   -26.3325     1.6630     1.5211     1.6289    93.2815   -39.2632     8.1359   -40.0000     0.2536     0.0570     2.4195
 3407.0000   161.7996   -20.5621   -26.0099     1.7105     1.6792     1.7466    92.1065   -38.8286     8.1464   -40.0000     0.2506     0.0146     2.4422
 3407.5000   156.6176   -21.0799   -25.4167     1.8471     1.8893     2.0219    92.1058   -38.3941     8.1567   -40.0000     0.2505    -0.0337     2.4536
 3408.0000   141.1061   -21.6227   -25.1091     2.0376     2.0154     2.2971    94.0499   -37.9595     8.1571   -40.0000     0.2530    -0.0351     2.4485
 3408.5000   138.1342   -23.5296   -25.5500     2.3108     2.1873     2.4525    94.4402   -37.5250     8.1577   -40.0000     0.2579    -0.0300     2.4455
 3409.0000   140.5516   -37.4260   -26.5698     2.4413     2.4054     2.4870    94.2317   -37.3530     8.1570   -40.0000     0.2666    -0.0457     2.4485
 3409.5000   146.1500   -37.9438   -26.5588     2.5442     2.5413     2.5914    93.7086   -52.5273     8.1563   -40.0000     0.2786    -0.0577     2.4561
 3410.0000   150.8195   -38.5322   -26.5476     2.5454     2.5776     2.7939    93.1240   -51.7870     8.1411   -40.0000     0.2903    -0.0576     2.4531
 3410.5000   153.4550   -39.0025   -26.5357     2.5120     2.5722     2.9306    93.5613   -50.9977     8.1286   -40.0000     0.2975    -0.0362     2.4224
 3411.0000   155.0225   -39.4970   -26.5238     2.4609     2.5457     2.8114    94.7607   -50.2085     8.1172   -40.0000     0.2903     0.0223     2.3777
 3411.5000   156.8410   -40.0148   -26.9698     2.3812     2.4433     2.7406    95.8505   -49.4192     8.1170   -40.0000     0.2821     0.0672     2.3370
 3412.0000   161.6536   -40.5325   -27.6889     2.3183     2.3494     2.5967    97.9641   -48.6299     8.1168   -40.0000     0.2748    -0.0091     2.3507
 3412.5000   167.1658   -41.0502   -27.6779     2.2570     2.2877     2.2287   101.8794   -47.8407     8.1167   -40.0000     0.2671    -0.0030     2.4284
 3413.0000   168.2847   -34.8396   -27.0714     2.2581     2.2275     1.8757   102.6088   -47.0514     8.1204   -40.0000     0.2547     0.0032     2.4623
 3413.5000   157.0132   -27.2666   -27.0595     2.3062     2.2904     1.8766   102.1701   -46.2622     8.1311   -40.0000     0.2511     0.0132     2.4656
 3414.0000   149.1784   -27.8107   -27.7560     2.3229     2.3353     2.2098    98.2511   -45.4729     8.1416   -40.0000     0.2499     0.0213     2.4594
 3414.5000   152.1945   -28.3284   -28.5525     2.3881     2.4214     2.7103    96.3026   -44.6836     8.1526   -40.0000     0.2528    -0.0076     2.4547
 3415.0000   155.8095   -28.9128   -29.1056     2.4917     2.5241     2.9570    94.1435   -43.8944     8.1577   -40.0000     0.2560    -0.0236     2.4485
 3415.5000   154.4830   -29.3832   -29.3929     2.5831     2.5601     2.9893    93.6999   -43.0943     8.1575   -40.0000     0.2589    -0.0145     2.4447
 3416.0000   149.1917   -28.1141   -29.3810     2.6553     2.6322     2.9238    95.3051   -44.2169     8.1510   -40.0000     0.2539    -0.0114     2.4406
 3416.5000   144.3999   -15.5309   -29.3690     2.6562     2.6338     2.6842    95.4504   -45.3551     8.1238   -40.0000     0.2466    -0.0173     2.4384
 3417.0000   142.3992   -16.1243   -29.3571     2.6571     2.5861     2.6133    95.5957   -46.4933     8.1292   -40.0000     0.2451    -0.0241     2.4369
 3417.5000   143.3564   -16.7066   -29.3452     2.6580     2.5469     2.6522    95.2030   -47.6314     8.1487   -40.0000     0.2445    -0.0331     2.4370
 3418.0000   146.3726   -17.1769   -29.0342     2.6955     2.4989     2.7619    94.7892   -48.2353     8.1533   -40.0000     0.2457    -0.0381     2.4463
 3418.5000   148.1916   -52.8667   -29.0232     2.7334     2.5005     2.8008    94.7174   -47.9403     8.1398   -40.0000     0.2531    -0.0440     2.4521
 3419.0000   145.9234   -53.4755   -28.7143     2.7342     2.5020     2.6515    94.8627   -47.6471     8.1284   -40.0000     0.2627    -0.0379     2.4500
 3419.5000   141.2088   -54.0844   -28.3358     2.6616     2.4957     2.6196    95.7420   -47.3529     8.1176   -40.0000     0.2649    -0.0288     2.4414
 3420.0000   138.9621   -54.7338   -27.6786     2.5908     2.4375     2.6161    96.0293   -47.0588     8.1170   -40.0000     0.2647    -0.0137     2.4250
 3420.5000   138.7066   -55.3993   -27.4857     2.4929     2.3420     2.6242    95.6823   -46.7260     8.1168   -40.0000     0.2679    -0.0007     2.3904
 3421.0000   139.9297   -56.0650   -27.1771     2.3893     2.2496     2.7396    95.2186   -46.4562     8.1170   -40.0000     0.2685     0.0268     2.3437
 3421.5000   143.0188   -56.8241   -26.8685     2.3257     2.2509     2.7846    94.7130   -46.1764     8.1169   -40.0000     0.2574     0.0407     2.3392
 3422.0000   147.3855   -57.4329   -26.8354     2.2951     2.2522     2.8488    95.1503   -45.8824     8.1170   -40.0000     0.2334     0.0203     2.3492
 3422.5000   149.5808   -58.0622   -26.5476     2.2987     2.2536     2.3567    96.9525   -46.2680     8.1168   -40.0000     0.2197    -0.0012     2.3831
 3423.0000   147.1780   -58.7279   -26.5357     2.3281     2.2550     2.0582    98.5738   -47.0080     8.1167   -40.0000     0.2185     0.0019     2.4117
 3423.5000   132.8659   -59.3934   -26.8191     2.3289     2.2566     1.8980    97.4523   -47.7481     8.1077   -40.0000     0.2252    -0.0010     2.4122
 3424.0000   119.7143   -60.1729   -26.8081     2.3299     2.2579     2.0019    92.5196   -48.4881     8.0958   -40.0000     0.2318    -0.0142     2.4042
 3424.5000   114.9461   -45.9888   -27.0948     2.3306     2.2592     2.3633    89.7452   -49.2282     8.0828   -40.0000     0.2418    -0.0249     2.3906
 3425.0000   115.4696   -46.5977   -27.3814     2.2687     2.2605     2.7248    85.6569   -49.9683     8.0798   -40.0000     0.2501    -0.0248     2.3788
 3425.5000   132.1301   -47.2634   -27.3690     2.1419     2.2010     2.8976    84.3423   -50.7083     8.0914   -40.0000     0.2613    -0.0184     2.3466
 3426.0000   162.8153   -47.9289   -27.3571     1.7420     2.1192     2.8597    84.6772   -51.4484     8.1018   -40.0000     0.3010    -0.0036     2.3236
 3426.5000   187.5008   -48.5946   -27.3430     1.4760     1.5475     2.5317    86.9717   -52.1885     8.1126   -40.0000     0.3203     0.0025     2.2971
 3427.0000   196.5050   -49.3374   -27.3320     1.2139     1.3514     1.8851    90.9094   -52.9285     8.1173   -40.0000     0.3173     0.0177     2.2746
 3427.5000   198.3235   -49.9462   -27.0234     1.1190     1.1802     1.4830    95.5802   -53.6686     8.1169   -40.0000     0.3038     0.0490     2.2716
 3428.0000   202.5410   -50.5918   -26.6865     1.0745     1.0869     1.2863   100.1051   -54.4087     8.1169   -40.0000     0.2990     0.0347     2.2807
 3428.5000   206.1559   -51.2574   -26.0291     1.0603     1.0417     1.2017   104.7860   -55.1487     8.1171   -40.0000     0.2486    -0.0062     2.3338
 3429.0000   198.6557   -51.9230   -25.2440     1.0823     1.0522     1.1700   106.9459   -55.8888     8.1168   -40.0000     0.2293     0.0000     2.4317
 3429.5000   175.0699   -52.6862   -24.2954     1.1868     1.2158     1.2028   107.1214   -55.8040     8.1167   -40.0000     0.2185     0.0091     2.4734
 3430.0000   112.2178   -53.2951   -24.2844     1.3683     1.3749     1.4109   101.8539   -54.6588     8.1077   -40.0000     0.2251     0.0212     2.4694
 3430.5000    95.4735   -53.9202   -24.8687     1.5979     1.6419     2.0677    98.1432   -53.5136     8.0970   -40.0000     0.2410     0.0333     2.4513
 3431.0000    93.6992   -54.5859   -24.8571     1.8318     1.9750     3.0446    91.4585   -52.3683     8.0865   -40.0000     0.2432     0.0364     2.4408
 3431.5000    96.8135   -55.2516   -24.8452     2.1419     2.2511     3.9293    86.2525   -51.2231     8.0769   -40.0000     0.2393     0.0139     2.4197
