~VERSION INFORMATION
 VERS.                2.0:   CWLS LOG ASCII STANDARD - VERSION 2.0
 WRAP.                 NO:   ONE LINE PER DEPTH STEP
~WELL INFORMATION
#MNEM.UNIT      DATA TYPE    INFORMATION
#----------   ------------   ------------------------------
 STRT.F          200.0000:   START DEPTH
 STOP.F         3196.5000:   STOP DEPTH
 STEP.F            0.5000:   STEP LENGTH
 NULL.          -999.2500:   NO VALUE
 COMP.    FENIX & SCISSON:   COMPANY
 WELL. FENIX & SCISSON #82-15:   WELL
 FLD .                NPR:   FIELD
 LOC .      S15 T38N R78W:   LOCATION
 CNTY.            NATRONA:   COUNTY
 STAT.            WYOMING:   STATE
 CTRY. UNITED STATES OF AMERICA:   COUNTRY
 SRVC.              WELEX:   SERVICE COMPANY
 DATE.        14-AUG-1977:   LOGDATE
 API .     49025104100000:   API NUMBER
~CURVE INFORMATION
#MNEM.UNIT       API CODE    CURVE DESCRIPTION
#----------   ------------   ------------------------------
 DEPT.F                  :   
 CALD.IN     45 280 60 00:   CALIPER FROM DENSITY LOG
 GRD .GAPI   45 310 01 00:   GAMMA RAY FROM DENSITY LOG
 RHOB.G/C3   45 350 01 00:   BULK DENSITY
 CORR.G/C3   45 356 01 00:   DENSITY CORRECTION
 SPR .MV     07 010 01 00:   SPONTANEOUS POTENTIAL
 ILD .OHMM   07 120 46 00:   DEEP INDUCTION RESISTIVITY
 ILM .OHMM   07 120 44 00:   INDUCTION LOG MEDIUM RESISTIVITY
 GURD.OHMM   07 220 05 00:   GUARD LOG RESISTIVITY
~PARAMETER INFORMATION
#MNEM.UNIT          VALUE    DESCRIPTION
#----------   ------------   ------------------------------
 EKB .F         5259.0000:   Kelly bushing
 EGL .F         5249.0000:   Ground level
 EDF .F            0.0000:   Drilling floor
 EPD .F            0.0000:   Permanent datum
 TD  .F         3197.0000:   Total depth
 CLNT.            A2DTECH:   Client Code
 SL  . 990' FNL & 330' FEL:   Surface Location
 PD  .                 GL:   Permanent Datum
 DAPD.F                10:   Feet Above Permanent Datum
 DATE.        14-AUG-1977:   Date Logged [DD-MMM-YYYY]
 DD  .F              3197:   Depth driller
 DL  .F              3200:   Depth logger
 BLI .F              3198:   Bottom log interval
 TLI .F               200:   Top log interval
 CS1 .IN            8.625:   Casing size
 CBD1.      8.625" @ 236':   Casing driller 1
 CBL1.F               220:   Casing logger 1
 BS1 .IN            7.875:   Bit size
 BSD1.F              3197:   Depth drilled with bit1
 DFT .            KCL MUD:   Type fluid in hole
 DFD .                9.1:   Density
 DFV .                 42:   Viscosity
 DFPH.               10.5:   pH
 DFL .                7.2:   Fluid loss
 MSS .           FLOWLINE:   Source of sample
 RMS .OHMM          0.240:   Rm
 MST .F                92:   Rm Meas. temp.
 RMF .OHMM          0.160:   Rmf
 MFST.F                92:   Rmf Meas. temp.
 MFSS.               MEAS:   Source Rmf.
 RMC .OHMM          0.238:   Rmc
 MCST.F                92:   Rmc Meas. temp.
 MCSS.               MEAS:   Source Rmc.
 RMB .OHMM          0.194:   Rm. at BHT
 BHT .F               114:   BHT.
 TCS .HRS               3:   Time Circ. stopped
 MRT .F               114:   Maximum recorded temp.
 LUN .               9685:   Logging unit number
 LUL .             CASPER:   Logging unit location
 ENGI.            C. DOAK:   Recorded By
 WITN.      W. PETTINGILL:   Witnessed by
 ORIG.           5" PRINT:   Origin of data
 UWI .     49025104100000:   Unique Well ID
 DICO. A2D TECHNOLOGIES, INC.:   Digitizing Company
~OTHER INFORMATION
~A   DEPT       CALD       GRD        RHOB      CORR       SPR        ILD        ILM       GURD   
# ...
 3156.5000     7.9125   127.8299     2.5195     0.0252   -73.4974     3.8249     4.2198     4.7363
 3157.0000     7.9140   126.3596     2.5128     0.0208   -73.6324     3.8013     4.1351     4.5138
 3157.5000     7.9152   125.3749     2.5076     0.0195   -73.7675     3.7767     4.0810     4.4540
 3158.0000     7.9015   124.6177     2.5070     0.0227   -73.7495     3.7274     4.0275     4.3949
 3158.5000     7.8877   125.2474     2.5109     0.0273   -73.7350     3.6784     4.0030     4.3073
 3159.0000     7.8892   125.2774     2.5155     0.0349   -73.5711     3.6299     3.9781     4.2796
 3159.5000     7.8606   125.3124     2.5185     0.0381   -73.5567     3.5579     3.9814     4.2819
 3160.0000     7.8621   125.0415     2.5200     0.0382   -73.5423     3.4862     4.0396     4.2841
 3160.5000     7.8481   124.4708     2.5179     0.0339   -73.6774     3.4403     4.0423     4.2867
 3161.0000     7.8648   123.9001     2.5082     0.0292   -73.8088     3.4428     4.1014     4.2888
 3161.5000     7.8660   124.5287     2.4986     0.0177   -73.6449     3.4688     4.1042     4.3508
 3162.0000     7.8672   124.2579     2.4912     0.0104   -73.6305     3.4949     4.1642     4.3530
 3162.5000     7.8687   123.0875     2.4867     0.0090   -73.6161     3.5979     4.2276     4.3855
 3163.0000     7.8699   125.8223     2.4878     0.0122   -73.7547     3.6989     4.3474     4.4808
 3163.5000     7.8711   124.3521     2.4967     0.0183   -73.7367     3.8050     4.4416     4.6080
 3164.0000     7.8724   124.0739     2.5035     0.0259   -73.7220     3.9142     4.6012     4.8064
 3164.5000     7.8738   125.9092     2.5088     0.0276   -73.8573     3.9711     4.7336     5.2984
 3165.0000     7.8750   125.9382     2.5134     0.0262   -73.8393     4.1134     4.8028     5.5259
 3165.5000     7.9063   124.7678     2.5120     0.0219   -73.8249     4.1732     4.8060     5.3777
 3166.0000     7.9134   123.5974     2.5076     0.0175   -73.8105     4.2047     4.8138     5.0904
 3166.5000     7.9239   124.5332     2.4964     0.0132   -73.9491     4.2078     4.8467     5.0930
 3167.0000     7.9401   123.6626     2.4849     0.0089   -73.9249     4.2102     4.8156     5.0552
 3167.5000     7.9562   123.0846     2.4749     0.0060   -73.9163     4.1541     4.6872     5.0987
 3168.0000     7.9278   125.2198     2.4697     0.0031   -73.8986     4.0430     4.5629     5.2445
 3168.5000     7.9138   126.7408     2.4675     0.0033   -73.8842     3.9354     4.4412     5.1038
 3169.0000     7.9153   125.2774     2.4676     0.0035   -73.8698     3.8835     4.2920     4.7978
 3169.5000     7.9338   126.2318     2.4700     0.0051   -73.8554     3.8324     4.0932     4.4482
 3170.0000     7.9660   127.4347     2.4768     0.0052   -73.6915     3.8347     4.0392     4.2105
 3170.5000     7.9938   125.0721     2.4888     0.0054   -73.5276     3.8375     4.0392     4.1836
 3171.0000     7.9953   124.7940     2.5002     0.0056   -73.5127     3.8397     3.9288     4.2153
 3171.5000     7.9965   125.8229     2.5003     0.0072   -73.4951     3.8420     3.9288     4.3059
 3172.0000     7.9978   126.3568     2.5026     0.0088   -73.4807     3.8442     3.9288     4.3985
 3172.5000     7.9991   126.0870     2.5109     0.0105   -73.4663     3.8465     3.9836     4.7163
 3173.0000     8.0004   125.5003     2.5192     0.0152   -73.4519     3.9024     3.9836     4.9875
 3173.5000     8.0019   125.2460     2.5238     0.0198   -73.7364     3.9048     3.9288     4.8201
 3174.0000     8.0031   125.5821     2.5246     0.0259   -73.7220     3.9347     3.9017     4.6584
 3174.5000     8.0043   126.5106     2.5165     0.0291   -73.8570     3.9370     3.9836     5.0653
 3175.0000     8.0207   127.1393     2.5097     0.0277   -73.9885     3.9393     3.9869     5.0328
 3175.5000     8.0218   127.4681     2.5038     0.0203   -73.9741     3.9690     4.0113     4.7971
 3176.0000     8.0231   128.0968     2.5093     0.0131   -73.9596     3.9713     4.0113     4.6356
 3176.5000     8.0244   129.9335     2.5198     0.0117   -74.0983     3.9462     4.0113     4.6707
 3177.0000     8.0195   130.6045     2.5236     0.0149   -74.0803     3.9213     3.9836     4.7382
 3177.5000     7.9972   131.1894     2.5185     0.0135   -74.0658     3.9242     3.9561     4.6754
 3178.0000     7.9688   131.2184     2.5081     0.0092   -74.0508     3.9265     3.9561     4.4262
 3178.5000     7.9551   126.1499     2.4984     0.0003   -74.1865     3.9017     3.9561     4.3973
 3179.0000     7.9414   107.5882     2.4873    -0.0086   -74.1685     3.8764     3.9836     4.6830
 3179.5000     7.9429    71.3353     2.4782    -0.0129   -74.1540     3.8259     4.0955     4.5891
 3180.0000     7.9590    12.5937     2.4717    -0.0112   -74.1396     3.7755     4.0113     4.3138
 3180.5000     7.9603     3.6272     2.4771    -0.0066   -74.1252     3.7244     3.8748     4.3763
 3181.0000     7.9617     4.2631     2.4861    -0.0004   -74.1106     3.6261     3.7171     4.1937
 3181.5000     7.9629     4.5919     2.4922     0.0057   -74.0927     3.5541     3.5411     4.0035
 3182.0000     7.9492     4.6209     2.4975     0.0119   -74.2314     3.4826     3.4410     4.1472
 3182.5000     7.9506     4.6499     2.5089     0.0165   -74.3665     3.3894     3.4207     3.9804
 3183.0000     7.9519     4.6789     2.5104     0.0211   -74.3484     3.2992     3.4207     3.8736
 3183.5000     7.9384     4.7079     2.5074     0.0243   -74.4871     3.2110     3.4445     3.7959
 3184.0000     7.9244     4.7376     2.5114     0.0275   -74.3196     3.1032     3.4207     3.7455
 3184.5000     7.9259     5.0729     2.5144     0.0276   -74.2956     2.9934     3.3736     3.7215
 3185.0000     7.9423     5.7016     2.5130     0.0292   -73.9882     2.8797     3.3736     3.6221
 3185.5000     7.9435     6.0304     2.5056     0.0279   -73.9738     2.8413     3.3272     3.4765
 3186.0000     7.9600     6.0594     2.4967     0.0280   -73.3614     2.8043     3.3272     3.3136
 3186.5000     7.9761     6.0884     2.4975     0.0252   -71.2543     2.8254     3.3736     3.3383
 3187.0000     8.0221     5.8171     2.4969     0.0224   -67.3535     2.8864     3.3736     3.3866
 3187.5000     8.0385     5.8471     2.4931     0.0195   -61.3600     2.9488     3.3736     3.4355
 3188.0000     8.0397     5.8827     2.4858     0.0152   -45.7266     3.1021     3.3272     3.7637
 3188.5000     8.0260     6.2115     2.4874     0.0108   -18.9882     3.2308     3.3280     3.5360
 3189.0000     7.9824     6.2405     2.4965     0.0065    -0.0238     3.3933     3.3736     3.3467
 3189.5000     7.9687     6.2669     2.5033     0.0066     0.1375     3.4665     3.3736     3.3721
 3190.0000     7.9403     6.2969     2.5056     0.0247     0.1519     3.4686     3.3736     3.4926
 3190.5000     7.9266     6.3274     2.4997     0.0311     0.0132     3.4229     3.3043     3.4944
 3191.0000     7.9131     6.0570     2.4946     0.0341     0.1807     3.3313     3.1879     3.4720
 3191.5000     7.9144     5.7871     2.4954     0.0342    -2.9439     3.1536     3.1046     3.3282
 3192.0000     7.9158     5.8219     2.5008     0.0343   -16.9803     3.1999     3.1046     3.2206
 3192.5000     7.9170     6.1508     2.5031     0.0360   -19.0771     3.2690     3.1918     3.3131
 3193.0000  -999.2500     6.1797     2.5001     0.0361   -21.2826     3.3396     3.2588     3.3844
 3193.5000  -999.2500  -999.2500  -999.2500  -999.2500   -17.5313     3.3416     3.2815     3.4096
 3194.0000  -999.2500  -999.2500  -999.2500  -999.2500    -4.6619     3.3667     3.1698     3.3640
 3194.5000  -999.2500  -999.2500  -999.2500  -999.2500  -999.2500     3.3454     3.0832     3.2291
 3195.0000  -999.2500  -999.2500  -999.2500  -999.2500  -999.2500     3.1616     3.1046     3.0145
 3195.5000  -999.2500  -999.2500  -999.2500  -999.2500  -999.2500     2.9569     3.2363     2.9746
 3196.0000  -999.2500  -999.2500  -999.2500  -999.2500  -999.2500     3.2603     3.3736     3.2795
 3196.5000  -999.2500  -999.2500  -999.2500  -999.2500  -999.2500     3.5204  -999.2500     3.5164
