~VERSION INFORMATION
 VERS.                2.0:   CWLS LOG ASCII STANDARD - VERSION 2.0
 WRAP.                 NO:   ONE LINE PER DEPTH STEP
~WELL INFORMATION
#MNEM.UNIT      DATA TYPE    INFORMATION
#----------   ------------   ------------------------------
 STRT.F          243.5000:   START DEPTH
 STOP.F         2836.0000:   STOP DEPTH
 STEP.F            0.5000:   STEP LENGTH
 NULL.          -999.2500:   NO VALUE
 COMP. FENIX & SCISSON U. S. NAVY:   COMPANY
 WELL.   FENIX "A" #86-20:   WELL
 FLD .             NPR #3:   FIELD
 LOC .      S20 T39N R78W:   LOCATION
 CNTY.            NATRONA:   COUNTY
 STAT.            WYOMING:   STATE
 CTRY. UNITED STATES OF AMERICA:   COUNTRY
 SRVC.       SCHLUMBERGER:   SERVICE COMPANY
 DATE.        22-MAR-1977:   LOGDATE
 API .     49025103130000:   API NUMBER
~CURVE INFORMATION
#MNEM.UNIT       API CODE    CURVE DESCRIPTION
#----------   ------------   ------------------------------
 DEPT.F                  :   
 SPR .MV     07 010 01 00:   SPONTANEOUS POTENTIAL
 ILD .OHMM   07 120 46 00:   DEEP INDUCTION RESISTIVITY
 ILM .OHMM   07 120 44 00:   INDUCTION LOG MEDIUM RESISTIVITY
 LL8 .OHMM   07 220 08 00:   LATEROLOG-8 RES.
 CALD.IN     45 280 60 00:   CALIPER FROM DENSITY LOG
 GRD .GAPI   45 310 01 00:   GAMMA RAY FROM DENSITY LOG
 RHOB.G/C3   45 350 01 00:   BULK DENSITY
 CORR.G/C3   45 356 01 00:   DENSITY CORRECTION
~PARAMETER INFORMATION
#MNEM.UNIT          VALUE    DESCRIPTION
#----------   ------------   ------------------------------
 EKB .F         5005.0000:   Kelly bushing
 EGL .F         4994.0000:   Ground level
 EDF .F            0.0000:   Drilling floor
 TD  .F         2836.0000:   Total depth
 DATE.        22-MAR-1977:   Date logged
 CLNT.            A2DTECH:   Client Code
 SL  . 330' FEL & 1650' FSL:   Surface Location
 PD  .                 GL:   Permanent Datum
 EPD .F              5005:   Elevation Permanent Datum
 LMF .                 KB:   Log Measured From
 DMF .                 KB:   Drilling Measured From
 DD  .F              2835:   Depth driller
 DL  .F              2836:   Depth logger
 BLI .F              2826:   Bottom log interval
 TLI .F               259:   Top log interval
 CBD1.      8.625" @ 258':   Casing driller 1
 CBL1.F               259:   Casing logger 1
 BS1 .IN            7.875:   Bit size
 DFT .                KCL:   Type fluid in hole
 DFD .                9.1:   Density
 DFV .                 35:   Viscosity
 DFPH.                  9:   pH
 DFL .                8.6:   Fluid loss
 MSS .              CIRC.:   Source of sample
 RMS .OHMM           0.22:   Rm
 MST .F                60:   Rm Meas. temp.
 RMF .OHMM           0.18:   Rmf
 MFST.F                60:   Rmf Meas. temp.
 RMC .OHMM           0.33:   Rmc
 MCST.F                60:   Rmc Meas. temp.
 MFSS.               MEAS:   Source Rmf.
 RMB .OHMM           0.12:   Rm. at BHT
 BHT .F               110:   BHT.
 TCS .HRS            0900:   Time Circ. stopped
 MRT .F               110:   Maximum recorded temp.
 LUN .               7980:   Logging unit number
 LUL .               CSPR:   Logging unit location
 ENGI.                FIX:   Recorded By
 WITN.               JAPP:   Witnessed by
 ORIG.           5" PRINT:   Origin of data
 UWI .     49025103130000:   Unique Well ID
 DICO. A2D TECHNOLOGIES, INC.:   Digitizing Company
 DAPD.                 11:   Feet Above Permanent Datum
 CS1 .              8.625:   Casing size
 BSD1.               2835:   Depth drilled with bit1
 MCSS.               CACL:   Source Rmc.
 TLAB.               1630:   Time logger at bottom
~OTHER INFORMATION
~A   DEPT      SPR        ILD        ILM        LL8       CALD         GRD      RHOB       CORR   
  243.5000  -999.2500  -999.2500  -999.2500  -999.2500  -999.2500    52.2110  -999.2500  -999.2500
  244.0000  -999.2500  -999.2500  -999.2500  -999.2500  -999.2500    54.5990  -999.2500  -999.2500
  244.5000  -999.2500  -999.2500  -999.2500  -999.2500  -999.2500    56.0840  -999.2500  -999.2500
  245.0000  -999.2500  -999.2500  -999.2500  -999.2500  -999.2500    57.2410  -999.2500  -999.2500
  245.5000  -999.2500  -999.2500  -999.2500  -999.2500  -999.2500    58.1130  -999.2500  -999.2500
  246.0000  -999.2500  -999.2500  -999.2500  -999.2500  -999.2500    59.2710  -999.2500  -999.2500
  246.5000  -999.2500  -999.2500  -999.2500  -999.2500  -999.2500    60.7470  -999.2500  -999.2500
  247.0000  -999.2500  -999.2500  -999.2500  -999.2500  -999.2500    62.5590  -999.2500  -999.2500
  247.5000  -999.2500  -999.2500  -999.2500  -999.2500  -999.2500    62.7900  -999.2500  -999.2500
  248.0000  -999.2500  -999.2500  -999.2500  -999.2500  -999.2500    53.1250  -999.2500  -999.2500
  248.5000  -999.2500  -999.2500  -999.2500  -999.2500  -999.2500    54.1470  -999.2500  -999.2500
  249.0000  -999.2500  -999.2500  -999.2500  -999.2500  -999.2500    56.1520  -999.2500  -999.2500
  249.5000  -999.2500  -999.2500  -999.2500  -999.2500  -999.2500    57.1560  -999.2500  -999.2500
  250.0000  -999.2500  -999.2500  -999.2500  -999.2500  -999.2500    56.4160  -999.2500  -999.2500
  250.5000  -999.2500  -999.2500  -999.2500  -999.2500  -999.2500    54.2880  -999.2500  -999.2500
  251.0000  -999.2500  -999.2500  -999.2500  -999.2500  -999.2500    53.2880  -999.2500  -999.2500
  251.5000  -999.2500  -999.2500  -999.2500  -999.2500  -999.2500    53.8340  -999.2500  -999.2500
  252.0000  -999.2500  -999.2500  -999.2500  -999.2500  -999.2500    54.4310  -999.2500  -999.2500
  252.5000  -999.2500  -999.2500  -999.2500  -999.2500  -999.2500    54.5960  -999.2500  -999.2500
  253.0000  -999.2500  -999.2500  -999.2500  -999.2500  -999.2500    54.2200  -999.2500  -999.2500
  253.5000  -999.2500  -999.2500  -999.2500  -999.2500  -999.2500    53.3260  -999.2500  -999.2500
  254.0000  -999.2500  -999.2500  -999.2500  -999.2500  -999.2500    53.0540  -999.2500  -999.2500
  254.5000  -999.2500  -999.2500  -999.2500  -999.2500  -999.2500    53.0620  -999.2500  -999.2500
  255.0000  -999.2500  -999.2500  -999.2500  -999.2500  -999.2500    53.0710  -999.2500  -999.2500
  255.5000  -999.2500  -999.2500  -999.2500  -999.2500  -999.2500    53.4990  -999.2500  -999.2500
  256.0000  -999.2500  -999.2500  -999.2500  -999.2500  -999.2500    53.9620  -999.2500  -999.2500
  256.5000  -999.2500  -999.2500  -999.2500  -999.2500  -999.2500    54.2030  -999.2500  -999.2500
  257.0000  -999.2500  -999.2500  -999.2500  -999.2500  -999.2500    54.0680  -999.2500  -999.2500
  257.5000  -999.2500  -999.2500  -999.2500  -999.2500  -999.2500    55.2140  -999.2500  -999.2500
  258.0000  -999.2500  -999.2500  -999.2500  -999.2500  -999.2500    57.0160  -999.2500  -999.2500
  258.5000  -999.2500  -999.2500  -999.2500  -999.2500  -999.2500    59.5300  -999.2500  -999.2500
  259.0000  -999.2500  -999.2500  -999.2500  -999.2500  -999.2500    62.8390  -999.2500  -999.2500
  259.5000  -999.2500  -999.2500  -999.2500  -999.2500     8.6050    66.7760  -999.2500  -999.2500
  260.0000  -999.2500  -999.2500  -999.2500  -999.2500     8.9780    69.9010  -999.2500  -999.2500
  260.5000  -999.2500  -999.2500  -999.2500  -999.2500     9.3300    71.5260     2.3740  -999.2500
  261.0000  -999.2500  -999.2500  -999.2500  -999.2500     9.3230    72.0990     2.2710     0.1210
  261.5000  -999.2500  -999.2500  -999.2500    10.9880     9.3470    72.5130     2.3060     0.1280
  262.0000  -999.2500  -999.2500  -999.2500    13.0310     9.3690    74.4100     2.3220     0.1220
  262.5000  -999.2500  -999.2500  -999.2500    13.7010     9.3910    76.4950     2.3100     0.1120
  263.0000  -999.2500  -999.2500  -999.2500    14.3710     9.4130    79.3810     2.3220     0.1000
  263.5000  -999.2500  -999.2500  -999.2500    15.0410     9.4350    82.1310     2.3490     0.0720
  264.0000    -8.6240  -999.2500  -999.2500    15.7110     9.4570    83.3130     2.3760     0.0420
  264.5000   -12.1510  -999.2500  -999.2500    16.3810     9.4800    80.8910     2.4080     0.0270
  265.0000   -15.6770  -999.2500  -999.2500    16.6110     9.4860    78.6020     2.4450     0.0440
  265.5000   -19.2030    13.9600  -999.2500    16.1040     9.4830    79.2230     2.4850     0.0520
  266.0000   -22.7300    12.4090  -999.2500    15.6660     9.4800    80.3010     2.4710     0.0380
  266.5000   -26.2560    12.1850  -999.2500    15.2290     9.4770    81.3680     2.4540     0.0240
  267.0000   -29.1670    12.6860  -999.2500    14.7910     9.4740    82.1330     2.4350     0.0120
  267.5000   -30.4630    14.0980  -999.2500    14.3530     9.4710    82.1130     2.4350     0.0200
  268.0000   -32.5350    13.7950  -999.2500    13.8430     9.4690    82.0460     2.4520     0.0310
  268.5000   -34.5250    12.8880  -999.2500    13.4830     9.5000    84.4560     2.4690     0.0420
  269.0000   -36.5130    12.9860     9.8980    13.0510     9.5530    87.4470     2.4790     0.0530
  269.5000   -38.5430    11.5280     9.2710    12.6190     9.6080    89.4960     2.5070     0.0800
  270.0000   -40.2030    10.6210     9.4410    12.1870     9.6060    89.9420     2.5170     0.1050
  270.5000   -41.5260     9.9720     9.8860    11.7490     9.5620    89.5870     2.4960     0.0720
  271.0000   -42.8780     9.9260    10.3420    11.4960     9.5190    88.3680     2.4520     0.0440
  271.5000   -44.2290     9.7920    10.1550    11.2640     9.4840    87.5850     2.4820     0.0640
  272.0000   -45.5700     9.1650     9.3860    11.0310     9.4690    86.2310     2.4920     0.0620
  272.5000   -46.9320     8.2940     9.4630    10.7260     9.4720    84.4040     2.4820     0.0550
  273.0000   -48.2650     7.5870     7.9850    10.3150     9.4770    80.1480     2.4720     0.0480
  273.5000   -49.6080     6.8560     7.0520     9.4270     9.4810    74.1620     2.4540     0.0400
  274.0000   -51.0500     6.0890     6.1180     8.1200     9.4850    72.5680     2.4240     0.0350
  274.5000   -51.8620     5.4650     5.1840     6.8130     9.4880    90.8350     2.4010     0.0560
  275.0000   -51.7730     5.4650     4.8100     4.9890     9.4480   100.0000     2.4000     0.0800
  275.5000   -51.7880     6.0080     5.3130     5.8240     9.4010    94.3300     2.3830     0.0420
  276.0000   -51.7950     6.5520     6.1450     9.8120     9.3550    89.1320     2.4120     0.0100
  276.5000   -51.7850     7.1830     6.9760    12.7130     9.3090    87.3150     2.4830     0.0500
  277.0000   -51.7860     7.0530     7.8070    12.0380     9.2630    88.0110     2.5130     0.0570
  277.5000   -51.7860     8.1320     8.6390    11.5370     9.2170    88.4320     2.5170     0.0620
  278.0000   -51.7900     9.0390     9.4700    11.5370     9.1700    89.1850     2.5100     0.0560
  278.5000   -51.7620     9.9450    10.3020    11.5370     9.1240    88.9150     2.5040     0.0420
  279.0000   -52.0080    10.8520    10.7260    11.5370     9.0790    88.5950     2.4920     0.0290
  279.5000   -52.4190    11.1240    10.3780    11.5370     9.0570    88.8930     2.4850     0.0250
  280.0000   -52.8000    11.1240    10.0600    11.5370     9.0340    91.0740     2.4830     0.0220
  280.5000   -53.1730    11.1240     9.9720    11.8720     9.0120    93.3350     2.4720     0.0360
  281.0000   -53.5630    11.3290     9.9720    12.1710     8.9890    92.9950     2.5030     0.0290
  281.5000   -53.9400    11.6200    10.5700    12.4710     8.9660    92.1120     2.4770     0.0200
  282.0000   -54.3120    11.8760    11.0940    12.7700     8.9430    91.3210     2.4950     0.0470
  282.5000   -54.7380    12.1310    11.6180    13.0700     8.9210    92.7950     2.5470     0.0680
  283.0000   -55.0080    12.3870    12.1410    13.3690     8.8980    94.0830     2.5370     0.0590
  283.5000   -55.5770    12.6420    12.6650    13.6690     8.8930    93.3580     2.5160     0.0470
