~VERSION INFORMATION
 VERS.                2.0:   CWLS LOG ASCII STANDARD - VERSION 2.0
 WRAP.                 NO:   ONE LINE PER DEPTH STEP
~WELL INFORMATION
#MNEM.UNIT      DATA TYPE    INFORMATION
#----------   ------------   ------------------------------
 STRT.F            0.0000:   START DEPTH
 STOP.F         4152.0000:   STOP DEPTH
 STEP.F            0.5000:   STEP LENGTH
 NULL.          -999.2500:   NO VALUE
 COMP. LAWRENCE ALLISON & ASSOCIATES:   COMPANY
 WELL. LAWRENCE "X" #28-27:   WELL
 FLD .             NPR #3:   FIELD
 LOC .      S27 T39N R78W:   LOCATION
 CNTY.            NATRONA:   COUNTY
 STAT.            WYOMING:   STATE
 CTRY. UNITED STATES OF AMERICA:   COUNTRY
 SRVC.      DRESSER ATLAS:   SERVICE COMPANY
 DATE.        26-FEB-1984:   LOGDATE
 API .     49025109630000:   API NUMBER
~CURVE INFORMATION
#MNEM.UNIT       API CODE    CURVE DESCRIPTION
#----------   ------------   ------------------------------
 DEPT.F                  :   
 GRR .GAPI   07 310 01 00:   GAMMA RAY FROM RES.
 TENR.LBS    07 635 01 00:   TENSION FROM RES.
 SPR .MV     07 010 01 00:   SPONTANEOUS POTENTIAL
 RILD.OHMM   07 120 46 00:   RESISTIVITY INDUCTION LOG DEEP
 RILM.OHMM   07 120 44 00:   RESISTIIVTY INDUCTION LOG MEDIUM
 RFOC.OHMM   07 220 04 00:   RESISTIVITY FOCUSED LOG
 DT  .US/F   60 520 00 00:   DELTA TIME
 TENS.LBS    60 635 01 00:   TENSION FROM SONIC
 CALD.IN     45 280 60 00:   CALIPER FROM DENSITY LOG
 TEND.LBS    45 635 01 00:   TENSION FORM DENSITY LOG
 CNC .DEC    42 890 03 00:   NEUTRON POROSITY SANDSTONE
 CORR.G/C3   45 356 01 00:   DENSITY CORRECTION
 DENS.G/C3   45 350 01 00:   DENSITY
~PARAMETER INFORMATION
#MNEM.UNIT          VALUE    DESCRIPTION
#----------   ------------   ------------------------------
 EKB .F         5088.0000:   Kelly bushing
 EGL .F         5078.0000:   Ground level
 EDF .F            0.0000:   Drilling floor
 TD  .F         4154.0000:   Total depth
 CLNT.            A2DTECH:   Client Code
 SL  . 250' FSL & 810' FWL:   Surface Location
 PD  .                 GL:   Permanent Datum
 EPD .F              5078:   Elevation Permanent Datum
 LMF .                 KB:   Log Measured From
 DMF .                 KB:   Drilling Measured From
 DAPD.F                10:   Feet Above Permanent Datum
 DATE.        26-FEB-1984:   Date Logged [DD-MMM-YYYY]
 DD  .F              4154:   Depth driller
 DL  .F              4148:   Depth logger
 BLI .F              4146:   Bottom log interval
 TLI .F                 0:   Top log interval
 CS1 .IN            8.625:   Casing size
 CBD1.      8.625" @ 537':   Casing driller 1
 CBL1.F               540:   Casing logger 1
 BS1 .IN            7.875:   Bit size
 BSD1.F              4154:   Depth drilled with bit1
 DFT .            GEL KCL:   Type fluid in hole
 DFD .                  9:   Density
 DFV .                 45:   Viscosity
 DFPH.                  8:   pH
 DFL .                 14:   Fluid loss
 MSS .           FLOWLINE:   Source of sample
 RMS .OHMM          0.595:   Rm
 MST .F                60:   Rm Meas. temp.
 RMF .OHMM          0.446:   Rmf
 MFST.F                60:   Rmf Meas. temp.
 MFSS.               CALC:   Source Rmf.
 RMC .OHMM          0.744:   Rmc
 MCST.F                60:   Rmc Meas. temp.
 MCSS.               CALC:   Source Rmc.
 RMB .OHMM           0.26:   Rm. at BHT
 BHT .F               138:   BHT.
 TCS .HRS               4:   Time Circ. stopped
 MRT .F               138:   Maximum recorded temp.
 LUN .               6307:   Logging unit number
 LUL .               GLTE:   Logging unit location
 ENGI.           FAHLSING:   Recorded By
 WITN.           JENNINGS:   Witnessed by
 ORIG.      1" 2.5" PRINT:   Origin of data
 UWI .     49025109630000:   Unique Well ID
 DICO. A2D TECHNOLOGIES, INC.:   Digitizing Company
~OTHER INFORMATION
~A    DEPT       GRR     TENR        SPR       RILD       RILM       RFOC         DT       TENS       CALD       TEND        CNC       CORR       DENS   
# ...
 2912.0000   131.0343   -25.7396   -21.2857     5.4429     5.3277     4.4639    82.8049   -32.9412     8.2607   -60.0000     0.2017     0.0477     2.5393
 2912.5000   129.2542   -26.2574   -21.2798     5.4443     5.2721     4.2291    82.6764   -33.1133     8.2614   -60.0000     0.2029     0.0568     2.5467
 2913.0000   128.0043   -26.8652   -21.8682     5.4458     5.2738     4.3715    81.8596   -33.2471     8.2621   -60.0000     0.2041     0.0726     2.5511
 2913.5000   127.4849   -27.3435   -21.8628     5.4473     5.2754     4.6851    80.9823   -33.3823     8.2629   -60.0000     0.2053     0.0870     2.5526
 2914.0000   129.5919   -27.8217   -22.4526     5.4487     5.2768     5.1202    81.1270   -33.5294     8.2636   -60.0000     0.2053     0.0629     2.5527
 2914.5000   128.1091   -28.3284   -22.4464     5.5252     5.3512     4.9849    81.8556   -33.6765     8.2644   -60.0000     0.2045     0.0541     2.5572
 2915.0000   125.7319   -28.8461   -22.4405     5.6793     5.4252     4.9865    82.0002   -33.8492     8.2652   -60.0000     0.1987     0.0511     2.5542
 2915.5000   122.0459   -29.3639   -22.4336     5.7586     5.5269     4.9881    81.5922   -33.9830     8.2660   -60.0000     0.1861     0.0512     2.5542
 2916.0000   120.0314   -29.9742   -22.4282     5.8392     5.5778     5.0016    80.5371   -34.1177     8.2667   -60.0000     0.1859     0.0513     2.5589
 2916.5000   118.3106   -30.4525   -22.4226     5.8143     5.6560     5.1763    80.3077   -33.8535     8.2674   -60.0000     0.1939     0.0544     2.5694
 2917.0000   119.8107   -30.9308   -22.3452     5.7634     5.7349     5.3804    80.1145   -33.2545     8.2378   -60.0000     0.1951     0.0581     2.5739
 2917.5000   123.4036   -31.4348   -22.1131     5.6872     5.8149     5.4934    79.9027   -32.6555     8.2083   -60.0000     0.1934     0.0778     2.5709
 2918.0000   125.8030   -31.9526   -22.1061     5.7666     5.8962     5.3479    79.6555   -32.0565     8.1787   -60.0000     0.1850     0.1191     2.5661
 2918.5000   125.6497   -32.4703   -22.1007     5.7681     5.8978     5.2774    79.7998   -31.4575     8.1492   -60.0000     0.1800     0.1569     2.5556
 2919.0000   124.3503   -33.0829   -21.7976     5.8603     6.0193     5.2791    80.2364   -30.8586     8.1501   -60.0000     0.1806     0.1630     2.5404
 2919.5000   121.6615   -33.5612   -21.8532     6.0371     6.1471     5.2809    80.3811   -30.2596     8.1508   -60.0000     0.1800     0.1390     2.5155
 2920.0000   117.4933   -34.0395   -22.0844     6.2193     6.4048     5.2827    80.3407   -29.6606     8.1212   -60.0000     0.1774     0.0755     2.4790
 2920.5000   111.8668   -35.9894   -22.0763     7.2389     6.6733     5.3571    79.9528   -29.0616     8.0916   -60.0000     0.1742     0.0670     2.4579
 2921.0000   101.1417   -58.4856   -22.0708     8.3601     7.8142     5.5817    78.1866   -28.4626     8.0924   -60.0000     0.1702     0.0671     2.4610
 2921.5000    78.2674   -44.0304   -22.3630     9.2569     9.0767     6.0576    77.7473   -27.8636     8.0825   -60.0000     0.1625     0.0716     2.4690
 2922.0000    68.3784   -44.3786   -22.3571    10.1303    10.1779     8.2391    77.7460   -27.2647     8.0636   -60.0000     0.1553     0.0793     2.4798
 2922.5000    72.7769   -44.7486   -22.3512    11.0496    11.1886    10.6923    77.5985   -26.6657     8.0948   -60.0000     0.1499     0.0793     2.4863
 2923.0000    75.1761   -51.7000   -22.1784    12.3235    12.4289    10.2679    77.5378   -26.0667     8.0955   -60.0000     0.1475     0.0764     2.4898
 2923.5000    75.0426   -60.3426   -22.0410    13.2470    13.1129    10.1318    76.8654   -25.4677     8.0962   -60.0000     0.1530     0.0670     2.4882
 2924.0000    73.2181   -60.6802   -22.0356    14.0684    13.6609    10.9012    74.3823   -24.8687     8.0970   -60.0000     0.1656     0.0548     2.4641
 2924.5000    61.4826   -61.0207   -21.9883    14.8282    14.4268    12.6631    72.9212   -24.2697     8.1036   -60.0000     0.1667     0.0495     2.4491
 2925.0000    56.7173   -61.3906   -21.7262    14.9217    14.4287    14.8339    72.0195   -23.6708     8.1288   -60.0000     0.1474     0.0541     2.4324
 2925.5000    55.4985   -61.7603   -21.7202    14.9235    14.7352    14.8643    71.6046   -23.0718     8.1295   -60.0000     0.1233     0.0557     2.4310
 2926.0000    54.3510   -62.1993   -21.7135    15.1621    15.2401    12.9330    73.1177   -22.3766     8.1607   -60.0000     0.1125     0.0347     2.4542
 2926.5000    59.1403   -62.5369   -21.7081    15.3399    15.4507    12.4417    75.2509   -22.5104     8.1615   -60.0000     0.1113     0.0198     2.5257
 2927.0000    59.1543   -62.8698   -21.6706    15.6712    16.0965    12.6963    74.6656   -22.6471     8.1622   -60.0000     0.1155     0.0138     2.5593
 2927.5000    57.9711   -63.2396   -21.3096    16.6514    16.8458    13.8786    72.7153   -22.7941     8.1629   -60.0000     0.1335     0.0159     2.5608
 2928.0000    55.5787   -63.6095   -20.9483    17.3483    17.4703    23.5799    67.1547   -22.9412     8.1636   -60.0000     0.1559     0.0342     2.5397
 2928.5000    54.4108   -63.9793   -20.4932    17.2753    16.7742    45.6194    62.1113   -23.1124     8.1340   -60.0000     0.1793     0.0517     2.4536
 2929.0000    55.2634   -64.3939   -20.1901    16.6576    16.1053    52.0636    59.9151   -23.2462     8.1211   -60.0000     0.1962     0.0653     2.4120
 2929.5000    56.8260   -49.9386   -20.8015    16.2128    15.4355    46.7823    59.7498   -23.3823     8.1053   -60.0000     0.1992     0.0684     2.3908
 2930.0000    63.4041   -50.2959   -21.4484    15.7789    14.7140    27.0409    64.7778   -38.2353     8.1062   -60.0000     0.1985     0.0714     2.3822
 2930.5000    66.4000   -50.6656   -21.6607    15.7809    14.4503    18.4900    69.8866   -38.3824     8.1069   -60.0000     0.1947     0.0676     2.3845
 2931.0000    69.1459   -51.0355   -21.0586    15.7830    14.4525    13.3254    73.3430   -38.5542     8.1076   -60.0000     0.1826     0.0366     2.4041
 2931.5000    73.1922   -51.4577   -20.7555    15.7852    14.8530    12.7734    77.1341   -53.3938     8.1083   -60.0000     0.1528     0.0044     2.4796
 2932.0000    82.5575   -37.0024   -20.4403    16.2238    15.3208    11.7577    78.7386   -53.5294     8.1002   -60.0000     0.1515     0.0071     2.4918
 2932.5000    87.3445   -37.3521   -20.5854    16.9028    16.1943    11.0462    78.5813   -53.6614     8.0795   -60.0000     0.1582     0.0327     2.4871
 2933.0000    87.3674   -37.7219   -21.4603    17.3719    17.0245    11.6664    76.6458   -52.7211     8.0805   -60.0000     0.1676     0.0599     2.4636
 2933.5000    84.3091   -31.3993   -22.2202    17.8979    17.7364    14.6432    70.6217   -51.8683     8.0812   -60.0000     0.1735     0.0840     2.3901
 2934.0000    70.6723   -23.6687   -22.8090    18.1959    17.7547    17.2003    68.0756   -51.0156     8.0515   -60.0000     0.1780     0.0738     2.3635
 2934.5000    62.3188   -24.0665   -23.4026    18.3529    17.5011    17.5499    67.4252   -50.1628     8.0523   -60.0000     0.1811     0.0363     2.3590
 2935.0000    59.3446    -9.6112   -24.3453    18.3551    17.5036    15.9629    69.5328   -49.3100     8.0530   -60.0000     0.1829     0.0180     2.3591
 2935.5000    56.9674    -9.9852   -24.5784    18.1090    17.5060    13.3821    73.7693   -48.4572     8.0538   -60.0000     0.1823     0.0227     2.3674
 2936.0000    56.2866   -10.3550   -24.5703    17.8661    17.2718    13.2048    76.2539   -47.6044     8.0545   -60.0000     0.1684     0.0332     2.3929
 2936.5000    55.7951   -10.7929   -23.9696    17.8688    17.0407    13.4874    76.8277   -46.7516     8.0553   -59.1475     0.1693     0.0393     2.4256
 2937.0000    55.5425   -11.1305   -23.6666    17.6294    17.0430    14.3224    75.9502   -45.8988     8.0562   -57.4426     0.1751     0.0394     2.4361
 2937.5000    61.7924   -11.4681   -23.3631    17.3934    16.9685    15.3463    73.7591   -45.0460     8.0569   -55.7377     0.1745     0.0362     2.4074
