~VERSION INFORMATION
 VERS.                2.0:   CWLS LOG ASCII STANDARD - VERSION 2.0
 WRAP.                 NO:   ONE LINE PER DEPTH STEP
~WELL INFORMATION
#MNEM.UNIT      DATA TYPE    INFORMATION
#----------   ------------   ------------------------------
 STRT.F          200.0000:   START DEPTH
 STOP.F         3196.5000:   STOP DEPTH
 STEP.F            0.5000:   STEP LENGTH
 NULL.          -999.2500:   NO VALUE
 COMP.    FENIX & SCISSON:   COMPANY
 WELL. FENIX & SCISSON #82-15:   WELL
 FLD .                NPR:   FIELD
 LOC .      S15 T38N R78W:   LOCATION
 CNTY.            NATRONA:   COUNTY
 STAT.            WYOMING:   STATE
 CTRY. UNITED STATES OF AMERICA:   COUNTRY
 SRVC.              WELEX:   SERVICE COMPANY
 DATE.        14-AUG-1977:   LOGDATE
 API .     49025104100000:   API NUMBER
~CURVE INFORMATION
#MNEM.UNIT       API CODE    CURVE DESCRIPTION
#----------   ------------   ------------------------------
 DEPT.F                  :   
 CALD.IN     45 280 60 00:   CALIPER FROM DENSITY LOG
 GRD .GAPI   45 310 01 00:   GAMMA RAY FROM DENSITY LOG
 RHOB.G/C3   45 350 01 00:   BULK DENSITY
 CORR.G/C3   45 356 01 00:   DENSITY CORRECTION
 SPR .MV     07 010 01 00:   SPONTANEOUS POTENTIAL
 ILD .OHMM   07 120 46 00:   DEEP INDUCTION RESISTIVITY
 ILM .OHMM   07 120 44 00:   INDUCTION LOG MEDIUM RESISTIVITY
 GURD.OHMM   07 220 05 00:   GUARD LOG RESISTIVITY
~PARAMETER INFORMATION
#MNEM.UNIT          VALUE    DESCRIPTION
#----------   ------------   ------------------------------
 EKB .F         5259.0000:   Kelly bushing
 EGL .F         5249.0000:   Ground level
 EDF .F            0.0000:   Drilling floor
 EPD .F            0.0000:   Permanent datum
 TD  .F         3197.0000:   Total depth
 CLNT.            A2DTECH:   Client Code
 SL  . 990' FNL & 330' FEL:   Surface Location
 PD  .                 GL:   Permanent Datum
 DAPD.F                10:   Feet Above Permanent Datum
 DATE.        14-AUG-1977:   Date Logged [DD-MMM-YYYY]
 DD  .F              3197:   Depth driller
 DL  .F              3200:   Depth logger
 BLI .F              3198:   Bottom log interval
 TLI .F               200:   Top log interval
 CS1 .IN            8.625:   Casing size
 CBD1.      8.625" @ 236':   Casing driller 1
 CBL1.F               220:   Casing logger 1
 BS1 .IN            7.875:   Bit size
 BSD1.F              3197:   Depth drilled with bit1
 DFT .            KCL MUD:   Type fluid in hole
 DFD .                9.1:   Density
 DFV .                 42:   Viscosity
 DFPH.               10.5:   pH
 DFL .                7.2:   Fluid loss
 MSS .           FLOWLINE:   Source of sample
 RMS .OHMM          0.240:   Rm
 MST .F                92:   Rm Meas. temp.
 RMF .OHMM          0.160:   Rmf
 MFST.F                92:   Rmf Meas. temp.
 MFSS.               MEAS:   Source Rmf.
 RMC .OHMM          0.238:   Rmc
 MCST.F                92:   Rmc Meas. temp.
 MCSS.               MEAS:   Source Rmc.
 RMB .OHMM          0.194:   Rm. at BHT
 BHT .F               114:   BHT.
 TCS .HRS               3:   Time Circ. stopped
 MRT .F               114:   Maximum recorded temp.
 LUN .               9685:   Logging unit number
 LUL .             CASPER:   Logging unit location
 ENGI.            C. DOAK:   Recorded By
 WITN.      W. PETTINGILL:   Witnessed by
 ORIG.           5" PRINT:   Origin of data
 UWI .     49025104100000:   Unique Well ID
 DICO. A2D TECHNOLOGIES, INC.:   Digitizing Company
~OTHER INFORMATION
~A   DEPT       CALD       GRD        RHOB      CORR       SPR        ILD        ILM       GURD   
# ...
 1172.0000    13.6140   114.0669     2.4288     0.0092   -64.0866     6.0948     5.4227     6.1612
 1172.5000    13.6306   115.0376     2.4305     0.0095   -64.3636     6.0989     5.2048     6.1650
 1173.0000    13.6472   115.9272     2.4309     0.0067   -64.4955     6.1461     5.1360     6.1688
 1173.5000    13.6488   115.9562     2.4287     0.0053   -64.6278     6.1503     5.1026     6.1725
 1174.0000    13.6654   115.3782     2.4279     0.0056   -64.6099     6.1109     5.1416     6.2192
 1174.5000    13.6670   115.1125     2.4273     0.0064   -64.7418     6.1161     5.2524     6.2662
 1175.0000    13.6687   115.1436     2.4326     0.0075   -64.7235     6.1202     5.2552     6.2700
 1175.5000    13.7006   115.4725     2.4394     0.0107   -64.8561     6.1244     5.1857     6.2740
 1176.0000    13.7172   116.4336     2.4476     0.0169   -64.8341     6.0861     5.0468     6.1913
 1176.5000    13.7637   117.6367     2.4546     0.0186   -64.8166     6.0483     4.9374     6.1099
 1177.0000    13.7803   117.6657     2.4635     0.0203   -64.7990     6.0106     4.7799     5.9466
 1177.5000    13.7819   117.6947     2.4687     0.0205   -65.0848     5.9732     4.9517     5.9511
 1178.0000    13.7685   117.4238     2.4718     0.0222   -65.0628     5.9782     5.1289     5.9548
 1178.5000    13.7702   116.5460     2.4726     0.0254   -65.1991     5.9823     5.2758     5.9584
 1179.0000    13.7721   116.2819     2.4712     0.0302   -65.3274     5.9440     5.2787     5.9620
 1179.5000    13.7735   116.0115     2.4689     0.0274   -65.3091     5.9490     5.2816     5.9656
 1180.0000    13.7751   116.3476     2.4644     0.0216   -65.2915     5.9530     5.2844     5.9693
 1180.5000    13.7619   116.6765     2.4585     0.0143   -65.2735     5.9571     5.2507     5.9729
 1181.0000    13.7481   117.6050     2.4548     0.0100   -65.2556     5.9611     5.2174     5.9767
 1181.5000    13.7351   118.2337     2.4525     0.0057   -65.2344     6.0066     5.1453     5.9811
 1182.0000    13.7217   119.1623     2.4511     0.0036   -65.2168     6.0107     5.1156     5.9847
 1182.5000    13.7083   119.1913     2.4466     0.0031   -65.1992     6.0567     5.2629     5.9884
 1183.0000    13.7103   119.2204     2.4309     0.0034   -65.1817     6.0616     5.4136     5.9920
 1183.5000    13.7119   119.2504     2.4379     0.0036   -65.1641     6.1079     5.6074     5.9953
 1184.0000    13.7135   119.5853     2.4520     0.0083   -65.1465     6.1120     5.7282     5.9993
 1184.5000    13.6997   120.5139     2.4528     0.0085   -65.1290     6.1161     5.5747     6.0030
 1185.0000    13.6864   120.8427     2.4453     0.0073   -65.1114     6.1202     5.1686     6.0067
 1185.5000    13.7033   119.9721     2.4386     0.0044   -65.0938     6.0811     4.8927     6.0103
 1186.0000    13.7049   119.1016     2.4334     0.0031   -65.0762     6.0862     4.8280     6.0140
 1186.5000    13.7066   119.4305     2.4402     0.0049   -65.0587     6.0066     4.8980     6.0176
 1187.0000    13.6931   120.6597     2.4530     0.0066   -65.3642     5.9280     4.9008     5.9394
 1187.5000    13.6797   120.6951     2.4600     0.0112   -65.9204     5.9320     4.8365     5.9430
 1188.0000    13.6364   119.5247     2.4695     0.0174   -66.2018     5.8543     4.7396     5.8639
 1188.5000    13.5934   118.3543     2.4755     0.0221   -66.4831     5.7777     4.6126     5.8279
 1189.0000    13.5796   118.3833     2.4771     0.0238   -66.6150     5.6246     4.4891     5.7903
 1189.5000    13.5666   119.0120     2.4711     0.0225   -66.7470     5.6284     4.3985     5.7539
 1190.0000    13.5682   119.9405     2.4667     0.0183   -66.7250     5.5538     4.4015     5.7177
 1190.5000    13.5702   120.8696     2.4652     0.0185   -66.7074     5.4811     4.4963     5.6825
 1191.0000    13.5718   121.4977     2.4675     0.0217   -66.6899     5.4478     4.5615     5.6467
 1191.5000    13.5734   120.5268     2.4683     0.0249   -66.6723     5.4139     4.5325     5.6502
 1192.0000    13.5750   119.7639     2.4661     0.0236   -66.6547     5.3431     4.5349     5.6538
 1192.5000    13.5766   119.7929     2.4616     0.0174   -66.6368     5.3468     4.4441     5.6579
 1193.0000    13.5481   120.4216     2.4557     0.0091   -66.6188     5.3512     4.5091     5.6614
 1193.5000    13.5348   121.0503     2.4445     0.0003   -66.5976     5.4295     4.5429     5.6648
 1194.0000    13.5214   121.3793     2.4392    -0.0055   -66.5800     5.4332     4.5454     5.6683
 1194.5000    13.4930   121.4093     2.4469    -0.0053   -66.5625     5.4369     4.5478     5.6717
 1195.0000    13.4796   121.4444     2.4483    -0.0006   -66.5449     5.4783     4.3954     5.6752
 1195.5000    13.5116   120.5738     2.4461     0.0026   -66.5273     5.5201     4.2777     5.6786
 1196.0000    13.5432   119.7032     2.4439     0.0058   -66.5098     5.5239     4.2211     5.6821
 1196.5000    13.5748   118.8254     2.4439     0.0090   -66.4922     5.5276     4.2234     5.6856
 1197.0000    13.6063   118.5607     2.4492     0.0152   -66.4746     5.5339     4.2257     5.6891
 1197.5000    13.6079   118.5908     2.4552     0.0244   -66.4570     5.6124     4.3173     5.7329
 1198.0000    13.6095   119.5563     2.4599     0.0291   -66.4395     5.6170     4.4718     5.7364
 1198.5000    13.5666   120.1553     2.4643     0.0308   -66.5714     5.6599     4.8284     5.7798
 1199.0000    13.5232   120.1843     2.4584     0.0280   -66.7033     5.7030     4.9667     5.7833
 1199.5000    13.4798   119.3065     2.4524     0.0223   -66.8308     5.6278     4.8672     5.8271
 1200.0000    13.4326   119.0357     2.4509     0.0179   -66.9671     5.6325     4.8022     5.8712
 1200.5000    13.4117   118.6937     2.4615     0.0257   -66.6508     5.5579     4.8400     5.8751
 1201.0000    13.3941   118.2048     2.4683     0.0274   -66.6362     5.5626     4.8441     5.8791
 1201.5000    13.3805   119.1442     2.4682     0.0156   -66.6215     5.5664     4.8488     5.8831
 1202.0000    13.3673   120.0757     2.4588     0.0098   -66.7564     5.6089     4.8528     5.8871
 1202.5000    13.3704   120.7073     2.4589     0.0085   -66.8912     5.6127     4.6591     5.8966
 1203.0000    13.4306   121.6388     2.4597     0.0057   -66.8759     5.5776     4.5978     5.9370
 1203.5000    13.4920   121.3703     2.4575     0.0044   -67.1609     5.5815     4.5698     5.9410
 1204.0000    13.5384   121.1029     2.4494     0.0046   -67.1425     5.5853     4.5115     5.9451
 1204.5000    13.5698   121.1428     2.4419     0.0048   -67.1279     5.5891     4.5466     5.9491
 1205.0000    13.6162   121.7744     2.4357     0.0050   -67.2664     5.5929     4.5819     5.9531
 1205.5000    13.6327   122.4060     2.4301     0.0051   -67.0986     5.5197     4.5857     5.9571
 1206.0000    13.6645   123.0377     2.4287     0.0038   -67.0840     5.5244     4.5894     5.9190
 1206.5000    13.6959   123.3694     2.4273    -0.0005   -67.0693     5.5281     4.4987     5.9240
 1207.0000    13.7123   123.1015     2.4289    -0.0018   -66.7557     5.5319     4.4713     5.9280
 1207.5000    13.7438   122.8336     2.4322    -0.0012   -66.5916     5.5356     4.4758     5.8911
 1208.0000    13.7452   122.1819     2.4373     0.0016   -66.7265     5.5394     4.4795     5.7739
 1208.5000    13.7466   122.3057     2.4420     0.0063   -67.0108     5.4660     4.5143     5.6993
 1209.0000    13.7781   122.3376     2.4427     0.0080   -66.9955     5.3210     4.5810     5.6247
 1209.5000    13.7799   122.9692     2.4390     0.0067   -66.6789     5.2879     4.5847     5.6285
 1210.0000    13.7813   123.2984     2.4349     0.0052   -66.5148     5.2551     4.5559     5.5539
 1210.5000    13.8127   123.6328     2.4309     0.0011   -66.6532     5.2587     4.4978     5.5193
 1211.0000    13.8442   123.6647     2.4258    -0.0002   -66.7844     5.3051     4.5014     5.4849
 1211.5000    13.8906   123.6972     2.4229     0.0000   -66.9229     5.3401     4.5679     5.4896
 1212.0000    13.9070   123.7365     2.4237     0.0002   -67.0577     5.3437     4.6676     5.4933
