~VERSION INFORMATION
 VERS.                2.0:   CWLS LOG ASCII STANDARD - VERSION 2.0
 WRAP.                 NO:   ONE LINE PER DEPTH STEP
~WELL INFORMATION
#MNEM.UNIT      DATA TYPE    INFORMATION
#----------   ------------   ------------------------------
 STRT.F           89.5000:   START DEPTH
 STOP.F         1300.5000:   STOP DEPTH
 STEP.F            0.5000:   STEP LENGTH
 NULL.          -999.2500:   NO VALUE
 COMP.            US NAVY:   COMPANY
 WELL. US NPR 3 "S" #62-11:   WELL
 FLD .             TEAPOT:   FIELD
 LOC .      S11 T38N R78W:   LOCATION
 CNTY.            NATRONA:   COUNTY
 STAT.            WYOMING:   STATE
 CTRY. UNITED STATES OF AMERICA:   COUNTRY
 SRVC.       SCHLUMBERGER:   SERVICE COMPANY
 DATE.        20-JUL-1964:   LOGDATE
 API .     49025063660000:   API NUMBER
~CURVE INFORMATION
#MNEM.UNIT       API CODE    CURVE DESCRIPTION
#----------   ------------   ------------------------------
 DEPT.F                  :   
 CALS.IN     60 280 50 00:   CALIPER FROM SONIC LOG
 DT  .US/F   60 520 33 00:   DELTA TIME
 SPR .MV     05 010 01 00:   SPONTANEOUS POTENTIAL FROM RES.
 ASN .OHMM   05 041 16 00:   AMPLIFIED SHORT NORMAL 16"
 ILD .OHMM   05 120 46 00:   INDUCTION LOG DEEP
~PARAMETER INFORMATION
#MNEM.UNIT          VALUE    DESCRIPTION
#----------   ------------   ------------------------------
 EKB .F         5223.0000:   Kelly bushing
 EGL .F         5215.0000:   Ground level
 EDF .F            0.0000:   Drilling floor
 TD  .F         1303.0000:   Total depth
 DATE.        20-JUL-1964:   Date logged
 CLNT.            A2DTECH:   Client Code
 PD  .                 GL:   Permanent Datum
 EPD .F              5215:   Elevation Permanent Datum
 LMF .                 KB:   Log Measured From
 DMF .                 KB:   Drilling Measured From
 DAPD.F                 8:   Feet Above Permanent Datum
 DD  .F              1303:   Depth driller
 DL  .F              1300:   Depth logger
 BLI .F              1299:   Bottom log interval
 TLI .F                94:   Top log interval
 CS1 .IN            12.25:   Casing size
 CBD1.       12.25" @ 10':   Casing driller 1
 BS1 .IN               11:   Bit size
 BSD1.F              1303:   Depth drilled with bit1
 DFT .            GEL/OIL:   Type fluid in hole
 DFD .                9.8:   Density
 DFV .                 60:   Viscosity
 DFL .                 10:   Fluid loss
 MSS .           FLOWLINE:   Source of sample
 RMS .OHMM           3.13:   Rm
 MST .F                86:   Rm Meas. temp.
 RMF .OHMM           1.81:   Rmf
 MFST.F                86:   Rmf Meas. temp.
 RMC .OHMM           3.39:   Rmc
 MCST.F                86:   Rmc Meas. temp.
 MFSS.                 FP:   Source Rmf.
 MCSS.                 FP:   Source Rmc.
 TCS .HRS             2.5:   Time Circ. stopped
 LUN .               4507:   Logging unit number
 LUL .               CSPR:   Logging unit location
 ENGI.             DANNER:   Recorded By
 WITN.         JORGENESEN:   Witnessed by
 ORIG.       2", 5" PRINT:   Origin of data
 UWI .     49025063660000:   Unique Well ID
 DICO. A2D TECHNOLOGIES, INC.:   Digitizing Company
~OTHER INFORMATION
~A   DEPT     CALS         DT        SPR        ASN          ILD 
# ...
  699.5000    11.3040    92.6340   -38.0020     8.6590     8.2690
  700.0000    11.2990    92.3310   -38.0270     8.6530     8.1950
  700.5000    11.3010    91.9870   -38.0560     8.6350     8.0720
  701.0000    11.3030    91.9450   -38.0840     8.6420     7.9930
  701.5000    11.3040    91.9020   -38.1110     8.6080     7.8830
  702.0000    11.3060    92.4520   -38.1370     8.5560     7.6940
  702.5000    11.3080    93.1910   -38.1710     8.4440     7.4460
  703.0000    11.3090    93.9300   -38.1870     8.1880     7.2050
  703.5000    11.3110    94.6690   -38.2310     7.9280     6.9930
  704.0000    11.3130    95.5580   -38.2460     7.7160     6.7980
  704.5000    11.3140    96.4790   -38.0400     7.5020     6.6320
  705.0000    11.3160    97.4000   -37.7280     7.3390     6.4900
  705.5000    11.3170    98.3220   -37.4580     7.2610     6.4050
  706.0000    11.3170    99.2430   -37.1440     7.2890     6.3880
  706.5000    11.3170    99.4590   -36.9160     7.3940     6.4040
  707.0000    11.3170    99.1990   -36.9070     7.4900     6.4800
  707.5000    11.3170    98.7710   -36.9360     7.5280     6.5830
  708.0000    11.3170    98.3210   -36.9340     7.5070     6.6740
  708.5000    11.3170    97.8720   -36.9510     7.5110     6.7700
  709.0000    11.3150    97.4220   -36.9610     7.5760     6.8630
  709.5000    11.3140    96.9730   -36.9690     7.6300     6.9620
  710.0000    11.3120    96.5230   -36.9830     7.6440     7.0500
  710.5000    11.3110    96.1420   -36.9920     7.6360     7.0970
  711.0000    11.3090    95.9420   -37.0030     7.6380     7.1430
  711.5000    11.3070    95.7430   -37.0150     7.6810     7.1940
  712.0000    11.3060    95.5440   -37.0250     7.7790     7.2360
  712.5000    11.3040    95.3440   -37.0360     7.8800     7.2810
  713.0000    11.3030    95.2260   -37.0490     7.9300     7.3270
  713.5000    11.3010    95.1350   -37.0570     7.9710     7.3710
  714.0000    11.2990    95.0430   -37.0710     8.0250     7.4150
  714.5000    11.3000    94.9520   -37.0810     8.0730     7.4620
  715.0000    11.3370    94.8610   -37.0880     8.1220     7.4890
  715.5000    11.3730    94.7690   -37.1410     8.1390     7.4730
  716.0000    11.3960    94.6780   -37.2300     8.1170     7.4430
  716.5000    11.3820    94.5950   -37.3520     8.0970     7.4180
  717.0000    11.3690    94.9010   -37.4440     8.0680     7.3900
  717.5000    11.3560    95.1810   -37.3830     8.0220     7.3630
  718.0000    11.3590    95.4610   -37.2410     7.9840     7.3360
  718.5000    11.3620    95.7220   -37.0730     7.9350     7.3080
  719.0000    11.3650    95.8810   -36.9190     7.8910     7.2920
  719.5000    11.3680    96.0400   -36.9320     7.9030     7.2910
  720.0000    11.3710    96.1960   -37.0450     7.9410     7.2920
  720.5000    11.3740    96.1640   -37.1320     7.9700     7.2910
  721.0000    11.3750    96.1320   -37.2220     7.9850     7.2920
  721.5000    11.3750    96.1000   -37.3270     7.9830     7.2920
  722.0000    11.3750    95.9590   -37.4110     7.9800     7.2920
  722.5000    11.3750    95.8020   -37.5050     7.9790     7.2920
  723.0000    11.3750    95.6210   -37.6160     7.9760     7.2920
  723.5000    11.3750    95.3890   -37.6750     7.9740     7.2930
  724.0000    11.3750    95.1580   -37.8190     7.9710     7.2920
  724.5000    11.3750    94.9260   -38.0350     7.9710     7.2930
  725.0000    11.3750    94.6950   -38.0320     7.9660     7.2940
  725.5000    11.3750    94.8910   -37.9340     7.9510     7.2910
  726.0000    11.3750    95.0870   -37.9010     7.9290     7.2970
  726.5000    11.3750    95.2330   -37.8350     7.8870     7.2910
  727.0000    11.3720    95.2950   -37.7750     7.8370     7.2920
  727.5000    11.3690    95.2950   -37.7250     7.7730     7.3010
  728.0000    11.3670    95.1750   -37.6580     7.7120     7.2790
  728.5000    11.3640    95.0400   -37.6070     7.6940     7.3120
  729.0000    11.3610    94.9050   -37.5460     7.6760     7.2720
  729.5000    11.3590    94.7700   -37.4850     7.6570     6.9870
  730.0000    11.3560    94.6360   -37.4570     7.6190     6.6970
  730.5000    11.3420    94.5010   -37.4280     7.5130     6.4650
  731.0000    11.3220    94.4560   -37.3980     7.4250     6.1890
  731.5000    11.3030    94.7470   -37.3720     7.2840     5.9490
  732.0000    11.2830    95.9890   -37.3340     7.0380     5.6730
  732.5000    11.2630    97.4150   -37.3200     6.8040     5.4170
  733.0000    11.2600    99.7500   -37.2780     6.5130     5.3400
  733.5000    11.2600   102.2170   -37.1000     6.2000     5.3150
  734.0000    11.2780   104.6840   -36.8870     6.0520     5.2990
  734.5000    11.2960   106.8070   -36.8480     6.0130     5.3070
  735.0000    11.3050   106.1400   -37.0050     6.0410     5.3050
  735.5000    11.3330   105.4340   -37.2240     6.2300     5.3970
  736.0000    11.3550   104.7270   -37.3930     6.5000     5.5850
  736.5000    11.3530   104.0200   -37.4410     6.6780     5.7720
  737.0000    11.3500   103.3130   -37.3630     6.7790     5.9590
  737.5000    11.3470   102.6070   -37.2700     6.8680     6.1000
  738.0000    11.3440   102.1300   -37.2130     6.9380     6.1560
  738.5000    11.3410   101.7820   -37.0830     6.9940     6.1940
  739.0000    11.3390   101.5320   -36.9090     7.0590     6.2400
  739.5000    11.3370   101.2820   -36.8520     7.1080     6.2800
  740.0000    11.3390   101.0320   -36.8410     7.1090     6.3220
  740.5000    11.3420   100.7810   -36.7960     7.0930     6.3680
  741.0000    11.3440   100.5310   -36.7740     7.0830     6.4040
  741.5000    11.3460   100.2810   -36.7360     7.0750     6.4520
  742.0000    11.3480   100.0300   -36.7170     7.0590     6.4980
  742.5000    11.3500    99.7800   -36.7920     7.0000     6.4660
  743.0000    11.3520    99.5300   -36.8840     6.9050     6.3980
  743.5000    11.3540    99.2800   -36.9630     6.7970     6.3360
  744.0000    11.3520    99.0990   -37.0540     6.6880     6.1550
  744.5000    11.3450    99.0990   -37.1350     6.6070     5.8510
  745.0000    11.3370    99.0990   -37.2240     6.5520     5.5460
  745.5000    11.3300    99.1640   -37.2900     6.4470     5.2400
  746.0000    11.3220    99.3600   -37.2380     6.2520     4.9400
  746.5000    11.3180    99.5560   -37.1000     6.0370     4.7020
  747.0000    11.3220    99.9960   -36.9670     5.8290     4.5210
  747.5000    11.3250   101.2180   -36.8320     5.5740     4.4250
  748.0000    11.3280   102.9160   -36.6940     5.2630     4.3950
  748.5000    11.3320   104.5560   -36.5660     5.0540     4.2900
  749.0000    11.3350   106.0120   -36.4220     5.0270     4.2340
  749.5000    11.3380   106.1060   -36.3330     5.0950     4.4660
  750.0000    11.3420   105.1240   -36.3590     5.3780     4.8260
  750.5000    11.3450   104.3550   -36.4040     5.8320     5.1310
  751.0000    11.3480   103.1810   -36.4320     6.1410     5.4620
  751.5000    11.3520   101.6660   -36.4710     6.3550     5.8010
  752.0000    11.3550   100.1520   -36.5060     6.5750     6.0990
  752.5000    11.3570    98.9900   -36.5400     6.7850     6.4650
  753.0000    11.3600    98.2810   -36.5770     6.9360     6.7740
  753.5000    11.3620    97.8570   -36.6110     7.0140     6.8370
  754.0000    11.3650    97.4700   -36.6470     7.0920     6.8460
  754.5000    11.3680    97.1260   -36.6830     7.1730     6.9060
  755.0000    11.3700    97.0570   -36.7180     7.2510     6.9390
  755.5000    11.3730    97.1600   -36.7530     7.3310     6.9780
  756.0000    11.3750    97.2630   -36.7910     7.4100     7.0230
  756.5000    11.3730    97.5660   -36.8210     7.4900     7.0600
  757.0000    11.3720    97.9980   -36.8640     7.5670     7.1000
  757.5000    11.3710    98.7710   -36.9020     7.6500     7.1450
  758.0000    11.3690    99.1700   -36.8870     7.7260     7.1900
  758.5000    11.3680    98.8190   -36.8490     7.8150     7.1980
  759.0000    11.3660    98.4690   -36.8190     7.9020     7.1910
  759.5000    11.3650    98.1180   -36.7850     7.9350     7.2010
  760.0000    11.3630    97.7680   -36.7520     7.9530     7.2130
