~VERSION INFORMATION
 VERS.                2.0:   CWLS LOG ASCII STANDARD - VERSION 2.0
 WRAP.                 NO:   ONE LINE PER DEPTH STEP
~WELL INFORMATION
#MNEM.UNIT      DATA TYPE    INFORMATION
#----------   ------------   ------------------------------
 STRT.F           10.5000:   START DEPTH
 STOP.F         5650.0000:   STOP DEPTH
 STEP.F            0.5000:   STEP LENGTH
 NULL.          -999.2500:   NO VALUE
 COMP.    FENIX & SCISSON:   COMPANY
 WELL. FENIX NPR 3 "LX" #56-3:   WELL
 FLD .              N P R:   FIELD
 LOC .       S3 T38N R78W:   LOCATION
 CNTY.            NATRONA:   COUNTY
 STAT.            WYOMING:   STATE
 CTRY. UNITED STATES OF AMERICA:   COUNTRY
 SRVC.              WELEX:   SERVICE COMPANY
 DATE.        13-JUN-1978:   LOGDATE
 API .     49025109250000:   API NUMBER
~CURVE INFORMATION
#MNEM.UNIT       API CODE    CURVE DESCRIPTION
#----------   ------------   ------------------------------
 DEPT.F                  :   
 NPHI.DEC    42 890 03 00:   NEUTRON POROSITY SANDSTONE
 SPR .MV     07 010 01 00:   SPONTANEOUS POTENTIAL
 ILD .OHMM   07 120 46 00:   DEEP INDUCTION RESISTIVITY
 ILM .OHMM   07 120 44 00:   INDUCTION LOG MEDIUM RESISTIVITY
 SFL .OHMM   07 220 01 00:   SHALLOW FOCUSED LOG RESISTIVITY
 GRD .GAPI   45 310 01 00:   GAMMA RAY FROM DENSITY LOG
 CALD.IN     45 280 60 00:   CALIPER FROM DENSITY LOG
 RHOB.G/C3   45 350 01 00:   BULK DENSITY
 CORR.G/C3   45 356 01 00:   DENSITY CORRECTION
~PARAMETER INFORMATION
#MNEM.UNIT          VALUE    DESCRIPTION
#----------   ------------   ------------------------------
 EKB .F         5181.0000:   Kelly bushing
 EGL .F         5171.0000:   Ground level
 EDF .F         5180.0000:   Drilling floor
 TD  .F         5644.0000:   Total depth
 DATE.        13-JUN-1978:   Date logged
 CLNT.            A2DTECH:   Client Code
 SL  . 1980' FSL & 2080' FEL:   Surface Location
 PD  .                 GL:   Permanent Datum
 EPD .F              5171:   Elevation Permanent Datum
 LMF .                 KB:   Log Measured From
 DMF .                 KB:   Drilling Measured From
 DD  .F              5640:   Depth driller
 DL  .F              5644:   Depth logger
 BLI .F              5638:   Bottom log interval
 TLI .F              3093:   Top log interval
 CS1 .IN            8.625:   Casing size
 CBD1.      8.625" @ 545':   Casing driller 1
 BS1 .IN            7.875:   Bit size
 DFT .                FGM:   Type fluid in hole
 DFD .                9.2:   Density
 DFV .                 52:   Viscosity
 DFPH.                 11:   pH
 DFL .                5.2:   Fluid loss
 MSS .           MUD/TANK:   Source of sample
 RMS .OHMM           0.59:   Rm
 MST .F                80:   Rm Meas. temp.
 RMF .OHMM           0.48:   Rmf
 MFST.F                80:   Rmf Meas. temp.
 MFSS.               MEAS:   Source Rmf.
 RMB .OHMM           0.29:   Rm. at BHT
 BHT .F               162:   BHT.
 TCS .HRS            1200:   Time Circ. stopped
 MRT .F               162:   Maximum recorded temp.
 LUN .               7675:   Logging unit number
 LUL .               CODY:   Logging unit location
 ENGI.               BOND:   Recorded By
 ORIG.           5" PRINT:   Origin of data
 UWI .     49025109250000:   Unique Well ID
 DICO. A2D TECHNOLOGIES, INC.:   Digitizing Company
 DAPD.F                10:   Feet Above Permanent Datum
 BSD1.F              5640:   Depth drilled with bit1
 TLAB.HRS            1630:   Time logger at bottom
~OTHER INFORMATION
~A  DEPTH     NPHI        SPR        ILD        ILM        SFL        GRD       CALD       RHOB       CORR
# ...
 3551.0000     0.2990   -47.2880     6.8450     7.7450    13.4080   178.0120     8.5620     2.4400     0.0270
 3551.5000     0.2990   -47.0780     6.3690     7.1850    11.9050   176.1830     8.5630     2.4390     0.0330
 3552.0000     0.2890   -46.8680     5.8940     6.6250    10.2650   177.9970     8.5640     2.4330     0.0300
 3552.5000     0.2760   -46.6590     5.4190     6.0650     8.6250   178.2890     8.5650     2.4210     0.0200
 3553.0000     0.2760   -46.4490     5.0150     5.8090     6.9850   178.4190     8.5650     2.4100     0.0150
 3553.5000     0.2840   -46.2360     5.1650     6.0210     5.5990   178.4380     8.5660     2.4030     0.0180
 3554.0000     0.2940   -46.2360     5.5920     6.3040     7.8540   173.8140     8.5670     2.4090     0.0380
 3554.5000     0.3110   -46.4910     6.0180     6.5860     9.8070   169.6360     8.5680     2.4170     0.0560
 3555.0000     0.3350   -46.7500     6.4140     6.8690    12.5730   165.1480     8.5690     2.4160     0.0810
 3555.5000     0.3460   -46.9570     6.6680     7.1520    12.3140   160.3910     8.5690     2.4120     0.0540
 3556.0000     0.3440   -46.6090     6.9230     7.4340    11.8710   157.9160     8.5700     2.4330     0.0280
 3556.5000     0.3000   -46.3590     7.1770     7.7170    11.4270   159.2740     8.5710     2.4480     0.0280
 3557.0000     0.2970   -46.1250     7.1770     7.9880    10.9840   160.9670     8.5720     2.4320     0.0270
 3557.5000     0.2940   -45.7750     7.1770     8.2150    10.5410   162.9540     8.5720     2.4240     0.0250
 3558.0000     0.2920   -45.8920     7.5010     8.4650    10.4120   165.1420     8.5730     2.4150     0.0310
 3558.5000     0.2910   -45.9930     7.8950     8.7970    10.3660   167.0130     8.5740     2.4070     0.0360
 3559.0000     0.2910   -46.0900     8.2900     9.1290    12.0510   168.7560     8.5750     2.3990     0.0340
 3559.5000     0.2990   -46.1890     8.6850     9.4610    13.4170   164.7740     8.5750     2.3980     0.0320
 3560.0000     0.2940   -46.2890     9.0790     9.7930    14.7820   160.7340     8.5760     2.4190     0.0300
 3560.5000     0.2840   -46.3860     9.3690    10.1250    14.9720   156.4460     8.5770     2.4480     0.0280
 3561.0000     0.2740   -46.0550     9.3060    10.3660    17.5750   152.3250     8.5780     2.4590     0.0290
 3561.5000     0.2640   -45.6800     9.2570    10.0200    19.7260   148.0740     8.5780     2.4640     0.0360
 3562.0000     0.2540   -45.3070     9.2080     9.9000    16.9470   143.9830     8.5790     2.4560     0.0290
 3562.5000     0.2440   -45.0040     9.1580     9.8100    13.1620   139.6600     8.5800     2.4550     0.0200
 3563.0000     0.2380   -45.1070     9.0310     9.7330     9.0310   139.5540     8.5810     2.4560     0.0320
 3563.5000     0.2280   -45.2110     8.4450     9.6640     8.9480   142.5020     8.5820     2.4510     0.0460
 3564.0000     0.2310   -45.3140     7.8010     9.6310    16.6180   145.0790     8.5860     2.4580     0.0590
 3564.5000     0.2460   -45.4170     7.1560     9.0750    21.2310   148.0250     8.5890     2.4590     0.0500
 3565.0000     0.2610   -45.5200     6.6980     8.1890    16.6490   147.6230     8.5920     2.4430     0.0280
 3565.5000     0.2740   -45.6230     6.4700     7.3030    13.2030   149.9910     8.5960     2.4500     0.0150
 3566.0000     0.2470   -45.7260     6.2430     6.6160     9.7560   158.1100     8.5990     2.4560     0.0190
 3566.5000     0.2530   -45.8290     6.0160     6.2940     8.0330   169.7470     8.6020     2.4540     0.0250
 3567.0000     0.2650   -45.9320     5.7880     5.9960     7.5840   180.6730     8.6060     2.4490     0.0280
 3567.5000     0.2780   -46.0340     5.5610     5.8150     7.6760   192.1310     8.6090     2.4450     0.0300
 3568.0000     0.2900   -46.1350     5.3330     5.6340     7.7960   203.0100     8.6120     2.4420     0.0350
 3568.5000     0.2930   -46.0390     5.1060     5.4530     7.9400   207.0770     8.6160     2.4370     0.0440
 3569.0000     0.2990   -45.7100     4.8780     5.2720     7.4830   205.1310     8.6190     2.4110     0.0360
 3569.5000     0.3010   -45.3820     4.6510     5.0910     6.9180   204.4890     8.6220     2.4040     0.0290
 3570.0000     0.3090   -45.0530     4.4230     4.9100     7.4560   199.5890     8.6250     2.4050     0.0340
 3570.5000     0.3150   -44.7230     4.1960     4.5700     7.8680   195.5910     8.6290     2.4220     0.0390
 3571.0000     0.3120   -44.3940     4.0220     4.1940     7.1290   192.1560     8.6320     2.4150     0.0340
 3571.5000     0.3120   -44.0670     4.1260     3.8180     5.7540   189.8550     8.6350     2.3830     0.0260
 3572.0000     0.3080   -43.7390     4.2360     3.5360     4.4500   187.0730     8.6390     2.3730     0.0380
 3572.5000     0.3140   -43.8240     4.3380     4.2050     5.3120   185.7580     8.6420     2.3720     0.0640
 3573.0000     0.3330   -44.2460     4.4390     4.7400     7.2010   186.1500     8.6450     2.3410     0.0770
 3573.5000     0.3520   -44.6710     4.5320     5.2750    10.2710   184.4010     8.6490     2.3130     0.0850
 3574.0000     0.3720   -45.1020     5.0370     5.6300     9.6710   183.4600     8.6520     2.2860     0.0390
 3574.5000     0.3990   -45.2420     5.5060     5.8990     8.3900   183.6340     8.6550     2.2590     0.0250
 3575.0000     0.3780   -45.3120     5.9750     6.1680     8.8020   185.9940     8.6590     2.3370     0.0370
 3575.5000     0.3420   -45.3840     6.4860     6.4380     9.5330   189.6330     8.6620     2.4290     0.0550
 3576.0000     0.3210   -45.2450     6.3960     6.7290     9.4470   189.7400     8.6670     2.4220     0.0340
 3576.5000     0.3260   -45.0680     6.1240     6.6450     9.3600   189.4540     8.6720     2.3910     0.0200
 3577.0000     0.3210   -44.8880     5.8520     6.4620     9.2730   188.9420     8.6760     2.4000     0.0410
 3577.5000     0.3160   -44.5420     5.5800     6.2790     9.1410   185.2930     8.6810     2.4460     0.0570
 3578.0000     0.3110   -43.9820     5.3040     5.9840     8.7300   182.8250     8.6860     2.4450     0.0580
 3578.5000     0.3070   -43.4240     5.0080     5.5950     8.0500   181.5500     8.6910     2.4460     0.0600
 3579.0000     0.3070   -42.8660     4.7110     5.2060     6.9090   180.5060     8.6960     2.4420     0.0620
 3579.5000     0.3080   -42.3110     4.4150     4.8170     5.5790   181.6390     8.7010     2.4400     0.0860
 3580.0000     0.3110   -41.7320     4.1180     4.5620     5.0150   182.4820     8.7060     2.4380     0.1080
 3580.5000     0.3140   -41.8090     3.8220     4.4910     6.0190   179.5880     8.7110     2.4350     0.1320
 3581.0000     0.3160   -41.9360     3.5250     4.0910     7.3100   177.0030     8.7160     2.4160     0.1180
 3581.5000     0.3190   -42.1020     3.2290     3.6880     5.9170   173.4270     8.7200     2.3940     0.1240
 3582.0000     0.3200   -42.2820     2.7590     3.2850     4.6120   168.7820     8.7250     2.3720     0.0190
 3582.5000     0.3110   -42.6200     2.8730     2.9700     3.3130   171.9590     8.7300     2.3510     0.0440
 3583.0000     0.3090   -43.1450     3.1470     3.4020     3.0810   183.5620     8.7350     2.3510     0.1000
 3583.5000     0.3080   -43.6260     3.4210     3.7580     3.9150   189.2430     8.7400     2.3480     0.1390
 3584.0000     0.3060   -44.1090     3.6950     4.1130     6.2120   188.5220     8.7470     2.3290     0.1490
 3584.5000     0.3050   -44.5970     3.9690     4.4500     8.3900   183.5990     8.7620     2.3290     0.1240
 3585.0000     0.3040   -44.9330     4.2420     4.4100     7.9450   170.9100     8.7760     2.3670     0.0380
 3585.5000     0.3020   -45.1720     4.5160     4.3720     7.2660   158.5640     8.7910     2.4180     0.0200
 3586.0000     0.3010   -45.4050     4.8780     4.3330     6.9850   150.1970     8.8060     2.4830     0.0190
 3586.5000     0.2990   -45.4830     4.7120     4.2490     6.7640   150.9780     8.8200     2.4760     0.0260
 3587.0000     0.2790   -44.9240     4.3670     4.1320     6.4860   153.5370     8.8350     2.4670     0.0270
