~VERSION INFORMATION
 VERS.                2.0:   CWLS LOG ASCII STANDARD - VERSION 2.0
 WRAP.                 NO:   ONE LINE PER DEPTH STEP
~WELL INFORMATION
#MNEM.UNIT      DATA TYPE    INFORMATION
#----------   ------------   ------------------------------
 STRT.F          180.0000:   START DEPTH
 STOP.F         3044.0000:   STOP DEPTH
 STEP.F            0.5000:   STEP LENGTH
 NULL.          -999.2500:   NO VALUE
 COMP.    FENIX & SCISSON:   COMPANY
 WELL.   FENIX "A" #55-29:   WELL
 FLD .           N P R #3:   FIELD
 LOC .      S29 T39N R78W:   LOCATION
 CNTY.            NATRONA:   COUNTY
 STAT.            WYOMING:   STATE
 CTRY. UNITED STATES OF AMERICA:   COUNTRY
 SRVC.              WELEX:   SERVICE COMPANY
 DATE.        21-JUL-1977:   LOGDATE
 API .     49025104020000:   API NUMBER
~CURVE INFORMATION
#MNEM.UNIT       API CODE    CURVE DESCRIPTION
#----------   ------------   ------------------------------
 DEPT.F                  :   
 CALD.IN     45 280 60 00:   CALIPER FROM DENSITY LOG
 RHOB.G/C3   45 350 01 00:   BULK DENSITY
 CORR.G/C3   45 356 01 00:   DENSITY CORRECTION
 GRD .GAPI   45 310 01 00:   GAMMA RAY FROM DENSITY LOG
 SPR .MV     07 010 01 00:   SPONTANEOUS POTENTIAL
 ILD .OHMM   07 120 46 00:   DEEP INDUCTION RESISTIVITY
 ILM .OHMM   07 120 44 00:   INDUCTION LOG MEDIUM RESISTIVITY
 SGRD.OHMM   07 220 05 00:   SHALLOW SHORT GUARD RESISTIVITY
~PARAMETER INFORMATION
#MNEM.UNIT          VALUE    DESCRIPTION
#----------   ------------   ------------------------------
 EKB .F         4995.0000:   Kelly bushing
 EGL .F         4985.0000:   Ground level
 EDF .F            0.0000:   Drilling floor
 EPD .F         4985.0000:   Permanent datum
 TD  .F         3045.0000:   Total depth
 DATE.        21-JUL-1977:   Date logged
 CLNT.            A2DTECH:   Client Code
 SL  . 2310' FSL & 2310' FEL:   Surface Location
 PD  .                 GL:   Permanent Datum
 DD  .F              3045:   Depth driller
 DL  .F              3045:   Depth logger
 BLI .F              3043:   Bottom log interval
 CS1 .IN            8.625:   Casing size
 CBD1.      8.625" @ 230':   Casing driller 1
 CBL1.F               216:   Casing logger 1
 BS1 .IN            7.875:   Bit size
 DFT .            KCL-MUD:   Type fluid in hole
 DFD .                8.8:   Density
 DFV .                 45:   Viscosity
 DFPH.                7.5:   pH
 DFL .                8.4:   Fluid loss
 MSS .           FLOWLINE:   Source of sample
 RMS .OHMM            .45:   Rm
 MST .F                86:   Rm Meas. temp.
 RMF .OHMM            .33:   Rmf
 MFST.F                86:   Rmf Meas. temp.
 RMC .OHMM            .72:   Rmc
 MCST.F                86:   Rmc Meas. temp.
 MFSS.               MEAS:   Source Rmf.
 RMB .OHMM            .30:   Rm. at BHT
 BHT .F               127:   BHT.
 TCS .HRS             2.5:   Time Circ. stopped
 MRT .F               127:   Maximum recorded temp.
 LUN .               8611:   Logging unit number
 LUL .             CASPER:   Logging unit location
 ENGI.            C. DOAK:   Recorded By
 WITN.      W. PETTINGILL:   Witnessed by
 ORIG.           5" PRINT:   Origin of data
 UWI .     49025104020000:   Unique Well ID
 DICO. A2D TECHNOLOGIES, INC.:   Digitizing Company
 DAPD.                 10:   Feet Above Permanent Datum
 BSD1.               3045:   Depth drilled with bit1
 MCSS.               MEAS:   Source Rmc.
 LMF .                 KB:   Log Measured From
 DMF .                 KB:   Drilling Measured From
 TLI .                200:   Top log interval
~OTHER INFORMATION
~A   DEPT       CALD     RHOB       CORR         GRD       SPR        ILD        ILM       SGRD   
# ...
  585.0000     8.4610     2.4530     0.0650   116.6260   -59.6120     8.6890    10.0580    13.2720
  585.5000     8.4610     2.4480     0.0650    98.2340   -59.8510     8.6860    10.0580    13.1200
  586.0000     8.4600     2.4380     0.0630    84.8090   -59.8160     8.6860    10.1420    13.3140
  586.5000     8.4440     2.4370     0.0630    88.3870   -59.7090     8.6860    10.2300    13.5700
  587.0000     8.4600     2.4390     0.0630    86.0450   -59.5980     8.6860    10.3170    13.8620
  587.5000     8.4890     2.4440     0.0670    86.4890   -59.4880     8.6870    10.4050    13.7920
  588.0000     8.5170     2.4490     0.0710    88.0330   -59.3800     8.6860    10.4920    13.4860
  588.5000     8.5450     2.4530     0.0730    87.6910   -59.3420     8.7540    10.5800    13.8410
  589.0000     8.5690     2.4570     0.0720    89.5220   -59.4640     8.8050    10.6670    14.1180
  589.5000     8.5880     2.4610     0.0710    91.3830   -59.5800     8.8560    10.7250    13.9550
  590.0000     8.6060     2.4590     0.0710    92.1850   -59.6960     8.9060    10.6710    13.8910
  590.5000     8.6250     2.4610     0.0700    90.0310   -59.8120     8.9570    10.6240    13.8620
  591.0000     8.6390     2.4640     0.0700    87.9430   -59.9280     9.0110    10.5770    14.2690
  591.5000     8.6380     2.4630     0.0690    85.8470   -60.0440     9.0200    10.5300    14.6460
  592.0000     8.6310     2.4590     0.0700    83.7140   -60.0810     9.0290    10.4830    14.3800
  592.5000     8.6050     2.4580     0.0710    84.3260   -60.0200     9.0380    10.4360    14.3800
  593.0000     8.5790     2.4600     0.0730    86.8500   -59.9620     9.0480    10.3890    15.0220
  593.5000     8.5530     2.4560     0.0750    89.1020   -59.9030     9.0570    10.3390    15.6160
  594.0000     8.5270     2.4530     0.0780    91.1300   -59.8440     9.0670    10.3830    15.1920
  594.5000     8.5020     2.4560     0.0820    86.4500   -59.7850     9.0760    10.4660    12.9990
  595.0000     8.4760     2.4600     0.0860    88.4780   -59.7270     9.0860    10.5500    11.8620
  595.5000     8.4500     2.4640     0.0900    88.7990   -59.6680     9.1090    10.6340    14.1180
  596.0000     8.4240     2.4700     0.0930    87.3760   -59.6090     9.2390    10.7170    15.7440
  596.5000     8.4010     2.4760     0.0970    85.9530   -59.5500     9.3700    10.8010    16.9590
  597.0000     8.3980     2.4830     0.0970    84.4720   -59.4910     9.4580    10.8850    15.7470
  597.5000     8.3950     2.4930     0.0990    85.9440   -59.4320     9.5070    10.9680    14.1180
  598.0000     8.3930     2.5020     0.0970    89.0620   -59.3740     9.5560    11.0520    15.4730
  598.5000     8.3900     2.4890     0.0950    92.1850   -59.3150     9.6050    11.1360    15.4380
  599.0000     8.3870     2.4740     0.0930    93.0720   -59.2560     9.6540    11.2190    15.3880
  599.5000     8.3840     2.4580     0.0860    93.5700   -59.1980     9.7020    11.3030    15.3320
  600.0000     8.3820     2.4520     0.0780    95.3780   -59.1390     9.7510    11.3870    15.6930
  600.5000     8.3870     2.4460     0.0700    94.6560   -59.1470     9.7850    11.4700    16.1990
  601.0000     8.3940     2.4410     0.0630    93.5080   -59.2210     9.7650    11.5540    15.9470
  601.5000     8.4000     2.4350     0.0590    92.3560   -59.2950     9.7490    11.6380    15.7530
  602.0000     8.4070     2.4300     0.0570    91.2060   -59.3690     9.7330    11.7230    15.6160
  602.5000     8.4140     2.4240     0.0560    90.0620   -59.4440     9.7170    11.8080    15.6740
  603.0000     8.4200     2.4230     0.0570    89.8860   -59.5180     9.7010    11.8930    15.7400
  603.5000     8.4180     2.4230     0.0580    90.8160   -59.5930     9.6840    11.9710    15.8050
  604.0000     8.4150     2.4290     0.0600    91.8570   -59.6670     9.6650    11.8420    15.9050
  604.5000     8.4120     2.4360     0.0620    92.9080   -59.7420     9.6470    11.6970    15.8050
  605.0000     8.4080     2.4420     0.0630    93.8290   -59.8160     9.6280    11.5510    15.6160
  605.5000     8.4050     2.4480     0.0640    94.5810   -59.8910     9.6100    11.4060    15.3290
  606.0000     8.4010     2.4550     0.0650    95.2550   -59.9650     9.4180    11.2600    13.7360
  606.5000     8.4130     2.4610     0.0670    97.7860   -60.0390     9.2540    11.1250    14.1760
  607.0000     8.4260     2.4670     0.0680    98.6740   -60.1140     9.2260    11.0690    14.7800
  607.5000     8.4390     2.4720     0.0700    96.8280   -60.1880     9.1990    11.0180    14.7800
  608.0000     8.4530     2.4760     0.0710    94.5940   -60.2630     9.1710    10.9660    14.4900
  608.5000     8.4710     2.4780     0.0730    92.3140   -60.3370     9.1430    10.9140    14.3800
  609.0000     8.4940     2.4770     0.0740    91.1460   -60.4120     9.1150    10.8620    14.7880
  609.5000     8.5170     2.4730     0.0760    90.2200   -60.4860     9.0870    10.8100    14.9160
  610.0000     8.5420     2.4710     0.0790    91.1290   -60.5610     9.0590    10.7590    14.4330
  610.5000     8.5960     2.4740     0.0810    91.7430   -60.6350     9.0310    10.7070    14.3800
  611.0000     8.6180     2.4770     0.0830    92.1320   -60.7090     9.0110    10.6550    14.3800
  611.5000     8.6160     2.4800     0.0850    93.4330   -60.7840     8.9550    10.5640    14.2620
  612.0000     8.6000     2.4850     0.0860    90.8100   -60.8580     8.9020    10.4270    14.0040
  612.5000     8.5850     2.4890     0.0870    91.3560   -60.9330     8.8490    10.2900    13.8210
  613.0000     8.5690     2.4890     0.0880    93.1040   -61.0070     8.7960    10.1520    13.7360
  613.5000     8.5540     2.4840     0.0880    90.4530   -61.0820     8.6890    10.0150    13.4120
  614.0000     8.5380     2.4810     0.0890    92.0720   -61.1560     8.5160     9.8980    13.2170
  614.5000     8.5230     2.4870     0.0900    93.8930   -61.2300     8.3430     9.7920    13.1200
  615.0000     8.5240     2.4940     0.0910    94.4640   -61.2930     8.1700     9.6860    13.0090
  615.5000     8.5300     2.5010     0.0930    95.1840   -61.3130     8.0700     9.5800    12.7650
  616.0000     8.5360     2.5020     0.0940    98.1170   -61.3340     8.0630     9.4520    12.6480
  616.5000     8.5410     2.5030     0.0950   100.6980   -61.3550     8.0570     9.2970    12.7650
  617.0000     8.5470     2.5020     0.0960    99.9430   -61.3760     8.0510     9.1700    12.6390
  617.5000     8.5530     2.4990     0.0970    99.0940   -61.3970     8.0450     9.1410    12.1820
  618.0000     8.5580     2.4970     0.0930    98.2330   -61.4180     8.0380     9.1110    11.7540
  618.5000     8.5640     2.4950     0.0890    97.0640   -61.4400     8.0320     9.0810    12.7650
  619.0000     8.5700     2.4940     0.0850    97.5990   -61.4600     8.0260     9.0510    12.7650
  619.5000     8.5750     2.4990     0.0800    97.7950   -61.4790     8.0200     9.0210    12.4180
  620.0000     8.5780     2.5010     0.0760    97.6870   -61.5690     8.0140     8.9910    13.2410
  620.5000     8.5760     2.4950     0.0720    97.5860   -61.6700     8.0070     8.9610    12.8760
  621.0000     8.5740     2.4870     0.0680    97.4660   -61.7710     8.0010     8.9310    12.4180
  621.5000     8.5710     2.4790     0.0650    97.0190   -61.8720     7.9400     8.9010    12.6410
  622.0000     8.5690     2.4700     0.0680    95.5710   -61.9740     7.8440     8.8710    13.2410
  622.5000     8.5670     2.4620     0.0700    94.1680   -62.0750     7.7480     8.8470    13.0150
  623.0000     8.5650     2.4520     0.0730    94.6270   -62.1760     7.6130     8.6780    12.6480
  623.5000     8.5620     2.4540     0.0770    96.7880   -62.2780     7.4530     8.5110    12.1200
  624.0000     8.5600     2.4630     0.0820    98.9540   -62.3790     7.2920     8.3440    11.5960
  624.5000     8.5560     2.4710     0.0870   101.2010   -62.4810     7.1320     8.1760    11.0720
  625.0000     8.5510     2.4780     0.0910   101.5310   -62.5820     6.9880     8.0090    10.5490
