~VERSION INFORMATION
 VERS.                2.0:   CWLS LOG ASCII STANDARD - VERSION 2.0
 WRAP.                 NO:   ONE LINE PER DEPTH STEP
~WELL INFORMATION
#MNEM.UNIT      DATA TYPE    INFORMATION
#----------   ------------   ------------------------------
 STRT.F           50.0000:   START DEPTH
 STOP.F         2832.5000:   STOP DEPTH
 STEP.F            0.5000:   STEP LENGTH
 NULL.          -999.2500:   NO VALUE
 COMP.    FENIX & SCISSON:   COMPANY
 WELL. FENIX NPR 3 "AX" #87-20:   WELL
 FLD .              N P R:   FIELD
 LOC .      S20 T39N R78W:   LOCATION
 CNTY.            NATRONA:   COUNTY
 STAT.            WYOMING:   STATE
 CTRY. UNITED STATES OF AMERICA:   COUNTRY
 SRVC.           BIRDWELL:   SERVICE COMPANY
 DATE.        01-AUG-1978:   LOGDATE
 API .     49025106780000:   API NUMBER
~CURVE INFORMATION
#MNEM.UNIT       API CODE    CURVE DESCRIPTION
#----------   ------------   ------------------------------
 DEPT.F                  :   
 CALD.IN     45 280 60 00:   CALIPER FROM DENSITY LOG
 CORR.G/C3   45 356 01 00:   DENSITY CORRECTION
 GRD .GAPI   45 310 01 00:   GAMMA RAY FROM DENSITY LOG
 RHOB.G/C3   45 350 01 00:   BULK DENSITY
 SPR .MV     05 010 01 00:   SPONTANEOUS POTENTIAL
 ILD .OHMM   05 120 46 00:   DEEP INDUCTION RESISTIVITY
 SN  .OHMM   05 040 00 00:   SHORT NORMAL
~PARAMETER INFORMATION
#MNEM.UNIT          VALUE    DESCRIPTION
#----------   ------------   ------------------------------
 EKB .F         5007.0000:   Kelly bushing
 EGL .F         4997.0000:   Ground level
 EDF .F            0.0000:   Drilling floor
 EPD .F            0.0000:   Permanent datum
 TD  .F         2832.0000:   Total depth
 DATE.        01-AUG-1978:   Date logged
 CLNT.            A2DTECH:   Client Code
 SL  . 940' FSL & 200' FEL:   Surface Location
 PD  .                 GL:   Permanent Datum
 DD  .F              2825:   Depth driller
 DL  .F              2832:   Depth logger
 BLI .F              2826:   Bottom log interval
 CS1 .IN            8.625:   Casing size
 CBD1.      8.625" @ 140':   Casing driller 1
 CBL1.F               240:   Casing logger 1
 BS1 .IN            7.875:   Bit size
 DFT .            KCL/GEL:   Type fluid in hole
 DFD .                  9:   Density
 DFV .                 34:   Viscosity
 DFL .                  8:   Fluid loss
 MSS .           FLOWLINE:   Source of sample
 RMS .OHMM            1.5:   Rm
 MST .F                70:   Rm Meas. temp.
 RMF .OHMM            .70:   Rmf
 MFST.F                72:   Rmf Meas. temp.
 RMC .OHMM            2.2:   Rmc
 MCST.F                75:   Rmc Meas. temp.
 MFSS.               MEAS:   Source Rmf.
 TCS .HRS               6:   Time Circ. stopped
 LUN .               3007:   Logging unit number
 LUL .               CASP:   Logging unit location
 ENGI.            POINTER:   Recorded By
 WITN.              AMEND:   Witnessed by
 ORIG.           5" PRINT:   Origin of data
 UWI .     49025106780000:   Unique Well ID
 DICO. A2D TECHNOLOGIES, INC.:   Digitizing Company
 DAPD.                 10:   Feet Above Permanent Datum
 BSD1.F              2825:   Depth drilled with bit1
 LMF .                 KB:   Log Measured From
 DMF .                 KB:   Drilling Measured From
 TLI .F               140:   Top log interval
~OTHER INFORMATION
~A   DEPT     CALD       CORR         GRD      RHOB        SPR        ILD         SN   
# ...
 2598.0000     8.0080     0.1840   129.1970     2.5710   -22.6850     6.0350     6.9980
 2598.5000     8.0400     0.2000   133.9080     2.5860   -22.7460     6.0710     6.8830
 2599.0000     8.1670     0.1960   128.9590     2.5990   -22.8060     6.1070     6.7340
 2599.5000     8.2810     0.1630   119.3470     2.5970   -22.8640     6.1460     6.4890
 2600.0000     8.2830     0.1310   119.0630     2.5720   -22.8710     6.1180     6.3170
 2600.5000     8.2830     0.1170   119.7000     2.5500   -22.8710     6.0760     6.2930
 2601.0000     8.2830     0.1210   116.0550     2.5540   -22.8710     6.0350     6.2600
 2601.5000     8.2830     0.1310   114.5780     2.5470   -22.8710     5.9930     6.3400
 2602.0000     8.2810     0.1520   111.1100     2.5420   -22.8710     5.9520     6.4930
 2602.5000     8.2700     0.1750   113.6890     2.5630   -22.8710     5.9230     6.5170
 2603.0000     8.2580     0.1730   115.7100     2.5720   -22.8710     5.9070     6.5490
 2603.5000     8.2470     0.1730   112.6340     2.5950   -22.8710     5.8900     6.3610
 2604.0000     8.2250     0.1790   115.3670     2.5870   -22.8710     5.8740     6.0420
 2604.5000     8.1980     0.1860   120.6880     2.5830   -22.8710     5.6750     5.8100
 2605.0000     8.1970     0.1830   125.8990     2.5880   -22.8720     5.4380     5.6270
 2605.5000     8.2550     0.1610   128.8270     2.5920   -22.8710     5.3230     5.4570
 2606.0000     8.2810     0.1370   129.1890     2.5810   -22.7820     5.2480     5.3980
 2606.5000     8.1810     0.1390   132.0600     2.5460   -22.6780     5.1660     5.3440
 2607.0000     8.1840     0.1550   135.5690     2.5440   -22.6720     5.1370     5.2890
 2607.5000     8.1840     0.1770   138.5140     2.5570   -22.6730     5.0820     5.2340
 2608.0000     8.1840     0.1760   136.7300     2.5970   -22.6730     5.0260     5.1790
 2608.5000     8.1240     0.1610   139.3200     2.6130   -22.6730     4.9700     5.1420
 2609.0000     8.1030     0.1450   134.6250     2.6070   -22.6730     4.9140     5.1000
 2609.5000     8.2170     0.1300   131.0770     2.5880   -22.6940     4.8590     5.0590
 2610.0000     8.1810     0.1280   129.8360     2.5680   -22.7290     4.8030     5.0170
 2610.5000     8.1470     0.1330   127.7050     2.5540   -22.7630     4.7470     4.9750
 2611.0000     8.1950     0.1470   127.2060     2.5560   -22.7980     4.6920     4.9350
 2611.5000     8.2540     0.1500   128.5850     2.5780   -22.8330     4.6360     4.9940
 2612.0000     8.3120     0.1480   135.3740     2.5860   -22.8670     4.6290     5.0500
 2612.5000     8.3590     0.1430   138.2440     2.5870   -22.9080     4.7340     5.1060
 2613.0000     8.3260     0.1470   138.5280     2.5740   -22.9490     4.8150     5.1620
 2613.5000     8.2950     0.1530   139.6470     2.5580   -22.9900     4.8970     5.2180
 2614.0000     8.2940     0.1530   138.3640     2.5590   -23.0310     4.9800     5.2740
 2614.5000     8.3210     0.1530   141.8010     2.5830   -23.0720     5.0020     5.3100
 2615.0000     8.2940     0.1580   142.0890     2.5590   -23.1130     5.0320     5.2880
 2615.5000     8.2670     0.1680   144.5570     2.5720   -23.1540     5.0610     5.2660
 2616.0000     8.2630     0.1730   145.1630     2.5710   -23.1960     5.0900     5.2440
 2616.5000     8.2630     0.1890   151.1420     2.5680   -23.2350     5.1190     5.2210
 2617.0000     8.2630     0.2060   155.4520     2.5760   -23.2240     5.0600     5.1950
 2617.5000     8.2630     0.2100   150.8190     2.6130   -23.0170     5.0030     5.1540
 2618.0000     8.2630     0.1890   144.7810     2.6520   -22.8170     4.9450     5.1130
 2618.5000     8.2630     0.1640   142.2550     2.6320   -22.6710     4.8880     5.0710
 2619.0000     8.2630     0.1580   144.9760     2.5930   -22.7120     4.8310     5.0260
 2619.5000     8.2630     0.1660   141.1270     2.5540   -22.7480     4.7580     5.0260
 2620.0000     8.2430     0.1870   137.2070     2.5470   -22.7840     4.7900     5.0510
 2620.5000     8.1950     0.1940   143.3850     2.5780   -22.8200     4.8360     5.0700
 2621.0000     8.1480     0.1860   132.8000     2.6070   -22.8560     4.8810     5.0890
 2621.5000     8.1000     0.1770   125.7950     2.6050   -22.8850     4.9260     5.1070
 2622.0000     8.0780     0.1690   126.1020     2.6010   -22.9090     4.9480     5.1210
 2622.5000     8.1590     0.1610   131.3900     2.5950   -22.9330     4.9640     5.1330
 2623.0000     8.1760     0.1520   132.3090     2.5900   -22.9570     4.9800     5.1450
 2623.5000     8.1530     0.1490   129.2340     2.5700   -22.9810     4.9950     5.1560
 2624.0000     8.1290     0.1480   128.8440     2.5440   -23.0050     5.0110     5.1680
 2624.5000     8.1080     0.1460   135.8860     2.5720   -23.0290     5.0260     5.1800
 2625.0000     8.1400     0.1450   132.5640     2.5340   -23.0530     5.0260     5.1910
 2625.5000     8.1660     0.1530   135.5130     2.5050   -23.0700     5.0260     5.2030
 2626.0000     8.1230     0.1710   142.0530     2.4750   -23.0690     5.0260     5.2150
 2626.5000     8.0860     0.2040   139.5280     2.4690   -23.0690     5.0260     5.2260
 2627.0000     8.1170     0.2360   137.9360     2.4850   -23.0690     5.0260     5.2380
 2627.5000     8.1470     0.2660   144.4100     2.4910   -23.0690     5.0260     5.2500
 2628.0000     8.1850     0.3010   140.8690     2.5100   -23.0690     5.0260     5.2610
 2628.5000     8.1410     0.2940   145.0190     2.5920   -23.0690     5.0260     5.2240
 2629.0000     8.1350     0.2540   144.3280     2.5700   -23.0690     5.0270     5.1870
 2629.5000     8.1270     0.2550   137.1920     2.5320   -23.0690     4.9660     5.1500
 2630.0000     8.1290     0.2640   131.0370     2.5070   -23.0690     4.9180     5.1130
 2630.5000     8.2550     0.2830   132.2340     2.5070   -23.0690     4.8690     5.0760
 2631.0000     8.1620     0.2850   130.7810     2.5500   -23.0690     4.8200     5.0390
 2631.5000     8.1440     0.2760   134.5240     2.5850   -23.0620     4.7720     5.0020
 2632.0000     8.1490     0.2410   132.9620     2.5990   -23.0510     4.7230     4.9650
 2632.5000     8.1360     0.2280   134.6610     2.5590   -23.0400     4.6710     4.9280
 2633.0000     8.0960     0.2360   134.3820     2.5310   -23.0300     4.6310     4.8910
 2633.5000     8.0090     0.2480   129.9540     2.5310   -23.0190     4.5880     4.8540
 2634.0000     8.0810     0.2550   125.6180     2.5530   -23.0080     4.5450     4.8460
 2634.5000     8.1990     0.2540   121.5220     2.5630   -22.9980     4.5020     4.8460
 2635.0000     8.2050     0.2530   121.7220     2.5800   -22.9870     4.4590     4.8460
 2635.5000     8.2040     0.2390   125.1230     2.6040   -22.9760     4.4160     4.8460
 2636.0000     8.2020     0.2110   131.2050     2.5740   -22.9660     4.3730     4.8460
 2636.5000     8.1660     0.1900   140.1170     2.5590   -22.9550     4.3420     4.8450
 2637.0000     8.1470     0.1720   138.4920     2.5480   -22.9440     4.3780     4.8450
 2637.5000     8.1540     0.1710   141.0480     2.5140   -22.9330     4.4120     4.8450
 2638.0000     8.1610     0.1910   142.6690     2.4820   -22.9230     4.4460     4.8810
 2638.5000     8.1850     0.2080   141.7050     2.5070   -22.9120     4.4800     4.9210
 2639.0000     8.2250     0.2300   143.3690     2.5150   -22.9010     4.5140     4.9610
 2639.5000     8.2230     0.2560   148.6130     2.5380   -22.8910     4.5480     5.0000
 2640.0000     8.2230     0.2510   148.6000     2.5950   -22.8800     4.5820     5.0400
 2640.5000     8.2240     0.2160   144.7900     2.6310   -22.8730     4.6150     5.0720
 2641.0000     8.2110     0.1860   143.6750     2.6000   -22.8860     4.6320     5.0910
 2641.5000     8.1930     0.1690   148.9150     2.5620   -22.8980     4.6390     5.1100
 2642.0000     8.1380     0.1660   159.2440     2.5290   -22.9100     4.6460     5.1290
 2642.5000     8.0230     0.1770   167.4700     2.5220   -22.9230     4.6530     5.1480
 2643.0000     8.0080     0.1940   167.8160     2.5160   -22.9350     4.6610     5.1660
