~VERSION INFORMATION
 VERS.                2.0:   CWLS LOG ASCII STANDARD - VERSION 2.0
 WRAP.                 NO:   ONE LINE PER DEPTH STEP
~WELL INFORMATION
#MNEM.UNIT      DATA TYPE    INFORMATION
#----------   ------------   ------------------------------
 STRT.F          200.0000:   START DEPTH
 STOP.F         3060.0000:   STOP DEPTH
 STEP.F            0.5000:   STEP LENGTH
 NULL.          -999.2500:   NO VALUE
 COMP.    FENIX & SCISSON:   COMPANY
 WELL. FENIX & SCISSON NPR "AX" #81-10:   WELL
 FLD .                NPR:   FIELD
 LOC .      S10 T38N R78W:   LOCATION
 CNTY.            NATRONA:   COUNTY
 STAT.            WYOMING:   STATE
 CTRY. UNITED STATES OF AMERICA:   COUNTRY
 SRVC.              WELEX:   SERVICE COMPANY
 DATE.        28-NOV-1977:   LOGDATE
 API .     49025104400000:   API NUMBER
~CURVE INFORMATION
#MNEM.UNIT       API CODE    CURVE DESCRIPTION
#----------   ------------   ------------------------------
 DEPT.F                  :   
 CALD.IN     45 280 60 00:   CALIPER FROM DENSITY LOG
 GRD .GAPI   45 310 01 00:   GAMMA RAY FROM DENSITY LOG
 RHOB.G/C3   45 350 01 00:   BULK DENSITY
 CORR.G/C3   45 356 01 00:   DENSITY CORRECTION
 TEND.LBS    45 635 01 00:   TENSION FROM DENSITY LOG
 NPHI.DEC    42 890 03 00:   NEUTRON POROSITY SANDSTONE
 SPR .MV     07 010 01 00:   SPONTANEOUS POTENTIAL
 IL  .OHMM   07 120 00 00:   INDUCTION LOG RES.
 ASGR.OHMM   07 221 05 00:   AMPLIFIED SHALLOW GUARD
 SNP .DEC    41 890 00 00:   SIDEWALL NEUTRON POROSITY
~PARAMETER INFORMATION
#MNEM.UNIT          VALUE    DESCRIPTION
#----------   ------------   ------------------------------
 EKB .F         5147.0000:   Kelly bushing
 EGL .F         5137.0000:   Ground level
 EDF .F            0.0000:   Drilling floor
 TD  .F         3058.0000:   Total depth
 DATE.        28-NOV-1977:   Date logged
 CLNT.            A2DTECH:   Client Code
 PD  .                 GL:   Permanent Datum
 EPD .F              5137:   Elevation Permanent Datum
 LMF .                 KB:   Log Measured From
 DMF .                 KB:   Drilling Measured From
 DD  .F              3055:   Depth driller
 DL  .F              3058:   Depth logger
 BLI .F              3055:   Bottom log interval
 TLI .F               200:   Top log interval
 CS1 .IN            8.625:   Casing size
 CBD1.      8.625" @ 205':   Casing driller 1
 CBL1.F               215:   Casing logger 1
 BSD1.F              3055:   Depth drilled with bit1
 DFT .            KCL/MUD:   Type fluid in hole
 ENGI.            BENTSEN:   Recorded By
 WITN.         HARRINGTON:   Witnessed by
 ORIG.           5" PRINT:   Origin of data
 UWI .     49025104400000:   Unique Well ID
 DICO. A2D TECHNOLOGIES, INC.:   Digitizing Company
 DAPD.                 10:   Feet Above Permanent Datum
 BS1 .IN            7.875:   Bit size
 DFD .                8.9:   Density
 DFV .                 35:   Viscosity
 MSS .           FLOWLINE:   Source of sample
 RMS .OHMM            .17:   Rm
 MST .F                75:   Rm Meas. temp.
 RMF .OHMM            .12:   Rmf
 MFST.F                75:   Rmf Meas. temp.
 MFSS.               FANN:   Source Rmf.
 RMC .OHMM            .50:   Rmc
 MCST.F                75:   Rmc Meas. temp.
 MCSS.                KIT:   Source Rmc.
 RMB .OHMM           .113:   Rm. at BHT
 BHT .F               113:   BHT.
 TCS .HRS             2.5:   Time Circ. stopped
 MRT .F               113:   Maximum recorded temp.
 LUN .               9685:   Logging unit number
 LUL .             CASPER:   Logging unit location
 SL  . 601' FNL & 200' FEL:   Surface Location
~OTHER INFORMATION
~A   DEPT       CALD      GRD       RHOB       CORR        TEND        NPHI       SPR        IL       ASGR        SNP   
# ...
 2645.5000     8.9300   107.0460     2.4540     0.0140  1033.8979     0.0840   -38.0410     5.3010     9.1980     0.1330
 2646.0000     8.9320   104.8770     2.4540     0.0120  1034.4360     0.0850   -37.4450     5.5700     8.5130     0.1380
 2646.5000     8.9340   104.8450     2.4620     0.0110  1034.9740     0.0890   -36.8480     6.1110     8.8350     0.1440
 2647.0000     8.9370   105.0170     2.4710     0.0090  1035.5120     0.0920   -36.2520     6.6530     9.9600     0.1490
 2647.5000     8.9390   106.8060     2.4800     0.0070  1036.0500     0.0960   -35.6570     7.0320     9.5560     0.1490
 2648.0000     8.9410   106.2570     2.4860     0.0100  1036.5880     0.1000   -35.0570     7.3720    10.6940     0.1460
 2648.5000     8.9440   105.5070     2.4870     0.0170  1037.1260     0.1050   -34.4430     7.3220    10.5690     0.1420
 2649.0000     8.9460   104.8740     2.4860     0.0230  1037.6639     0.1070   -33.8600     7.1960    10.9810     0.1390
 2649.5000     8.9480   106.1610     2.4820     0.0300  1038.2020     0.1000   -33.0150     7.0740    11.1600     0.1370
 2650.0000     8.9500   107.6650     2.4790     0.0370  1038.7400     0.0950   -32.1760     7.0250    10.8060     0.1430
 2650.5000     8.9530   109.0110     2.4760     0.0370  1039.2780     0.0920   -31.3350     7.1840    10.4420     0.1490
 2651.0000     8.9550   109.0390     2.4720     0.0340  1039.8160     0.0930   -30.4930     7.3430    10.0710     0.1550
 2651.5000     8.9570   108.6470     2.4690     0.0310  1040.3540     0.0960   -29.6510     7.4150     9.6970     0.1600
 2652.0000     8.9590   108.1050     2.4650     0.0320  1040.8920     0.0990   -28.8090     7.4590     8.4610     0.1660
 2652.5000     8.9620   107.5660     2.4630     0.0340  1041.4301     0.1030   -27.9670     7.5010     8.6730     0.1700
 2653.0000     8.9640   106.9770     2.4670     0.0360  1041.9690     0.1080   -27.1250     7.5440     9.2480     0.1720
 2653.5000     8.9660   105.1390     2.4710     0.0380  1042.5070     0.1140   -26.2830     7.5860     9.7380     0.1710
 2654.0000     8.9680   103.3270     2.4750     0.0400  1043.0450     0.1140   -25.4410     7.6280     8.8200     0.1690
 2654.5000     8.9710   101.5300     2.4790     0.0430  1043.5830     0.1120   -24.5970     7.6730     8.2570     0.1660
 2655.0000     8.9730    99.7410     2.4810     0.0450  1044.1210     0.1100   -23.7720     7.5800    10.3970     0.1640
 2655.5000     8.9750    98.2670     2.4740     0.0470  1044.6591     0.1090   -23.3900     7.4030     9.8670     0.1630
 2656.0000     8.9770    97.1950     2.4620     0.0500  1045.1970     0.1080   -23.0260     7.2250    12.6130     0.1630
 2656.5000     8.9800    96.1190     2.4500     0.0520  1045.7350     0.1070   -22.6610     7.1170    10.4020     0.1630
 2657.0000     8.9820    95.0480     2.4380     0.0480  1046.2729     0.1070   -22.2960     7.0270     7.5320     0.1630
 2657.5000     8.9840    93.9770     2.4270     0.0420  1046.8110     0.1090   -21.9300     6.9380     6.9300     0.1630
 2658.0000     8.9870    92.9050     2.4160     0.0350  1047.3490     0.1080   -21.5610     6.8490     7.2410     0.1610
 2658.5000     8.9890    91.8360     2.4160     0.0290  1047.8870     0.1080   -21.1930     6.7590     7.4860     0.1590
 2659.0000     8.9910    90.7790     2.4220     0.0230  1048.4250     0.1090   -21.3990     6.6700     7.6130     0.1560
 2659.5000     8.9930    90.5190     2.4330     0.0170  1048.9630     0.1070   -21.6470     6.5790     7.7470     0.1540
 2660.0000     8.9960    90.2690     2.4430     0.0240  1049.5010     0.1000   -21.8950     6.4890     8.2380     0.1500
 2660.5000     8.9980    90.0160     2.4540     0.0310  1050.0389     0.1010   -22.1370     6.6450     8.1510     0.1450
 2661.0000     9.0000    89.7620     2.4640     0.0390  1050.5770     0.1020   -22.1120     6.8260     8.0940     0.1410
 2661.5000     9.0020    89.5080     2.4750     0.0450  1051.1150     0.1020   -22.0510     7.1970     9.2150     0.1370
 2662.0000     9.0050    89.2530     2.4820     0.0440  1051.6530     0.0980   -21.9900     7.6570     9.0120     0.1290
 2662.5000     9.0070    88.9960     2.4910     0.0430  1052.1910     0.0930   -21.8030     8.1180     8.7630     0.1210
 2663.0000     9.0090    89.0500     2.5000     0.0420  1052.7290     0.0900   -21.5530     8.5790     9.0790     0.1120
 2663.5000     9.0110    89.1340     2.5080     0.0410  1053.2670     0.0850   -21.3040     9.0360     9.5150     0.1150
 2664.0000     9.0140    89.2190     2.5170     0.0420  1053.8051     0.0780   -21.0530     9.4410    10.6010     0.1220
 2664.5000     9.0160    89.3030     2.5260     0.0460  1054.3430     0.0740   -20.8030     9.6000    16.6320     0.1290
 2665.0000     9.0180    89.3870     2.5320     0.0400  1054.8810     0.0780   -20.5530     9.7780    15.6430     0.1350
 2665.5000     9.0200    89.4710     2.5010     0.0340  1055.4189     0.0860   -20.3030     9.4280    13.1940     0.1420
 2666.0000     9.0230    89.5550     2.4650     0.0280  1055.9570     0.0960   -20.0530     8.9740    10.7450     0.1430
 2666.5000     9.0250    89.6380     2.4290     0.0230  1056.4950     0.1030   -19.8020     8.5150     8.7690     0.1400
 2667.0000     9.0270    89.7190     2.3990     0.0170  1057.0330     0.1020   -19.5530     8.0560     7.6080     0.1360
 2667.5000     9.0290    89.7790     2.4030     0.0110  1057.5710     0.0970   -19.3020     7.5960     7.0850     0.1340
 2668.0000     9.0320    89.4640     2.4070     0.0130  1058.1090     0.0920   -19.0460     7.3470     7.8140     0.1380
 2668.5000     9.0340    88.8170     2.4110     0.0210  1058.6470     0.0900   -18.9910     7.2690     8.2100     0.1420
 2669.0000     8.9900    88.1720     2.4150     0.0280  1059.1851     0.0910   -19.0620     7.1930     8.3320     0.1460
 2669.5000     8.9400    87.5260     2.4200     0.0340  1059.7230     0.0940   -19.3370     7.2760     8.4690     0.1500
 2670.0000     8.8900    86.8790     2.4220     0.0270  1060.2610     0.0970   -19.6020     7.6110     8.8740     0.1540
 2670.5000     8.8400    86.2280     2.3590     0.0210  1060.7990     0.1010   -19.8660     7.9340     8.5150     0.1580
 2671.0000     8.7900    85.6030     2.3620     0.0150  1061.3370     0.1060   -20.1290     8.2580     8.2720     0.1620
 2671.5000     8.7390    86.3390     2.3710     0.0090  1061.8750     0.1070   -20.3960     8.5970     8.5970     0.1620
 2672.0000     8.7320    87.1830     2.3780     0.0150  1062.4130     0.1080   -20.9240     8.6430     9.3640     0.1590
 2672.5000     8.7150    88.0350     2.3850     0.0300  1062.9510     0.1100   -21.4410     8.4460     9.1740     0.1520
 2673.0000     8.7390    88.8860     2.3910     0.0270  1063.4890     0.1110   -21.9550     8.2500     8.8540     0.1420
 2673.5000     8.7630    89.7390     2.3980     0.0210  1064.0270     0.1060   -22.4680     8.0540     8.5090     0.1320
 2674.0000     8.7850    90.5550     2.4110     0.0160  1064.5649     0.1010   -22.9810     7.8580     7.7570     0.1290
 2674.5000     8.8080    90.5620     2.4270     0.0150  1065.1030     0.0950   -23.4950     7.6630     7.9150     0.1250
 2675.0000     8.8310    90.0180     2.4430     0.0220  1065.6410     0.0910   -24.0080     7.4650     8.9820     0.1220
 2675.5000     8.8540    89.4570     2.4590     0.0290  1066.1790     0.0890   -24.5220     7.3880     8.6070     0.1190
 2676.0000     8.8760    88.9010     2.4750     0.0360  1066.7170     0.0870   -25.0340     7.3870     7.0300     0.1140
 2676.5000     8.8980    88.3450     2.4910     0.0430  1067.2550     0.0850   -25.4220     7.3870    10.6160     0.1190
 2677.0000     8.8790    87.8650     2.5070     0.0500  1067.7930     0.0820   -25.7760     7.3870    11.9070     0.1250
 2677.5000     8.7880    87.7850     2.5270     0.0560  1068.3311     0.0790   -26.1310     7.3870    13.4170     0.1320
 2678.0000     8.7090    88.3440     2.5190     0.0560  1068.8690     0.0810   -26.2170     7.3860     7.9700     0.1380
 2678.5000     8.7220    89.0430     2.5030     0.0520  1069.4070     0.0920   -26.2910     7.3710     7.7490     0.1440
