~VERSION INFORMATION
 VERS.                2.0:   CWLS LOG ASCII STANDARD - VERSION 2.0
 WRAP.                 NO:   ONE LINE PER DEPTH STEP
~WELL INFORMATION
#MNEM.UNIT      DATA TYPE    INFORMATION
#----------   ------------   ------------------------------
 STRT.F          480.0000:   START DEPTH
 STOP.F         4609.5000:   STOP DEPTH
 STEP.F            0.5000:   STEP LENGTH
 NULL.          -999.2500:   NO VALUE
 COMP.   FENNIX & SCISSON:   COMPANY
 WELL. FENNIX NPR-3 "LX" #58-14:   WELL
 FLD .              NPR-3:   FIELD
 LOC .      S14 T38N R78W:   LOCATION
 CNTY.            NATRONA:   COUNTY
 STAT.            WYOMING:   STATE
 CTRY. UNITED STATES OF AMERICA:   COUNTRY
 SRVC.       SCHLUMBERGER:   SERVICE COMPANY
 DATE.        08-MAR-1978:   LOGDATE
 API .     49025105920000:   API NUMBER
~CURVE INFORMATION
#MNEM.UNIT       API CODE    CURVE DESCRIPTION
#----------   ------------   ------------------------------
 DEPT.F                  :   
 SPR .MV     07 010 01 00:   SPONTANEOUS POTENTIAL
 SFL .OHMM   07 220 01 00:   SHALLOW FOCUSED LOG RESISTIVITY
 ILD .OHMM   07 120 46 00:   DEEP INDUCTION RESISTIVITY
 ILM .OHMM   07 120 44 00:   INDUCTION LOG MEDIUM RESISTIVITY
 CALD.IN     45 280 60 00:   CALIPER FROM DENSITY LOG
 GRD .GAPI   45 310 01 00:   GAMMA RAY FROM DENSITY LOG
 CORR.G/C3   45 356 01 00:   DENSITY CORRECTION
 RHOB.G/C3   45 350 01 00:   BULK DENSITY
 NPHI.DEC    42 890 03 00:   NEUTRON POROSITY SANDSTONE
~PARAMETER INFORMATION
#MNEM.UNIT          VALUE    DESCRIPTION
#----------   ------------   ------------------------------
 EKB .F         5320.0000:   Kelly bushing
 EGL .F         5310.0000:   Ground level
 EDF .F            0.0000:   Drilling floor
 TD  .F         4635.0000:   Total depth
 DATE.        08-MAR-1978:   Date logged
 CLNT.            A2DTECH:   Client Code
 SL  . 810' FSL & 1830' FEL:   Surface Location
 PD  .                 GL:   Permanent Datum
 DD  .F              4635:   Depth driller
 DL  .F              4608:   Depth logger
 BLI .F              4607:   Bottom log interval
 DFT .                FGM:   Type fluid in hole
 DFD .                9.1:   Density
 DFV .                 38:   Viscosity
 DFPH.                 11:   pH
 MSS .           FLOWLINE:   Source of sample
 RMS .OHMM           1.53:   Rm
 MST .F                58:   Rm Meas. temp.
 RMF .OHMM           1.06:   Rmf
 MFST.F                58:   Rmf Meas. temp.
 MFSS.               MEAS:   Source Rmf.
 RMB .OHMM           0.68:   Rm. at BHT
 BHT .F               131:   BHT.
 TCS .HRS            0630:   Time Circ. stopped
 MRT .F               131:   Maximum recorded temp.
 LUN .               8039:   Logging unit number
 LUL .               CSPP:   Logging unit location
 ENGI.           PETERSON:   Recorded By
 ORIG.           5" PRINT:   Origin of data
 UWI .     49025105920000:   Unique Well ID
 DICO. A2D TECHNOLOGIES, INC.:   Digitizing Company
 DAPD.                 20:   Feet Above Permanent Datum
 BSD1.               4635:   Depth drilled with bit1
 EPD .               5310:   Elevation Permanent Datum
 LMF .                 KB:   Log Measured From
 DMF .                 KB:   Drilling Measured From
 TLI .                508:   Top log interval
 CS1 .              8.625:   Casing size
 CBL1.                508:   Casing logger 1
 BS1 .              7.875:   Bit size
~OTHER INFORMATION
~A   DEPT      SPR        SFL        ILD        ILM       CALD         GRD      CORR       RHOB         NPHI 
# ...
 2122.5000   -48.4170     8.1510     7.8190     7.1910    11.5070    90.8910     0.1390     2.5890     0.2790
 2123.0000   -48.4520     7.8630     7.9700     7.0670    11.5870    91.3440     0.1820     2.5940     0.2870
 2123.5000   -48.4840     7.4700     7.9590     7.0670    11.6640    92.1640     0.2270     2.5790     0.2920
 2124.0000   -48.5160     7.4970     7.9440     7.3110    11.5880    94.4970     0.2140     2.5430     0.3000
 2124.5000   -48.5470     7.5600     7.9280     7.5390    11.4780    96.9220     0.1450     2.4940     0.3050
 2125.0000   -48.5790     7.8230     7.9120     7.3330    11.4180    97.5080     0.0760     2.4780     0.3040
 2125.5000   -48.6120     8.1970     7.8960     7.4890    11.3930    97.7060     0.0560     2.4980     0.2940
 2126.0000   -48.5010     8.6610     7.8660     7.6800    11.3670    98.0030     0.0360     2.5280     0.2890
 2126.5000   -48.3410     8.5490     7.8350     7.3480    11.3410    97.9780     0.0320     2.5410     0.2940
 2127.0000   -48.2430     8.1920     7.8040     7.0670    11.3150    96.6800     0.0310     2.5420     0.3000
 2127.5000   -48.3700     7.7480     7.7730     7.0020    11.2870    95.2680     0.0350     2.5480     0.3050
 2128.0000   -48.5180     7.2660     7.7210     7.0230    11.2600    94.7330     0.0520     2.5560     0.3030
 2128.5000   -48.6160     7.2660     7.6260     7.0390    11.2330    94.4560     0.0720     2.5650     0.2960
 2129.0000   -48.6170     7.4060     7.5390     7.0550    11.2060    94.2360     0.0760     2.5600     0.2990
 2129.5000   -48.9540     7.4990     7.6310     7.0860    11.1790    94.0310     0.0620     2.5510     0.3050
 2130.0000   -49.4430     7.5390     7.7350     7.1550    11.1720    94.2410     0.0400     2.5380     0.3110
 2130.5000   -49.5340     7.6410     7.8380     7.2230    11.1880    95.9240     0.0200     2.5240     0.3000
 2131.0000   -49.5930     7.7970     7.9420     7.2920    11.2030    94.4050     0.0080     2.5190     0.2900
 2131.5000   -49.5590     8.0440     8.1180     7.3610    11.2180    92.7090     0.0070     2.5230     0.2860
 2132.0000   -49.5270     7.9650     8.0260     7.4010    11.1930    93.1820     0.0090     2.5340     0.2920
 2132.5000   -49.4950     7.7740     7.9120     7.2530    11.1180    95.6370     0.0130     2.5410     0.3050
 2133.0000   -49.4620     7.5390     7.7980     7.1300    11.0690    98.1010     0.0200     2.5450     0.3020
 2133.5000   -49.4280     7.5730     7.6800     7.0020    11.0700    98.2160     0.0300     2.5470     0.3000
 2134.0000   -49.3550     7.6090     7.5650     6.9300    11.0690    97.9770     0.0410     2.5470     0.2960
 2134.5000   -49.1530     7.3900     7.4440     6.8560    11.0690    95.5450     0.0420     2.5400     0.2950
 2135.0000   -48.9390     7.1990     7.3240     6.7820    11.0700    93.5390     0.0380     2.5370     0.3010
 2135.5000   -48.6580     7.0020     7.2660     6.6850    11.0700    93.8360     0.0420     2.5480     0.3060
 2136.0000   -48.3810     7.1090     7.2660     6.7130    11.0880    95.4170     0.0450     2.5640     0.3060
 2136.5000   -48.2190     7.2270     7.2800     6.7510    11.1230    96.4310     0.0920     2.5870     0.3040
 2137.0000   -48.2190     7.3280     7.3010     6.7900    11.1600    96.8290     0.1210     2.6020     0.3020
 2137.5000   -48.2200     7.2660     7.3220     6.8290    11.1530    97.6220     0.1330     2.6020     0.3000
 2138.0000   -48.2050     7.2880     7.3430     6.8680    11.1330    98.5910     0.1330     2.5670     0.2980
 2138.5000   -47.8360     7.3400     7.3640     6.9070    11.1120    98.6230     0.0440     2.5340     0.2950
 2139.0000   -47.8200     7.3910     7.3860     6.9380    11.1050    96.3210     0.0170     2.5170     0.2970
 2139.5000   -47.8220     7.4010     7.4070     6.9370    11.1000    93.7740     0.0180     2.5330     0.2990
 2140.0000   -47.8230     7.4010     7.4280     6.9370    11.0950    92.3270     0.0280     2.5450     0.3080
 2140.5000   -47.9440     7.3910     7.4490     6.9370    11.0890    93.1000     0.0390     2.5510     0.3170
 2141.0000   -48.1710     7.3280     7.4700     6.9370    11.1060    96.3750     0.0490     2.5560     0.3180
 2141.5000   -48.4050     7.2660     7.4910     6.9370    11.1260   100.2380     0.0520     2.5560     0.3140
 2142.0000   -48.4150     7.1990     7.5120     6.9370    11.1460   101.6880     0.0510     2.5470     0.3080
 2142.5000   -48.4210     7.3280     7.5330     6.9370    11.1300   101.0540     0.0480     2.5240     0.3030
 2143.0000   -49.1020     7.5390     7.5730     6.9370    11.1080   100.1000     0.0380     2.5080     0.3040
 2143.5000   -49.2920     7.4770     7.6200     6.9370    11.0940    97.6980     0.0320     2.5130     0.3010
 2144.0000   -49.3940     7.3500     7.6680     6.9370    11.1200    95.3120     0.0320     2.5290     0.2920
 2144.5000   -49.3490     7.6460     7.7160     7.0780    11.1460    93.4550     0.0460     2.5530     0.2800
 2145.0000   -49.2820     7.7890     7.7630     7.3330    11.1710    92.4600     0.0520     2.5600     0.2840
 2145.5000   -49.2140     7.9320     7.8110     7.3210    11.1970    92.5350     0.0460     2.5470     0.2910
 2146.0000   -49.1470     8.0440     7.8580     7.2910    11.1760    92.8680     0.0330     2.5310     0.2960
 2146.5000   -49.0790     7.9600     7.8960     7.2620    11.1280    93.2100     0.0210     2.5270     0.2970
 2147.0000   -49.0110     7.8920     7.7630     7.2330    11.1340    93.5570     0.0210     2.5300     0.2970
 2147.5000   -48.9620     7.8230     7.6520     7.2040    11.1380    94.1700     0.0210     2.5290     0.2980
 2148.0000   -48.9130     7.7510     7.5410     7.1750    11.1420    96.4140     0.0230     2.5270     0.3010
 2148.5000   -48.8630     7.7070     7.4300     7.1460    11.1460    98.6480     0.0210     2.5260     0.3020
 2149.0000   -48.8160     7.6600     7.3330     7.1260    11.1500    99.9500     0.0180     2.5310     0.3010
 2149.5000   -48.9710     7.6090     7.4010     7.1150    11.1540    98.8590     0.0150     2.5370     0.2870
 2150.0000   -49.1440     7.6630     7.4960     7.1040    11.1580    99.0830     0.0160     2.5380     0.2820
 2150.5000   -49.3170     7.7390     7.5900     7.0930    11.1620    99.7210     0.0180     2.5350     0.2780
 2151.0000   -49.3300     7.8160     7.6850     7.0820    11.1670   100.2020     0.0140     2.5250     0.2870
 2151.5000   -49.1780     7.6350     7.7510     7.0700    11.1770    99.0390     0.0110     2.5190     0.2950
 2152.0000   -49.0290     7.4190     7.6860     7.0540    11.1930    97.5160     0.0110     2.5270     0.2950
 2152.5000   -49.0970     7.5140     7.6360     7.0360    11.2090    96.8980     0.0260     2.5370     0.2850
 2153.0000   -49.1950     7.6800     7.5850     7.0180    11.3200    96.2680     0.0470     2.5420     0.2850
 2153.5000   -49.2950     7.5730     7.5390     7.0020    11.4430    95.6140     0.0720     2.5410     0.2910
 2154.0000   -49.3920     7.4450     7.3770     6.8650    11.5690    95.4460     0.0820     2.5410     0.3010
 2154.5000   -49.3400     7.3170     7.2280     6.7390    11.6200    97.1600     0.0870     2.5450     0.3140
 2155.0000   -49.2650     7.1990     7.0020     6.6240    11.5700    99.1290     0.0890     2.5560     0.3110
 2155.5000   -49.2220     7.0680     7.0580     6.6070    11.4950    99.6930     0.1320     2.5890     0.3120
 2156.0000   -49.2900     6.9470     7.1760     6.5920    11.4190    96.4730     0.1640     2.5780     0.3140
 2156.5000   -49.3570     6.8230     7.2950     6.5770    11.3490    93.3550     0.1460     2.5230     0.3190
 2157.0000   -49.4300     6.8730     7.3420     6.5630    11.3300    92.9030     0.0840     2.4780     0.3200
 2157.5000   -49.5290     7.2910     7.3540     6.6950    11.4000    94.0920     0.0470     2.4650     0.3090
 2158.0000   -49.6280     7.6800     7.3670     6.8190    11.5200    96.4530     0.0370     2.4920     0.3080
 2158.5000   -49.7250     8.0440     7.3790     6.9430    11.6730    98.1580     0.0600     2.5150     0.3090
