~VERSION INFORMATION
 VERS.                2.0:   CWLS LOG ASCII STANDARD - VERSION 2.0
 WRAP.                 NO:   ONE LINE PER DEPTH STEP
~WELL INFORMATION
#MNEM.UNIT      DATA TYPE    INFORMATION
#----------   ------------   ------------------------------
 STRT.F          176.0000:   START DEPTH
 STOP.F         3380.0000:   STOP DEPTH
 STEP.F            0.5000:   STEP LENGTH
 NULL.          -999.2500:   NO VALUE
 COMP.    PENIX & SCISSON:   COMPANY
 WELL.  FENIX "AX" #85-15:   WELL
 FLD .             NPR #3:   FIELD
 LOC .      S15 T38N R78W:   LOCATION
 CNTY.            NATRONA:   COUNTY
 STAT.            WYOMING:   STATE
 CTRY. UNITED STATES OF AMERICA:   COUNTRY
 SRVC.       SCHLUMBERGER:   SERVICE COMPANY
 DATE.        28-APR-1981:   LOGDATE
 API .     49025108700000:   API NUMBER
~CURVE INFORMATION
#MNEM.UNIT       API CODE    CURVE DESCRIPTION
#----------   ------------   ------------------------------
 DEPT.F                  :   
 TEND.LBS    45 635 01 00:   TENSION FROM DENSITY LOG
 CALD.IN     45 280 60 00:   CALIPER FROM DENSITY LOG
 CORR.G/C3   45 356 01 00:   DENSITY CORRECTION
 GRD .GAPI   45 310 01 00:   GAMMA RAY FROM DENSITY LOG
 RHOB.G/C3   45 350 01 00:   BULK DENSITY
 SFL .OHMM   07 220 01 00:   SHALLOW FOCUSED LOG RESISTIVITY
 ILD .OHMM   07 120 46 00:   INDUCTIONLOG DEEP RESISTIVITY
 ILM .OHMM   07 120 44 00:   INDUCTION LOG MEDIUM RESISTIVITY
 TENR.LBS    07 635 01 00:   TENSION FROM RESISTIVITY
 SPR .MV     07 010 01 00:   SPONTANEOUS POTENTIAL
~PARAMETER INFORMATION
#MNEM.UNIT          VALUE    DESCRIPTION
#----------   ------------   ------------------------------
 EKB .F         5259.0000:   Kelly bushing
 EGL .F         5249.0000:   Ground level
 EDF .F            0.0000:   Drilling floor
 TD  .F         3333.0000:   Total depth
 DATE.        28-APR-1981:   Date logged
 CLNT.            A2DTECH:   Client Code
 SL  . 1927' FSL & 140' FEL:   Surface Location
 PD  .                 GL:   Permanent Datum
 DD  .F              3333:   Depth driller
 DL  .F              3382:   Depth logger
 BLI .F              3376:   Bottom log interval
 TLI .F               182:   Top log interval
 CS1 .IN            8.625:   Casing size
 CBD1.      8.625" @ 181':   Casing driller 1
 CBL1.F               182:   Casing logger 1
 BS1 .IN            7.875:   Bit size
 BSD1.F              3333:   Depth drilled with bit1
 DFT .                GEL:   Type fluid in hole
 DFD .                8.7:   Density
 DFV .                 35:   Viscosity
 DFPH.                9.5:   pH
 DFL .                  7:   Fluid loss
 MSS .               TANK:   Source of sample
 RMS .OHMM           1.79:   Rm
 MST .F                58:   Rm Meas. temp.
 RMF .OHMM           1.43:   Rmf
 MFST.F                58:   Rmf Meas. temp.
 MFSS.               MEAS:   Source Rmf.
 RMB .OHMM            .93:   Rm. at BHT
 BHT .F               112:   BHT.
 TCS .HRS             800:   Time Circ. stopped
 TLAB.HRS             200:   Time logger at bottom
 MRT .F               112:   Maximum recorded temp.
 LUN .               8039:   Logging unit number
 LUL .               CAPR:   Logging unit location
 ENGI.           HARRINER:   Recorded By
 WITN.              SCOTT:   Witnessed by
 ORIG.           5" PRINT:   Origin of data
 UWI .     49025108700000:   Unique Well ID
 DICO. A2D TECHNOLOGIES, INC.:   Digitizing Company
 EPD .               5249:   Elevation Permanent Datum
 LMF .                 KB:   Log Measured From
 DMF .                 KB:   Drilling Measured From
 DAPD.                 10:   Feet Above Permanent Datum
~OTHER INFORMATION
~A   DEPT     TEND       CALD       CORR         GRD      RHOB        SFL        ILD        ILM       TENR        SPR   
# ...
 2286.5000  1445.5450     8.5630    -0.0040   167.4340     2.4510    12.8020    10.4260     8.8310  1439.4709   -28.1480
 2287.0000  1445.5450     8.5640    -0.0060   161.4310     2.4440    12.4940    10.4260     8.7300  1439.0240   -28.1510
 2287.5000  1445.5450     8.5660    -0.0030   156.0570     2.4370    12.4940    10.4260     8.7000  1438.5760   -28.1510
 2288.0000  1445.5450     8.5670    -0.0010   151.5610     2.4310    12.4940    10.6160     8.7000  1438.1290   -28.1450
 2288.5000  1445.5450     8.5680    -0.0010   151.4750     2.4350    12.9990    10.8100     8.7000  1437.6820   -28.2130
 2289.0000  1445.5450     8.5690    -0.0020   151.8840     2.4430    13.9870    10.9490     8.7000  1437.2340   -28.3940
 2289.5000  1445.5450     8.5690    -0.0020   152.0760     2.4470    15.5240    11.2440     8.9150  1436.7870   -28.5670
 2290.0000  1502.5740     8.5690    -0.0030   151.8500     2.4400    15.2460    11.5390     9.2410  1436.3400   -28.7440
 2290.5000  1541.7030     8.5690     0.0000   150.8290     2.4340    14.1810    11.8340     9.5670  1435.8920   -28.9320
 2291.0000  1564.3560     8.5690     0.0040   149.7180     2.4390    14.4400    12.1300     9.8920  1435.4449   -29.1530
 2291.5000  1445.5450     8.5690     0.0070   144.7930     2.4450    15.1590    12.4250    10.2180  1434.9980   -29.3480
 2292.0000  1405.9410     8.5690     0.0050   137.9840     2.4550    15.8670    12.7220    10.5440  1434.5500   -29.2860
 2292.5000  1408.2490     8.5690     0.0020   131.3370     2.4640    16.5740    12.7220    10.8100  1434.1851   -29.6550
 2293.0000  1410.5770     8.5690    -0.0010   126.4960     2.4570    17.3050    12.7220    10.8100  1434.8840   -29.6420
 2293.5000  1412.9041     8.5690    -0.0040   129.5160     2.4510    17.9420    12.7220    10.6160  1435.4760   -29.4320
 2294.0000  1415.2310     8.5690    -0.0070   136.0670     2.4210    17.4320    12.2700    10.3210  1436.0680   -29.2130
 2294.5000  1417.5590     8.5690    -0.0100   143.1710     2.4140    15.9650    12.0500     9.9280  1436.6600   -29.0160
 2295.0000  1419.8860     8.5690    -0.0090   143.4530     2.4130    14.4980    11.9390     9.5360  1437.2510   -28.8030
 2295.5000  1422.2130     8.5690    -0.0070   137.0440     2.4120    13.1910    11.5950     9.1430  1437.8430   -28.5970
 2296.0000  1424.5410     8.5690    -0.0050   131.5410     2.4210    13.3230    11.2500     8.7500  1438.4351   -28.3900
 2296.5000  1426.8680     8.5690    -0.0020   127.8880     2.4350    13.4320    10.9060     8.3910  1439.0270   -28.1820
 2297.0000  1429.1960     8.5690     0.0000   126.7970     2.4490    13.1260    10.5620     8.3910  1439.6190   -27.9760
 2297.5000  1431.5229     8.5690     0.0020   128.1240     2.4460    12.8440    10.2390     8.5440  1440.2100   -27.7660
 2298.0000  1433.8500     8.5690     0.0050   132.6280     2.4420    12.5620    10.2390     8.6450  1440.8020   -27.5600
 2298.5000  1436.1780     8.5690     0.0050   138.5720     2.4370    12.2800    10.4140     8.7990  1441.3940   -27.3720
 2299.0000  1438.5050     8.5690     0.0030   144.3910     2.4330    11.9980    10.6220     8.9530  1441.9860   -27.3680
 2299.5000  1440.8330     8.5690     0.0000   150.3240     2.4280    11.6220    10.8290     9.1060  1442.5780   -27.3500
 2300.0000  1443.1600     8.5690    -0.0010   148.9650     2.4240    13.4750    11.0360     9.2600  1443.1689   -27.4710
 2300.5000  1445.5450     8.5690     0.0010   146.6780     2.4190    16.1780    11.2430     9.4360  1443.7610   -27.6780
 2301.0000  1445.5450     8.5690     0.0010   144.5480     2.4200    17.3050    11.4130     9.6980  1444.3530   -27.8700
 2301.5000  1445.5450     8.5680     0.0000   143.6650     2.4210    16.6900    10.9720     9.5650  1444.9449   -28.0710
 2302.0000  1445.5450     8.5690    -0.0020   141.1570     2.4230    15.6210    10.6670     9.2050  1445.5360   -28.1530
 2302.5000  1445.5450     8.5590    -0.0040   138.8620     2.4220    14.2430    10.3610     8.8440  1446.1281   -28.1590
 2303.0000  1445.5450     8.5270    -0.0050   136.4080     2.4220    12.8660    10.0560     8.4840  1446.7200   -28.0260
 2303.5000  1445.5450     8.4960    -0.0010   136.0940     2.4210    11.4880     9.7500     8.0930  1447.3120   -27.7670
 2304.0000  1445.5450     8.4630     0.0120   139.6740     2.4210     9.6980     9.4450     8.1660  1447.9041   -27.5240
 2304.5000  1445.5450     8.4500     0.0280   144.3290     2.4230    10.4460     9.1860     8.2450  1448.4950   -27.2830
 2305.0000  1445.5450     8.4510     0.0440   146.9730     2.4540    11.5130     9.1860     8.3250  1449.0870   -27.0370
 2305.5000  1445.5450     8.4510     0.0520   146.7580     2.4800    12.7220     9.3670     8.4050  1449.6790   -26.8510
 2306.0000  1445.5450     8.4510     0.0350   145.6800     2.4880    12.6460     9.6360     8.4840  1450.2710   -26.6890
 2306.5000  1445.5450     8.4510     0.0210   142.1700     2.4730    12.4800     9.9040     8.7000  1450.8630   -26.5270
 2307.0000  1445.5450     8.4510     0.0040   138.8150     2.4560    12.3140    10.0560     8.7000  1451.4540   -26.3630
 2307.5000  1445.5450     8.4510     0.0060   135.2080     2.4410    12.1480     9.9630     8.8530  1452.0460   -26.2010
 2308.0000  1445.5450     8.4440     0.0110   132.6400     2.4370    12.0500     9.8160     8.8250  1452.6379   -26.0420
 2308.5000  1445.5450     8.4380     0.0140   129.2390     2.4340    12.2700     9.6980     8.7970  1453.2300   -25.8630
 2309.0000  1445.5450     8.4320     0.0110   125.1140     2.4360    12.2700     9.8750     8.7690  1453.8210   -25.8380
 2309.5000  1445.5450     8.4250     0.0070   121.9460     2.4300    12.0940     9.9640     8.7410  1454.4130   -25.9900
 2310.0000  1445.5450     8.4190     0.0040   121.0790     2.4170    11.8340    10.0550     8.7130  1455.0050   -26.1210
 2310.5000  1445.5450     8.4130     0.0000   121.8960     2.4210    12.1000    10.1460     8.6160  1455.5970   -26.2560
 2311.0000  1445.5450     8.4060     0.0020   122.8580     2.4260    12.5790    10.2370     8.7640  1456.1890   -26.3930
 2311.5000  1445.5450     8.4000     0.0080   126.6560     2.4330    13.0570    10.3270     9.0210  1456.7800   -26.5280
 2312.0000  1445.5450     8.3930     0.0130   130.1740     2.4370    13.4320    10.4260     9.0210  1457.3719   -26.6640
 2312.5000  1445.5450     8.3860     0.0120   133.8680     2.4450    13.3090    10.4260     9.0210  1457.9640   -26.7990
 2313.0000  1445.5450     8.3820     0.0080   137.5820     2.4340    13.1740    10.4260     8.8470  1458.5560   -26.9350
 2313.5000  1445.5450     8.3700     0.0040   139.6250     2.4260    13.0400    10.4260     8.7000  1459.1479   -27.0700
 2314.0000  1445.5450     8.4040     0.0000   140.4810     2.4250    12.9050    10.4260     8.7640  1459.7390   -27.2060
 2314.5000  1445.5450     8.4100    -0.0030   140.4360     2.4350    12.7700    10.4260     9.0040  1460.3311   -27.3400
 2315.0000  1445.5450     8.4060     0.0040   138.8880     2.4440    12.4940    10.4260     9.1860  1460.9230   -27.4780
 2315.5000  1445.5450     8.4000     0.0150   135.5970     2.4550    12.8820    10.4260     9.1860  1461.5150   -27.6110
 2316.0000  1445.5450     8.3960     0.0140   130.8630     2.4580    13.4320    10.1780     8.9080  1462.1060   -27.7450
 2316.5000  1445.5450     8.3910     0.0090   122.7560     2.4520    13.6770     9.9380     8.6380  1462.6980   -27.7540
 2317.0000  1445.5450     8.3860     0.0040   106.7650     2.4480    13.6770     9.6970     8.3680  1463.2900   -27.6410
 2317.5000  1445.5450     8.3830     0.0030    90.7790     2.4410    12.1460     9.4560     8.0930  1463.8820   -27.4720
 2318.0000  1445.5450     8.3780     0.0080    82.9000     2.4740    10.8640     9.2340     8.0930  1464.4740   -27.3110
 2318.5000  1445.5450     8.3650     0.0130   101.5360     2.4870     9.5240     9.1860     8.0930  1465.0649   -27.1490
 2319.0000  1445.5450     8.3300     0.0120   118.4850     2.4720    10.0680     9.1860     8.2440  1465.6570   -26.9830
 2319.5000  1445.5450     8.3270     0.0100   145.3570     2.4600    11.0550     9.3500     8.4010  1466.2490   -26.8280
