~VERSION INFORMATION
 VERS.                2.0:   CWLS LOG ASCII STANDARD - VERSION 2.0
 WRAP.                 NO:   ONE LINE PER DEPTH STEP
~WELL INFORMATION
#MNEM.UNIT      DATA TYPE    INFORMATION
#----------   ------------   ------------------------------
 STRT.F           10.0000:   START DEPTH
 STOP.F         5812.0000:   STOP DEPTH
 STEP.F            0.5000:   STEP LENGTH
 NULL.          -999.2500:   NO VALUE
 COMP. LAWRENCE - ALLSISON:   COMPANY
 WELL. LAWRENCE "X" #11-11:   WELL
 FLD .              NPR 3:   FIELD
 LOC .      S11 T38N R78W:   LOCATION
 CNTY.            NATRONA:   COUNTY
 STAT.            WYOMING:   STATE
 CTRY. UNITED STATES OF AMERICA:   COUNTRY
 SRVC.      DRESSER ATLAS:   SERVICE COMPANY
 DATE.        12-NOV-1982:   LOGDATE
 API .     49025109160000:   API NUMBER
~CURVE INFORMATION
#MNEM.UNIT       API CODE    CURVE DESCRIPTION
#----------   ------------   ------------------------------
 DEPT.F                  :   
 TEND.LBS    45 635 01 00:   TENSION FROM DENSITY LOG
 CALD.IN     45 280 60 00:   CALIPER FROM DENSITY LOG
 CORR.G/C3   45 356 01 00:   DENSITY CORRECTION
 RHOB.G/C3   45 350 01 00:   BULK DENSITY
 CN  .DEC    42 890 03 00:   COMPENSATED NEUTRON POROSITY SANDSTONE
 AC  .US/F   60 520 00 00:   ACOUSTIC
 TENS.LBS    60 635 01 00:   TENSION FROM SONIC
 GRR .GAPI   11 310 01 00:   GAMMA RAY FROM RESISTIVITY
 RD  .OHMM   11 220 10 00:   RESISTIVITY DEEP
 RMLL.OHMM   11 270 04 00:   RESISTIVITY MICROLATEROLOG
 RS  .OHMM   11 220 09 00:   RESISTIVITY SHALLOW
 SPR .MV     11 010 01 00:   SPONTANEOUS POTENTIAL FROM RESISTIVITY
 TENR.LBS    11 635 01 00:   TENSION FROM RESISTIVITY
~PARAMETER INFORMATION
#MNEM.UNIT          VALUE    DESCRIPTION
#----------   ------------   ------------------------------
 EKB .F         5160.0000:   Kelly bushing
 EGL .F         5150.0000:   Ground level
 EDF .F            0.0000:   Drilling floor
 TD  .F         5800.0000:   Total depth
 CLNT.            A2DTECH:   Client Code
 SL  . 660' FNL & 660' FWL:   Surface Location
 PD  .                 GL:   Permanent Datum
 EPD .F              5150:   Elevation Permanent Datum
 LMF .                 KB:   Log Measured From
 DMF .                 KB:   Drilling Measured From
 DAPD.F                10:   Feet Above Permanent Datum
 DATE.        12-NOV-1982:   Date Logged [DD-MMM-YYYY]
 DD  .F              5800:   Depth driller
 DL  .F              5795:   Depth logger
 BLI .F              5702:   Bottom log interval
 TLI .F                 0:   Top log interval
 CS1 .IN            9.625:   Casing size
 CBD1.      9.625" @ 664':   Casing driller 1
 CBL1.F               660:   Casing logger 1
 BS1 .IN             8.75:   Bit size
 BSD1.F              5800:   Depth drilled with bit1
 DFT .                KCL:   Type fluid in hole
 DFD .                8.6:   Density
 DFV .                 45:   Viscosity
 DFPH.                8.5:   pH
 DFL .                7.8:   Fluid loss
 MSS .           FLOWLINE:   Source of sample
 RMS .OHMM           0.32:   Rm
 MST .F                92:   Rm Meas. temp.
 RMF .OHMM           0.26:   Rmf
 MFST.F                90:   Rmf Meas. temp.
 MFSS.               MEAS:   Source Rmf.
 RMB .OHMM           0.19:   Rm. at BHT
 BHT .F               160:   BHT.
 TCS .HRS               3:   Time Circ. stopped
 MRT .F               160:   Maximum recorded temp.
 LUN .               6270:   Logging unit number
 LUL .              WLSTN:   Logging unit location
 ENGI.            QUICKEL:   Recorded By
 WITN.             STRONG:   Witnessed by
 ORIG.        2" 5" PRINT:   Origin of data
 UWI .     49025109160000:   Unique Well ID
 DICO. A2D TECHNIOLOGIES,INC.:   Digitizing Company
 RMC .OHMM           0.40:   Rmc
 MCST.F                92:   Rmc Meas. temp.
 MCSS.               CALC:   Source Rmc.
~OTHER INFORMATION
~A  DEPTH     TEND       CALD       CORR       RHOB         CN         AC       TENS        GRR         RD       RMLL         RS        SPR       TENR
# ...
 2688.0000   -15.6596     9.9953     0.0140     2.4327     0.2145    78.4177   -58.2583    81.6960    13.7827    11.1665    11.2706   -33.2555   -70.3092
 2688.5000   -30.5787    10.0249     0.0380     2.4461     0.2130    78.4214   -57.8983    80.5063    13.4963    11.0831    11.0278   -33.8525   -70.4454
 2689.0000   -52.9941    10.0096     0.0636     2.4559     0.2100    78.2743   -57.6049    79.9172    13.2157    10.2706    10.6575   -34.1506   -74.3223
 2689.5000   -79.1576     9.9490     0.1132     2.4408     0.2007    77.9695   -57.3113    79.6255    13.2135     8.1704    10.8064   -34.2973   -81.9857
 2690.0000   -94.0779     9.8700     0.1736     2.4099     0.2112    77.7542   -57.0179    79.3393    13.3044     7.4653    11.1891   -34.5946   -85.8597
 2690.5000  -101.5741     9.7688     0.1582     2.3948     0.2157    77.8341   -56.7245    78.4501    13.3955     7.7802    11.2668   -34.5916   -82.1764
 2691.0000  -105.1744     9.6935     0.0994     2.4008     0.2112    77.9131   -60.1847    83.2693    13.4867     8.4523    11.3448   -34.7390   -74.7552
 2691.5000  -101.3345     9.6183     0.0677     2.4338     0.2075    77.9168   -59.8913    86.2837    13.6738     8.8701    11.3439   -34.8855   -71.1220
 2692.0000   -93.7649     9.5880     0.0316     2.4586     0.2060    77.9958   -59.5979    88.6976    13.7675     8.6857    11.2643   -34.8826   -67.4699
 2692.5000   -86.1953     9.5727     0.0255     2.4698     0.2051    78.3009   -59.3044    89.6100    13.4813     8.5641    11.2634   -34.7296   -60.0491
 2693.0000   -82.3738     9.5574     0.0224     2.4758     0.2002    78.6060   -59.0090    89.3212    13.2932     8.5026    11.1843   -34.8769   -63.9503
 2693.5000   -78.5523     9.5721     0.0253     2.4765     0.1918    79.5140   -54.9549    90.2364    13.2910     8.6191    11.1836   -35.7742   -71.5894
 2694.0000   -78.4789     9.5718     0.0523     2.4697     0.1858    80.4299   -54.5970    90.8485    13.4754     8.6775    11.2613   -36.5220   -75.4635
 2694.5000   -78.4055     9.5865     0.0989     2.4652     0.1758    80.3026   -54.3036    91.4606    13.8537     8.7959    11.3393   -37.1198   -75.5724
 2695.0000   -78.3322     9.5862     0.0913     2.4606     0.1722    78.9230   -57.8371    90.5711    14.4423     8.9785    11.6590   -37.7175   -75.6813
 2695.5000   -78.2588     9.6009     0.0702     2.4568     0.1752    77.8717   -53.7166    85.1772    15.1609     9.4222    11.9879   -38.6155   -75.7906
 2696.0000   -74.4373     9.6006     0.0310     2.4515     0.1866    77.1218   -53.4231    81.8854    15.2647     9.9566    12.0710   -39.0631   -75.9036
 2696.5000   -74.3628     9.6003    -0.0022     2.4432     0.1938    78.3312   -56.9568    83.7015    15.0448     9.8105    11.7380   -39.3598   -72.2431
 2697.0000   -74.2879     9.6150    -0.0179     2.4317     0.1981    79.4652   -56.5900    86.4157    14.5348     9.4150    11.4943   -39.9575   -68.5871
 2697.5000   -74.1988     9.6147    -0.0234     2.4273     0.2023    80.5993   -52.5427    88.2290    13.5562     9.0925    11.1774   -40.5552   -64.9309
 2698.0000   -77.8919     9.6144    -0.0144     2.4423     0.2152    81.0551   -52.2493    90.9432    12.6435     9.0276    10.7937   -40.8526   -61.2749
 2698.5000   -89.0446     9.5841    -0.0070     2.4573     0.2125    81.1341   -51.7497    92.7887    12.1250     9.0888    10.4232   -40.9999   -65.1761
 2699.0000  -103.9637     9.5671    -0.0100     2.4542     0.2061    80.7520   -44.1442    93.0711    12.1234     9.0234    10.4225   -41.4474   -69.0512
 2699.5000  -107.6568     9.5235    -0.0206     2.4512     0.1995    80.1627   -43.7881    91.8814    12.1218     8.8972    10.4216   -41.6196   -72.9513
 2700.0000  -100.0689     9.4932    -0.0403     2.4481     0.1898    79.6389   -51.0021    90.6891    12.2047     9.0191    10.3805   -41.5916   -69.2681
 2700.5000   -88.7511     9.4779    -0.0539     2.4528     0.1925    79.4156   -65.7899    90.6938    12.2908     9.4079    10.2540   -42.0541   -69.2771
 2701.0000   -81.1815     9.4927    -0.0103     2.4616     0.1937    79.7216   -57.8679    90.9970    12.1220     9.7285    10.2053   -42.3307   -69.2771
 2701.5000   -73.6119     9.4930     0.0423     2.4690     0.1940    80.1774   -57.5365    91.3325    11.6272     8.5266    10.1344   -42.4750   -61.7470
 2702.0000   -73.8913     9.4933     0.0543     2.4720     0.1960    80.2555   -57.2049    96.7092    11.0754     8.1776     9.6517   -42.4677   -54.2169
 2702.5000   -75.9433     9.4933     0.0181     2.4704     0.2090    79.5819   -56.8694   104.5200    10.6233     8.1193     9.1919   -42.3117   -50.4518
 2703.0000   -80.8966     9.4933    -0.0030     2.4689     0.2102    79.2841   -56.5315   106.0244    10.0490     8.2012     9.0017   -42.3059   -46.6867
 2703.5000   -80.8054     9.5082    -0.0001     2.4712     0.2113    78.9864   -56.1276   106.6278     9.6388     8.4326     8.6329   -42.3001   -50.4518
 2704.0000   -80.7325     9.5082    -0.0066     2.4838     0.2188    79.4431   -59.6328   107.8319     9.2454     8.3170     8.2746   -42.4444   -50.4518
 2704.5000   -80.6595     9.5082     0.0118     2.4913     0.2209    80.7279   -59.2184   111.4385     8.6247     7.2899     7.4913   -42.4505   -54.2169
 2705.0000   -88.0828     9.5082     0.0238     2.4965     0.2182    81.7865   -62.6407   115.8040     7.2990     6.2580     6.3522   -43.1820   -54.2169
 2705.5000   -95.4878     9.4933     0.0312     2.4988     0.2152    82.9959   -62.3093   118.6522     6.0853     5.3350     5.3734   -44.2272   -54.2169
 2706.0000  -102.9294     9.4933     0.0417     2.4912     0.2100    84.1300   -65.7315   120.7572     5.2190     4.7746     4.9421   -45.2725   -54.2169
 2706.5000  -106.6046     9.4783     0.0567     2.4836     0.2052    84.7365   -65.4000   122.5619     4.9108     4.7419     4.8062   -46.0174   -54.2169
 2707.0000  -102.7652     9.4783     0.0687     2.4721     0.2027    84.1373   -68.9052   124.6669     4.8771     4.7752     5.0115   -46.7623   -50.4518
 2707.5000   -91.4479     9.4783     0.0858     2.4608     0.1991    81.6542   -68.4908   126.4716     5.2653     4.9513     5.2256   -47.9577   -50.4518
 2708.0000   -83.8787     9.4933     0.1076     2.4410     0.1940    76.3647   -71.9131   121.6514     6.8590     5.4044     5.8832   -48.8527   -50.7996
 2708.5000   -83.8057     9.4933     0.0775     2.4373     0.1879    74.3296   -75.3378   113.1315     8.8115     7.6571     6.9065   -49.1472   -57.9819
 2709.0000   -87.4813     9.4933     0.0292     2.4403     0.1746    74.8839   -59.8131    93.4480    12.2201    11.0625    12.0769   -49.1411   -61.7470
 2709.5000   -91.4931     9.4933    -0.0175     2.4500     0.1767    75.5658   -51.9081    86.2436    16.4821    12.5355    14.8119   -48.9839   -61.7470
 2710.0000   -94.8312     9.4933    -0.0070     2.4613     0.1815    76.0216   -40.4742    85.6452    17.5806    12.4496    16.1687   -48.8280   -54.2169
 2710.5000   -88.8994     9.5082     0.0291     2.4712     0.1899    75.8745   -40.1428    88.9521    16.8320    12.1095    15.7240   -48.3717   -57.9819
 2711.0000   -82.2222     9.4933     0.0518     2.4793     0.1902    75.8019   -39.8112    89.8559    16.2517    11.8608    15.0798   -47.3148   -61.7470
 2711.5000   -75.8535     9.4483     0.0560     2.4808     0.1920    75.7302   -39.4798    90.4594    16.0342    11.3778    14.5632   -45.9576   -61.7470
 2712.0000   -75.7805     9.3606     0.0589     2.4702     0.2185    75.7348   -42.9850    88.6612    15.9241     9.9728    14.2617   -44.9007   -69.2771
 2712.5000   -79.4739     9.2309     0.0769     2.4574     0.2157    75.8035   -43.6994    88.0628    16.1486     9.9734    14.2617   -44.2943   -69.5871
 2713.0000   -86.8816     9.1184     0.0708     2.4469     0.2058    75.9565   -49.8295    87.4651    16.2624    10.1202    14.2617   -43.6696   -73.0422
 2713.5000   -94.3023     9.0885     0.0362     2.4385     0.1904    76.1850   -53.1689    86.5678    16.4914    10.6919    14.2617   -43.0800   -76.8072
