~VERSION INFORMATION
 VERS.                2.0:   CWLS LOG ASCII STANDARD - VERSION 2.0
 WRAP.                 NO:   ONE LINE PER DEPTH STEP
~WELL INFORMATION
#MNEM.UNIT      DATA TYPE    INFORMATION
#----------   ------------   ------------------------------
 STRT.F           22.0000:   START DEPTH
 STOP.F         4228.5000:   STOP DEPTH
 STEP.F            0.5000:   STEP LENGTH
 NULL.          -999.2500:   NO VALUE
 COMP. LAWRENCE ALLISON & ASSOCIATES:   COMPANY
 WELL. LAWRENCE NPR 3 "X" #25-2:   WELL
 FLD .                NPR:   FIELD
 LOC .       S2 T38N R78W:   LOCATION
 CNTY.            NATRONA:   COUNTY
 STAT.            WYOMING:   STATE
 CTRY. UNITED STATES OF AMERICA:   COUNTRY
 SRVC.      DRESSER ATLAS:   SERVICE COMPANY
 DATE.        22-DEC-1985:   LOGDATE
 API .     49025110700000:   API NUMBER
~CURVE INFORMATION
#MNEM.UNIT       API CODE    CURVE DESCRIPTION
#----------   ------------   ------------------------------
 DEPT.F                  :   
 TENS.LBS    60 635 01 00:   TENSION FROM SONIC
 DT  .US/F   60 520 00 00:   DELTA TIME
 SPHI.DEC    60 890 00 00:   SONIC POROSITY
 TENR.LBS    07 635 01 00:   TENSION FROM RESISTIVITY
 CALR.IN     07 280 01 00:   CALIPER FROM RESISTIVITY
 SPR .MV     07 010 01 00:   SPONTANEOUS POTENTIAL
 GRR .GAPI   07 310 01 00:   GAMMA RAY FROM RESISTIVITY
 SFL .OHMM   07 220 01 00:   SHALLOW FOCUSED LOG RESISTIVITY
 ILD .OHMM   07 120 46 00:   DEEP INDUCTION RESISTIVITY
 ILM .OHMM   07 120 44 00:   INDUCTION LOG MEDIUM RESISTIVITY
~PARAMETER INFORMATION
#MNEM.UNIT          VALUE    DESCRIPTION
#----------   ------------   ------------------------------
 EKB .F         5148.0000:   Kelly bushing
 EGL .F         5136.0000:   Ground level
 EDF .F            0.0000:   Drilling floor
 TD  .F         4228.0000:   Total depth
 DATE.        22-DEC-1985:   Date logged
 CLNT.            A2DTECH:   Client Code
 SL  . 1350' FWL & 1968' FSL:   Surface Location
 PD  .                 GL:   Permanent Datum
 DD  .F              4224:   Depth driller
 DL  .F              4228:   Depth logger
 BLI .F              4225:   Bottom log interval
 CS1 .IN            8.625:   Casing size
 CBD1.      8.625" @ 677':   Casing driller 1
 CBL1.F               677:   Casing logger 1
 BS1 .IN            7.875:   Bit size
 DFT .            KCL/GEL:   Type fluid in hole
 DFD .                9.2:   Density
 DFV .                 45:   Viscosity
 DFPH.                8.5:   pH
 DFL .               11.5:   Fluid loss
 MSS .               TANK:   Source of sample
 RMS .OHMM           .256:   Rm
 MST .F                63:   Rm Meas. temp.
 RMF .OHMM           .192:   Rmf
 MFST.F                64:   Rmf Meas. temp.
 RMC .OHMM           .320:   Rmc
 MCST.F                64:   Rmc Meas. temp.
 MFSS.               MEAS:   Source Rmf.
 RMB .OHMM           .119:   Rm. at BHT
 BHT .F               143:   BHT.
 TCS .HRS             4.5:   Time Circ. stopped
 MRT .F               143:   Maximum recorded temp.
 LUN .               6427:   Logging unit number
 LUL .          WILLISTON:   Logging unit location
 ENGI.             MCHUCH:   Recorded By
 WITN.             STRONG:   Witnessed by
 ORIG.           5" PRINT:   Origin of data
 UWI .     49025110700000:   Unique Well ID
 DICO. A2D TECHNOLOGIES, INC.:   Digitizing Company
 DAPD.                 12:   Feet Above Permanent Datum
 BSD1.               4224:   Depth drilled with bit1
 MCSS.               CALC:   Source Rmc.
 EPD .F              5136:   Elevation Permanent Datum
 LMF .                 KB:   Log Measured From
 DMF .                 KB:   Drilling Measured From
~OTHER INFORMATION
~A   DEPT     TENS         DT       SPHI       TENR       CALR        SPR         GRR       SFL        ILD        ILM   
# ...
 3941.5000   -81.2690    93.7130     0.3090   -67.4770     7.9780   -36.1020   119.7040     3.8390     2.7320     2.9890
 3942.0000   -80.6320    94.8950     0.3150   -68.2480     7.9980   -35.8650   119.7140     3.7950     2.6570     2.9890
 3942.5000   -79.9950    94.5090     0.3180   -69.0200     8.0030   -35.9770   120.1710     3.9730     2.5820     2.8960
 3943.0000   -79.3580    93.8430     0.3110   -69.7910     8.0060   -36.2820   120.8890     3.8290     2.5070     2.7880
 3943.5000   -78.7210    93.1770     0.3050   -70.5620     8.0090   -36.5880   121.6170     3.7140     2.4380     2.6800
 3944.0000   -78.0840    93.1750     0.3050   -71.3330     8.0130   -36.8960   122.3850     3.5960     2.3770     2.5720
 3944.5000   -77.4470    94.6850     0.3180   -72.1040     8.0160   -37.2030   121.2680     3.4660     2.3500     2.4650
 3945.0000   -76.8100    96.1940     0.3290   -72.8750     8.0190   -37.5100   119.7650     3.3370     2.3440     2.5000
 3945.5000   -76.1730    97.3780     0.3380   -73.6460     8.0170   -37.8550   118.2450     3.2820     2.3370     2.5340
 3946.0000   -75.5360    97.4100     0.3380   -74.4170     7.9950   -38.3410   116.7340     3.1870     2.3310     2.5690
 3946.5000   -75.5970    95.7940     0.3260   -75.1880     7.9720   -38.8370   115.8350     3.3950     2.3240     2.6040
 3947.0000   -76.5690    93.5280     0.3010   -75.5230     7.9500   -39.1240   116.1170     3.6070     2.3180     2.5600
 3947.5000   -77.5420    91.6780     0.2870   -75.5230     7.9270   -39.3510   115.5080     3.8300     2.3110     2.5140
 3948.0000   -78.5140    90.7140     0.2880   -75.5230     7.9360   -39.5140   116.6960     3.8650     2.3040     2.4650
 3948.5000   -79.4870    91.3990     0.2940   -75.5230     7.9530   -39.2720   120.9490     3.4750     2.2960     2.4290
 3949.0000   -80.4600    93.6960     0.3040   -75.5230     7.9720   -39.0250   121.8750     3.2710     2.2700     2.3900
 3949.5000   -81.4320    94.4170     0.3130   -75.5230     7.9900   -38.7800   121.4820     3.1580     2.2070     2.3520
 3950.0000   -82.4050    94.7540     0.3170   -75.5230     8.0080   -38.5350   120.6730     3.1580     2.1440     2.2930
 3950.5000   -83.3770    94.7310     0.3180   -75.5230     8.0190   -38.2910   119.4680     3.1440     2.0810     2.2160
 3951.0000   -84.3500    95.0620     0.3190   -75.5230     8.0110   -38.0450   119.8220     3.1160     2.0180     2.1860
 3951.5000   -85.3220    95.8940     0.3260   -75.5230     8.0030   -37.7990   120.3910     3.0880     1.9590     2.1610
 3952.0000   -86.2950    97.1080     0.3360   -75.5230     8.0060   -37.5760   120.9600     3.0600     1.9230     2.0960
 3952.5000   -87.2680    98.4180     0.3450   -75.5230     8.0180   -37.7100   121.5210     3.0320     1.8820     2.0140
 3953.0000   -88.2400    99.5050     0.3520   -75.5230     8.0300   -37.8530   122.1600     2.9740     1.8430     2.0450
 3953.5000   -89.2130   100.2690     0.3580   -75.5230     8.0420   -37.9910   124.5760     2.8780     1.8370     2.0700
 3954.0000   -90.1850   101.0890     0.3600   -75.5230     8.0530   -38.1140   127.3130     2.8030     1.8540     2.1050
 3954.5000   -91.1580   100.5890     0.3590   -75.5230     8.0600   -38.7790   130.2580     2.8920     1.8860     2.1760
 3955.0000   -92.1300    99.7850     0.3550   -75.5230     8.0470   -39.5550   131.0080     3.0170     1.9640     2.2470
 3955.5000   -93.1030    98.6430     0.3460   -75.5230     8.0320   -40.3380   131.8060     3.1460     2.0410     2.3880
 3956.0000   -94.0760    97.2380     0.3340   -75.5230     8.0180   -41.1300   131.6690     3.2730     2.1530     2.6380
 3956.5000   -95.0480    95.8340     0.3220   -75.5230     8.0040   -41.6860   126.2700     3.4010     2.3180     2.8870
 3957.0000   -93.5040    94.2590     0.3100   -75.5230     7.9900   -42.1760   119.5070     3.6580     2.4830     3.1360
 3957.5000   -91.6490    92.6060     0.3010   -75.5230     7.9750   -42.5690   112.2400     4.1220     2.7630     3.3860
 3958.0000   -89.7940    90.7740     0.2980   -75.5230     7.9610   -42.7160   109.2880     4.2430     3.1330     3.6350
 3958.5000   -87.9390    89.1060     0.2850   -75.5230     7.9470   -42.8730   108.3030     4.4440     3.5040     3.8840
 3959.0000   -86.0850    88.7010     0.2720   -75.5230     7.9330   -42.8760   108.2090     4.7310     3.8470     4.1340
 3959.5000   -84.2300    86.0890     0.2570   -75.5230     7.9220   -42.8170   108.7180     5.3510     3.9920     4.3550
 3960.0000   -82.3750    83.8730     0.2420   -75.5230     7.9220   -42.7560   109.8890     6.2310     4.1220     4.3060
 3960.5000   -80.5200    82.4260     0.2260   -75.5230     7.9220   -42.6950   111.3410     6.0270     4.1050     4.2530
 3961.0000   -78.6660    82.3240     0.2250   -62.0640     7.9220   -42.6340   112.9220     5.7340     4.0890     4.1990
 3961.5000   -76.8110    83.5040     0.2330   -49.7260     7.9220   -42.5730   114.5500     5.4420     3.9870     4.1600
 3962.0000   -75.7850    84.9790     0.2420   -52.6630     7.9220   -42.5270   117.1700     5.1490     3.8440     3.9830
 3962.5000   -80.9590    86.4540     0.2530   -63.2390     7.9220   -42.5690   120.8900     4.8550     3.7010     3.8170
 3963.0000   -86.1320    87.8020     0.2640   -73.8140     7.9220   -42.6100   123.0470     4.5620     3.5570     3.6520
 3963.5000   -91.3060    89.2880     0.2760   -74.2670     7.9220   -42.6510   124.0540     4.2690     3.4140     3.5360
 3964.0000   -92.3580    89.6830     0.2820   -72.2930     7.9220   -42.6900   123.2320     4.1600     3.2710     3.4830
 3964.5000   -81.4350    89.2240     0.2810   -70.3190     7.9220   -42.6920   121.6550     4.4920     3.1300     3.4300
 3965.0000   -74.6370    88.7650     0.2750   -68.3450     7.9220   -42.5800   120.4990     4.8630     2.9970     3.3360
 3965.5000   -73.3770    88.4020     0.2720   -66.3710     7.9220   -42.4990   120.7670     4.7290     2.8640     3.1790
 3966.0000   -72.1160    89.1770     0.2760   -65.5530     7.9220   -42.4500   123.5240     4.3880     2.7310     3.0220
 3966.5000   -70.8560    91.1430     0.2950   -65.5530     7.9220   -42.4020   128.3880     4.0480     2.6790     2.8030
 3967.0000   -69.5960    93.1090     0.3140   -65.5530     7.9220   -42.3530   132.0330     3.7070     2.6920     2.8320
 3967.5000   -68.3360    95.8390     0.3340   -65.5530     7.9220   -42.3530   132.3550     3.4710     2.7390     2.8840
 3968.0000   -67.0750    98.3350     0.3430   -65.5530     7.9220   -42.4210   129.2850     3.3370     2.8180     3.1340
 3968.5000   -65.8150    98.6910     0.3430   -65.5530     7.9220   -42.4910   121.4440     3.5300     3.0460     3.5490
 3969.0000   -67.3220    97.2930     0.3270   -65.5530     7.9220   -42.3420   113.6230     4.6020     3.4030     4.0560
 3969.5000   -71.5960    91.2460     0.2990   -66.5210     7.9220   -42.0390   105.8730     6.3180     3.7600     4.7560
 3970.0000   -75.8700    85.7170     0.2560   -75.2300     7.9220   -41.7350   101.1970     8.2070     4.2420     5.4560
 3970.5000   -80.1440    80.1870     0.2160   -83.9390     7.9220   -41.4300   103.3250     8.0690     4.8480     5.9910
 3971.0000   -84.4180    77.5120     0.1910   -92.6490     7.9220   -41.1240   104.5920     7.7670     5.4970     6.0790
 3971.5000   -85.1650    77.2420     0.1890   -89.8970     7.9310   -40.8170   105.2170     7.8400     5.9820     6.1740
 3972.0000   -85.1650    77.5490     0.1920   -81.6720     7.9480   -40.5500   105.9640     7.9840     5.6400     5.9960
 3972.5000   -85.1650    78.0020     0.1950   -73.4460     7.9650   -40.6950   109.3440     7.7300     5.2190     5.6120
 3973.0000   -85.1650    78.5110     0.2010   -65.5530     7.9800   -40.6930   114.5130     7.0380     4.7980     5.2280
 3973.5000   -85.1650    80.4060     0.2110   -76.9640     7.9690   -40.6300   117.3750     6.1290     4.4090     4.8440
 3974.0000   -83.5750    83.1410     0.2320   -82.9130     7.9580   -40.5650   119.6360     5.3960     4.0400     4.4600
 3974.5000   -81.4380    86.1420     0.2600   -71.3010     7.9460   -40.5870   119.7250     4.7740     3.7900     4.0760
