~VERSION INFORMATION
 VERS.                2.0:   CWLS LOG ASCII STANDARD - VERSION 2.0
 WRAP.                 NO:   ONE LINE PER DEPTH STEP
~WELL INFORMATION
#MNEM.UNIT      DATA TYPE    INFORMATION
#----------   ------------   ------------------------------
 STRT.F            4.5000:   START DEPTH
 STOP.F         3216.0000:   STOP DEPTH
 STEP.F            0.5000:   STEP LENGTH
 NULL.          -999.2500:   NO VALUE
 COMP. LAWRENCE ALLISON & ASSCOCIATES:   COMPANY
 WELL. LAWRENCE ALLISON #38-34:   WELL
 FLD . NAVAL PET. RES. NO. 3:   FIELD
 LOC .      S34 T39N R78W:   LOCATION
 CNTY.            NATRONA:   COUNTY
 STAT.            WYOMING:   STATE
 CTRY. UNITED STATES OF AMERICA:   COUNTRY
 SRVC.      DRESSER ATLAS:   SERVICE COMPANY
 DATE.        12-OCT-1986:   LOGDATE
 API .     49025111120000:   API NUMBER
~CURVE INFORMATION
#MNEM.UNIT       API CODE    CURVE DESCRIPTION
#----------   ------------   ------------------------------
 DEPT.F                  :   
 CALD.IN     45 280 60 00:   CALIPER FROM DENSITY LOG
 RHOB.G/C3   45 350 01 00:   BULK DENSITY
 CORR.G/C3   45 356 01 00:   DENSITY CORRECTION
 CNC .DEC    42 890 01 00:   NEUTRON POROSITY
 SPR .MV     07 010 01 00:   SPONTANEOUS POTENTIAL
 TENR.LBS    06 635 01 00:   TENSION FROM RESISTIVITY
 GRR .GAPI   07 310 01 00:   GAMMA RAY FROM RESISTIVITY
 ILD .OHMM   07 120 46 00:   DEEP INDUCTION RESISTIVITY
 ILM .OHMM   07 120 44 00:   INDUCTION LOG MEDIUM RESISTIVITY
 SFL .OHMM   07 220 01 00:   SHALLOW FOCUSED LOG RESISITIVITY
~PARAMETER INFORMATION
#MNEM.UNIT          VALUE    DESCRIPTION
#----------   ------------   ------------------------------
 EKB .F         5229.5000:   Kelly bushing
 EGL .F         5217.7000:   Ground level
 TD  .F         3200.0000:   Total depth
 CLNT.            A2DTECH:   Client Code
 SL  . 1338' FWL & 132' FSL:   Surface Location
 PD  .                 GL:   Permanent Datum
 EPD .F            5217.7:   Elevation Permanent Datum
 LMF .                 KB:   Log Measured From
 DMF .                 KB:   Drilling Measured From
 DAPD.F              11.8:   Feet Above Permanent Datum
 DATE.        12-OCT-1986:   Date Logged [DD-MMM-YYYY]
 DD  .F              3200:   Depth driller
 DL  .F              3200:   Depth logger
 BLI .F              3194:   Bottom log interval
 TLI .F                 0:   Top log interval
 CS1 .IN            8.625:   Casing size
 CBD1.      8.625" @ 668':   Casing driller 1
 CBL1.F               668:   Casing logger 1
 BS1 .IN            7.875:   Bit size
 BSD1.F              3200:   Depth drilled with bit1
 DFT .        KCL POLYMER:   Type fluid in hole
 DFD .                  9:   Density
 DFV .                 36:   Viscosity
 DFPH.                9.5:   pH
 MSS .           FLOWLINE:   Source of sample
 RMS .OHMM           0.25:   Rm
 MST .F                70:   Rm Meas. temp.
 RMF .OHMM          0.191:   Rmf
 MFST.F                70:   Rmf Meas. temp.
 MFSS.               MEAS:   Source Rmf.
 RMB .OHMM          0.132:   Rm. at BHT
 BHT .F               132:   BHT.
 TCS .HRS               3:   Time Circ. stopped
 MRT .F               132:   Maximum recorded temp.
 LUN .               6274:   Logging unit number
 ENGI.             RAUTIO:   Recorded By
 ORIG.   1" 2.5" 5" PRINT:   Origin of data
 UWI .     49025111120000:   Unique Well ID
 DICO. A2D TECHNOLOGIES, INC.:   Digitizing Company
 LUL .               CLIT:   Logging unit location
 RMC .OHMM           0.31:   Rmc
 MCST.F                70:   Rmc Meas. temp.
 MCSS.               CALC:   Source Rmc.
~OTHER INFORMATION
~A    DEPT    CALD       RHOB       CORR        CNC        SPR       TENR        GRR        ILD        ILM        SFL   
# ...
 1512.0000  -999.2500  -999.2500  -999.2500  -999.2500   -90.1210   -25.7661   104.3882     6.6412     6.3591     7.7523
 1512.5000  -999.2500  -999.2500  -999.2500  -999.2500   -90.1210   -25.8445   103.7651     6.6402     6.3576     7.8603
 1513.0000  -999.2500  -999.2500  -999.2500  -999.2500   -90.1210   -26.0089   103.7470     6.6392     6.3563     7.8525
 1513.5000  -999.2500  -999.2500  -999.2500  -999.2500   -90.1210   -26.2618   103.7289     6.6383     6.3550     7.7435
 1514.0000  -999.2500  -999.2500  -999.2500  -999.2500   -90.1210   -26.5325   104.6625     6.6374     6.3537     7.6430
 1514.5000  -999.2500  -999.2500  -999.2500  -999.2500   -90.1210   -26.7170   106.1024     6.5448     6.3523     7.6425
 1515.0000  -999.2500  -999.2500  -999.2500  -999.2500   -90.1210    -7.2200   106.0819     6.5439     6.3510     7.6420
 1515.5000  -999.2500  -999.2500  -999.2500  -999.2500   -90.1210    -7.0610   106.0644     6.5428     6.2620     7.7486
 1516.0000  -999.2500  -999.2500  -999.2500  -999.2500   -90.1210   -26.3274   107.2517     6.4515     6.1739     7.3833
 1516.5000  -999.2500  -999.2500  -999.2500  -999.2500   -90.1210   -45.6367   107.8374     6.4506     6.1727     7.1735
 1517.0000  -999.2500  -999.2500  -999.2500  -999.2500   -90.1210   -45.5144   106.6144     6.4498     6.1714     7.0279
 1517.5000  -999.2500  -999.2500  -999.2500  -999.2500   -90.1210   -45.4678   102.8770     6.4490     6.1702     6.9303
 1518.0000  -999.2500  -999.2500  -999.2500  -999.2500   -90.1210   -45.3738    99.8757     6.4480     6.1689     7.1254
 1518.5000  -999.2500  -999.2500  -999.2500  -999.2500   -90.1210   -25.6218   100.8885     6.4472     6.1677     7.6382
 1519.0000  -999.2500  -999.2500  -999.2500  -999.2500   -90.1210   -25.2608   104.4496     6.3508     6.1664     7.4281
 1519.5000  -999.2500  -999.2500  -999.2500  -999.2500   -90.1210   -24.8592   106.1215     6.1702     6.0800     7.1240
 1520.0000  -999.2500  -999.2500  -999.2500  -999.2500   -90.1210   -44.1154   106.5095     6.0788     5.9947     7.2233
 1520.5000  -999.2500  -999.2500  -999.2500  -999.2500   -90.1210   -33.7421   101.4625     5.9887     5.8947     7.4266
 1521.0000  -999.2500  -999.2500  -999.2500  -999.2500   -90.1217   -44.2997    98.6385     5.8448     5.7472     7.4399
 1521.5000  -999.2500  -999.2500  -999.2500  -999.2500   -90.1220   -44.6341   101.0267     5.7632     5.6666     7.3848
 1522.0000  -999.2500  -999.2500  -999.2500  -999.2500   -90.1189   -44.9491   104.6236     5.7624     5.5100     6.9216
 1522.5000  -999.2500  -999.2500  -999.2500  -999.2500   -90.1265   -45.1687   107.6182     5.7616     5.4752     6.4011
 1523.0000  -999.2500  -999.2500  -999.2500  -999.2500   -90.1169   -45.2556   108.2048     5.8416     5.4316     5.9924
 1523.5000  -999.2500  -999.2500  -999.2500  -999.2500   -90.1165   -45.2724   108.1857     5.9224     5.4735     6.0164
 1524.0000  -999.2500  -999.2500  -999.2500  -999.2500   -90.1588   -45.2594   104.5537     6.0046     5.5823     6.8355
 1524.5000  -999.2500  -999.2500  -999.2500  -999.2500   -89.7204   -45.2500   103.9339     6.0038     5.7387     6.9237
 1525.0000  -999.2500  -999.2500  -999.2500  -999.2500   -89.2771   -45.2500   107.0783     6.0871     5.8179     7.0201
 1525.5000  -999.2500  -999.2500  -999.2500  -999.2500   -89.3032   -45.2500   110.5254     6.0863     5.9808     7.1180
 1526.0000  -999.2500  -999.2500  -999.2500  -999.2500   -89.3611   -45.2500   110.2407     6.0854     6.0634     7.4208
 1526.5000  -999.2500  -999.2500  -999.2500  -999.2500   -88.9821   -45.2500   106.3523     6.1699     6.1471     7.6297
 1527.0000  -999.2500  -999.2500  -999.2500  -999.2500   -88.9673   -45.2500   105.6537     6.1690     6.1459     7.8445
 1527.5000  -999.2500  -999.2500  -999.2500  -999.2500   -89.0175   -45.2500   110.0146     6.2546     6.3180     7.7356
 1528.0000  -999.2500  -999.2500  -999.2500  -999.2500   -89.1015   -45.2500   112.2328     6.3414     6.3166     7.4188
 1528.5000  -999.2500  -999.2500  -999.2500  -999.2500   -89.1572   -45.2500   111.5462     6.3650     6.3153     7.4322
 1529.0000  -999.2500  -999.2500  -999.2500  -999.2500   -89.2251   -45.2500   107.3823     6.4590     6.3355     7.5428
 1529.5000  -999.2500  -999.2500  -999.2500  -999.2500   -89.2912   -45.2500   104.9552     6.5543     6.4013     7.7335
 1530.0000  -999.2500  -999.2500  -999.2500  -999.2500   -89.3556   -45.2500   106.1425     6.6511     6.3998     7.7329
 1530.5000  -999.2500  -999.2500  -999.2500  -999.2500   -89.4214   -45.2500   106.7275     6.7493     6.4881     7.7323
 1531.0000  -999.2500  -999.2500  -999.2500  -999.2500   -89.4872   -45.2500   105.5052     6.8874     6.6228     7.7318
 1531.5000  -999.2500  -999.2500  -999.2500  -999.2500   -89.5521   -45.2500   103.6805     6.9830     6.7199     7.7313
 1532.0000  -999.2500  -999.2500  -999.2500  -999.2500   -89.6170   -45.2500   101.8311     7.0800     6.8551     7.7306
 1532.5000  -999.2500  -999.2500  -999.2500  -999.2500   -89.6860   -45.2500    99.9650     7.0789     7.0468     7.8385
 1533.0000  -999.2500  -999.2500  -999.2500  -999.2500   -89.7209   -45.2500    98.8072     7.0780     7.0454     7.9477
 1533.5000  -999.2500  -999.2500  -999.2500  -999.2500   -89.7173   -45.2500    98.1868     6.9792     7.0640     8.2859
 1534.0000  -999.2500  -999.2500  -999.2500  -999.2500   -89.7178   -45.2500    98.7738     6.8819     6.8493     8.5191
 1534.5000  -999.2500  -999.2500  -999.2500  -999.2500   -89.7182   -45.2500    99.8152     6.7858     6.7533     8.8816
 1535.0000  -999.2500  -999.2500  -999.2500  -999.2500   -89.7177   -45.2500   100.8132     6.7755     6.4759     8.7583
 1535.5000  -999.2500  -999.2500  -999.2500  -999.2500   -89.7179   -45.2500   101.4388     6.6902     6.3851     8.0415
 1536.0000  -999.2500  -999.2500  -999.2500  -999.2500   -89.7178   -45.2500   101.7108     6.5969     6.3838     7.5006
 1536.5000  -999.2500  -999.2500  -999.2500  -999.2500   -89.7177   -45.2500   103.4970     6.5960     6.3676     7.4101
 1537.0000  -999.2500  -999.2500  -999.2500  -999.2500   -89.7203   -45.2500   104.6843     6.5950     6.2930     7.4095
 1537.5000  -999.2500  -999.2500  -999.2500  -999.2500   -89.7161   -45.2500   104.7943     6.6865     6.2916     7.4436
 1538.0000  -999.2500  -999.2500  -999.2500  -999.2500   -89.7179   -45.2500   101.0349     6.6856     6.3215     7.5544
 1538.5000  -999.2500  -999.2500  -999.2500  -999.2500   -89.7297   -45.2500   100.4150     6.6846     6.3771     7.7742
 1539.0000  -999.2500  -999.2500  -999.2500  -999.2500   -89.6883   -45.2500   100.3976     6.6835     6.3758     7.9411
 1539.5000  -999.2500  -999.2500  -999.2500  -999.2500   -89.7550   -45.2500   101.7020     6.6826     6.4226     7.7226
 1540.0000  -999.2500  -999.2500  -999.2500  -999.2500   -89.7258   -45.2500   104.6586     6.6817     6.4624     7.4064
 1540.5000  -999.2500  -999.2500  -999.2500  -999.2500   -89.3945   -45.2500   105.8867     6.7744     6.4609     7.3035
 1541.0000  -999.2500  -999.2500  -999.2500  -999.2500   -87.9398   -45.2500   106.3518     6.7735     6.6418     7.4054
 1541.5000  -999.2500  -999.2500  -999.2500  -999.2500   -88.3218   -45.2500   103.5140     6.8675     6.6405     7.6138
 1542.0000  -999.2500  -999.2500  -999.2500  -999.2500   -88.9828   -45.2500   102.7023     6.8666     6.6391     7.7200
 1542.5000  -999.2500  -999.2500  -999.2500  -999.2500   -88.8671   -45.2500   104.1715     6.8656     6.7308     7.8276
 1543.0000  -999.2500  -999.2500  -999.2500  -999.2500   -88.9274   -45.2500   105.3995     6.8539     6.8237     7.8270
 1543.5000  -999.2500  -999.2500  -999.2500  -999.2500   -88.9113   -45.2500   103.8460     6.7689     6.9179     7.8265
 1544.0000  -999.2500  -999.2500  -999.2500  -999.2500   -88.9062   -45.2500    97.8044     6.6744     6.9255     7.8479
 1544.5000  -999.2500  -999.2500  -999.2500  -999.2500   -88.9141   -45.2500    95.3773     6.6455     6.9002     8.1691
 1545.0000  -999.2500  -999.2500  -999.2500  -999.2500   -88.9114   -45.2500    95.1406     6.4895     6.7238     8.9100
