~VERSION INFORMATION
 VERS.                2.0:   CWLS LOG ASCII STANDARD - VERSION 2.0
 WRAP.                 NO:   ONE LINE PER DEPTH STEP
~WELL INFORMATION
#MNEM.UNIT      DATA TYPE    INFORMATION
#----------   ------------   ------------------------------
 STRT.F          444.0000:   START DEPTH
 STOP.F         3018.0000:   STOP DEPTH
 STEP.F            0.5000:   STEP LENGTH
 NULL.          -999.2500:   NO VALUE
 COMP.    FENIX & SCISSON:   COMPANY
 WELL.  FENIX "AX" #25-28:   WELL
 FLD .             TEAPOT:   FIELD
 LOC .      S28 T39N R78W:   LOCATION
 CNTY.            NATRONA:   COUNTY
 STAT.            WYOMING:   STATE
 CTRY. UNITED STATES OF AMERICA:   COUNTRY
 SRVC.              WELEX:   SERVICE COMPANY
 DATE.        01-DEC-1979:   LOGDATE
 API .     49025107940000:   API NUMBER
~CURVE INFORMATION
#MNEM.UNIT       API CODE    CURVE DESCRIPTION
#----------   ------------   ------------------------------
 DEPT.F                  :   
 SPR .MV     07 010 01 00:   SPONTANEOUS POTENTIAL
 RILM.OHMM   07 120 44 00:   INDUCTION LOG MEDIUM RESISTIVITY
 RILD.OHMM   07 120 46 00:   DEEP INDUCTION RESISTIVITY
 SGRD.OHMM   07 220 05 00:   SHALLOW GUARD LOG RESISTIVITY
 TENR.LBS    07 635 01 00:   TENSION FROM RESISTIVITY
 NPHI.DEC    42 890 03 00:   NEUTRON POROSITY SANDSTONE
 GRD .GAPI   45 310 01 00:   GAMMA RAY FROM DENSITY LOG
 CALD.IN     45 280 60 00:   CALIPER FROM DENSITY LOG
 RHOB.G/C3   45 350 01 00:   BULK DENSITY
 DCOR.G/C3   45 356 01 00:   DENSITY CORRECTION
 TEND.LBS    45 635 01 00:   TENSION FROM DENSITY LOG
~PARAMETER INFORMATION
#MNEM.UNIT          VALUE    DESCRIPTION
#----------   ------------   ------------------------------
 EKB .F         5092.0000:   Kelly bushing
 EGL .F         5082.0000:   Ground level
 EDF .F            0.0000:   Drilling floor
 TD  .F         3013.5000:   Total depth
 DATE.        01-DEC-1979:   Date logged
 CLNT.            A2DTECH:   Client Code
 SL  . 2267' FSL & 1070' FWL:   Surface Location
 PD  .                 GL:   Permanent Datum
 EPD .F              5082:   Elevation Permanent Datum
 LMF .                 KB:   Log Measured From
 DMF .                 KB:   Drilling Measured From
 DAPD.F                10:   Feet Above Permanent Datum
 DD  .F              3000:   Depth driller
 DL  .F            3013.5:   Depth logger
 BLI .F              3013:   Bottom log interval
 TLI .F               350:   Top log interval
 CS1 .IN            8.625:   Casing size
 CBD1.      8.625" @ 465':   Casing driller 1
 CBL1.F               462:   Casing logger 1
 BS1 .IN            7.875:   Bit size
 BSD1.F              3000:   Depth drilled with bit1
 DFT .           CHEM GEL:   Type fluid in hole
 DFD .                8.8:   Density
 DFV .                 55:   Viscosity
 DFPH.                  9:   pH
 DFL .                6.4:   Fluid loss
 MSS .           FLOWLINE:   Source of sample
 RMS .OHMM           1.53:   Rm
 MST .F                75:   Rm Meas. temp.
 RMF .OHMM           1.24:   Rmf
 MFST.F                75:   Rmf Meas. temp.
 RMC .OHMM           1.83:   Rmc
 MCST.F                75:   Rmc Meas. temp.
 MFSS.               MEAS:   Source Rmf.
 MCSS.               MEAS:   Source Rmc.
 RMB .OHMM           1.09:   Rm. at BHT
 BHT .F               105:   BHT.
 TCS .HRS             2.5:   Time Circ. stopped
 MRT .F               105:   Maximum recorded temp.
 LUN .                965:   Logging unit number
 LUL .             CASPER:   Logging unit location
 ENGI.            BENTSEN:   Recorded By
 WITN.           P. AMEND:   Witnessed by
 ORIG.           5" PRINT:   Origin of data
 UWI .     49025107940000:   Unique Well ID
 DICO. A2D TECHNOLOGIES, INC.:   Digitizing Company
~OTHER INFORMATION
~A   DEPT      SPR       RILM       RILD       SGRD       TENR       NPHI         GRD      CALD       RHOB       DCOR       TEND   
# ...
 1298.0000   -46.3380     7.5710     7.2580     8.2730   818.9170     0.2990    70.4650     8.3810     2.5320     0.0390  1286.6360
 1298.5000   -46.3320     7.5880     7.2590     8.2440   819.2530     0.2990    68.8450     8.3810     2.5280     0.0380  1280.6620
 1299.0000   -46.3260     7.6040     7.2240     8.2110   819.5900     0.3000    68.6240     8.3810     2.5240     0.0330  1274.6870
 1299.5000   -46.3210     7.5670     7.1910     8.1780   819.9260     0.3020    69.7830     8.3810     2.5230     0.0300  1268.7130
 1300.0000   -46.3150     7.5230     7.1590     8.1450   820.2620     0.3050    70.9360     8.3820     2.5320     0.0360  1262.7390
 1300.5000   -46.3090     7.4800     7.1260     8.1120   820.5980     0.3030    70.4410     8.3900     2.5270     0.0350  1256.7640
 1301.0000   -46.3030     7.4360     7.0940     8.0780   820.9340     0.3050    71.0770     8.3970     2.5260     0.0370  1256.7889
 1301.5000   -46.2970     7.3920     6.9930     8.0450   821.2710     0.3030    72.4250     8.4040     2.5280     0.0420  1259.4490
 1302.0000   -46.2910     7.3270     7.0280     8.0120   821.5010     0.3000    72.4030     8.4120     2.5230     0.0470  1262.1090
 1302.5000   -46.2860     7.3400     7.0770     7.9790   821.5010     0.2970    74.3840     8.4190     2.5250     0.0530  1264.7690
 1303.0000   -46.2800     7.3650     7.1270     7.9700   821.5010     0.2970    75.6610     8.4270     2.5200     0.0560  1267.4290
 1303.5000   -46.2740     7.3900     7.1760     8.0680   821.5010     0.2960    75.1610     8.4340     2.5140     0.0520  1270.0890
 1304.0000   -46.2680     7.4150     7.2260     8.1420   821.5010     0.2930    73.6390     8.4400     2.5190     0.0580  1272.7490
 1304.5000   -46.2620     7.4400     7.2590     8.2170   821.5010     0.2930    73.4460     8.4300     2.5420     0.0740  1275.2650
 1305.0000   -46.2560     7.4650     7.2420     8.2910   821.5010     0.2930    74.4550     8.4210     2.5630     0.0770  1277.3810
 1305.5000   -46.2500     7.4900     7.2240     8.3660   821.5010     0.2920    72.1460     8.4110     2.5680     0.0770  1279.4980
 1306.0000   -46.2430     7.5150     7.2060     8.4290   821.5010     0.2920    71.0900     8.4010     2.5700     0.0790  1281.6140
 1306.5000   -46.2370     7.5400     7.1910     8.3820   821.5010     0.2920    71.2650     8.3920     2.5780     0.0840  1283.7310
 1307.0000   -46.2310     7.5650     7.2370     8.3200   821.5010     0.2930    69.6140     8.3820     2.5720     0.0800  1285.8470
 1307.5000   -46.2250     7.6020     7.2760     8.2580   821.5010     0.2910    70.1010     8.3920     2.5670     0.0770  1287.9640
 1308.0000   -46.2190     7.5880     7.3160     8.1960   821.5010     0.2910    71.7920     8.4040     2.5610     0.0710  1290.0800
 1308.5000   -46.2130     7.5400     7.3550     8.1330   821.5010     0.2900    70.9550     8.4160     2.5460     0.0610  1292.1970
 1309.0000   -46.2070     7.4920     7.3960     8.0440   821.5010     0.2900    69.8810     8.4280     2.5360     0.0520  1294.3130
 1309.5000   -46.2010     7.4430     7.2940     8.0480   821.5010     0.2910    70.9420     8.4400     2.5310     0.0530  1296.4301
 1310.0000   -46.1940     7.3950     7.1890     8.0560   821.5010     0.2920    72.8930     8.4350     2.5220     0.0390  1298.5460
 1310.5000   -46.1880     7.3460     7.0830     8.0630   821.5010     0.2900    73.6110     8.4280     2.5080     0.0260  1300.6630
 1311.0000   -46.1820     7.2980     6.9730     8.0700   821.5010     0.2880    72.9480     8.4210     2.5010     0.0190  1302.7800
 1311.5000   -46.1760     7.2590     6.8630     8.0770   821.5010     0.2880    72.5710     8.4210     2.5120     0.0260  1304.8960
 1312.0000   -46.1700     7.4480     7.0600     8.0840   821.5010     0.2900    72.9930     8.4210     2.4990     0.0180  1307.0129
 1312.5000   -46.1640     7.6060     7.2590     8.0910   821.5010     0.2910    72.2040     8.4220     2.4870     0.0130  1309.1290
 1313.0000   -46.1580     7.5090     7.1890     8.0990   821.5010     0.2890    71.6050     8.4280     2.4900     0.0170  1311.2460
 1313.5000   -46.1520     7.4120     7.1180     8.1060   821.5010     0.2880    71.5800     8.4340     2.4860     0.0200  1313.3621
 1314.0000   -46.1460     7.3160     7.0480     8.1120   821.5010     0.2880    71.7650     8.4390     2.4890     0.0240  1308.2700
 1314.5000   -46.1390     7.2560     6.9930     8.1190   821.5010     0.2880    70.9080     8.4380     2.4780     0.0280  1298.1760
 1315.0000   -46.1330     7.2500     6.9860     8.0720   821.5010     0.2910    71.3990     8.4350     2.4850     0.0370  1288.0811
 1315.5000   -46.1270     7.2430     6.9800     8.0260   821.5010     0.2930    72.7630     8.4320     2.4860     0.0450  1277.9871
 1316.0000   -46.1210     7.2370     6.9740     7.9790   821.5010     0.2910    72.9140     8.4280     2.4920     0.0560  1267.8929
 1316.5000   -46.1150     7.2300     6.9680     7.9320   821.5010     0.2930    71.4380     8.4250     2.4990     0.0720  1257.7990
 1317.0000   -46.1090     7.2240     6.9620     7.8860   821.5010     0.2940    69.8990     8.4210     2.5080     0.0840  1247.7040
 1317.5000   -46.1030     7.2170     6.9560     7.8270   821.5010     0.2920    71.7410     8.4210     2.5040     0.0800  1237.6100
 1318.0000   -46.0970     7.2110     6.9490     7.8520   821.5010     0.2910    70.8630     8.4210     2.4980     0.0710  1241.2350
 1318.5000   -46.0900     7.2040     6.9430     7.8990   821.5010     0.2880    73.4690     8.4210     2.4870     0.0480  1249.2150
 1319.0000   -46.0840     7.1970     6.9370     7.9450   821.5010     0.2870    75.5650     8.4210     2.4770     0.0210  1257.1949
 1319.5000   -46.0780     7.1920     6.9280     7.9920   821.5010     0.2910    72.8840     8.4210     2.4740     0.0110  1265.1750
 1320.0000   -46.0720     7.2120     7.0810     8.0390   821.5010     0.2890    73.3290     8.4190     2.4890     0.0220  1273.1550
 1320.5000   -46.0560     7.2320     7.3960     8.0860   821.5010     0.2910    71.4050     8.4110     2.4840     0.0200  1281.1340
 1321.0000   -46.0270     7.2520     7.2160     8.1200   821.5010     0.2930    71.3240     8.4030     2.4780     0.0160  1289.1140
 1321.5000   -45.9980     7.2720     6.9930     8.0410   821.5010     0.2950    72.3960     8.3960     2.4650     0.0090  1291.5200
 1322.0000   -45.9690     7.2920     7.4150     7.9790   821.5010     0.2960    71.4120     8.3880     2.4690     0.0060  1282.5730
 1322.5000   -45.9400     7.3120     6.9930     7.9160   821.5010     0.2960    73.4450     8.3820     2.4770     0.0220  1273.6260
 1323.0000   -45.9110     7.3320     7.1400     7.8220   821.5010     0.2930    73.2540     8.3860     2.4820     0.0260  1264.6780
 1323.5000   -45.8810     7.3520     7.4650     7.8760   821.5010     0.2910    72.7910     8.3900     2.4790     0.0250  1255.7310
 1324.0000   -45.7310     7.3720     7.3450     7.9860   821.5010     0.2890    72.7670     8.3950     2.4870     0.0360  1246.7841
 1324.5000   -45.4480     7.3920     7.1240     8.0970   821.5010     0.2880    75.5470     8.3990     2.4990     0.0480  1237.8370
 1325.0000   -45.1630     7.4120     7.0950     8.1960   821.5010     0.2880    73.9560     8.3880     2.5100     0.0600  1240.0040
 1325.5000   -44.8750     7.4320     7.0690     8.1460   821.5010     0.2890    72.6760     8.3610     2.5190     0.0670  1246.8700
 1326.0000   -45.1820     7.4510     7.0430     8.1010   821.5010     0.2890    72.9150     8.3340     2.5200     0.0700  1253.7371
 1326.5000   -45.5410     7.4680     7.0160     8.0550   821.5010     0.2890    71.5630     8.3070     2.5140     0.0670  1260.6030
 1327.0000   -45.9010     7.4900     6.9960     8.0100   821.5010     0.2900    71.3740     8.2840     2.5120     0.0610  1267.4690
 1327.5000   -46.0090     7.5130     7.4650     7.9760   821.5010     0.2910    72.0060     8.3010     2.5020     0.0540  1274.3361
 1328.0000   -45.9030     7.5360     6.9930     8.0770   821.5010     0.2870    73.0250     8.3180     2.5100     0.0490  1281.2020
