~VERSION INFORMATION
 VERS.                2.0:   CWLS LOG ASCII STANDARD - VERSION 2.0
 WRAP.                 NO:   ONE LINE PER DEPTH STEP
~WELL INFORMATION
#MNEM.UNIT      DATA TYPE    INFORMATION
#----------   ------------   ------------------------------
 STRT.F          150.0000:   START DEPTH
 STOP.F         2929.0000:   STOP DEPTH
 STEP.F            0.5000:   STEP LENGTH
 NULL.          -999.2500:   NO VALUE
 COMP.    FENIX & SCISSON:   COMPANY
 WELL.    FENIX AX #12-28:   WELL
 FLD .        TEAPOT DOME:   FIELD
 LOC .      S28 T39N R78W:   LOCATION
 CNTY.            NATRONA:   COUNTY
 STAT.            WYOMING:   STATE
 CTRY. UNITED STATES OF AMERICA:   COUNTRY
 SRVC.           BIRDWELL:   SERVICE COMPANY
 DATE.        06-JUN-1978:   LOGDATE
 API .     49025106420000:   API NUMBER
~CURVE INFORMATION
#MNEM.UNIT       API CODE    CURVE DESCRIPTION
#----------   ------------   ------------------------------
 DEPT.F                  :   
 SPR .MV     05 010 01 00:   SPONTANEOUS POTENTIAL
 SN  .OHMM   05 040 16 00:   SHORT NORMAL 16"
 ILD .OHMM   05 120 46 00:   INDUCTION LOG DEEP RESISTIVITY
 RHOB.G/C3   45 350 01 00:   BULK DENSITY
 CORR.G/C3   45 356 01 00:   DENSITY CORRECTION
 GRD .GAPI   45 310 01 00:   GAMMA RAY FROM DENSITY LOG
 CALD.IN     45 280 60 00:   CALIPER FROM DENSITY LOG
~PARAMETER INFORMATION
#MNEM.UNIT          VALUE    DESCRIPTION
#----------   ------------   ------------------------------
 EKB .F         5000.0000:   Kelly bushing
 EGL .F         4990.0000:   Ground level
 EDF .F            0.0000:   Drilling floor
 EPD .F         5005.0000:   Permanent datum
 TD  .F         2911.0000:   Total depth
 DATE.        06-JUN-1978:   Date logged
 CLNT.            A2DTECH:   Client Code
 SL  . 1250' FNL & 225' FWL:   Surface Location
 PD  .                 GL:   Permanent Datum
 LMF .                 KB:   Log Measured From
 DMF .                 KB:   Drilling Measured From
 DAPD.F                10:   Feet Above Permanent Datum
 DD  .F              2911:   Depth driller
 DL  .F              2912:   Depth logger
 BLI .F              2906:   Bottom log interval
 TLI .F               200:   Top log interval
 CS1 .IN            8.625:   Casing size
 CBD1.      8.625" @ 225':   Casing driller 1
 CBL1.F               225:   Casing logger 1
 BS1 .IN            7.875:   Bit size
 BSD1.F              2911:   Depth drilled with bit1
 DFT .       OIL BASE MUD:   Type fluid in hole
 DFD .                9.2:   Density
 DFV .                 35:   Viscosity
 DFPH.               10.5:   pH
 DFL .                  2:   Fluid loss
 TCS .HRS             3.5:   Time Circ. stopped
 LUN .               2958:   Logging unit number
 LUL .               CASP:   Logging unit location
 ENGI.            POINTER:   Recorded By
 WITN.           MCGINLEY:   Witnessed by
 ORIG.           5" PRINT:   Origin of data
 UWI .     49025106420000:   Unique Well ID
 DICO. A2D TECHNOLOGIES, INC.:   Digitizing Company
~OTHER INFORMATION
~A   DEPT      SPR         SN        ILD       RHOB       CORR         GRD      CALD   
# ...
 1833.5000   -27.6870     9.7180     6.4160     2.4900     0.0150   113.8720     8.9870
 1834.0000   -28.1640     9.7140     6.4080     2.4890     0.0140   112.6450     8.9830
 1834.5000   -28.6630     9.7090     6.4010     2.4880     0.0140   113.7820     8.9800
 1835.0000   -28.9950     9.7050     6.3930     2.4870     0.0140   112.9600     8.9770
 1835.5000   -28.5170     9.7000     6.3860     2.4860     0.0130   112.5870     8.9740
 1836.0000   -28.0980     9.6960     6.3780     2.4820     0.0130   115.5860     8.9700
 1836.5000   -28.5090     9.6910     6.3700     2.4760     0.0120   118.9730     8.9670
 1837.0000   -28.9400     9.6870     6.3630     2.4700     0.0120   122.3780     8.9640
 1837.5000   -29.2530     9.6830     6.3550     2.4700     0.0120   125.7910     8.9610
 1838.0000   -29.1410     9.6830     6.3480     2.4720     0.0110   128.7240     8.9580
 1838.5000   -29.0400     9.6830     6.3410     2.4720     0.0120   126.6270     8.9540
 1839.0000   -28.9400     9.6830     6.3590     2.4680     0.0140   130.1020     8.9510
 1839.5000   -28.8390     9.6830     6.3780     2.4660     0.0160   133.5010     8.9640
 1840.0000   -28.7270     9.7250     6.3970     2.4670     0.0180   136.8950     8.9810
 1840.5000   -28.7740     9.8170     6.6180     2.4690     0.0200   137.1440     8.9980
 1841.0000   -28.9700     9.9080     6.7230     2.4680     0.0220   134.8960     9.0150
 1841.5000   -29.1670    10.0000     6.7560     2.4660     0.0230   132.5570     9.0320
 1842.0000   -28.8760    10.2330     6.7890     2.4640     0.0250   130.2190     9.0490
 1842.5000   -28.2820    10.2810     6.8250     2.4620     0.0240   127.8840     9.0650
 1843.0000   -28.3680    10.3270     6.8250     2.4640     0.0230   125.5640     9.0820
 1843.5000   -28.4540    10.2980     6.8250     2.4660     0.0250   123.7150     9.0650
 1844.0000   -28.5370    10.2760     6.8250     2.4660     0.0280   122.0420     9.0260
 1844.5000   -28.6180    10.2530     6.8250     2.4650     0.0310   121.4420     8.9950
 1845.0000   -28.5070    10.2310     6.8250     2.4630     0.0330   121.5460     9.0830
 1845.5000   -28.0810    10.2090     6.8250     2.4630     0.0350   121.6510     9.1720
 1846.0000   -27.7000    10.1870     6.8250     2.4700     0.0370   120.9350     9.2630
 1846.5000   -28.1200    10.1640     6.8130     2.4750     0.0360   118.1800     9.2700
 1847.0000   -28.5640    10.1420     6.7830     2.4680     0.0350   117.2470     9.1710
 1847.5000   -29.0040    10.1200     6.7530     2.4610     0.0340   116.7620     9.0870
 1848.0000   -29.0310    10.0980     6.7240     2.4550     0.0340   116.2800     9.0940
 1848.5000   -28.9870    10.0750     6.6940     2.4510     0.0360   115.1710     9.1000
 1849.0000   -28.9410    10.0530     6.6640     2.4480     0.0430   113.1410     9.1070
 1849.5000   -28.9040     9.9420     6.6340     2.4450     0.0510   111.1260     9.1130
 1850.0000   -29.0410     9.7880     6.6050     2.4420     0.0620   109.1070     9.1200
 1850.5000   -29.7020     9.6780     6.5820     2.4480     0.0760   107.0850     9.1270
 1851.0000   -30.1970     9.6330     6.7700     2.4670     0.0900   105.0080     9.1460
 1851.5000   -29.7370     9.5940     6.9410     2.4820     0.0840   104.3980     9.2760
 1852.0000   -29.2670     9.7860     7.0630     2.4700     0.0610   104.1450     9.4050
 1852.5000   -29.1620     9.9540     7.1470     2.4580     0.0260   105.6410     9.5370
 1853.0000   -29.3180    10.7340     7.2310     2.4470     0.0150   108.7610     9.4380
 1853.5000   -29.4760    11.5220     7.5150     2.4460     0.0170   112.5540     9.2170
 1854.0000   -29.6420    12.0150     8.0550     2.4440     0.0190   116.3660     9.2160
 1854.5000   -29.5300    12.2180     8.1630     2.4420     0.0220   120.1790     9.5960
 1855.0000   -29.3710    12.4220     8.2910     2.4410     0.0240   123.9900     9.7130
 1855.5000   -29.2080    12.6460     8.4340     2.4410     0.0260   127.8070     9.5180
 1856.0000   -29.0870    12.6460     8.5320     2.4410     0.0260   131.6650     9.3210
 1856.5000   -29.5430    12.6460     8.5540     2.4400     0.0240   133.7660     9.1230
 1857.0000   -29.9930    12.6460     8.5770     2.4400     0.0220   134.9860     9.0770
 1857.5000   -30.4390    12.6460     8.5910     2.4400     0.0200   131.4960     9.0940
 1858.0000   -30.4040    12.6940     8.5910     2.4390     0.0200   126.2220     9.1010
 1858.5000   -30.3430    12.7440     8.5910     2.4350     0.0250   120.9040     8.9770
 1859.0000   -30.2830    12.7940     8.5910     2.4300     0.0270   115.4110     8.9700
 1859.5000   -30.4640    12.8430     8.5910     2.4280     0.0280   112.8240     8.9940
 1860.0000   -30.8040    13.0000     8.5910     2.4280     0.0290   111.3980     9.2640
 1860.5000   -30.6530    12.8260     8.5900     2.4290     0.0310   110.9410     9.5120
 1861.0000   -30.4140    12.6620     8.5930     2.4290     0.0320   111.6470     9.2240
 1861.5000   -30.1710    12.1900     8.5320     2.4280     0.0330   112.3630     9.0100
 1862.0000   -29.9260    11.7320     8.3400     2.4250     0.0350   107.5110     8.9550
 1862.5000   -29.6740    11.6100     8.1490     2.4230     0.0360   105.6250     8.9150
 1863.0000   -29.5340    11.4870     7.9580     2.4200     0.0380   110.0610     8.8740
 1863.5000   -29.6390    11.3650     7.7640     2.4170     0.0400   110.1160     8.8730
 1864.0000   -29.7640    11.2190     8.0260     2.4240     0.0480   110.5240     8.8760
 1864.5000   -29.4080    11.3500     8.2040     2.4420     0.0490   113.2170     8.8790
 1865.0000   -29.0720    11.5120     8.2040     2.4280     0.0360   114.4670     8.8810
 1865.5000   -28.7400    11.6750     8.1610     2.4220     0.0290   113.4920     8.8840
 1866.0000   -28.5160    11.8370     8.0940     2.4180     0.0300   112.5450     8.8860
 1866.5000   -28.7980    12.3010     8.0270     2.4130     0.0340   112.3640     8.8880
 1867.0000   -29.0640    12.0690     7.9600     2.4120     0.0370   114.7240     8.8930
 1867.5000   -29.1770    11.8110     7.8930     2.4130     0.0410   109.7590     9.0380
 1868.0000   -28.7570    11.4650     7.8220     2.4140     0.0510   105.8010     9.1990
 1868.5000   -28.3600    10.9540     7.7270     2.4220     0.0630   107.9120     9.3600
 1869.0000   -28.2060    10.2330     7.6330     2.4360     0.0600   111.6530     9.4210
 1869.5000   -28.7360    10.2960     7.5380     2.4450     0.0490   113.3420     9.2920
 1870.0000   -29.2350    10.4040     7.4540     2.4260     0.0410   110.9870     9.1650
 1870.5000   -29.6340    10.9490     7.3470     2.4200     0.0440   107.2460     9.0490
 1871.0000   -29.3220    11.5340     7.4590     2.4150     0.0500   103.4290     9.0230
 1871.5000   -29.0230    11.5340     7.6930     2.4110     0.0570    99.6310     8.9990
 1872.0000   -28.7200    11.5340     7.8470     2.4200     0.0700   101.3730     8.9690
 1872.5000   -28.8080    11.5270     7.8700     2.4460     0.0690   100.8330     9.2900
 1873.0000   -28.9750    11.5180     7.8930     2.4530     0.0590    99.5940     9.5890
 1873.5000   -29.1400    11.5090     7.9080     2.4460     0.0530    98.2960     9.4320
 1874.0000   -29.1630    11.4990     7.8820     2.4390     0.0540    98.8810     9.2400
 1874.5000   -28.7060    11.4900     7.8550     2.4330     0.0600   100.3830     9.0480
 1875.0000   -28.2660    11.4810     7.8280     2.4260     0.0670   102.3050     8.9480
 1875.5000   -27.9600    11.4710     7.8010     2.4190     0.0800   104.2250     8.9440
 1876.0000   -28.6170    11.4620     7.7730     2.4130     0.0940   106.1400     8.9380
 1876.5000   -28.9900    11.4530     7.7570     2.4060     0.1080   107.8050     8.9340
 1877.0000   -28.6910    11.4440     7.7470     2.4000     0.1270   107.9620     8.9360
 1877.5000   -28.4110    11.4330     7.7360     2.4060     0.1530   108.0680     8.9670
 1878.0000   -28.1200    11.3620     7.7260     2.4230     0.1700   106.5550     8.9960
 1878.5000   -28.3310    11.1450     7.7160     2.4440     0.1780   104.9930     9.0290
