~VERSION INFORMATION
 VERS.                2.0:   CWLS LOG ASCII STANDARD - VERSION 2.0
 WRAP.                 NO:   ONE LINE PER DEPTH STEP
~WELL INFORMATION
#MNEM.UNIT      DATA TYPE    INFORMATION
#----------   ------------   ------------------------------
 STRT.F          212.5000:   START DEPTH
 STOP.F         3098.0000:   STOP DEPTH
 STEP.F            0.5000:   STEP LENGTH
 NULL.          -999.2500:   NO VALUE
 COMP.    FENIX & SCISSON:   COMPANY
 WELL. FENIX NPR 77 "A" #3-33:   WELL
 FLD .                NPR:   FIELD
 LOC .      S33 T39N R78W:   LOCATION
 CNTY.            NATRONA:   COUNTY
 STAT.            WYOMING:   STATE
 CTRY. UNITED STATES OF AMERICA:   COUNTRY
 SRVC.       SCHLUMBERGER:   SERVICE COMPANY
 DATE.        07-MAY-1977:   LOGDATE
 API .     49025103700000:   API NUMBER
~CURVE INFORMATION
#MNEM.UNIT       API CODE    CURVE DESCRIPTION
#----------   ------------   ------------------------------
 DEPT.F                  :   
 SPR .MV     07 010 01 00:   SPONTANEOUS POTENTIAL
 LL8 .OHMM   11 220 08 00:   LATERALOG-8 RESISTIVITY
 ILD .OHMM   07 120 46 00:   DEEP INDUCTION RESISTIVITY
 CALD.IN     45 280 60 00:   CALIPER FROM DENSITY LOG
 GRD .GAPI   45 310 01 00:   GAMMA RAY FROM DENSITY LOG
 RHOB.G/C3   45 350 01 00:   BULK DENSITY
 CORR.G/C3   45 356 01 00:   DENSITY CORRECTION
 ILM .OHMM   07 120 44 00:   INDUCTION LOG MEDIUM RESISTIVITY
~PARAMETER INFORMATION
#MNEM.UNIT          VALUE    DESCRIPTION
#----------   ------------   ------------------------------
 EKB .F         5152.0000:   Kelly bushing
 EGL .F         5141.0000:   Ground level
 TD  .F         3097.0000:   Total depth
 DATE.        07-MAY-1977:   Date logged
 CLNT.            A2DTECH:   Client Code
 SL  . 990' FEL & 990' FSL:   Surface Location
 PD  .                 GL:   Permanent Datum
 EPD .F              5141:   Elevation Permanent Datum
 LMF .                 KB:   Log Measured From
 DMF .                 KB:   Drilling Measured From
 DAPD.F                11:   Feet Above Permanent Datum
 DD  .F              3096:   Depth driller
 DL  .F              3097:   Depth logger
 BLI .F              3091:   Bottom log interval
 TLI .F               222:   Top log interval
 CS1 .IN            8.625:   Casing size
 CBD1.      8.625" @ 200':   Casing driller 1
 CBL1.F               222:   Casing logger 1
 BS1 .IN            7.875:   Bit size
 BSD1.F              3096:   Depth drilled with bit1
 DFT .                KCL:   Type fluid in hole
 DFD .                9.2:   Density
 DFV .                 38:   Viscosity
 DFPH.                  8:   pH
 DFL .                7.6:   Fluid loss
 MSS .           FLOWLINE:   Source of sample
 RMS .OHMM           .191:   Rm
 MST .F                76:   Rm Meas. temp.
 RMF .OHMM           .185:   Rmf
 MFST.F                76:   Rmf Meas. temp.
 MFSS.               MEAS:   Source Rmf.
 RMB .OHMM           .126:   Rm. at BHT
 BHT .F               115:   BHT.
 TCS .HRS            1200:   Time Circ. stopped
 TLAB.HRS            1530:   Time logger at bottom
 MRT .F                15:   Maximum recorded temp.
 LUN .               6442:   Logging unit number
 LUL .               CSPR:   Logging unit location
 ENGI.             MARTIN:   Recorded By
 WITN.          PETTMGILL:   Witnessed by
 ORIG.      2.5" 5" PRINT:   Origin of data
 UWI .     49025103700000:   Unique Well ID
 DICO. A2D TECHNOLOGIES, INC.:   Digitizing Company
~OTHER INFORMATION
~A   DEPT      SPR        LL8        ILD       CALD         GRD      RHOB       CORR        ILM   
# ...
  779.5000   -87.4690     9.5610    10.2170     9.6090   108.7570     2.5630     0.0820     8.1290
  780.0000   -87.6640     9.5980    10.1760     9.6530   107.8040     2.5320     0.0540     8.1200
  780.5000   -88.0190     9.5980    10.1330     9.6720   107.2940     2.5390     0.0680     8.1060
  781.0000   -88.3770     9.6190    10.0910     9.6700   107.2670     2.5510     0.0750     8.0920
  781.5000   -88.7330     9.6380    10.0490     9.6710   108.4820     2.5570     0.0760     8.0780
  782.0000   -89.0420     9.6570    10.0070     9.6710   110.9360     2.5460     0.0680     8.0650
  782.5000   -89.0320     9.6760     9.9650     9.6710   113.0360     2.5330     0.0550     8.0550
  783.0000   -89.0310     9.6950     9.9230     9.6710   113.2370     2.5450     0.0600     8.1050
  783.5000   -89.0320     9.7140     9.8680     9.6710   111.6960     2.5750     0.0830     8.2060
  784.0000   -89.0320     9.7330    10.0070     9.6710   110.2390     2.5660     0.0770     8.3070
  784.5000   -89.0320     9.7520    10.2060     9.6710   110.1970     2.5380     0.0540     8.3580
  785.0000   -89.0320     9.7710    10.4060     9.6710   110.9720     2.5560     0.0750     8.5510
  785.5000   -89.0320     9.9250    10.6050     9.6710   111.7810     2.5560     0.0820     8.7650
  786.0000   -89.0320    10.2220    10.8040     9.6710   112.4570     2.5460     0.0720     8.9570
  786.5000   -89.0320    10.4300    11.0230     9.6710   113.3190     2.5520     0.0650     8.9980
  787.0000   -89.0280    10.5260    10.9750     9.6710   112.5540     2.5610     0.0710     8.9030
  787.5000   -88.9190    10.3400    10.9060     9.6710   111.2860     2.5710     0.0800     8.8290
  788.0000   -88.5400    10.1970    10.8370     9.6710   105.0660     2.5820     0.0900     8.7560
  788.5000   -88.1770    10.0540    10.7680     9.6700   100.8920     2.5910     0.0910     8.6820
  789.0000   -87.8140     9.9110    10.6990     9.6750   103.2790     2.6010     0.0860     8.6090
  789.5000   -87.4510     9.7770    10.6300     9.6920   107.9900     2.6010     0.0900     8.5130
  790.0000   -87.0880     9.8580    10.5610     9.7080   112.2830     2.5830     0.0970     8.6010
  790.5000   -86.7260     9.9480    10.4920     9.7250   116.6160     2.5540     0.0940     8.7250
  791.0000   -86.3540    10.0380    10.4300     9.7410   118.4210     2.5440     0.0880     8.8500
  791.5000   -86.4600    10.1280    10.5790     9.7580   119.0650     2.5410     0.0830     8.9750
  792.0000   -86.8120    10.2190    10.7150     9.7750   119.9320     2.5340     0.0780     9.0990
  792.5000   -87.1670    10.3090    10.8510     9.7880   119.3030     2.5380     0.0730     9.2240
  793.0000   -87.5240    10.3990    10.9870     9.7880   118.4390     2.5660     0.0830     9.3360
  793.5000   -87.8800    10.4890    11.1230     9.7480   117.5550     2.5610     0.0930     9.3360
  794.0000   -88.2360    10.5790    11.2580     9.6980   116.7080     2.5560     0.0980     9.2780
  794.5000   -88.5900    10.6240    11.3940     9.6480   115.8270     2.5590     0.0920     9.2130
  795.0000   -88.8390    10.5470    11.5440     9.6000   114.9720     2.5640     0.0850     9.1480
  795.5000   -88.8340    10.4770    11.5440     9.5540   114.0970     2.5660     0.0780     9.0830
  796.0000   -88.8350    10.4070    11.5040     9.5520   114.3100     2.5570     0.0720     9.0180
  796.5000   -88.8300    10.3370    11.3710     9.5520   114.4930     2.5490     0.0640     8.9530
  797.0000   -88.4970    10.2670    11.2390     9.5690   114.4270     2.5550     0.0690     8.8890
  797.5000   -88.1270    10.1970    11.1060     9.5850   113.3900     2.5660     0.0820     8.8240
  798.0000   -87.7560    10.1270    10.9730     9.6020   111.8580     2.5780     0.0940     8.7520
  798.5000   -87.3860    10.0570    10.8410     9.6180   111.5130     2.5880     0.1070     8.5920
  799.0000   -87.0180     9.9870    10.7080     9.6350   110.9980     2.5900     0.1020     8.5880
  799.5000   -86.6490     9.9170    10.5760     9.6500   110.5710     2.5770     0.0860     8.5730
  800.0000   -86.4640     9.7880    10.4300     9.6690   111.3570     2.5560     0.0650     8.5590
  800.5000   -86.4640     9.8450    10.3630     9.6700   111.6680     2.5530     0.0590     8.5440
  801.0000   -86.4620     9.9210    10.2890     9.6710   111.9200     2.5540     0.0710     8.5300
  801.5000   -86.4600     9.9590    10.2150     9.6640   110.7320     2.5780     0.0830     8.5150
  802.0000   -86.5610     9.9150    10.1420     9.6550   109.5180     2.5970     0.0970     8.4350
  802.5000   -86.7000     9.7580    10.0680     9.6460   109.5410     2.6040     0.1080     8.4350
  803.0000   -86.8430     9.6020     9.9940     9.6380   111.5170     2.5970     0.1140     8.3570
  803.5000   -87.1070     9.4450     9.9200     9.6290   113.2870     2.5860     0.0790     8.2840
  804.0000   -87.3990     9.2880     9.8460     9.6210   115.1130     2.5760     0.0730     8.2120
  804.5000   -87.7000     9.1320     9.7770     9.6120   116.9220     2.5660     0.0670     8.1390
  805.0000   -88.0020     8.9750     9.5890     9.6030   118.7660     2.5540     0.0650     8.1090
  805.5000   -88.3030     8.8190     9.4130     9.5950   120.5850     2.5480     0.0600     8.0300
  806.0000   -88.6050     8.6620     9.2370     9.5860   121.8550     2.5490     0.0710     7.9510
  806.5000   -88.9070     8.5130     8.9980     9.5770   120.1280     2.5840     0.0940     7.8350
  807.0000   -89.2040     8.2050     9.0020     9.5670   119.7880     2.6090     0.1110     8.1560
  807.5000   -89.3810     9.6820     9.0100     9.5610   120.7710     2.6010     0.1110     8.6300
  808.0000   -89.1610    11.4340     9.0190     9.5330   121.8370     2.5850     0.0980     8.4400
  808.5000   -88.9510    12.7770     9.0270     9.4990   118.7030     2.5690     0.0830     8.0760
  809.0000   -88.7430    11.5150     9.0360     9.4730   114.2400     2.5520     0.0660     7.7120
  809.5000   -88.5340     9.9960     9.0440     9.4430   110.2640     2.5430     0.0540     7.3480
  810.0000   -88.3250     9.3360     9.0530     9.4320   105.4530     2.5680     0.0540     7.0790
  810.5000   -88.1100     9.3250     9.0610     9.4350   110.3250     2.5950     0.0660     7.0840
  811.0000   -87.8820     9.3080     9.0700     9.4740   116.8090     2.5880     0.0780     7.0960
  811.5000   -87.6350     9.2900     9.0780     9.5140   123.3310     2.5780     0.0900     7.1090
  812.0000   -87.3890     9.2720     9.0810     9.5550   124.3220     2.5690     0.1000     7.1220
  812.5000   -87.1310     9.2540     9.0810     9.5960   124.8520     2.5800     0.1080     7.1340
  813.0000   -87.1190     9.1660     8.9260     9.6360   123.8780     2.5870     0.1000     7.1440
  813.5000   -87.2090     8.8860     8.6670     9.6780   123.0510     2.5780     0.0920     6.9240
  814.0000   -87.3050     8.5580     8.4080     9.7170   122.1120     2.5690     0.0830     6.7390
  814.5000   -87.4010     8.2300     8.1490     9.7530   121.6430     2.5590     0.0740     6.5550
  815.0000   -87.7930     7.9010     7.8900     9.7450   122.6250     2.5490     0.0670     6.3710
  815.5000   -88.5730     7.6920     7.6310     9.7430   123.6290     2.5420     0.0580     6.1860
  816.0000   -89.3500     7.5510     7.3730     9.7380   124.1050     2.5500     0.0710     6.0020
  816.5000   -90.1350     7.4560     7.1140     9.7340   124.9310     2.5690     0.0900     5.8860
  817.0000   -90.4760     7.3580     6.9490     9.7300   125.1860     2.5660     0.0960     5.9140
  817.5000   -90.5800     7.2600     6.8850     9.7260   124.7580     2.5610     0.0860     5.9500
  818.0000   -90.6820     7.1620     6.7350     9.7220   125.3970     2.5590     0.0840     5.9860
  818.5000   -90.7830     7.0790     6.5360     9.7180   126.0020     2.5720     0.0860     5.9950
  819.0000   -90.8840     7.0140     6.3370     9.7140   124.9210     2.5670     0.0890     5.7790
  819.5000   -90.9850     6.9010     6.1380     9.7100   124.4130     2.5560     0.0920     5.5910
