~VERSION INFORMATION
 VERS.                2.0:   CWLS LOG ASCII STANDARD - VERSION 2.0
 WRAP.                 NO:   ONE LINE PER DEPTH STEP
~WELL INFORMATION
#MNEM.UNIT      DATA TYPE    INFORMATION
#----------   ------------   ------------------------------
 STRT.F          212.5000:   START DEPTH
 STOP.F         3098.0000:   STOP DEPTH
 STEP.F            0.5000:   STEP LENGTH
 NULL.          -999.2500:   NO VALUE
 COMP.    FENIX & SCISSON:   COMPANY
 WELL. FENIX NPR 77 "A" #3-33:   WELL
 FLD .                NPR:   FIELD
 LOC .      S33 T39N R78W:   LOCATION
 CNTY.            NATRONA:   COUNTY
 STAT.            WYOMING:   STATE
 CTRY. UNITED STATES OF AMERICA:   COUNTRY
 SRVC.       SCHLUMBERGER:   SERVICE COMPANY
 DATE.        07-MAY-1977:   LOGDATE
 API .     49025103700000:   API NUMBER
~CURVE INFORMATION
#MNEM.UNIT       API CODE    CURVE DESCRIPTION
#----------   ------------   ------------------------------
 DEPT.F                  :   
 SPR .MV     07 010 01 00:   SPONTANEOUS POTENTIAL
 LL8 .OHMM   11 220 08 00:   LATERALOG-8 RESISTIVITY
 ILD .OHMM   07 120 46 00:   DEEP INDUCTION RESISTIVITY
 CALD.IN     45 280 60 00:   CALIPER FROM DENSITY LOG
 GRD .GAPI   45 310 01 00:   GAMMA RAY FROM DENSITY LOG
 RHOB.G/C3   45 350 01 00:   BULK DENSITY
 CORR.G/C3   45 356 01 00:   DENSITY CORRECTION
 ILM .OHMM   07 120 44 00:   INDUCTION LOG MEDIUM RESISTIVITY
~PARAMETER INFORMATION
#MNEM.UNIT          VALUE    DESCRIPTION
#----------   ------------   ------------------------------
 EKB .F         5152.0000:   Kelly bushing
 EGL .F         5141.0000:   Ground level
 TD  .F         3097.0000:   Total depth
 DATE.        07-MAY-1977:   Date logged
 CLNT.            A2DTECH:   Client Code
 SL  . 990' FEL & 990' FSL:   Surface Location
 PD  .                 GL:   Permanent Datum
 EPD .F              5141:   Elevation Permanent Datum
 LMF .                 KB:   Log Measured From
 DMF .                 KB:   Drilling Measured From
 DAPD.F                11:   Feet Above Permanent Datum
 DD  .F              3096:   Depth driller
 DL  .F              3097:   Depth logger
 BLI .F              3091:   Bottom log interval
 TLI .F               222:   Top log interval
 CS1 .IN            8.625:   Casing size
 CBD1.      8.625" @ 200':   Casing driller 1
 CBL1.F               222:   Casing logger 1
 BS1 .IN            7.875:   Bit size
 BSD1.F              3096:   Depth drilled with bit1
 DFT .                KCL:   Type fluid in hole
 DFD .                9.2:   Density
 DFV .                 38:   Viscosity
 DFPH.                  8:   pH
 DFL .                7.6:   Fluid loss
 MSS .           FLOWLINE:   Source of sample
 RMS .OHMM           .191:   Rm
 MST .F                76:   Rm Meas. temp.
 RMF .OHMM           .185:   Rmf
 MFST.F                76:   Rmf Meas. temp.
 MFSS.               MEAS:   Source Rmf.
 RMB .OHMM           .126:   Rm. at BHT
 BHT .F               115:   BHT.
 TCS .HRS            1200:   Time Circ. stopped
 TLAB.HRS            1530:   Time logger at bottom
 MRT .F                15:   Maximum recorded temp.
 LUN .               6442:   Logging unit number
 LUL .               CSPR:   Logging unit location
 ENGI.             MARTIN:   Recorded By
 WITN.          PETTMGILL:   Witnessed by
 ORIG.      2.5" 5" PRINT:   Origin of data
 UWI .     49025103700000:   Unique Well ID
 DICO. A2D TECHNOLOGIES, INC.:   Digitizing Company
~OTHER INFORMATION
~A   DEPT      SPR        LL8        ILD       CALD         GRD      RHOB       CORR        ILM   
# ...
 3047.5000   -72.6410     5.0780     3.9580     7.9640   119.5780     2.5170     0.0470     4.1470
 3048.0000   -72.3480     5.1250     3.8600     7.9700   119.2170     2.5350     0.0600     4.0620
 3048.5000   -71.9680     4.8160     3.7690     7.9800   119.5850     2.5300     0.0720     3.9770
 3049.0000   -71.5850     4.5750     3.6780     7.9890   120.3780     2.5240     0.0840     3.8910
 3049.5000   -71.2000     4.3340     3.5870     7.9990   121.3900     2.5340     0.0980     3.8060
 3050.0000   -70.8160     4.2220     3.4960     8.0080   122.7000     2.5290     0.0930     3.7210
 3050.5000   -70.4320     4.2590     3.4150     8.0170   124.0290     2.4760     0.0590     3.6360
 3051.0000   -70.0480     4.3810     3.4020     8.0270   125.3150     2.4890     0.0480     3.5760
 3051.5000   -69.6640     4.5020     3.3910     8.0360   126.6800     2.5060     0.0680     3.5760
 3052.0000   -69.2800     4.5880     3.3790     8.0440   127.2790     2.5300     0.0880     3.5290
 3052.5000   -68.8940     4.4870     3.3680     8.0440   126.2900     2.5260     0.0840     3.5090
 3053.0000   -68.4980     4.3420     3.3560     8.0480   124.4700     2.5200     0.0790     3.4890
 3053.5000   -68.7710     4.1830     3.3450     8.0530   126.6250     2.5190     0.0750     3.4690
 3054.0000   -69.3410     4.1450     3.3330     8.0580   128.6440     2.5320     0.0750     3.4460
 3054.5000   -69.9090     4.1830     3.3220     8.0630   127.8200     2.5300     0.0880     3.4460
 3055.0000   -70.4780     4.0890     3.3100     8.0670   125.8370     2.5200     0.0830     3.4460
 3055.5000   -71.0470     3.9950     3.2990     8.0720   123.7840     2.5190     0.0750     3.4270
 3056.0000   -71.6170     4.0370     3.2610     8.0770   124.4040     2.5240     0.0770     3.4100
 3056.5000   -72.1920     4.0690     3.2020     8.0820   125.2440     2.5220     0.0870     3.3920
 3057.0000   -72.7640     3.9970     3.1490     8.0830   126.4390     2.5020     0.0800     3.3830
 3057.5000   -73.6120     3.8520     3.0960     8.0840   127.5330     2.5080     0.0750     3.3360
 3058.0000   -73.3580     3.7450     3.0430     8.0830   127.9700     2.5170     0.0740     3.2690
 3058.5000   -73.0620     3.8190     2.9900     8.0760   127.4870     2.5080     0.0840     3.2020
 3059.0000   -72.7740     3.9260     2.9370     8.0400   126.9040     2.5180     0.0560     3.1350
 3059.5000   -72.4870     3.9580     2.8840     8.0450   128.1210     2.5180     0.0660     3.0670
 3060.0000   -72.2000     3.6990     2.8310     8.0430   132.0010     2.5150     0.0800     3.0000
 3060.5000   -71.9050     3.5000     2.7780     8.0440   135.3400     2.5050     0.0900     2.9330
 3061.0000   -71.8010     3.3210     2.7250     8.0440   139.7220     2.4940     0.0740     2.8660
 3061.5000   -71.5330     3.2580     2.6720     8.0440   140.1150     2.4870     0.0690     2.7990
 3062.0000   -71.2660     3.2000     2.6190     8.0440   138.9290     2.5070     0.0780     2.7110
 3062.5000   -70.9990     3.1430     2.5660     8.0440   131.1090     2.5000     0.0860     2.7170
 3063.0000   -70.7310     3.1430     2.5180     8.0440   129.7650     2.4740     0.0870     2.7260
 3063.5000   -70.4660     3.2850     2.5260     8.0440   129.5070     2.4810     0.0690     2.7350
 3064.0000   -70.5920     3.4780     2.5420     8.0440   131.7590     2.5170     0.0810     2.7430
 3064.5000   -71.0010     3.4460     2.5580     8.0440   134.1360     2.5320     0.1060     2.7520
 3065.0000   -71.4050     3.3510     2.5750     8.0440   135.8140     2.5270     0.0970     2.7620
 3065.5000   -71.8080     3.2600     2.5870     8.0440   135.2980     2.5120     0.0800     2.7210
 3066.0000   -72.2140     3.1700     2.5430     8.0440   134.8630     2.4780     0.0690     2.6910
 3066.5000   -72.6190     3.1140     2.5120     8.0440   136.8260     2.4870     0.0760     2.6600
 3067.0000   -72.4800     3.1280     2.4810     8.0440   140.0280     2.5080     0.0910     2.6300
 3067.5000   -72.2780     3.1430     2.4500     8.0440   140.8990     2.5030     0.0820     2.5990
 3068.0000   -72.4510     3.1720     2.4190     8.0440   138.7950     2.4770     0.0580     2.5690
 3068.5000   -72.8170     3.2010     2.3880     8.0440   135.2770     2.4830     0.0700     2.5380
 3069.0000   -73.1860     3.1450     2.3570     8.0430   131.4180     2.4910     0.0840     2.5080
 3069.5000   -73.4270     3.0830     2.3260     8.0440   130.4020     2.5010     0.0770     2.4770
 3070.0000   -73.2250     3.0210     2.2950     8.0440   129.9290     2.5100     0.0610     2.4470
 3070.5000   -72.9800     2.9590     2.2640     8.0420   132.9600     2.4870     0.0450     2.4160
 3071.0000   -72.8250     2.8970     2.2330     8.0640   136.6070     2.4380     0.0490     2.3830
 3071.5000   -72.8710     2.8130     2.2020     8.0820   140.3860     2.4460     0.0740     2.3770
 3072.0000   -73.1230     2.8460     2.1760     8.0690   142.6550     2.4560     0.0830     2.3680
 3072.5000   -73.3670     2.9130     2.1530     8.0590   142.2400     2.4690     0.0770     2.3600
 3073.0000   -73.6350     2.9460     2.1290     8.0500   140.0350     2.4720     0.0720     2.3520
 3073.5000   -73.3180     2.9730     2.1050     8.0400   138.0880     2.4780     0.0810     2.3430
 3074.0000   -72.8770     2.9360     2.0820     8.0300   138.7300     2.5050     0.1000     2.3070
 3074.5000   -72.4440     2.9070     2.0560     8.0200   139.7070     2.5010     0.1240     2.2420
 3075.0000   -72.4170     2.8370     2.0320     8.0100   140.3470     2.4890     0.0910     2.1940
 3075.5000   -72.8030     2.7260     2.0240     8.0000   142.4610     2.4840     0.0980     2.1470
 3076.0000   -73.2600     2.6150     2.0160     7.9900   145.5880     2.4880     0.1060     2.1130
 3076.5000   -73.7090     2.5050     2.0070     7.9800   152.9100     2.4820     0.1160     2.1130
 3077.0000   -74.0140     2.4050     1.9990     7.9700   154.9090     2.4700     0.1080     2.1540
 3077.5000   -73.9240     2.4050     2.0620     7.9600   151.6280     2.4540     0.0880     2.1730
 3078.0000   -73.8230     2.8910     2.2070     7.9500   148.2310     2.4670     0.0780     2.2130
 3078.5000   -73.7190     3.2010     2.3520     7.9410   141.8550     2.4980     0.0980     2.3340
 3079.0000   -73.6210     3.1300     2.4970     7.9300   131.5300     2.5290     0.1310     2.4440
 3079.5000   -73.6070     3.0960     2.6420     7.9240   121.4100     2.5510     0.1330     2.5650
 3080.0000   -73.3200     3.0850     2.7870     7.9150  -999.2500     2.5430     0.1230     2.7860
 3080.5000   -73.0250     3.8150     2.9320     7.9060  -999.2500     2.5200     0.1110     3.0320
 3081.0000   -72.7320     3.8320     3.0770     7.8960  -999.2500     2.5300     0.1010     3.2780
 3081.5000   -72.4390     4.7610     3.2220     7.8870  -999.2500     2.5260     0.0890     3.5240
 3082.0000   -72.1390     5.6720     3.3830     7.8770  -999.2500     2.5150     0.0790     3.7450
 3082.5000   -71.9050     6.1290     3.3460     7.8680  -999.2500     2.5210     0.0770     3.5780
 3083.0000   -71.2740     6.3950     3.2930     7.8590  -999.2500     2.5380     0.0950     3.4270
 3083.5000   -70.6540     6.2210     3.2400     7.8490  -999.2500     2.5480     0.1140     3.2760
 3084.0000   -70.0750     4.2190     3.1860     7.8450  -999.2500     2.5560     0.1350     3.2010
 3084.5000   -70.3350     2.6620     3.1330     7.8450  -999.2500     2.5660     0.1720     3.2010
 3085.0000   -70.9820     3.5280     3.0570     7.8450  -999.2500     2.5440     0.2430     3.3690
 3085.5000   -71.6240     4.1950     3.2440     7.8450  -999.2500     2.3880     0.2230     3.6100
 3086.0000   -72.2110     4.8620     3.5120     7.8450  -999.2500     2.4100     0.1290     3.8500
 3086.5000   -72.0750     5.5290     3.7800     7.8450  -999.2500     2.4960     0.0810     4.0910
 3087.0000   -71.8230     5.9950     4.0480     7.8450  -999.2500     2.5600     0.0970     4.3310
 3087.5000   -71.3560     5.3670     4.3160     7.8450  -999.2500     2.5550     0.1110     4.5710
