~VERSION INFORMATION
 VERS.                2.0:   CWLS LOG ASCII STANDARD - VERSION 2.0
 WRAP.                 NO:   ONE LINE PER DEPTH STEP
~WELL INFORMATION
#MNEM.UNIT      DATA TYPE    INFORMATION
#----------   ------------   ------------------------------
 STRT.F           14.0000:   START DEPTH
 STOP.F         3030.0000:   STOP DEPTH
 STEP.F            0.5000:   STEP LENGTH
 NULL.          -999.2500:   NO VALUE
 COMP. LAWRENCE ALLISON & ASSOC. WEST:   COMPANY
 WELL. LAWRENCE "X" #37-28:   WELL
 FLD .          N.P.R. #3:   FIELD
 LOC .      S28 T39N R78W:   LOCATION
 CNTY.            NATRONA:   COUNTY
 STAT.            WYOMING:   STATE
 CTRY. UNITED STATES OF AMERICA:   COUNTRY
 SRVC.      DRESSER ATLAS:   SERVICE COMPANY
 DATE.        22-SEP-1986:   LOGDATE
 API .     49025111090000:   API NUMBER
~CURVE INFORMATION
#MNEM.UNIT       API CODE    CURVE DESCRIPTION
#----------   ------------   ------------------------------
 DEPT.F                  :   
 GRR .GAPI   07 310 01 00:   GAMMA RAY FROM RESISTIVITY
 SPR .MV     07 010 01 00:   SPONTANEOUS POTENTIAL
 TENR.LBS    07 635 01 00:   TENSION FROM RESISTIVITY
 RILD.OHMM   07 120 46 00:   DEEP INDUCTION RESISTIVITY
 RILM.OHMM   07 120 44 00:   INDUCTION LOG MEDIUM RESISTIVITY
 RFOC.OHMM   07 220 04 00:   RESISTIVITY FOCUSED LOG RES.
 CNC .DEC    42 890 03 00:   NEUTRON PORISITY SANDSTONE
 RHOB.G/C3   45 350 01 00:   BULK DENSITY
 CORR.G/C3   45 356 01 00:   DENSITY CORRECTION
 TEND.LBS    45 635 01 00:   TENSION FROM DENSITY LOG
 CALD.IN     45 280 60 00:   CALIPER FROM DENSITY LOG
~PARAMETER INFORMATION
#MNEM.UNIT          VALUE    DESCRIPTION
#----------   ------------   ------------------------------
 EKB .F         5124.0000:   Kelly bushing
 EGL .F         5113.0000:   Ground level
 EDF .F         5123.0000:   Drilling floor
 TD  .F         3026.0000:   Total depth
 DATE.        22-SEP-1986:   Date logged
 CLNT.            A2DTECH:   Client Code
 SL  . 1097' FSL & 1722' FWL:   Surface Location
 PD  .                 GL:   Permanent Datum
 EPD .F              5113:   Elevation Permanent Datum
 LMF .                 KB:   Log Measured From
 DMF .                 KB:   Drilling Measured From
 DAPD.F                11:   Feet Above Permanent Datum
 DD  .F              3026:   Depth driller
 DL  .F              3023:   Depth logger
 BLI .F              3020:   Bottom log interval
 CS1 .IN            8.625:   Casing size
 CBD1.      8.625" @ 517':   Casing driller 1
 CBL1.F               518:   Casing logger 1
 BS1 .IN            7.875:   Bit size
 BSD1.F              3026:   Depth drilled with bit1
 DFT .            KCL-GEL:   Type fluid in hole
 DFD .                8.6:   Density
 DFV .                 41:   Viscosity
 DFPH.                9.5:   pH
 DFL .                6.8:   Fluid loss
 MSS .           FLOWLINE:   Source of sample
 RMS .OHMM           0.37:   Rm
 MST .F                58:   Rm Meas. temp.
 RMF .OHMM           0.33:   Rmf
 MFST.F                63:   Rmf Meas. temp.
 RMC .OHMM           0.59:   Rmc
 MCST.F                58:   Rmc Meas. temp.
 MFSS.               MEAS:   Source Rmf.
 MCSS.               CALC:   Source Rmc.
 RMB .OHMM           0.16:   Rm. at BHT
 BHT .F               131:   BHT.
 TCS .HRS               3:   Time Circ. stopped
 MRT .F               131:   Maximum recorded temp.
 LUN .            HL 6426:   Logging unit number
 LUL .                 RS:   Logging unit location
 ENGI.               RALL:   Recorded By
 WITN.             STRONG:   Witnessed by
 ORIG.           5" PRINT:   Origin of data
 UWI .     49025111090000:   Unique Well ID
 DICO. A2D TECHNOLOGIES, INC.:   Digitizing Company
~OTHER INFORMATION
~A   DEPT      GRR        SPR       TENR       RILD       RILM       RFOC        CNC       RHOB       CORR       TEND       CALD   
# ...
  532.5000    84.1810   -23.5060   -18.4670    11.3560    11.0590     9.5260  -999.2500  -999.2500  -999.2500  -999.2500  -999.2500
  533.0000    84.0610   -23.7030   -18.2820    11.4090    11.0890     9.5400  -999.2500  -999.2500  -999.2500  -999.2500  -999.2500
  533.5000    86.6560   -23.6910   -18.0970    11.4770    11.1190     9.5540  -999.2500  -999.2500  -999.2500  -999.2500  -999.2500
  534.0000    87.4700   -23.6300   -17.9110    11.4770    11.1490     9.5680  -999.2500  -999.2500  -999.2500  -999.2500  -999.2500
  534.5000    85.1210   -23.6050   -17.7260    11.4770    11.0960     9.5820  -999.2500  -999.2500  -999.2500  -999.2500  -999.2500
  535.0000    83.6980   -23.5490   -17.5410    11.4770    10.9710     9.5950  -999.2500  -999.2500  -999.2500  -999.2500  -999.2500
  535.5000    86.0400   -23.5470   -17.3550    11.4770    10.8460     9.6090  -999.2500  -999.2500  -999.2500  -999.2500  -999.2500
  536.0000    86.3680   -23.3660   -17.1700    11.2210    10.7210     9.6260  -999.2500  -999.2500  -999.2500  -999.2500  -999.2500
  536.5000    83.3870   -23.1500   -16.9850    10.9590    10.5960     9.6260  -999.2500  -999.2500  -999.2500  -999.2500  -999.2500
  537.0000    85.6780   -23.3210   -16.7990    10.7570    10.4710     9.4430  -999.2500  -999.2500  -999.2500  -999.2500  -999.2500
  537.5000    92.2080   -23.5790   -16.6140    10.5280    10.3460     9.1060  -999.2500  -999.2500  -999.2500  -999.2500  -999.2500
  538.0000    95.2340   -23.7840   -16.4290    10.3420    10.2210     8.7750  -999.2500  -999.2500  -999.2500  -999.2500  -999.2500
  538.5000    93.8620   -24.0230   -16.2430    10.1560    10.0820     8.5170  -999.2500  -999.2500  -999.2500  -999.2500  -999.2500
  539.0000    90.6420   -24.2450   -16.0580     9.9890    10.2410     8.3010  -999.2500  -999.2500  -999.2500  -999.2500  -999.2500
  539.5000    88.4880   -24.4770   -15.8720     9.9890    10.4200     8.4890  -999.2500  -999.2500  -999.2500  -999.2500  -999.2500
  540.0000    89.2400   -24.6930   -15.6870     9.9890    10.6000     8.6600  -999.2500  -999.2500  -999.2500  -999.2500  -999.2500
  540.5000    91.1440   -24.9430   -15.5020     9.9890    10.7790     8.8310  -999.2500  -999.2500  -999.2500  -999.2500  -999.2500
  541.0000    91.6020   -25.1350   -15.3160     9.9890    10.8570     8.9390  -999.2500  -999.2500  -999.2500  -999.2500  -999.2500
  541.5000    91.1520   -25.3780   -15.1310     9.9890    10.7780     8.9060  -999.2500  -999.2500  -999.2500  -999.2500  -999.2500
  542.0000    91.3790   -25.8390   -14.9460     9.9890    10.6420     8.8510  -999.2500  -999.2500  -999.2500  -999.2500  -999.2500
  542.5000    92.0820   -26.1900   -14.7600     9.9890    10.5060     8.7950  -999.2500  -999.2500  -999.2500  -999.2500  -999.2500
  543.0000    92.9680   -26.4600   -14.5750     9.9890    10.3710     8.6940  -999.2500  -999.2500  -999.2500  -999.2500  -999.2500
  543.5000    93.5640   -26.7930   -14.3900     9.8010    10.2700     8.5200  -999.2500  -999.2500  -999.2500  -999.2500  -999.2500
  544.0000    94.0210   -27.0810   -14.2040     9.6210    10.1390     8.4100  -999.2500  -999.2500  -999.2500  -999.2500  -999.2500
  544.5000    96.2000   -27.4000   -14.0190     9.4410    10.0150     8.3000  -999.2500  -999.2500  -999.2500  -999.2500  -999.2500
  545.0000    98.8290   -27.6950   -13.8190     9.2610     9.8920     8.2010  -999.2500  -999.2500  -999.2500  -999.2500  -999.2500
  545.5000    99.1650   -27.9870   -20.1040     9.1060     9.7690     8.1290  -999.2500  -999.2500  -999.2500  -999.2500  -999.2500
  546.0000    97.6580   -28.4180   -26.9250     9.0710     9.6450     8.0560  -999.2500  -999.2500  -999.2500  -999.2500  -999.2500
  546.5000    95.4840   -28.8000   -33.9200     9.0410     9.5220     7.9830  -999.2500  -999.2500  -999.2500  -999.2500  -999.2500
  547.0000    93.2870   -28.9660   -29.0950     9.0110     9.3980     7.9100  -999.2500  -999.2500  -999.2500  -999.2500  -999.2500
  547.5000    91.1480   -29.1570   -24.1450     8.9800     9.2760     7.8520  -999.2500  -999.2500  -999.2500  -999.2500  -999.2500
  548.0000    89.2690   -29.3240   -19.1940     8.9500     9.0670     7.9370  -999.2500  -999.2500  -999.2500  -999.2500  -999.2500
  548.5000    88.7700   -29.4840   -14.2440     8.8560     8.8600     8.0080  -999.2500  -999.2500  -999.2500  -999.2500  -999.2500
  549.0000    90.6340   -29.9250    -9.2930     8.7260     8.6530     8.0730  -999.2500  -999.2500  -999.2500  -999.2500  -999.2500
  549.5000    95.4680   -30.1370    -3.7690     8.5730     8.4450     7.9350  -999.2500  -999.2500  -999.2500  -999.2500  -999.2500
  550.0000   100.2640   -30.2890    -6.3580     8.4200     8.2380     7.8050  -999.2500  -999.2500  -999.2500  -999.2500  -999.2500
  550.5000   100.9420   -30.0890    -9.2860     8.2240     8.0310     7.6760  -999.2500  -999.2500  -999.2500  -999.2500  -999.2500
  551.0000    99.4920   -28.5660   -12.2140     8.1620     7.8520     7.5460  -999.2500  -999.2500  -999.2500  -999.2500  -999.2500
  551.5000    98.0970   -26.8130   -15.1420     8.0730     7.6450     7.4160  -999.2500  -999.2500  -999.2500  -999.2500  -999.2500
  552.0000    95.8730   -25.8070   -18.0700     8.0240     7.5960     7.3600  -999.2500  -999.2500  -999.2500  -999.2500  -999.2500
  552.5000    94.4590   -25.0480   -20.9990     7.9720     7.6370     7.3600  -999.2500  -999.2500  -999.2500  -999.2500  -999.2500
  553.0000    95.0100   -24.2110   -23.8690     7.9200     7.6030     7.3600  -999.2500  -999.2500  -999.2500  -999.2500  -999.2500
  553.5000    94.7860   -23.8860   -13.8190     7.8690     7.5750     7.3600  -999.2500  -999.2500  -999.2500  -999.2500  -999.2500
  554.0000    93.6620   -22.4620   -11.9400     7.8170     7.5460     7.3600  -999.2500  -999.2500  -999.2500  -999.2500  -999.2500
  554.5000    94.7250   -20.6450    -9.7120     7.7650     7.5170     7.3600  -999.2500  -999.2500  -999.2500  -999.2500  -999.2500
  555.0000    98.1640   -15.1580    -7.4830     7.7080     7.4970     7.3310  -999.2500  -999.2500  -999.2500  -999.2500  -999.2500
  555.5000   101.3770    -5.4520    -5.2550     7.7630     7.4130     7.1330  -999.2500  -999.2500  -999.2500  -999.2500  -999.2500
  556.0000    98.9740    -4.5690    -3.0260     7.8230     7.3470     6.9620  -999.2500  -999.2500  -999.2500  -999.2500  -999.2500
  556.5000    92.5180   -10.1570    -0.7970     7.8830     7.2920     7.0870  -999.2500  -999.2500  -999.2500  -999.2500  -999.2500
  557.0000    90.1850   -14.7690     1.4310     7.9430     7.4440     7.1970  -999.2500  -999.2500  -999.2500  -999.2500  -999.2500
  557.5000    91.5120   -19.2910     3.6600     8.0030     7.5760     7.3060  -999.2500  -999.2500  -999.2500  -999.2500  -999.2500
  558.0000    94.2120   -24.1080     5.8880     8.0730     7.7080     7.4160  -999.2500  -999.2500  -999.2500  -999.2500  -999.2500
  558.5000    96.4570   -28.7570     8.1170     8.1810     7.8400     7.5260  -999.2500  -999.2500  -999.2500  -999.2500  -999.2500
  559.0000    95.0690   -30.8970    10.3450     8.3110     7.9720     7.6360  -999.2500  -999.2500  -999.2500  -999.2500  -999.2500
  559.5000    92.1680   -30.4890    12.5740     8.4560     8.1040     7.7460  -999.2500  -999.2500  -999.2500  -999.2500  -999.2500
  560.0000    90.4060   -23.4090    14.8020     8.5770     8.2360     7.7800  -999.2500  -999.2500  -999.2500  -999.2500  -999.2500
  560.5000    89.4270   -11.5080    14.8700     8.7130     8.3680     7.7800  -999.2500  -999.2500  -999.2500  -999.2500  -999.2500
  561.0000    88.6730    -1.0830    10.2100     8.8500     8.5040     7.7800  -999.2500  -999.2500  -999.2500  -999.2500  -999.2500
  561.5000    89.5960    -0.4100     6.2810     8.9390     8.6480     7.7800  -999.2500  -999.2500  -999.2500  -999.2500  -999.2500
  562.0000    92.1710    -3.8410     2.3330     9.1460     8.7930     7.7800  -999.2500  -999.2500  -999.2500  -999.2500  -999.2500
  562.5000    95.0140   -10.5030   -15.9730     9.4180     8.9370     8.1140  -999.2500  -999.2500  -999.2500  -999.2500  -999.2500
