~VERSION INFORMATION
 VERS.                2.0:   CWLS LOG ASCII STANDARD - VERSION 2.0
 WRAP.                 NO:   ONE LINE PER DEPTH STEP
~WELL INFORMATION
#MNEM.UNIT      DATA TYPE    INFORMATION
#----------   ------------   ------------------------------
 STRT.F           31.0000:   START DEPTH
 STOP.F         2926.0000:   STOP DEPTH
 STEP.F            0.5000:   STEP LENGTH
 NULL.          -999.2500:   NO VALUE
 COMP. LAWERNCE ALLISON AND ASSOCIATES:   COMPANY
 WELL.   FENIX "X" #17-21:   WELL
 FLD .             NPR #3:   FIELD
 LOC .      S21 T39N R78W:   LOCATION
 CNTY.            NATRONA:   COUNTY
 STAT.            WYOMING:   STATE
 CTRY. UNITED STATES OF AMERICA:   COUNTRY
 SRVC.      WESTERN ATLAS:   SERVICE COMPANY
 DATE.        02-NOV-1987:   LOGDATE
 API .     49025111960000:   API NUMBER
~CURVE INFORMATION
#MNEM.UNIT       API CODE    CURVE DESCRIPTION
#----------   ------------   ------------------------------
 DEPT.F                  :   
 CALD.IN     45 280 60 00:   CALIPER FROM DENSITY LOG
 TEND.LBS    45 635 01 00:   TENSION FROM DENSITY LOG
 CORR.G/C3   45 356 01 00:   DENSITY CORRECTION
 RHOB.G/C3   45 350 01 00:   BULK DENSITY
 CNC .DEC    42 890 03 00:   NEUTRON POROSITY SANDSTONE
 SPR .MV     07 010 01 00:   SPONTANEOUS POTENTIAL
 GRR .GAPI   07 310 01 00:   GAMMA RAY FROM RESISTIVITY
 TENR.LBS    07 635 01 00:   TENSION FROM RESISTIVITY
 RFOC.OHMM   07 220 04 00:   RESISTIVITY FOCUSED LOG RES.
 RILD.OHMM   07 120 46 00:   DEEP INDUCTION RESISTIVITY
 RILM.OHMM   07 120 44 00:   INDUCTION LOG MEDIUM RESISTIVITY
~PARAMETER INFORMATION
#MNEM.UNIT          VALUE    DESCRIPTION
#----------   ------------   ------------------------------
 EKB .F         5006.0000:   Kelly bushing
 EGL .F         4995.0000:   Ground level
 EDF .F            0.0000:   Drilling floor
 TD  .F         2915.0000:   Total depth
 DATE.        02-NOV-1987:   Date logged
 CLNT.            A2DTECH:   Client Code
 SL  . 1824' FSL & 399' FWL:   Surface Location
 PD  .                 GL:   Permanent Datum
 DD  .F              2911:   Depth driller
 DL  .F              2915:   Depth logger
 BLI .F              2913:   Bottom log interval
 CS1 .IN            8.625:   Casing size
 CBD1.      8.625" @ 350':   Casing driller 1
 CBL1.F               350:   Casing logger 1
 BS1 .IN            7.875:   Bit size
 DFT .        KCL-POLYMER:   Type fluid in hole
 DFD .                8.8:   Density
 DFV .                 42:   Viscosity
 DFPH.                9.5:   pH
 DFL .                 11:   Fluid loss
 MSS .           FLOWLINE:   Source of sample
 RMS .OHMM           0.41:   Rm
 MST .F                78:   Rm Meas. temp.
 RMF .OHMM           0.29:   Rmf
 MFST.F                78:   Rmf Meas. temp.
 RMC .OHMM           0.51:   Rmc
 MCST.F                78:   Rmc Meas. temp.
 MFSS.               MEAS:   Source Rmf.
 RMB .OHMM           0.29:   Rm. at BHT
 BHT .F               108:   BHT.
 TCS .HRS               5:   Time Circ. stopped
 MRT .F               108:   Maximum recorded temp.
 LUN .            HL-6274:   Logging unit number
 LUL .           GILLETTE:   Logging unit location
 WITN.             STRONG:   Witnessed by
 ORIG.           5" PRINT:   Origin of data
 UWI .     49025111960000:   Unique Well ID
 DICO. A2D TECHNOLOGIES, INC.:   Digitizing Company
 DAPD.                 11:   Feet Above Permanent Datum
 BSD1.               2911:   Depth drilled with bit1
 MCSS.               CALC:   Source Rmc.
 EPD .               4995:   Elevation Permanent Datum
 LMF .                 KB:   Log Measured From
 DMF .                 KB:   Drilling Measured From
 TLI .                 11:   Top log interval
~OTHER INFORMATION
~A   DEPT     CALD       TEND       CORR       RHOB        CNC        SPR         GRR      TENR       RFOC       RILD       RILM   
# ...
 1556.0000  -999.2500  -999.2500  -999.2500  -999.2500  -999.2500   -27.4900   126.4670   -88.8570     4.4520     5.1370     4.9190
 1556.5000  -999.2500  -999.2500  -999.2500  -999.2500  -999.2500   -27.6710   125.8070   -89.0490     5.3640     5.1370     5.0340
 1557.0000  -999.2500  -999.2500  -999.2500  -999.2500  -999.2500   -27.8340   124.9470   -89.2400     6.2410     5.1370     5.1490
 1557.5000  -999.2500  -999.2500  -999.2500  -999.2500  -999.2500   -27.9950   126.1730   -89.4310     7.1180     5.2290     5.3240
 1558.0000  -999.2500  -999.2500  -999.2500  -999.2500  -999.2500   -28.1660   127.1870   -89.6220     7.9870     5.5390     5.5570
 1558.5000  -999.2500  -999.2500  -999.2500  -999.2500  -999.2500   -28.2170   128.0690   -89.8130     7.8820     5.8490     5.8140
 1559.0000  -999.2500  -999.2500  -999.2500  -999.2500  -999.2500   -28.2750   129.8480   -90.0040     7.6740     6.1590     6.0720
 1559.5000  -999.2500  -999.2500  -999.2500  -999.2500  -999.2500   -28.3500   130.4200   -90.1960     7.4660     6.4690     6.3290
 1560.0000  -999.2500  -999.2500  -999.2500  -999.2500  -999.2500   -28.4230   130.9380   -90.3870     7.2160     6.8390     6.5870
 1560.5000  -999.2500  -999.2500  -999.2500  -999.2500  -999.2500   -28.4740   131.4220   -90.5780     7.2160     6.9630     6.8390
 1561.0000  -999.2500  -999.2500  -999.2500  -999.2500  -999.2500   -28.6010   131.8430   -90.7690     7.2860     6.8070     6.7620
 1561.5000  -999.2500  -999.2500  -999.2500  -999.2500  -999.2500   -28.2950   129.0530   -90.9600     7.3980     6.6700     6.6380
 1562.0000  -999.2500  -999.2500  -999.2500  -999.2500  -999.2500   -28.1000   126.6610   -91.1520     7.4790     6.5340     6.5150
 1562.5000  -999.2500  -999.2500  -999.2500  -999.2500  -999.2500   -27.8560   124.6850   -91.3430     7.3460     6.3970     6.3910
 1563.0000  -999.2500  -999.2500  -999.2500  -999.2500  -999.2500   -27.6880   122.7240   -91.5340     6.7410     6.2600     6.2680
 1563.5000  -999.2500  -999.2500  -999.2500  -999.2500  -999.2500   -27.5560   121.9460   -91.7250     6.1900     6.1230     6.1440
 1564.0000  -999.2500  -999.2500  -999.2500  -999.2500  -999.2500   -27.8650   122.8790   -91.9160     5.6180     5.9870     6.0210
 1564.5000  -999.2500  -999.2500  -999.2500  -999.2500  -999.2500   -27.9880   124.4150   -92.1070     5.6180     5.9280     5.8980
 1565.0000  -999.2500  -999.2500  -999.2500  -999.2500  -999.2500   -28.1920   125.6580   -92.2990     6.1360     5.9280     5.8220
 1565.5000  -999.2500  -999.2500  -999.2500  -999.2500  -999.2500   -28.3840   129.2440   -92.4900     6.5770     5.9280     5.8220
 1566.0000  -999.2500  -999.2500  -999.2500  -999.2500  -999.2500   -28.5670   133.1900   -92.6810     7.0180     5.9280     5.9710
 1566.5000  -999.2500  -999.2500  -999.2500  -999.2500  -999.2500   -28.7600   136.8100   -92.8720     7.4790     6.0350     6.1460
 1567.0000  -999.2500  -999.2500  -999.2500  -999.2500  -999.2500   -28.9500   134.0410   -93.0630     7.6140     6.2120     6.5810
 1567.5000  -999.2500  -999.2500  -999.2500  -999.2500  -999.2500   -29.1340   124.3330   -93.2540     7.6140     6.4170     6.7180
 1568.0000  -999.2500  -999.2500  -999.2500  -999.2500  -999.2500   -29.3270   116.6500   -93.4460     7.4630     6.6220     6.8390
 1568.5000  -999.2500  -999.2500  -999.2500  -999.2500  -999.2500   -29.2420   115.1450   -93.6370     7.2950     6.8390     6.8450
 1569.0000  -999.2500  -999.2500  -999.2500  -999.2500  -999.2500   -29.0370   118.4270   -93.8280     7.1280     6.8390     6.8610
 1569.5000  -999.2500  -999.2500  -999.2500  -999.2500  -999.2500   -28.8370   122.6460   -94.0190     6.9630     6.8390     6.8780
 1570.0000  -999.2500  -999.2500  -999.2500  -999.2500  -999.2500   -28.6400   123.6430   -94.2100     6.9630     6.8390     6.8940
 1570.5000  -999.2500  -999.2500  -999.2500  -999.2500  -999.2500   -28.4400   122.5600   -94.4020     7.1090     6.8390     6.9110
 1571.0000  -999.2500  -999.2500  -999.2500  -999.2500  -999.2500   -28.2420   120.4270   -94.5930     7.2310     6.8390     6.9280
 1571.5000  -999.2500  -999.2500  -999.2500  -999.2500  -999.2500   -28.0410   123.4210   -94.7840     7.3460     6.8390     6.9440
 1572.0000  -999.2500  -999.2500  -999.2500  -999.2500  -999.2500   -27.8460   126.9230   -94.9750     7.3280     6.8390     6.9630
 1572.5000  -999.2500  -999.2500  -999.2500  -999.2500  -999.2500   -27.6430   130.2970   -95.1660     7.2620     6.8390     6.8920
 1573.0000  -999.2500  -999.2500  -999.2500  -999.2500  -999.2500   -27.4410   128.9380   -95.3570     7.2020     6.8390     6.8120
 1573.5000  -999.2500  -999.2500  -999.2500  -999.2500  -999.2500   -27.2660   127.0240   -95.5490     7.1550     6.7600     6.7320
 1574.0000  -999.2500  -999.2500  -999.2500  -999.2500  -999.2500   -27.0140   125.3680   -95.7400     7.1080     6.6740     6.6520
 1574.5000  -999.2500  -999.2500  -999.2500  -999.2500  -999.2500   -27.3620   125.1660   -95.9310     7.0580     6.5880     6.5720
 1575.0000  -999.2500  -999.2500  -999.2500  -999.2500  -999.2500   -27.5170   126.1570   -96.1220     7.0050     6.5020     6.4930
 1575.5000  -999.2500  -999.2500  -999.2500  -999.2500  -999.2500   -27.6500   126.4300   -96.3130     6.9630     6.4160     6.4130
 1576.0000  -999.2500  -999.2500  -999.2500  -999.2500  -999.2500   -27.7490   126.5200   -96.5040     7.0010     6.3670     6.3670
 1576.5000  -999.2500  -999.2500  -999.2500  -999.2500  -999.2500   -27.8750   127.4260   -96.6960     7.0470     6.3670     6.4230
 1577.0000  -999.2500  -999.2500  -999.2500  -999.2500  -999.2500   -27.9900   129.6180   -96.8870     7.0930     6.3670     6.5100
 1577.5000  -999.2500  -999.2500  -999.2500  -999.2500  -999.2500   -28.1060   131.1770   -97.0780     7.1390     6.4430     6.5960
 1578.0000  -999.2500  -999.2500  -999.2500  -999.2500  -999.2500   -28.2120   131.6710   -97.2690     7.1850     6.5140     6.6830
 1578.5000  -999.2500  -999.2500  -999.2500  -999.2500  -999.2500   -28.1910   130.6240   -97.4600     7.2160     6.5850     6.7700
 1579.0000  -999.2500  -999.2500  -999.2500  -999.2500  -999.2500   -28.4060   130.0770   -97.6520     7.2160     6.6560     6.8560
 1579.5000  -999.2500  -999.2500  -999.2500  -999.2500  -999.2500   -28.8380   127.1160   -97.8430     7.4450     6.7270     6.9430
 1580.0000  -999.2500  -999.2500  -999.2500  -999.2500  -999.2500   -29.0050   124.2990   -98.0340     7.7110     6.7980     7.0290
 1580.5000  -999.2500  -999.2500  -999.2500  -999.2500  -999.2500   -28.9650   121.7000   -98.2250     7.9760     6.9280     7.1160
 1581.0000  -999.2500  -999.2500  -999.2500  -999.2500  -999.2500   -28.9150   117.7250   -98.4160     8.1790     7.1440     7.2160
 1581.5000  -999.2500  -999.2500  -999.2500  -999.2500  -999.2500   -28.8650   116.2000   -98.6070     7.9440     7.3460     7.2160
 1582.0000  -999.2500  -999.2500  -999.2500  -999.2500  -999.2500   -28.8110   123.5550   -98.7990     7.6660     7.2280     7.1180
 1582.5000  -999.2500  -999.2500  -999.2500  -999.2500  -999.2500   -28.7580   133.9880   -98.9900     7.3880     7.0500     7.0260
 1583.0000  -999.2500  -999.2500  -999.2500  -999.2500  -999.2500   -28.7090   137.3110   -99.1810     7.0880     6.8720     6.9330
 1583.5000  -999.2500  -999.2500  -999.2500  -999.2500  -999.2500   -28.6520   132.2110   -99.3720     7.0270     6.7180     6.8400
 1584.0000  -999.2500  -999.2500  -999.2500  -999.2500  -999.2500   -28.5880   125.0690   -99.5630     6.9130     6.7180     6.7480
 1584.5000  -999.2500  -999.2500  -999.2500  -999.2500  -999.2500   -28.3050   117.9400   -99.7540     6.7980     6.5990     6.6550
 1585.0000  -999.2500  -999.2500  -999.2500  -999.2500  -999.2500   -28.0040   116.9360   -99.9460     6.6830     6.5990     6.5990
 1585.5000  -999.2500  -999.2500  -999.2500  -999.2500  -999.2500   -27.6900   118.7640  -100.1370     6.5680     6.4820     6.3660
 1586.0000  -999.2500  -999.2500  -999.2500  -999.2500  -999.2500   -27.4010   120.3990  -100.3280     6.4530     6.2540     6.1760
