~VERSION INFORMATION
 VERS.                2.0:   CWLS LOG ASCII STANDARD - VERSION 2.0
 WRAP.                 NO:   ONE LINE PER DEPTH STEP
~WELL INFORMATION
#MNEM.UNIT      DATA TYPE    INFORMATION
#----------   ------------   ------------------------------
 STRT.F          176.0000:   START DEPTH
 STOP.F         3442.0000:   STOP DEPTH
 STEP.F            0.5000:   STEP LENGTH
 NULL.          -999.2500:   NO VALUE
 COMP.  FENIX AND SCISSON:   COMPANY
 WELL.  FENIX "AX" #65-15:   WELL
 FLD . NAVAL PETROLEUM RESERVE #3:   FIELD
 LOC .      S15 T38N R78W:   LOCATION
 CNTY.            NATRONA:   COUNTY
 STAT.            WYOMING:   STATE
 CTRY. UNITED STATES OF AMERICA:   COUNTRY
 SRVC.       SCHLUMBERGER:   SERVICE COMPANY
 DATE.        09-APR-1981:   LOGDATE
 API .     49025108710000:   API NUMBER
~CURVE INFORMATION
#MNEM.UNIT       API CODE    CURVE DESCRIPTION
#----------   ------------   ------------------------------
 DEPT.F                  :   
 TENR.LBS    07 635 01 00:   TENSION
 SPR .MV     07 010 01 00:   SPONTANEOUS POTENTIAL
 ILD .OHMM   07 120 46 00:   INDUCTION LOG DEEP RESISTIVITY
 ILM .OHMM   07 120 44 00:   INDUCTION LOG MEDIUM RESISTIVITY
 SFL .OHMM   07 220 01 00:   SHALLOW FOCUSED LOG RESISTIVITY
 TEND.LBS    45 635 01 00:   TENSION FROM DENSITY LOG
 CALD.IN     45 280 60 00:   CALIPER FROM DENSITY LOG
 GRD .GAPI   45 310 01 00:   GAMMA RAY FROM DENSITY LOG
 RHOB.G/C3   45 350 01 00:   BULK DENSITY
 CORR.G/C3   45 356 01 00:   DENSITY CORRECTION
~PARAMETER INFORMATION
#MNEM.UNIT          VALUE    DESCRIPTION
#----------   ------------   ------------------------------
 EKB .F         5287.0000:   Kelly bushing
 EGL .F         5277.0000:   Ground level
 EDF .F            0.0000:   Drilling floor
 TD  .F         5476.0000:   Total depth
 DATE.        09-APR-1981:   Date logged
 CLNT.            A2DTECH:   Client Code
 SL  . 1945' FSL & 1161' FEL:   Surface Location
 PD  .                 GL:   Permanent Datum
 EPD .F              5277:   Elevation Permanent Datum
 LMF .                 KB:   Log Measured From
 DMF .                 KB:   Drilling Measured From
 DAPD.F                10:   Feet Above Permanent Datum
 DD  .F              5476:   Depth driller
 DL  .F              5436:   Depth logger
 BLI .F              5430:   Bottom log interval
 TLI .F               190:   Top log interval
 CS1 .IN            8.625:   Casing size
 CBD1.      8.625" @ 190':   Casing driller 1
 CBL1.F               190:   Casing logger 1
 BS1 .IN            7.875:   Bit size
 BSD1.F              5476:   Depth drilled with bit1
 DFT .           CHEM GEL:   Type fluid in hole
 DFD .                9.1:   Density
 DFV .                 42:   Viscosity
 DFPH.                9.5:   pH
 DFL .                  8:   Fluid loss
 MSS .            MUDTANK:   Source of sample
 RMS .OHMM           1.62:   Rm
 MST .F                71:   Rm Meas. temp.
 RMF .OHMM           1.45:   Rmf
 MFST.F                71:   Rmf Meas. temp.
 MFSS.               MEAS:   Source Rmf.
 RMB .OHMM           1.02:   Rm. at BHT
 BHT .F               116:   BHT.
 TCS .HRS            1600:   Time Circ. stopped
 TLAB.HRS            1830:   Time logger at bottom
 MRT .F               116:   Maximum recorded temp.
 LUN .               8035:   Logging unit number
 LUL .               CSPR:   Logging unit location
 ENGI.            BEATTIE:   Recorded By
 WITN.              EIVAS:   Witnessed by
 ORIG.           5" PRINT:   Origin of data
 UWI .     49025108710000:   Unique Well ID
 DICO. A2D TECHNOLOGIES, INC.:   Digitizing Company
~OTHER INFORMATION
~A   DEPT     TENR        SPR        ILD        ILM        SFL       TEND       CALD         GRD      RHOB       CORR   
# ...
 2755.5000   642.2920   -18.4450     6.9710     6.6490     7.4190   645.1260     8.7840   134.6570     2.5350     0.0290
 2756.0000   642.2920   -18.3830     7.1150     6.8710     7.0220   646.1530     8.7850   134.9520     2.5360     0.0180
 2756.5000   642.2920   -18.3210     7.2590     7.0670     7.6820   647.1790     8.7870   131.2130     2.5440     0.0110
 2757.0000   642.2920   -18.2580     7.4030     7.2640     8.8840   648.2060     8.7890   127.2600     2.5510     0.0050
 2757.5000   642.2920   -18.1960     7.5470     7.4600     9.9240   649.2320     8.7910   123.2370     2.5500     0.0030
 2758.0000   642.2920   -18.1340     7.6910     7.6560    10.2920   650.2590     8.7910   121.3810     2.5520     0.0020
 2758.5000   642.2920   -18.0710     7.8330     7.8520     9.6240   651.2850     8.7910   120.2530     2.5580     0.0120
 2759.0000   642.2920   -18.0100     7.8560     8.0490     9.2270   652.3120     8.7910   120.1550     2.5600     0.0200
 2759.5000   642.2920   -17.9480     7.9130     8.2720     9.2270   653.3380     8.7910   121.0610     2.5590     0.0160
 2760.0000   642.2920   -17.8780     7.9690     8.2720     9.2270   654.3650     8.7910   124.2080     2.5590     0.0120
 2760.5000   642.2920   -17.8660     8.0260     8.2540     9.2270   655.3910     8.7910   129.7410     2.5620     0.0140
 2761.0000   642.2920   -17.9550     8.0820     8.1810     9.2270   656.4180     8.7910   132.2430     2.5600     0.0180
 2761.5000   642.2920   -18.0360     8.1230     8.1070     8.4240   657.4440     8.7910   132.4750     2.5540     0.0190
 2762.0000   642.2920   -18.1190     8.1230     8.0330     8.9330   658.4710     8.7910   130.2670     2.5580     0.0220
 2762.5000   642.2920   -18.2030     8.0110     7.9600     9.5690   659.4970     8.7910   127.4590     2.5700     0.0300
 2763.0000   642.2920   -18.2850     7.9070     7.8860     9.7450   660.5240     8.7910   125.9320     2.5690     0.0290
 2763.5000   642.2920   -18.3690     7.8030     7.8130     9.7450   661.5500     8.7910   126.9190     2.5550     0.0240
 2764.0000   642.2920   -18.4530     7.7000     7.7390     9.3790   662.5770     8.7910   128.0450     2.5500     0.0190
 2764.5000   642.2920   -18.5320     7.5960     7.6660     8.6880   663.6730     8.7910   127.1910     2.5500     0.0180
 2765.0000   642.2920   -18.6270     7.4920     7.5920     7.9970   662.9030     8.7900   125.1940     2.5500     0.0130
 2765.5000   642.2920   -18.5690     7.3890     7.5190     8.3710   661.4660     8.7880   123.3100     2.5390     0.0060
 2766.0000   642.2920   -18.4340     7.2850     7.4450     9.0760   660.0290     8.7860   121.7980     2.5320     0.0030
 2766.5000   642.2920   -18.3040     7.1810     7.3720     9.3970   658.5910     8.7840   122.0790     2.5380     0.0010
 2767.0000   642.2920   -18.1750     7.0780     7.2980     9.0860   657.1540     8.7820   124.1660     2.5430     0.0000
 2767.5000   642.2920   -18.0450     6.9740     7.2240     8.5700   655.7170     8.7800   126.5040     2.5440     0.0030
 2768.0000   642.2920   -17.9130     6.8700     7.1510     8.0540   654.2800     8.7780   128.4720     2.5450     0.0080
 2768.5000   642.2920   -17.7850     6.7710     7.0770     7.5370   653.9430     8.7760   128.9630     2.5530     0.0220
 2769.0000   642.2920   -17.6560     6.7710     7.0220     7.1510   654.5790     8.7740   128.5900     2.5620     0.0330
 2769.5000   642.2920   -17.5150     6.7710     7.0220     7.1510   655.2160     8.7760   127.0510     2.5590     0.0320
 2770.0000   642.2920   -17.4780     6.8170     7.0220     7.6180   655.8530     8.7330   125.2920     2.5560     0.0250
 2770.5000   642.2920   -17.5720     6.8850     7.0220     8.0550   656.4900     8.7360   123.8620     2.5520     0.0160
 2771.0000   642.2920   -17.6530     6.9530     7.0230     8.4920   657.1260     8.7370   123.7650     2.5480     0.0070
 2771.5000   642.2920   -17.7340     7.0210     7.0230     8.9280   657.7630     8.7390   125.4430     2.5420     0.0040
 2772.0000   642.2920   -17.8200     7.0890     7.0220     9.3970   658.4000     8.7420   127.7180     2.5370     0.0060
 2772.5000   642.2920   -17.8450     7.1580     7.0220     9.2650   659.0360     8.7440   128.6600     2.5380     0.0110
 2773.0000   642.2920   -17.8430     7.2260     7.0220     9.0190   659.6730     8.7460   129.0020     2.5430     0.0160
 2773.5000   642.2920   -17.8430     7.2830     7.0220     8.7730   660.3100     8.7480   127.9450     2.5520     0.0180
 2774.0000   642.2920   -17.8430     7.2830     7.0230     8.4240   660.9460     8.7510   125.8750     2.5530     0.0110
 2774.5000   642.2920   -17.8430     7.2830     7.0220     8.4810   661.5830     8.7530   123.1400     2.5510     0.0060
 2775.0000   642.2920   -17.8430     7.2830     7.0220     8.7370   662.2200     8.7550   120.5930     2.5470     0.0050
 2775.5000   642.2920   -17.8430     7.2360     6.9790     8.6960   662.8570     8.7570   120.2920     2.5440     0.0030
 2776.0000   642.2920   -17.8430     7.1890     6.9360     8.5040   663.4930     8.7600   123.3030     2.5490     0.0050
 2776.5000   642.2920   -17.8430     7.1430     6.8940     8.3120   661.8050     8.7620   126.6160     2.5530     0.0080
 2777.0000   642.2920   -17.8440     7.0960     6.8510     8.1200   658.2120     8.7640   129.1860     2.5510     0.0080
 2777.5000   642.2920   -17.8420     7.0500     6.8080     7.9900   654.6190     8.7660   129.2640     2.5400     0.0060
 2778.0000   642.2920   -17.8450     7.0030     6.7650     8.0440   651.0270     8.7690   127.8440     2.5320     0.0040
 2778.5000   642.2920   -17.8410     6.9560     6.7220     8.0970   647.4340     8.7710   126.7580     2.5370     0.0010
 2779.0000   642.2920   -17.8340     6.9100     6.6790     8.1510   643.7130     8.7730   128.1400     2.5430     0.0010
 2779.5000   642.2920   -17.6600     6.7990     6.6090     8.2040   646.1950     8.7750   130.7980     2.5450     0.0010
 2780.0000   642.2920   -17.4540     6.6610     6.4760     8.2580   650.5680     8.7770   132.8870     2.5390    -0.0010
 2780.5000   642.2920   -17.2640     6.5230     6.3430     8.0910   654.9420     8.7800   133.4780     2.5320     0.0000
 2781.0000   642.2920   -17.0840     6.3850     6.2100     7.8410   659.3160     8.7820   134.3110     2.5300     0.0040
 2781.5000   642.2920   -17.3460     6.1820     6.0710     7.5910   663.6730     8.7840   136.4400     2.5320     0.0110
 2782.0000   642.2920   -17.6240     6.1820     5.9610     7.3400   662.5300     8.7860   139.1090     2.5310     0.0210
 2782.5000   642.2920   -17.8430     6.1820     5.9610     7.0210   659.7360     8.7890   142.5210     2.5270     0.0290
 2783.0000   642.2920   -17.8400     6.1820     5.9610     6.1820   656.9420     8.7910   144.2150     2.5230     0.0270
 2783.5000   642.2920   -17.8440     6.1820     5.9610     6.3520   654.1470     8.7800   143.5810     2.5230     0.0180
 2784.0000   642.2920   -17.8430     6.2230     5.9750     6.7760   651.3530     8.7680   141.3020     2.5270     0.0090
 2784.5000   642.2920   -17.8430     6.2910     6.0400     7.2000   648.5580     8.7560   139.2570     2.5330     0.0000
 2785.0000   642.2920   -17.8440     6.3580     6.1050     7.6910   645.7640     8.7440   138.7440     2.5400     0.0000
 2785.5000   642.2920   -17.8430     6.4260     6.1710     7.8330   644.7030     8.7320   137.5460     2.5470     0.0040
 2786.0000   642.2920   -17.8430     6.4950     6.2350     7.7590   648.4290     8.7290   134.7900     2.5500     0.0080
 2786.5000   642.2920   -17.8430     6.5310     6.2960     7.6900   652.1550     8.7270   129.6920     2.5460     0.0100
 2787.0000   642.2920   -17.8430     6.5130     6.2890     7.6200   655.8810     8.7240   128.3710     2.5400     0.0080
 2787.5000   642.2920   -17.8430     6.4870     6.2640     7.5500   659.6070     8.7220   128.0940     2.5390     0.0060
 2788.0000   642.2920   -17.8430     6.4610     6.2390     7.4810   663.6730     8.7190   129.0110     2.5400     0.0040
 2788.5000   642.2920   -17.8430     6.4350     6.2150     7.4110   659.8640     8.7170   129.2720     2.5410     0.0030
