~VERSION INFORMATION
 VERS.                2.0:   CWLS LOG ASCII STANDARD - VERSION 2.0
 WRAP.                 NO:   ONE LINE PER DEPTH STEP
~WELL INFORMATION
#MNEM.UNIT      DATA TYPE    INFORMATION
#----------   ------------   ------------------------------
 STRT.F          728.0000:   START DEPTH
 STOP.F         3296.0000:   STOP DEPTH
 STEP.F            0.5000:   STEP LENGTH
 NULL.          -999.2500:   NO VALUE
 COMP.    FENIX & SCISSON:   COMPANY
 WELL. FENIX TX "AX" #55-34:   WELL
 FLD . N. P. R. - WILDCAT:   FIELD
 LOC .      S34 T39N R78W:   LOCATION
 CNTY.            NATRONA:   COUNTY
 STAT.            WYOMING:   STATE
 CTRY. UNITED STATES OF AMERICA:   COUNTRY
 SRVC.       SCHLUMBERGER:   SERVICE COMPANY
 DATE.        22-JUL-1981:   LOGDATE
 API .     49025108770000:   API NUMBER
~CURVE INFORMATION
#MNEM.UNIT       API CODE    CURVE DESCRIPTION
#----------   ------------   ------------------------------
 DEPT.F                  :   
 TENS.LBS    60 635 01 00:   TENSION FROM SONIC LOG
 DT  .US/F   60 520 00 00:   DELTA TIME
 RHOB.G/C3   45 350 01 00:   BULK DENSITY
 TEND.LBS    45 635 01 00:   TENSION FROM DENSITY LOG
 CORR.G/C3   45 356 01 00:   DENSITY CORRECTION
 CALD.IN     45 280 60 00:   CALIPER FROM DENSITY LOG
 NPHI.DEC    42 890 03 00:   NEUTRON POROSITY SANDSTONE
 TENR.LBS    07 635 01 00:   TENSION FROM RESISTIVITY
 SPR .MV     07 010 01 00:   SPONTANEOUS POTENTIAL
 GRR .GAPI   07 310 01 00:   GAMMA RAY FROM RESISTIVITY
 SFL .OHMM   07 220 01 00:   SHALLOW FOCUSED LOG RESISTIVITY
 ILM .OHMM   07 120 44 00:   INDUCTION LOG MEDIUM RESISTIVITY
 ILD .OHMM   07 120 46 00:   DEEP INDUCTION RESISTIVITY
~PARAMETER INFORMATION
#MNEM.UNIT          VALUE    DESCRIPTION
#----------   ------------   ------------------------------
 EKB .F         5092.0000:   Kelly bushing
 EGL .F         5082.0000:   Ground level
 EDF .F            0.0000:   Drilling floor
 TD  .F         3170.0000:   Total depth
 DATE.        22-JUL-1981:   Date logged
 CLNT.            A2DTECH:   Client Code
 SL  . 2012' FSL & 2774' FWL:   Surface Location
 PD  .                 GL:   Permanent Datum
 EPD .F              5082:   Elevation Permanent Datum
 LMF .                 KB:   Log Measured From
 DMF .                 KB:   Drilling Measured From
 DAPD.F                10:   Feet Above Permanent Datum
 DD  .F              3170:   Depth driller
 DL  .F              3110:   Depth logger
 BLI .F              3104:   Bottom log interval
 TLI .F               753:   Top log interval
 CS1 .IN            9.625:   Casing size
 CBD1.      9.625" @ 751':   Casing driller 1
 CBL1.F               753:   Casing logger 1
 BS1 .IN            7.875:   Bit size
 BSD1.F              3170:   Depth drilled with bit1
 DFT .                FGM:   Type fluid in hole
 DFD .                  9:   Density
 DFV .                  9:   Viscosity
 DFPH.                9.8:   pH
 DFL .                8.6:   Fluid loss
 MSS .           MUD/TANK:   Source of sample
 RMS .OHMM           1.72:   Rm
 MST .F                72:   Rm Meas. temp.
 RMF .OHMM           1.17:   Rmf
 MFST.F                70:   Rmf Meas. temp.
 MFSS.               MEAS:   Source Rmf.
 RMB .OHMM           0.90:   Rm. at BHT
 BHT .F               144:   BHT.
 TCS .HRS            1215:   Time Circ. stopped
 TLAB.HRS            0400:   Time logger at bottom
 MRT .F               144:   Maximum recorded temp.
 LUN .               8035:   Logging unit number
 LUL .               CSPR:   Logging unit location
 ENGI.            PURPICH:   Recorded By
 WITN.           R. SCOTT:   Witnessed by
 ORIG.           5" PRINT:   Origin of data
 UWI .     49025108770000:   Unique Well ID
 DICO. A2D TECHNOLOGIES, INC.:   Digitizing Company
~OTHER INFORMATION
~A   DEPT     TENS         DT         RHOB      TEND      CORR       CALD         NPHI     TENR        SPR         GRR       SFL        ILM        ILD   
# ...
  754.0000  -999.2500  -999.2500     2.6810   719.7070     0.2160     9.2360     0.4290   415.7320   -57.5770    82.1940     0.2240  -999.2500  1740.7440
  754.5000  -999.2500  -999.2500     2.6160   720.5960     0.1930     9.3820     0.4280   415.0220   -72.0340    93.7190     2.3290  -999.2500  1381.2400
  755.0000  -999.2500  -999.2500     2.4980   721.4850     0.1640     9.5340     0.4110   414.3120   -77.5160    97.9290     4.3060  -999.2500  1005.1020
  755.5000  -999.2500  -999.2500     2.3570   722.3750     0.1350     9.6800     0.3960   413.6020   -75.4890   100.0060     6.9600  -999.2500   536.8520
  756.0000  -999.2500  -999.2500     2.3670   723.2640     0.1530     9.8330     0.4020   412.8920   -72.9290   102.0270     9.1280   683.3980    68.6020
  756.5000  -999.2500  -999.2500     2.3970   724.1530     0.1710    10.0030     0.4110   412.1820   -70.3530   103.8940     8.5580   320.2980     2.3480
  757.0000  -999.2500  -999.2500     2.4080   725.0420     0.1800    10.4270     0.4190   411.4720   -68.1620   103.4090     8.0150     8.6290   702.3270
  757.5000  -999.2500  -999.2500     2.4020   725.9320     0.1530    10.9270     0.4060   411.2980   -66.6410    98.9420     7.7390    10.0580  1342.3420
  758.0000  -999.2500  -999.2500     2.3870   726.8210     0.1050    11.3990     0.3950   411.2980   -64.6100    94.4400     8.2950     8.9620  1554.0620
  758.5000  -999.2500  -999.2500     2.3920   727.7100     0.0570    11.9250     0.3800   411.2980   -62.5810    89.9820     9.4570     9.9180  1202.8330
  759.0000  -999.2500  -999.2500     2.4020   728.5990     0.0340    12.0350     0.3830   411.2980   -61.7810    86.5620    10.6190    10.7670   707.4770
  759.5000  -999.2500  -999.2500     2.4380   729.4890     0.0400    12.1350     0.3890   411.2980   -61.2780    87.3960    11.5870    10.4960   212.1210
  760.0000  -999.2500  -999.2500     2.4710   730.3780     0.0430    12.2140     0.3910   411.2980   -61.2670    89.4280    10.5970    10.1290     8.9620
  760.5000  -999.2500  -999.2500     2.4830   731.2670     0.0470    12.2850     0.3830   411.2980   -61.6260    91.4520     9.6450     9.7620     8.3280
  761.0000  -999.2500  -999.2500     2.4930   732.1560     0.0510    12.2850     0.3790   411.2980   -61.9510    92.1480     9.4700     9.3900     8.7210
  761.5000  -999.2500  -999.2500     2.4930   733.0460     0.0530    12.2820     0.3780   411.2980   -62.2770    91.1060    10.2660    27.7200     8.9100
  762.0000  -999.2500  -999.2500     2.4890   733.9350     0.0490    12.2860     0.3770   411.2980   -62.6020    92.6270    11.1360    41.8550     8.9960
  762.5000  -999.2500  -999.2500     2.4830   734.8240     0.0440    12.1490     0.3730   411.2980   -62.9280    96.2950    12.1310    26.5900     9.0450
  763.0000  -999.2500  -999.2500     2.4830   735.7130     0.0410    11.9720     0.3640   418.5400   -63.2530    99.9730    11.6450    10.3790     9.0450
  763.5000  -999.2500  -999.2500     2.4830   736.6030     0.0440    11.8060     0.3530   425.4510   -63.5790   101.9550    10.8540     8.7990     8.9840
  764.0000  -999.2500  -999.2500     2.4850   737.4920     0.0500    11.6290     0.3380   431.1200   -63.9050   102.0940    10.0630     8.7020     8.9280
  764.5000  -999.2500  -999.2500     2.4880   738.3810     0.0560    11.5570     0.3230   434.7800   -64.2300   103.2260     9.2970     8.5980     8.8720
  765.0000  -999.2500  -999.2500     2.4910   739.2710     0.0820    11.5400     0.3170   438.4820   -64.5560   103.8670     9.2120     8.4940     8.8170
  765.5000  -999.2500  -999.2500     2.4910   740.1600     0.1040    11.4970     0.3280   431.1200   -64.8820   101.0570     9.5730     8.4050     8.7190
  766.0000  -999.2500  -999.2500     2.4610   741.0490     0.1290    11.4940     0.3370   430.3900   -65.2070    97.8260     9.9790     8.4580     8.7190
  766.5000  -999.2500  -999.2500     2.3890   741.9380     0.1380    11.3300     0.3460   429.6050   -65.5330    94.6370    10.3790     8.7830     9.0470
  767.0000  -999.2500  -999.2500     2.3060   742.8280     0.1190    11.0070     0.3500   428.8190   -65.8610    93.7420    10.5720     9.1080     9.3840
  767.5000  -999.2500  -999.2500     2.2730   743.7170     0.1020    10.7020     0.3440   428.0340   -65.9840    96.9700    10.5720     9.2120     9.5570
  768.0000  -999.2500  -999.2500     2.2920   744.6060     0.0980    10.3890     0.3320   427.2490   -65.9330   100.1780    10.1910     9.1290     9.4880
  768.5000  -999.2500  -999.2500     2.3180   745.4950     0.1070    10.1180     0.3200   426.4630   -65.8550   102.8340    10.1910     9.0380     9.3940
  769.0000  -999.2500  -999.2500     2.3320   746.3850     0.0990     9.6510     0.3100   425.6780   -65.7850    98.0200    10.7380     8.9460     9.2990
  769.5000  -999.2500  -999.2500     2.3440   747.2740     0.0850     9.1140     0.3090   424.8930   -65.7690    92.0150    10.8670     8.8810     9.2120
  770.0000  -999.2500  -999.2500     2.3560   748.1630     0.0760     9.1550     0.3130   424.1070   -66.5370    87.8060    10.4750     9.0450     9.3830
  770.5000  -999.2500  -999.2500     2.3720   748.9880     0.0830     9.4340     0.3310   423.3220   -67.4490    92.4280    10.6370     9.1860     9.5000
  771.0000  -999.2500  -999.2500     2.3680   747.0650     0.1000     9.7340     0.3460   422.5370   -68.3630    98.1410    11.0080     9.3350     9.6550
  771.5000  -999.2500  -999.2500     2.3580   745.2720     0.1110     9.7770     0.3610   421.7510   -69.1830   103.8960    11.0680     9.4850     9.8090
  772.0000  -999.2500  -999.2500     2.3500   743.4790     0.0870     9.4170     0.2990   420.9660   -69.1590   109.2160    10.8900     9.6450     9.9640
  772.5000  -999.2500  -999.2500     2.3750   741.6860     0.0520     9.0900     0.2950   420.1800   -68.4730   108.4860    10.7500     9.7340    10.0980
  773.0000  -999.2500  -999.2500     2.4290   739.8930     0.0270     8.7010     0.2800   419.3950   -67.7120   106.4530    10.6090     9.8230    10.1910
  773.5000  -999.2500  -999.2500     2.4810   738.1000     0.0330     8.6730     0.2820   418.6100   -67.7320   102.9590    10.4690     9.7170    10.1280
  774.0000  -999.2500  -999.2500     2.5130   736.3070     0.0450     8.6810     0.2880   417.8240   -67.9860    99.4960    10.3290     9.4750     9.8770
  774.5000  -999.2500  -999.2500     2.5310   734.5140     0.0570     8.7560     0.2940   417.0390   -68.3000    96.7670    10.1880     9.2330     9.6260
  775.0000  -999.2500  -999.2500     2.5450   732.7210     0.0660     8.8160     0.2980   416.2540   -68.6210    99.6530    10.0480     8.9910     9.3750
  775.5000  -999.2500  -999.2500     2.5450   730.9280     0.0760     8.8860     0.3030   415.4680   -69.0340   106.2980     9.9140     8.7490     9.1240
  776.0000  -999.2500  -999.2500     2.5410   729.1350     0.0830     8.9150     0.3200   414.6830   -69.2950   112.8760     9.8120     8.5070     8.8730
  776.5000  -999.2500  -999.2500     2.5270   727.3420     0.0760     8.9010     0.3210   413.8980   -69.5500   116.6770     9.6580     8.4050     8.7190
  777.0000  -999.2500  -999.2500     2.5110   725.5490     0.0580     8.8710     0.3170   413.1120   -69.8050   113.1120     9.5030     8.4730     8.7660
  777.5000  -999.2500  -999.2500     2.4950   723.7570     0.0400     8.8470     0.3070   412.3270   -70.0690   109.5090     9.3830     8.5960     8.8930
  778.0000  -999.2500  -999.2500     2.4780   721.9640     0.0220     8.7980     0.2990   411.5420   -70.3920   105.9900     9.3830     8.7190     9.0450
  778.5000  -999.2500  -999.2500     2.4670   720.1710     0.0080     8.7910     0.2910   411.2980   -70.7330   106.8460     9.4560     8.7190     9.0450
  779.0000  -999.2500  -999.2500     2.4770   718.3780     0.0120     8.7930     0.2830   417.1480   -71.0410   109.5520     9.5380     8.6220     8.9790
  779.5000  -999.2500  -999.2500     2.4930   716.5850     0.0220     8.7980     0.2930   423.4690   -70.8770   112.2020     9.5570     8.4900     8.8570
