~VERSION INFORMATION
 VERS.                2.0:   CWLS LOG ASCII STANDARD - VERSION 2.0
 WRAP.                 NO:   ONE LINE PER DEPTH STEP
~WELL INFORMATION
#MNEM.UNIT      DATA TYPE    INFORMATION
#----------   ------------   ------------------------------
 STRT.F            0.0000:   START DEPTH
 STOP.F         3083.0000:   STOP DEPTH
 STEP.F            0.5000:   STEP LENGTH
 NULL.          -999.2500:   NO VALUE
 COMP. LAWRENCE & ALLISON & ASSOCIATES:   COMPANY
 WELL. LAWRENCE 71 "AX" #3-29:   WELL
 FLD .              N P R:   FIELD
 LOC .      S29 T38N R78W:   LOCATION
 CNTY.            NATRONA:   COUNTY
 STAT.            WYOMING:   STATE
 CTRY. UNITED STATES OF AMERICA:   COUNTRY
 SRVC.      DRESSER ATLAS:   SERVICE COMPANY
 DATE.        12-MAR-1985:   LOGDATE
 API .     49025110160000:   API NUMBER
~CURVE INFORMATION
#MNEM.UNIT       API CODE    CURVE DESCRIPTION
#----------   ------------   ------------------------------
 DEPT.F                  :   
 GRR .GAPI   07 310 01 00:   GAMMA RAY FROM RESISTIVITY
 SPR .MV     07 010 01 00:   SPONTANEOUS POTENTIAL
 TENR.LBS    07 635 01 00:   TENSION FROM RESISTIVITY
 RFOC.OHMM   07 220 04 00:   RESISTIVITY FOCUSED LOG RES.
 RILD.OHMM   07 120 46 00:   DEEP INDUCTION RESISTIVITY
 RILM.OHMM   07 120 44 00:   INDUCTION LOG MEDIUM RESISTIVITY
 TEND.LBS    45 635 01 00:   TENSION FROM DENSITY LOG
 DEN .G/C3   45 350 01 00:   BULK DENSITY
 CORR.G/C3   45 356 01 00:   DENSITY CORRECTION
 CNC .DEC    42 890 01 00:   NEUTRON PORISITY LIMESTONE
 CALD.IN     45 280 60 00:   CALIPER FROM DENSITY LOG
~PARAMETER INFORMATION
#MNEM.UNIT          VALUE    DESCRIPTION
#----------   ------------   ------------------------------
 EKB .F         4983.0000:   Kelly bushing
 EGL .F         4971.0000:   Ground level
 TD  .F         3082.0000:   Total depth
 DATE.        12-MAR-1985:   Date logged
 CLNT.            A2DTECH:   Client Code
 SL  . 568' FNL AND 829' FEL:   Surface Location
 PD  .                 GL:   Permanent Datum
 EPD .F              4971:   Elevation Permanent Datum
 LMF .                 KB:   Log Measured From
 DMF .                 KB:   Drilling Measured From
 DD  .F              3080:   Depth driller
 DL  .F              3082:   Depth logger
 BLI .F              3080:   Bottom log interval
 TLI .F              2100:   Top log interval
 CS1 .IN            8.625:   Casing size
 CBD1.      8.625" @ 311':   Casing driller 1
 BS1 .IN            7.875:   Bit size
 DFT .            KCL GEL:   Type fluid in hole
 DFD .                9.1:   Density
 DFV .                 38:   Viscosity
 DFPH.                  8:   pH
 DFL .               10.4:   Fluid loss
 MSS .           FLOWLINE:   Source of sample
 RMS .OHMM            .47:   Rm
 MST .F                60:   Rm Meas. temp.
 RMF .OHMM            .35:   Rmf
 MFST.F                61:   Rmf Meas. temp.
 RMC .OHMM            .53:   Rmc
 MCST.F                61:   Rmc Meas. temp.
 MFSS.               CLAC:   Source Rmf.
 RMB .OHMM           .209:   Rm. at BHT
 BHT .F               134:   BHT.
 TCS .HRS               3:   Time Circ. stopped
 MRT .F               134:   Maximum recorded temp.
 LUN .               6234:   Logging unit number
 LUL .               CLTE:   Logging unit location
 ENGI.      MACK/ EDWARDS:   Recorded By
 WITN.             STRONG:   Witnessed by
 PWI .                  -:   Primary Well Identifier
 ORIG.           5" PRINT:   Origin of data
 UWI .     49025110160000:   Unique Well ID
 DICO. A2D TECHNOLOGIES, INC.:   Digitizing Company
 DAPD.F                12:   Feet Above Permanent Datum
 BSD1.F              3080:   Depth drilled with bit1
 MCSS.               CALC:   Source Rmc.
~OTHER INFORMATION
~A    DEPT      GRR       SPR       TENR       RFOC       RILD       RILM       TEND        DEN       CORR        CNC       CALD   
# ...
 1067.5000    94.6480   -47.4500   -74.2950     7.9100     7.0490     6.9200  -999.2500  -999.2500  -999.2500  -999.2500  -999.2500
 1068.0000    93.8610   -47.5740   -74.2270     7.8530     7.0010     6.8460  -999.2500  -999.2500  -999.2500  -999.2500  -999.2500
 1068.5000    93.6230   -47.6970   -74.1590     7.7970     6.9530     6.6840  -999.2500  -999.2500  -999.2500  -999.2500  -999.2500
 1069.0000    93.8650   -47.8200   -74.0910     7.5970     6.9130     6.5640  -999.2500  -999.2500  -999.2500  -999.2500  -999.2500
 1069.5000    94.0960   -47.9440   -74.0230     7.3510     6.9550     6.4810  -999.2500  -999.2500  -999.2500  -999.2500  -999.2500
 1070.0000    94.0060   -48.0670   -73.9550     7.0400     6.9910     6.4690  -999.2500  -999.2500  -999.2500  -999.2500  -999.2500
 1070.5000    93.1280   -48.3010   -73.8870     7.0650     7.0280     6.4570  -999.2500  -999.2500  -999.2500  -999.2500  -999.2500
 1071.0000    93.7660   -48.6280   -73.8200     7.0980     7.0640     6.4440  -999.2500  -999.2500  -999.2500  -999.2500  -999.2500
 1071.5000    94.2540   -48.9560   -73.7520     7.1320     7.1010     6.4260  -999.2500  -999.2500  -999.2500  -999.2500  -999.2500
 1072.0000    93.3630   -49.2780   -73.6840     7.1650     7.1370     6.4450  -999.2500  -999.2500  -999.2500  -999.2500  -999.2500
 1072.5000    91.5990   -49.4040   -73.6160     7.1990     7.1650     6.4800  -999.2500  -999.2500  -999.2500  -999.2500  -999.2500
 1073.0000    93.4570   -49.0170   -73.5480     7.2350     7.1310     6.5160  -999.2500  -999.2500  -999.2500  -999.2500  -999.2500
 1073.5000    96.5070   -48.6480   -73.4800     7.2540     7.0960     6.5510  -999.2500  -999.2500  -999.2500  -999.2500  -999.2500
 1074.0000    96.2620   -48.3100   -73.4120     7.3120     7.0620     6.6050  -999.2500  -999.2500  -999.2500  -999.2500  -999.2500
 1074.5000    92.0680   -48.1980   -73.3440     7.3710     7.0280     6.5690  -999.2500  -999.2500  -999.2500  -999.2500  -999.2500
 1075.0000    89.9520   -48.0900   -73.2760     7.4360     6.9930     6.5000  -999.2500  -999.2500  -999.2500  -999.2500  -999.2500
 1075.5000    90.7860   -47.9800   -73.2080     7.3510     6.9760     6.4310  -999.2500  -999.2500  -999.2500  -999.2500  -999.2500
 1076.0000    91.4240   -47.8710   -73.1400     7.2570     7.0020     6.3680  -999.2500  -999.2500  -999.2500  -999.2500  -999.2500
 1076.5000    89.4350   -47.7620   -73.0730     7.1640     7.0220     6.4620  -999.2500  -999.2500  -999.2500  -999.2500  -999.2500
 1077.0000    86.3310   -47.6530   -73.0050     7.0400     7.0420     6.5470  -999.2500  -999.2500  -999.2500  -999.2500  -999.2500
 1077.5000    83.6070   -47.5430   -72.9370     7.1390     7.0620     6.6330  -999.2500  -999.2500  -999.2500  -999.2500  -999.2500
 1078.0000    84.9240   -47.3790   -72.8690     7.2830     7.0820     6.7190  -999.2500  -999.2500  -999.2500  -999.2500  -999.2500
 1078.5000    86.8990   -47.3600   -72.8010     7.4280     7.1020     6.8050  -999.2500  -999.2500  -999.2500  -999.2500  -999.2500
 1079.0000    87.4270   -47.3980   -72.7330     7.5730     7.1220     6.8910  -999.2500  -999.2500  -999.2500  -999.2500  -999.2500
 1079.5000    84.1440   -47.4370   -72.6650     7.7170     7.1430     6.9760  -999.2500  -999.2500  -999.2500  -999.2500  -999.2500
 1080.0000    83.0300   -47.4770   -72.5970     7.8620     7.1690     7.0400  -999.2500  -999.2500  -999.2500  -999.2500  -999.2500
 1080.5000    88.6400   -47.5140   -72.5290     7.9990     7.1570     6.9940  -999.2500  -999.2500  -999.2500  -999.2500  -999.2500
 1081.0000    93.8060   -47.7390   -72.4610     7.9990     7.1380     6.9580  -999.2500  -999.2500  -999.2500  -999.2500  -999.2500
 1081.5000    92.6340   -48.0550   -72.3930     7.9990     7.1180     6.9210  -999.2500  -999.2500  -999.2500  -999.2500  -999.2500
 1082.0000    89.6750   -48.3720   -72.3260     7.9750     7.0990     6.8850  -999.2500  -999.2500  -999.2500  -999.2500  -999.2500
 1082.5000    86.7550   -48.6900   -72.2580     7.8770     7.0800     6.8500  -999.2500  -999.2500  -999.2500  -999.2500  -999.2500
 1083.0000    84.0480   -49.0090   -72.1900     7.7830     7.0600     6.8500  -999.2500  -999.2500  -999.2500  -999.2500  -999.2500
 1083.5000    83.5980   -49.3240   -72.1220     7.6040     7.0410     6.8500  -999.2500  -999.2500  -999.2500  -999.2500  -999.2500
 1084.0000    85.8110   -49.6690   -72.0540     7.3680     7.0220     6.8500  -999.2500  -999.2500  -999.2500  -999.2500  -999.2500
 1084.5000    87.9420   -49.9010   -71.9860     7.4640     7.0030     6.8500  -999.2500  -999.2500  -999.2500  -999.2500  -999.2500
 1085.0000    88.7050   -49.6920   -71.9180     7.6880     6.9780     6.8500  -999.2500  -999.2500  -999.2500  -999.2500  -999.2500
 1085.5000    88.2390   -49.1990   -71.8500     7.9850     6.9880     6.8440  -999.2500  -999.2500  -999.2500  -999.2500  -999.2500
 1086.0000    87.3650   -48.7120   -71.7820     7.9250     7.0080     6.8140  -999.2500  -999.2500  -999.2500  -999.2500  -999.2500
 1086.5000    86.0010   -48.3080   -71.7140     7.8070     7.0400     6.7850  -999.2500  -999.2500  -999.2500  -999.2500  -999.2500
 1087.0000    85.8260   -48.3200   -71.6460     7.7120     7.0180     6.7550  -999.2500  -999.2500  -999.2500  -999.2500  -999.2500
 1087.5000    85.6870   -48.3240   -71.5790     8.0470     6.9630     6.7260  -999.2500  -999.2500  -999.2500  -999.2500  -999.2500
 1088.0000    85.6560   -48.2210   -71.5110     8.4480     6.9080     6.5770  -999.2500  -999.2500  -999.2500  -999.2500  -999.2500
 1088.5000    88.4940   -48.0990   -71.4430     8.0850     6.8530     6.3680  -999.2500  -999.2500  -999.2500  -999.2500  -999.2500
 1089.0000    91.4710   -47.9760   -71.3750     7.4740     6.7980     6.3870  -999.2500  -999.2500  -999.2500  -999.2500  -999.2500
 1089.5000    92.4250   -47.8510   -71.3070     6.9760     6.7440     6.4200  -999.2500  -999.2500  -999.2500  -999.2500  -999.2500
 1090.0000    91.0620   -47.7370   -71.2390     7.0730     6.6890     6.4520  -999.2500  -999.2500  -999.2500  -999.2500  -999.2500
 1090.5000    89.9560   -47.9160   -71.1710     7.1550     6.6340     6.4850  -999.2500  -999.2500  -999.2500  -999.2500  -999.2500
 1091.0000    90.4370   -47.9740   -71.1030     7.2360     6.5790     6.4350  -999.2500  -999.2500  -999.2500  -999.2500  -999.2500
 1091.5000    91.0180   -48.0320   -71.0350     7.3180     6.5450     6.3840  -999.2500  -999.2500  -999.2500  -999.2500  -999.2500
 1092.0000    92.6360   -48.0950   -70.9670     7.4360     6.5500     6.3330  -999.2500  -999.2500  -999.2500  -999.2500  -999.2500
 1092.5000    95.7620   -47.8710   -70.8990     7.3860     6.5550     6.3100  -999.2500  -999.2500  -999.2500  -999.2500  -999.2500
 1093.0000    98.8910   -47.4180   -70.8320     7.2980     6.5590     6.3100  -999.2500  -999.2500  -999.2500  -999.2500  -999.2500
 1093.5000    98.1350   -47.7090   -70.7640     7.2090     6.5630     6.3190  -999.2500  -999.2500  -999.2500  -999.2500  -999.2500
 1094.0000    94.8870   -48.1950   -70.6960     7.1690     6.5670     6.3300  -999.2500  -999.2500  -999.2500  -999.2500  -999.2500
 1094.5000    91.6280   -48.6880   -70.6280     7.1690     6.5710     6.3410  -999.2500  -999.2500  -999.2500  -999.2500  -999.2500
 1095.0000    91.7590   -49.1160   -70.5600     7.1040     6.5760     6.3530  -999.2500  -999.2500  -999.2500  -999.2500  -999.2500
 1095.5000    93.7220   -49.2850   -70.4920     7.1200     6.5800     6.3640  -999.2500  -999.2500  -999.2500  -999.2500  -999.2500
 1096.0000    94.7970   -49.4680   -70.4240     7.1500     6.5840     6.3750  -999.2500  -999.2500  -999.2500  -999.2500  -999.2500
 1096.5000    93.3520   -49.6630   -70.3560     7.1800     6.5880     6.3870  -999.2500  -999.2500  -999.2500  -999.2500  -999.2500
 1097.0000    89.8530   -49.4770   -70.2880     7.2100     6.5920     6.3980  -999.2500  -999.2500  -999.2500  -999.2500  -999.2500
 1097.5000    87.6100   -49.1730   -70.2200     7.2390     6.5970     6.4090  -999.2500  -999.2500  -999.2500  -999.2500  -999.2500
