~VERSION INFORMATION
 VERS.                2.0:   CWLS LOG ASCII STANDARD - VERSION 2.0
 WRAP.                 NO:   ONE LINE PER DEPTH STEP
~WELL INFORMATION
#MNEM.UNIT      DATA TYPE    INFORMATION
#----------   ------------   ------------------------------
 STRT.F            0.5000:   START DEPTH
 STOP.F         4256.0000:   STOP DEPTH
 STEP.F            0.5000:   STEP LENGTH
 NULL.          -999.2500:   NO VALUE
 COMP. LAWRENCE-ALLISON & ASSOC:   COMPANY
 WELL. LAWRENCE "X" #64-15:   WELL
 FLD .        N.P.R. NO.3:   FIELD
 LOC .      S15 T38N R78W:   LOCATION
 CNTY.            NATRONA:   COUNTY
 STAT.            WYOMING:   STATE
 CTRY. UNITED STATES OF AMERICA:   COUNTRY
 SRVC.      DRESSER ATLAS:   SERVICE COMPANY
 DATE.        13-SEP-1984:   LOGDATE
 API .     49025111610000:   API NUMBER
~CURVE INFORMATION
#MNEM.UNIT       API CODE    CURVE DESCRIPTION
#----------   ------------   ------------------------------
 DEPT.F                  :   
 TENR.LBS    07 635 01 00:   TENSION FROM RESISTIVITY
 GRR .GAPI   07 310 01 00:   GAMMA RAY FROM RESISTIVITY
 RFOC.OHMM   07 220 04 00:   RESISTIVITY FOCUSED LOG RES.
 RILD.OHMM   07 120 46 00:   DEEP INDUCTION RESISTIVITY
 RILM.OHMM   07 120 44 00:   INDUCTION LOG MEDIUM RESISTIVITY
 SPR .MV     07 010 01 00:   SPONTANEOUS POTENTIAL
 DT  .US/F   60 520 00 00:   DELTA TIME
 TENS.LBS    60 635 01 00:   TENSION FROM SONIC
 CALD.IN     45 280 60 00:   CALIPER FROM DENSITY LOG
 TEND.LBS    45 635 01 00:   TENSION FORM DENSITY LOG
 CORR.G/C3   45 356 01 00:   DENSITY CORRECTION
 DEN .G/C3   45 350 01 00:   BULK DENSITY
 CNC .DEC    42 890 03 00:   NEUTRON POROSITY SANDSTONE
~PARAMETER INFORMATION
#MNEM.UNIT          VALUE    DESCRIPTION
#----------   ------------   ------------------------------
 EKB .F         5294.0000:   Kelly bushing
 EGL .F         5282.0000:   Ground level
 TD  .F         4256.0000:   Total depth
 CLNT.            A2DTECH:   Client Code
 SL  . 2299' FNL & 1785' FEL:   Surface Location
 PD  .                 GL:   Permanent Datum
 EPD .F              5282:   Elevation Permanent Datum
 LMF .                 KB:   Log Measured From
 DMF .                 KB:   Drilling Measured From
 DAPD.F                12:   Feet Above Permanent Datum
 DATE.        13-SEP-1984:   Date Logged [DD-MMM-YYYY]
 DD  .F              4256:   Depth driller
 DL  .F              4248:   Depth logger
 BLI .F              4246:   Bottom log interval
 TLI .F                 0:   Top log interval
 CS1 .IN            8.625:   Casing size
 CBD1.      8.625" @ 817':   Casing driller 1
 CBL1.F               814:   Casing logger 1
 BS1 .IN            7.875:   Bit size
 BSD1.F              4256:   Depth drilled with bit1
 DFT .            KCL-GEL:   Type fluid in hole
 DFD .                  9:   Density
 DFV .                 40:   Viscosity
 DFPH.                8.6:   pH
 DFL .               11.8:   Fluid loss
 MSS .            MUDTANK:   Source of sample
 RMS .OHMM           0.38:   Rm
 MST .F                74:   Rm Meas. temp.
 RMF .OHMM           0.31:   Rmf
 MFST.F                72:   Rmf Meas. temp.
 MFSS.               MEAS:   Source Rmf.
 RMC .OHMM           0.48:   Rmc
 MCST.F                74:   Rmc Meas. temp.
 MCSS.               CALC:   Source Rmc.
 RMB .OHMM           0.22:   Rm. at BHT
 BHT .F               134:   BHT.
 TCS .HRS               4:   Time Circ. stopped
 MRT .F               134:   Maximum recorded temp.
 LUN .            HL-6274:   Logging unit number
 LUL .           GILLETTE:   Logging unit location
 ENGI.             RAUTIO:   Recorded By
 WITN.            JOHNSON:   Witnessed by
 ORIG.        2" 5" PRINT:   Origin of data
 UWI .     49025111610000:   Unique Well ID
 DICO. A2D TECHNOLOGIES, INC.:   Digitizing Company
~OTHER INFORMATION
~A    DEPT    TENR         GRR      RFOC       RILD       RILM        SPR         DT       TENS       CALD       TEND       CORR        DEN        CNC   
# ...
 3068.5000   -75.0000   118.5850     7.1820     6.2104     6.0885   -41.0670    88.1514   -55.7769     9.1100   -26.0194     0.0345     2.5415     0.2834
 3069.0000   -74.0533   118.8959     7.2337     6.2888     6.1733   -41.3691    87.2471   -65.7371     9.1100   -25.0845     0.0330     2.5431     0.2732
 3069.5000   -72.9378   119.5088     7.3871     6.3318     6.2669   -41.5204    87.0947   -65.7371     9.1100   -25.8964     0.0466     2.5536     0.2647
 3070.0000   -71.8222   119.2112     7.5961     6.3310     6.3465   -41.6718    87.2427   -65.7371     9.1099   -15.1892     0.0390     2.5635     0.2605
 3070.5000   -70.7067   117.3961     7.7036     6.3304     6.3905   -41.9737    87.4660   -65.7371     9.1093   -15.9363     0.0284     2.5658     0.2611
 3071.0000   -69.5911   114.6402     7.7583     6.2427     6.1733   -41.9744    87.5389   -55.7769     9.1137    -5.9761     0.0254     2.5530     0.2677
 3071.5000   -68.4756   113.7661     7.5483     6.1990     6.0466   -42.1258    87.6864   -55.7769     9.1488   -15.9363     0.0284     2.5477     0.2713
 3072.0000   -67.3600   116.2014     7.4063     6.1131     6.0049   -42.1265    88.2102   -55.7769     9.1499   -31.5073     0.0405     2.5493     0.2719
 3072.5000   -66.2426   118.0282     7.2223     6.0275     6.0049   -42.2779    88.9593   -55.7769     9.1501   -45.8167     0.0543     2.5539     0.2695
 3073.0000   -65.1254   119.5516     7.0965     5.9800     6.0049   -42.4292    89.5582   -55.7769     9.1500   -45.8167     0.0646     2.5569     0.2698
 3073.5000   -64.9989   117.4331     7.0490     5.9031     5.9635   -42.5807    89.8565   -55.7769     9.1500   -35.8566     0.0691     2.5584     0.2770
 3074.0000   -65.0000   113.7971     7.0018     5.8213     5.9635   -42.5814    90.1548   -55.7769     9.1500   -35.8566     0.0751     2.5539     0.2839
 3074.5000   -65.0000   111.3751     6.9552     5.7011     5.8786   -42.5822    90.2278   -55.7769     9.1500   -35.8566     0.0766     2.5464     0.2797
 3075.0000   -65.0000   112.5950     6.9083     5.4685     5.7476   -42.7335    90.2250   -55.7769     9.1500   -45.8167     0.0751     2.5389     0.2683
 3075.5000   -65.0000   116.2665     6.8620     5.3186     5.5268   -42.7342    90.1477   -55.7769     9.1500   -55.7769     0.0509     2.5374     0.2665
 3076.0000   -65.0000   119.8907     6.8637     5.2087     5.3760   -42.7350    90.0704   -55.7769     9.1500   -30.1129     0.0449     2.5414     0.2821
 3076.5000   -65.0000   119.8979     6.8174     5.1722     5.3022   -42.8863    90.0682   -55.7769     9.1500   -35.8566     0.0418     2.5480     0.2845
 3077.0000   -65.0000   120.5108     6.8191     5.1360     5.1933   -42.8870    90.5168   -55.7769     9.1500   -35.8566     0.0401     2.5496     0.2845
 3077.5000   -65.0000   122.3377     6.7263     5.1000     5.1933   -42.8878    91.1157   -55.7769     9.1500   -35.8566     0.0388     2.5503     0.2857
 3078.0000   -65.0000   126.2889     6.5442     5.0994     5.1575   -42.8887    91.7226   -65.7371     9.1500   -39.5845     0.0463     2.5451     0.2935
 3078.5000   -65.0000   129.6333     6.3228     5.0989     5.1575   -42.7386    92.1009   -55.7769     9.1491   -45.8167     0.0674     2.5406     0.2911
 3079.0000   -65.0000   130.8531     6.1446     5.0632     5.1575   -42.5890    92.0853   -55.7769     9.1478   -35.8566     0.0780     2.5391     0.2785
 3079.5000   -65.0000   130.8590     5.9845     5.0980     5.1933   -42.5897    91.7074   -55.7769     9.1466   -25.8964     0.0553     2.5376     0.2731
 3080.0000   -65.0000   129.6510     6.6412     5.1684     5.2293   -42.5904    91.3296   -65.7371     9.1453   -35.8566     0.0432     2.5331     0.2839
 3080.5000   -85.0000   121.0608     6.8292     5.2039     5.2714   -42.2900    91.2523   -55.7769     9.1441   -35.8566     0.0327     2.5226     0.2839
 3081.0000   -85.0000   119.6476     6.8780     5.3125     5.3390   -42.1401    91.2501   -55.7769     9.1428   -25.8964     0.0281     2.5181     0.2648
 3081.5000   -85.0000   122.6899     6.7380     5.3861     5.4133   -42.1408    91.1727   -56.2672     9.1416   -25.8964     0.0283     2.5196     0.2491
 3082.0000   -84.7443   124.5168     6.6925     5.4986     5.5268   -41.9909    91.0944   -65.4561     9.1403   -21.8459     0.0341     2.5227     0.2539
 3082.5000   -83.0984   123.6122     6.6942     5.6134     5.6426   -41.9919    90.6976   -65.3655     9.1390   -35.8566     0.0386     2.5227     0.2623
 3083.0000   -81.4525   119.9762     6.8836     5.6910     5.7609   -41.9926    90.1889   -57.0635     9.1378   -25.8964     0.0432     2.5190     0.2641
 3083.5000   -79.8066   113.6089     7.0784     5.7699     5.8009   -41.9933    89.9613   -55.7769     9.1365   -25.8964     0.0220     2.5092     0.2638
 3084.0000   -78.1607   111.4901     7.2284     5.8094     5.8411   -42.5965    89.6586   -52.0916     9.1353   -25.8964     0.0129     2.5047     0.2647
 3084.5000   -76.5148   111.4962     7.2299     5.8492     5.9225   -42.7478    89.2808   -45.8167     9.1340   -25.8964     0.0084     2.5123     0.2671
 3085.0000   -74.8689   111.8058     7.1323     5.8893     5.8816   -43.0497    88.9781   -55.7769     9.1328   -25.8822     0.0265     2.5319     0.2683
 3085.5000   -73.2230   109.9921     7.0356     5.9295     5.8389   -43.2011    88.8256   -55.7769     9.1314   -25.9178     0.0402     2.5440     0.2689
 3086.0000   -71.5770   107.2666     6.9399     5.9700     5.8009   -43.2018    88.6732   -53.4861     9.1299   -30.0292     0.0431     2.5478     0.2658
 3086.5000   -69.9311   106.3606     6.9416     6.0140     5.8411   -43.3532    88.5958   -45.7867     9.1350   -35.8566     0.0340     2.5396     0.2634
 3087.0000   -68.2837   107.5819     7.0399     6.0941     5.8411   -43.5047    88.7434   -45.7932     9.1468   -35.8566     0.0310     2.5215     0.2652
 3087.5000   -66.6203   108.8018     7.0902     6.1359     5.8816   -43.5054    88.7412   -45.7975     9.1432   -35.8566     0.0309     2.5185     0.2652
 3088.0000   -65.0000   107.8972     7.0917     6.1351     5.9635   -43.3554    88.3633   -48.0383     9.1387   -41.2486     0.0355     2.5215     0.2610
 3088.5000   -65.0000   106.3857     7.0931     6.0921     6.0049   -43.3563    87.7601   -55.6998     9.1343   -35.0641     0.0339     2.5231     0.2538
 3089.0000   -81.2400   105.1776     7.0946     5.9663     6.0466   -43.3570    87.1569   -55.7270     9.1299   -26.3177     0.0339     2.5254     0.2475
 3089.5000   -84.7230   105.4871     7.5587     5.9245     6.0049   -43.2071    86.6288   -55.7769     9.1256   -26.1818     0.0399     2.5269     0.2466
 3090.0000   -84.5027   107.1636     7.9365     5.8661     5.9635   -43.2079    86.3260   -65.7371     9.1212   -35.5668     0.0491     2.5292     0.2526
 3090.5000   -84.2064   111.5701     8.0976     5.8015     5.8411   -43.2086    86.1736   -65.7371     9.1169   -35.8707     0.0565     2.5383     0.2556
 3091.0000   -83.9155   114.3074     7.3001     5.6816     5.7609   -43.2093    86.7492   -55.7769     9.1125   -35.8566     0.0610     2.5489     0.2571
 3091.5000   -83.6310   116.4378     6.8604     5.6029     5.6818   -43.2101    88.3475   -65.7371     9.1081   -35.8566     0.0489     2.5610     0.2592
 3092.0000   -83.3466   118.2646     6.7204     5.5252     5.6451   -43.2110    88.9463   -65.7371     9.1038   -37.5236     0.0399     2.5565     0.2605
 3092.5000   -83.0622   120.0915     6.8632     5.4866     5.5987   -43.2117    89.6203   -65.7371     9.0994   -40.1552     0.0383     2.5421     0.2658
 3093.0000   -82.7777   119.1869     6.9123     5.5242     5.5522   -43.2124    90.2192   -65.7371     9.0950   -42.7867     0.0429     2.5407     0.2739
 3093.5000   -82.4933   116.7649     6.6784     5.5620     5.5058   -43.2132    90.5181   -65.7371     9.0906   -45.4183     0.0549     2.5460     0.2760
 3094.0000   -82.2088   114.0188     6.4973     5.6001     5.4887   -43.2139    90.5985   -55.7769     9.0900   -57.1429     0.0640     2.5528     0.2622
