~VERSION INFORMATION
 VERS.                2.0:   CWLS LOG ASCII STANDARD - VERSION 2.0
 WRAP.                 NO:   ONE LINE PER DEPTH STEP
~WELL INFORMATION
#MNEM.UNIT      DATA TYPE    INFORMATION
#----------   ------------   ------------------------------
 STRT.F          500.0000:   START DEPTH
 STOP.F         4646.0000:   STOP DEPTH
 STEP.F            0.5000:   STEP LENGTH
 NULL.          -999.2500:   NO VALUE
 COMP.    FENIX & SCISSON:   COMPANY
 WELL. LAWRENCE NPR 3 "X" #34-10:   WELL
 FLD .                NPR:   FIELD
 LOC .      S10 T38N R78W:   LOCATION
 CNTY.            NATRONA:   COUNTY
 STAT.            WYOMING:   STATE
 CTRY. UNITED STATES OF AMERICA:   COUNTRY
 SRVC.              WELEX:   SERVICE COMPANY
 DATE.        12-OCT-1979:   LOGDATE
 API .     49025109290000:   API NUMBER
~CURVE INFORMATION
#MNEM.UNIT       API CODE    CURVE DESCRIPTION
#----------   ------------   ------------------------------
 DEPT.F                  :   
 SPR .MV     07 010 01 00:   SPONTANEOUS POTENTIAL
 SGRD.OHMM   07 220 05 00:   SHALLOW GUARD LOG RESISTIVITY
 ILD .OHMM   07 120 46 00:   DEEP INDUCTION RESISTIVITY
 ILM .OHMM   07 120 44 00:   INDUCTION LOG MEDIUM RESISTIVITY
 TEND.LBS    45 635 01 00:   TENSION FROM DENSITY LOG
 CORR.G/C3   45 356 01 00:   DENSITY CORRECTION
 RHOB.G/C3   45 350 01 00:   BULK DENSITY
 NPHI.DEC    42 890 03 00:   NEUTRON POROSITY SANDSTONE
 GRD .GAPI   45 310 01 00:   GAMMA RAY FROM DENSITY LOG
 CALD.IN     45 280 60 00:   CALIPER FROM DENSITY LOG
~PARAMETER INFORMATION
#MNEM.UNIT          VALUE    DESCRIPTION
#----------   ------------   ------------------------------
 EKB .F         5234.0000:   Kelly bushing
 EGL .F         5224.0000:   Ground level
 EDF .F            0.0000:   Drilling floor
 TD  .F         4650.0000:   Total depth
 DATE.        12-OCT-1979:   Date logged
 CLNT.            A2DTECH:   Client Code
 SL  . 2055' FNL & 1509' FWL:   Surface Location
 PD  .                 GL:   Permanent Datum
 DD  .F              4650:   Depth driller
 DL  .F              4646:   Depth logger
 BLI .F              4644:   Bottom log interval
 CS1 .IN              500:   Casing size
 CBD1.      8.625" @ 500':   Casing driller 1
 CBL1.F               502:   Casing logger 1
 BS1 .IN            7.875:   Bit size
 DFT .           CHEM/GEL:   Type fluid in hole
 DFD .                8.8:   Density
 DFV .                 62:   Viscosity
 DFPH.               11.2:   pH
 DFL .                4.5:   Fluid loss
 MSS .            MUD/PIT:   Source of sample
 RMS .OHMM           1.18:   Rm
 MST .F                60:   Rm Meas. temp.
 RMF .OHMM            .94:   Rmf
 MFST.F                60:   Rmf Meas. temp.
 RMC .OHMM           1.41:   Rmc
 MCST.F                60:   Rmc Meas. temp.
 MFSS.               MEAS:   Source Rmf.
 RMB .OHMM            .81:   Rm. at BHT
 BHT .F                87:   BHT.
 TCS .HRS               2:   Time Circ. stopped
 MRT .F                87:   Maximum recorded temp.
 LUN .               1892:   Logging unit number
 LUL .             CASPER:   Logging unit location
 ENGI.               REIN:   Recorded By
 WITN.           DINSMORE:   Witnessed by
 ORIG.           5" PRINT:   Origin of data
 UWI .     49025109290000:   Unique Well ID
 DICO. A2D TECHNOLOGIES, INC.:   Digitizing Company
 DAPD.                 10:   Feet Above Permanent Datum
 BSD1.F              4650:   Depth drilled with bit1
 MCSS.               MEAS:   Source Rmc.
 EPD .F              5224:   Elevation Permanent Datum
 LMF .                 KB:   Log Measured From
 DMF .                 KB:   Drilling Measured From
 TLI .F               500:   Top log interval
~OTHER INFORMATION
~A   DEPT      SPR         SGRD      ILD         ILM      TEND         CORR       RHOB       NPHI       GRD        CALD 
  500.0000  -999.2500     0.6480   104.1710    17.5780  1451.4510     0.0030     2.0030     0.2010    51.2970     8.4650
  500.5000    -1.2970     0.7640   104.1710    17.5780  1444.7760    -0.0050     2.0030     0.2010    51.2970     8.4650
  501.0000    -7.5030     1.0290   104.1710    17.5780  1435.4210    -0.0290     2.0030     0.2010    51.8990     8.4650
  501.5000   -11.8640     1.7260   105.1380    17.7450  1432.4170    -0.0480     2.0050     0.2010    53.2480     8.4650
  502.0000   -16.3290     3.8730   104.1710    17.5780  1435.0560    -0.0780     2.0030     0.2010    54.9420     8.4650
  502.5000   -20.3900     6.2540   104.1710    11.9350  1437.6940    -0.1140     2.0020     0.2010    56.5730     8.4540
  503.0000   -24.2430     6.7330     3.0490     4.7910  1440.3330    -0.1070     2.0040     0.2010    59.6290     8.4430
  503.5000   -25.4220     6.8690    81.8230     4.7470  1442.9709    -0.0410     1.9990     0.2020    62.8520     8.4330
  504.0000   -26.6310     6.8800    11.9820     8.6430  1445.6100     0.0830     2.1590     0.2390    66.0800     8.4390
  504.5000   -27.3790     6.8910     2.1940     8.8850  1448.2480     0.2120     2.2950     0.2300    69.2580     8.4840
  505.0000   -28.1150     6.9010     1.5040     8.2660  1450.8870     0.2180     2.2690     0.2190    70.4980     8.5270
  505.5000   -28.8740     6.9120     1.1690     7.8260  1439.8970     0.1870     2.2810     0.2030    68.3930     8.6740
  506.0000   -29.8300     6.9220     1.1370     7.4580  1518.7190     0.1720     2.3010     0.1930    66.3300     8.8820
  506.5000   -30.4010     6.9270     1.1370     7.8640  1671.6720     0.1670     2.3240     0.1820    64.5530     9.0910
  507.0000   -30.8890     6.9270     1.1480     8.2990  1507.7080     0.1620     2.3380     0.1800    65.9730     9.3010
  507.5000   -31.3760     6.9270    11.1540     8.7340  1447.4470     0.1470     2.3440     0.1820    67.3960     9.5100
  508.0000   -31.8140     6.9270    14.6180     8.9680  1471.4709     0.1280     2.3390     0.1840    68.8060     9.7160
  508.5000   -32.1980     6.9270     9.7440     8.8550  1471.4709     0.1110     2.3350     0.1870    70.2560     9.8950
  509.0000   -32.5810     6.9270    10.5870     8.6280  1471.4709     0.1070     2.3310     0.1860    69.2460    10.0030
  509.5000   -32.9650     6.9270    10.0170     8.4010  1471.4709     0.1070     2.3350     0.1810    67.7250    10.0710
  510.0000   -33.3490     6.9270    10.3390     8.1780  1471.4709     0.1200     2.3490     0.1740    67.7790    10.1370
  510.5000   -33.7330     6.9270    10.9840     8.0280  1471.4709     0.1320     2.3630     0.1680    68.5080    10.2060
  511.0000   -34.1330     6.9270    10.7840     8.1580  1471.4709     0.1410     2.3730     0.1640    69.2050    10.2320
  511.5000   -34.3220     6.9270    11.9320     8.2630  1471.4709     0.1340     2.3670     0.1680    67.8480    10.2460
  512.0000   -34.4530     6.9270    12.8710     8.3300  1471.4709     0.1270     2.3610     0.1680    66.3530    10.2600
  512.5000   -34.5790     6.9270    13.0140     8.1780  1471.4709     0.1290     2.3640     0.1670    64.8650    10.2750
  513.0000   -34.8710     6.9270    13.1580     8.1430  1471.4709     0.1300     2.3660     0.1670    63.3800    10.2890
  513.5000   -35.2520     6.9270    13.7440     8.1080  1471.4709     0.1260     2.3590     0.1720    61.8940    10.3020
  514.0000   -35.6400     6.9280    14.4840     8.0740  1471.4709     0.1220     2.3490     0.1770    60.4010    10.3010
  514.5000   -36.0320     6.8920    10.5670     8.0390  1471.4709     0.1230     2.3520     0.1790    58.9280    10.2890
  515.0000   -37.5910     6.8640     9.2190     8.0040  1475.0900     0.1300     2.3600     0.1720    58.6070    10.2810
  515.5000   -39.1540     6.8360     9.3290     7.9700  1479.0480     0.1380     2.3710     0.1630    58.3400    10.2810
  516.0000   -39.6210     6.8090     9.4780     7.9350  1483.0060     0.1460     2.3810     0.1560    58.0680    10.2810
  516.5000   -39.7320     6.7810     9.3610     7.9000  1486.9640     0.1510     2.3910     0.1520    57.7900    10.2810
  517.0000   -39.8310     6.7530     9.1850     7.8660  1490.9220     0.1530     2.3930     0.1510    57.5150    10.2810
  517.5000   -39.8850     6.7260     9.0090     7.8310  1488.5551     0.1540     2.3920     0.1520    57.4410    10.2810
  518.0000   -39.9420     6.6980     8.9430     7.8090  1485.1250     0.1560     2.3950     0.1510    58.6310    10.2810
  518.5000   -40.0000     6.6770     8.9010     7.9140  1481.6949     0.1530     2.3800     0.1520    59.8140    10.2820
  519.0000   -40.0570     6.7750     8.8590     7.9900  1478.2650     0.1470     2.3630     0.1610    60.9930    10.2790
  519.5000   -40.1150     6.8640     8.8170     8.0280  1474.8350     0.1410     2.3470     0.1720    62.1720    10.2750
  520.0000   -40.1720     6.9720     8.7740     7.8820  1471.4709     0.1420     2.3320     0.1820    63.3510    10.2720
  520.5000   -40.1930     7.0910     8.7230     7.9450  1474.1960     0.1560     2.3270     0.1880    64.5290    10.2680
  521.0000   -40.0120     7.2540     8.7380     8.0280  1476.8690     0.1700     2.3260     0.1910    65.7080    10.2650
  521.5000   -39.8330     7.2510     8.7570     8.1120  1479.5420     0.1830     2.3280     0.1890    66.8870    10.2600
  522.0000   -39.6540     7.2460     8.7760     8.1960  1482.2150     0.1980     2.3230     0.1900    68.0650    10.1940
  522.5000   -39.4770     7.2410     8.7950     8.2540  1484.8870     0.1990     2.3170     0.1920    69.2440    10.1260
  523.0000   -39.2960     7.2360     8.9060     8.2400  1487.5601     0.1730     2.3110     0.1990    70.4230    10.0160
  523.5000   -39.3720     7.2300     8.9660     8.2290  1490.2330     0.1470     2.3300     0.1810    71.6030     9.8890
  524.0000   -39.6270     7.2250     9.0250     8.2190  1492.9060     0.1210     2.3650     0.1580    72.7790     9.7440
  524.5000   -39.8240     7.2200     9.0850     8.2080  1495.5790     0.1120     2.4000     0.1450    73.9660     9.5610
  525.0000   -39.8210     7.2150     9.1440     8.1970  1498.2510     0.1110     2.4110     0.1380    74.3430     9.4430
  525.5000   -39.8200     7.2100     9.2190     8.1870  1500.9240     0.1100     2.4150     0.1380    74.1820     9.3390
  526.0000   -39.8200     7.2050     9.0600     8.1780  1503.5970     0.1070     2.4140     0.1390    74.0090     9.2900
  526.5000   -39.8200     7.1990     8.8450     8.1780  1506.2700     0.1030     2.4090     0.1390    73.8310     9.2690
  527.0000   -39.8200     7.1940     8.7230     8.1780  1508.9430     0.0990     2.4040     0.1420    73.6690     9.2470
  527.5000   -39.8550     7.1890     9.0510     8.1780  1511.5120     0.0960     2.3980     0.1470    74.4770     9.2260
  528.0000   -39.9060     7.1880     8.9680     8.1780  1522.2020     0.0920     2.3920     0.1520    75.3850     9.2050
  528.5000   -39.9580     7.2270     8.7410     8.1780  1531.5320     0.0880     2.3880     0.1510    76.3230     9.1840
  529.0000   -40.0090     7.2570     8.4850     8.1780  1531.5320     0.0910     2.3890     0.1490    75.4370     9.1640
  529.5000   -40.0610     7.2870     8.5500     8.1780  1531.5320     0.1010     2.4010     0.1400    74.1830     9.1520
  530.0000   -40.1130     7.3170     8.6330     8.1790  1531.5320     0.1100     2.4150     0.1340    74.9420     9.1400
  530.5000   -40.1640     7.4480     8.7150     8.0870  1531.5320     0.1190     2.4300     0.1280    75.9730     9.1290
  531.0000   -40.2160     7.7130     8.5840     8.0290  1531.5320     0.1180     2.4330     0.1260    77.0110     9.1170
  531.5000   -40.2680     7.9780     8.5000     8.0470  1531.5320     0.1220     2.4280     0.1330    78.0360     9.1060
  532.0000   -40.3200     8.2430     8.4160     8.0620  1531.5320     0.1140     2.4180     0.1380    78.6520     9.1110
  532.5000   -40.3720     8.5070     8.3330     8.0760  1531.5320     0.1060     2.4080     0.1410    77.5040     9.1190
  533.0000   -40.4130     8.7720     8.2490     8.0900  1531.5320     0.0980     2.4010     0.1440    76.3690     9.1280
