~VERSION INFORMATION
 VERS.                2.0:   CWLS LOG ASCII STANDARD - VERSION 2.0
 WRAP.                 NO:   ONE LINE PER DEPTH STEP
~WELL INFORMATION
#MNEM.UNIT      DATA TYPE    INFORMATION
#----------   ------------   ------------------------------
 STRT.F          207.0000:   START DEPTH
 STOP.F         3130.0000:   STOP DEPTH
 STEP.F            0.5000:   STEP LENGTH
 NULL.          -999.2500:   NO VALUE
 COMP. FENIX & SCISSON U.S. NAVY:   COMPANY
 WELL.    FENIX "A" #61-3:   WELL
 FLD .             NPR #3:   FIELD
 LOC .       S3 T38N R78W:   LOCATION
 CNTY.            NATRONA:   COUNTY
 STAT.            WYOMING:   STATE
 CTRY. UNITED STATES OF AMERICA:   COUNTRY
 SRVC.              WELEX:   SERVICE COMPANY
 DATE.        13-MAY-1977:   LOGDATE
 API .     49025103630000:   API NUMBER
~CURVE INFORMATION
#MNEM.UNIT       API CODE    CURVE DESCRIPTION
#----------   ------------   ------------------------------
 DEPT.F                  :   
 SPR .MV     07 010 01 00:   SPONTANEOUS POTENTIAL
 SFLU.OHMM   07 220 01 00:   SPHERICALLY FOCUSED LOG UNAVERAGED RESISTIVITY
 ILD .OHMM   07 120 46 00:   INDUCTION LOG DEEP RESISTIVITY
 ILM .OHMM   07 120 44 00:   INDUCTION LOG MEDIUM RESISTIVITY
 CALD.IN     45 280 60 00:   CALIPER FROM DENSITY LOG
 GRD .GAPI   45 310 01 00:   GAMMA RAY FROM DENSITY LOG
 RHOB.G/C3   45 350 01 00:   BULK DENSITY
 CORR.G/C3   45 356 01 00:   DENSITY CORRECTION
~PARAMETER INFORMATION
#MNEM.UNIT          VALUE    DESCRIPTION
#----------   ------------   ------------------------------
 EKB .F         5109.0000:   Kelly bushing
 EGL .F         5099.0000:   Ground level
 EDF .F            0.0000:   Drilling floor
 TD  .F         3130.0000:   Total depth
 DATE.        13-MAY-1977:   Date logged
 CLNT.            A2DTECH:   Client Code
 SL  . 330' FNL & 1650' FEL:   Surface Location
 PD  .                 GL:   Permanent Datum
 EPD .F              5099:   Elevation Permanent Datum
 LMF .                 KB:   Log Measured From
 DMF .                 KB:   Drilling Measured From
 DAPD.F                10:   Feet Above Permanent Datum
 DD  .F              3126:   Depth driller
 DL  .F              3129:   Depth logger
 BLI .F              3127:   Bottom log interval
 TLI .F               210:   Top log interval
 CS1 .IN            8.625:   Casing size
 CBD1.      8.625" @ 200':   Casing driller 1
 CBL1.F               216:   Casing logger 1
 BS1 .IN            7.875:   Bit size
 BSD1.F              3126:   Depth drilled with bit1
 DFT .            KCL MUD:   Type fluid in hole
 DFD .                9.1:   Density
 DFV .                 32:   Viscosity
 DFPH.                  8:   pH
 DFL .                8.4:   Fluid loss
 MSS .           FLOWLINE:   Source of sample
 RMS .OHMM            .29:   Rm
 MST .F                68:   Rm Meas. temp.
 RMF .OHMM            .28:   Rmf
 MFST.F                68:   Rmf Meas. temp.
 RMC .OHMM            .43:   Rmc
 MCST.F                68:   Rmc Meas. temp.
 MFSS.           FANN KIT:   Source Rmf.
 MCSS.           FANN KIT:   Source Rmc.
 RMB .OHMM            .16:   Rm. at BHT
 BHT .F               123:   BHT.
 TCS .HRS             2.5:   Time Circ. stopped
 MRT .F               123:   Maximum recorded temp.
 LUN .               9685:   Logging unit number
 LUL .           BRIGHTON:   Logging unit location
 ENGI.          T. JOYNER:   Recorded By
 WITN.      B. HARRINGTON:   Witnessed by
 ORIG.           5" PRINT:   Origin of data
 UWI .     49025103630000:   Unique Well ID
 DICO. A2D TECHNOLOGIES, INC.:   Digitizing Company
~OTHER INFORMATION
~A   DEPT      SPR       SFLU        ILD        ILM       CALD        GRD       RHOB       CORR   
# ...
 3082.5000   -32.7985     5.1029     3.5011     3.5990     7.9510   121.4620     2.4838     0.0541
 3083.0000   -33.0054     5.0085     3.3735     3.4998     7.9316   120.2826     2.4818     0.0502
 3083.5000   -33.4116     4.9151     3.2805     3.4031     7.9320   119.1033     2.4818     0.0443
 3084.0000   -33.8177     4.8238     3.1316     3.3707     7.9324   118.3267     2.4799     0.0403
 3084.5000   -33.8254     4.6913     3.1020     3.3387     7.9329   117.9342     2.4881     0.0384
 3085.0000   -34.0323     4.6463     3.1009     3.3377     7.9532   117.9446     2.4971     0.0384
 3085.5000   -34.2392     4.6021     3.0711     3.3365     7.9536   117.9549     2.5002     0.0385
 3086.0000   -33.8483     4.6004     3.0700     3.3352     7.9739   117.9652     2.5012     0.0386
 3086.5000   -34.0598     4.6840     3.0693     3.3345     7.9743   118.7689     2.5033     0.0446
 3087.0000   -34.0628     4.7255     3.0682     3.2718     7.9747   118.7792     2.5033     0.0447
 3087.5000   -34.2682     4.6806     3.0668     3.2410     7.9950   118.7896     2.5033     0.0468
 3088.0000   -34.4751     4.5516     3.0659     3.2395     7.9954   116.4200     2.5074     0.0468
 3088.5000   -34.8827     4.5083     3.1212     3.2388     8.0158   115.2403     2.5074     0.0489
 3089.0000   -34.6911     4.5483     3.1205     3.2376     7.9963   117.2340     2.5144     0.0490
 3089.5000   -35.0972     4.6309     3.1772     3.2362     7.9968   117.2443     2.5255     0.0510
 3090.0000   -35.3040     4.6720     3.2348     3.3559     7.9972   117.2546     2.5285     0.0471
 3090.5000   -35.1124     4.5433     3.2936     3.4484     7.9976   117.2650     2.5345     0.0472
 3091.0000   -34.9209     4.7552     3.3846     3.4790     7.9981   116.4819     2.5396     0.0472
 3091.5000   -34.9285     4.8863     3.3831     3.6080     7.9985   116.0955     2.5436     0.0473
 3092.0000   -34.7369     5.1142     3.3821     3.7074     7.9990   115.7091     2.5416     0.0513
 3092.5000   -34.9438     5.1595     3.4436     3.7751     7.9994   115.3227     2.5347     0.0474
 3093.0000   -34.9514     5.3014     3.5386     3.9512     7.9998   113.3893     2.5327     0.0474
 3093.5000   -35.1582     5.3006     3.5702     3.9862     8.0003   112.2093     2.5317     0.0495
 3094.0000   -35.1659     5.3476     3.6684     3.8406     8.0206   111.0292     2.5318     0.0496
 3094.5000   -35.1735     5.3456     3.7009     3.7348     8.0210   111.4362     2.5298     0.0497
 3095.0000   -35.3803     5.3926     3.7340     3.7334     8.0214   111.8432     2.5288     0.0517
 3095.5000   -35.1888     5.3910     3.7323     4.0162     8.0219   112.2482     2.5329     0.0518
 3096.0000   -34.9972     5.3886     3.7310     4.1276     8.0223   113.8117     2.5359     0.0519
 3096.5000   -35.2040     5.3374     3.7637     4.2414     8.0029   114.6094     2.5440     0.0499
 3097.0000   -35.2117     5.1899     3.7624     4.1248     8.0231   116.2069     2.5470     0.0480
 3097.5000   -35.2193     4.9550     3.6925     4.0109     8.0235   117.8044     2.5488     0.0441
 3098.0000   -35.0277     4.7744     3.6242     3.7255     8.0438   120.5925     2.5429     0.0441
 3098.5000   -35.2345     4.6432     3.5240     3.6226     8.0046   120.2061     2.5449     0.0442
 3099.0000   -35.2422     4.4330     3.4269     3.5884     7.9852   118.6292     2.5469     0.0463
 3099.5000   -35.4490     4.3905     3.4259     3.5868     7.9856   117.4531     2.5510     0.0463
 3100.0000   -35.2574     4.5536     3.4244     3.5860     8.0143   118.2531     2.5550     0.0464
 3100.5000   -35.4463     4.7337     3.4230     3.6744     8.0137   119.3226     2.5581     0.0465
 3101.0000   -35.4657     4.8079     3.4220     3.7753     8.0131   119.4292     2.5590     0.0463
 3101.5000   -35.4701     4.9865     3.4208     3.8551     8.0125   115.8507     2.5590     0.0443
 3102.0000   -35.2752     5.2180     3.4511     3.9250     8.0119   116.6363     2.5569     0.0463
 3102.5000   -35.4796     5.2176     3.5463     3.8877     8.0113   117.0252     2.5549     0.0482
 3103.0000   -35.4805     5.3611     3.5778     3.9584     8.0107   115.0342     2.5549     0.0482
 3103.5000   -35.4857     5.4585     3.6098     3.9207     8.0101   111.8535     2.5569     0.0462
 3104.0000   -35.4892     5.2115     3.6085     3.8480     8.0095   116.6053     2.5589     0.0461
 3104.5000   -35.4954     4.8851     3.6069     3.6738     8.0089   115.8044     2.5609     0.0461
 3105.0000   -35.6987     4.7505     3.6064     3.6057     8.0083   114.6070     2.5608     0.0461
 3105.5000   -35.7030     4.7491     3.6044     3.6044     8.0078   117.3750     2.5568     0.0460
 3106.0000   -35.9064     4.9248     3.5375     3.6699     8.0072   119.3512     2.5508     0.0460
 3106.5000   -35.7118     5.0143     3.5365     3.6353     8.0066   118.9468     2.5488     0.0440
 3107.0000   -35.9151     4.8762     3.5349     3.5681     8.0060   118.1460     2.5428     0.0419
 3107.5000   -35.7196     4.5290     3.5016     3.5016     8.0054   116.5525     2.5388     0.0419
 3108.0000   -35.7238     4.4043     3.4681     3.4369     8.0048   116.1483     2.5367     0.0419
 3108.5000   -35.9272     4.5672     3.4037     3.3422     8.0042   116.5369     2.5347     0.0378
 3109.0000   -36.1331     4.4827     3.4030     3.3408     8.0036   118.1145     2.5249     0.0338
 3109.5000   -36.1348     4.2799     3.3396     3.3091     8.0030   119.2956     2.5169     0.0318
 3110.0000   -36.3381     4.5626     3.2474     3.3079     8.0024   118.8914     2.5067     0.0277
 3110.5000   -36.5413     4.4369     3.2166     3.2767     8.0018   117.6963     2.5087     0.0277
 3111.0000   -36.5455     4.3151     3.1571     3.2451     8.0012  -999.2500     2.5106     0.0317
 3111.5000   -36.5498     4.2350     3.0986     3.2148     8.0006  -999.2500     2.5146     0.0336
 3112.0000   -36.9518     4.2719     3.0130     3.1542     8.0000  -999.2500     2.5186     0.0336
 3112.5000   -36.7572     4.2707     3.0120     3.1538     7.9994  -999.2500     2.5186     0.0396
 3113.0000   -36.7607     4.1914     2.9561     3.1238     7.9988  -999.2500     2.5166     0.0415
 3113.5000   -36.7650     3.9652     2.9555     3.0946     7.9982  -999.2500     2.5126     0.0415
 3114.0000   -36.7691     3.9270     2.8870     3.0370     7.9976  -999.2500     2.5105     0.0415
 3114.5000   -36.7734     3.9624     2.9002     3.0079     7.9970  -999.2500     2.5085     0.0415
 3115.0000   -36.7777     3.8180     2.8984     2.8715     7.9964  -999.2500     2.5085     0.0454
 3115.5000   -36.7820     3.7823     2.7671     2.8711     7.9958  -999.2500     2.5125     0.0454
 3116.0000   -36.9850     3.6440     2.7416     2.7665     7.9952  -999.2500     2.5165     0.0474
 3116.5000   -36.7906     3.5767     2.6656     2.7401     7.9946  -999.2500     2.5145     0.0473
 3117.0000   -36.7947     3.5101     2.5922     2.6889     7.9940  -999.2500     2.5124     0.0453
 3117.5000   -36.7990     3.5083     2.5913     2.6885     7.9934  -999.2500     2.5104     0.0453
 3118.0000   -36.3546     3.5726     2.5904     2.7372     7.9928  -999.2500     2.5124     0.0472
 3118.5000   -36.1620     3.6711     2.7112     2.8386     7.9922  -999.2500     2.5164     0.0572
 3119.0000   -34.5767     3.6362     2.7352     2.8378     7.9916  -999.2500     2.5204     0.0591
 3119.5000   -32.7923     3.5361     2.7589     2.7850     7.9910  -999.2500     2.5184     0.0591
 3120.0000   -29.2151     3.4705     2.7083     2.7083     7.9904  -999.2500     2.5143     0.0591
 3120.5000   -23.6461     3.4062     2.6338     2.6338     7.9898  -999.2500     2.5123     0.0590
 3121.0000   -19.0729     3.3738     2.5615     2.6330     7.9892  -999.2500     2.5063     0.0590
 3121.5000   -15.6950     3.3721     2.7304     2.8067     7.9886  -999.2500     2.5023     0.0630
 3122.0000    -8.5324     3.3714     3.0756     3.1904     7.9880  -999.2500     2.4943     0.0669
 3122.5000    -1.5673     3.4646     3.2190     3.3416     7.9874  -999.2500     2.4903     0.0709
