~VERSION INFORMATION
 VERS.                2.0:   CWLS LOG ASCII STANDARD - VERSION 2.0
 WRAP.                 NO:   ONE LINE PER DEPTH STEP
~WELL INFORMATION
#MNEM.UNIT      DATA TYPE    INFORMATION
#----------   ------------   ------------------------------
 STRT.F          640.0000:   START DEPTH
 STOP.F         2792.0000:   STOP DEPTH
 STEP.F            0.5000:   STEP LENGTH
 NULL.          -999.2500:   NO VALUE
 COMP.    FENIX & SCISSON:   COMPANY
 WELL.   FENIX SHX #41-11:   WELL
 FLD .        TEAPOT DOME:   FIELD
 LOC .      S11 T38N R78W:   LOCATION
 CNTY.            NATRONA:   COUNTY
 STAT.            WYOMING:   STATE
 CTRY. UNITED STATES OF AMERICA:   COUNTRY
 SRVC.           BIRDWELL:   SERVICE COMPANY
 DATE.        07-JUL-1979:   LOGDATE
 API .     49025107880000:   API NUMBER
~CURVE INFORMATION
#MNEM.UNIT       API CODE    CURVE DESCRIPTION
#----------   ------------   ------------------------------
 DEPT.F                  :   
 CALD.IN     45 280 60 00:   CALIPER FROM DENSITY LOG
 RHOB.G/C3   45 350 01 00:   BULK DENSITY
 CORR.G/C3   45 356 01 00:   DENSITY CORRECTION
 GRD .GAPI   45 310 01 00:   GAMMA RAY FROM DENSITY LOG
~PARAMETER INFORMATION
#MNEM.UNIT          VALUE    DESCRIPTION
#----------   ------------   ------------------------------
 EKB .F         5168.0000:   Kelly bushing
 EGL .F         5158.0000:   Ground level
 EDF .F            0.0000:   Drilling floor
 EPD .F            0.0000:   Permanent datum
 TD  .F         2801.0000:   Total depth
 DATE.        07-JUL-1979:   Date logged
 CLNT.            A2DTECH:   Client Code
 SL  . 95' FNL & 2414' FWL:   Surface Location
 PD  .                 GL:   Permanent Datum
 DAPD.F                10:   Feet Above Permanent Datum
 DD  .F              2801:   Depth driller
 DL  .F              2791:   Depth logger
 BLI .F              2790:   Bottom log interval
 TLI .F               640:   Top log interval
 CS1 .IN            9.625:   Casing size
 CBD1.      9.625" @ 909':   Casing driller 1
 CBL1.F               910:   Casing logger 1
 BS1 .IN             8.75:   Bit size
 BSD1.F              2801:   Depth drilled with bit1
 DFT .                AIR:   Type fluid in hole
 LUN .               2959:   Logging unit number
 LUL .             CASPER:   Logging unit location
 ENGI.         B. RULLINS:   Recorded By
 WITN.           GINSMORE:   Witnessed by
 ORIG.           5" PRINT:   Origin of data
 UWI .     49025107880000:   Unique Well ID
 DICO. A2D TECHNOLOGIES, INC.:   Digitizing Company
~OTHER INFORMATION
~A   DEPT     CALD       RHOB       CORR         GRD  
# ...
 1735.0000     9.8760     2.5240    -0.0020   129.8230
 1735.5000     9.8830     2.5180    -0.0020   124.7200
 1736.0000     9.8890     2.5180    -0.0010   120.0280
 1736.5000     9.8960     2.5210     0.0050   117.0930
 1737.0000     9.9030     2.5240     0.0100   119.6230
 1737.5000     9.9100     2.5230     0.0100   119.5030
 1738.0000     9.9160     2.5150     0.0070   117.5630
 1738.5000     9.9270     2.5090     0.0040   117.1930
 1739.0000     9.9550     2.5120     0.0010   121.0600
 1739.5000     9.9820     2.5160     0.0000   123.9090
 1740.0000    10.0100     2.5190     0.0000   126.5020
 1740.5000    10.0380     2.5200     0.0000   125.7030
 1741.0000    10.0650     2.5200     0.0000   121.8940
 1741.5000    10.0930     2.5220     0.0010   118.2340
 1742.0000    10.1210     2.5240     0.0030   115.1890
 1742.5000    10.1480     2.5270     0.0040   119.1540
 1743.0000    10.1760     2.5270     0.0040   124.5080
 1743.5000    10.2030     2.5230     0.0040   129.6380
 1744.0000    10.2310     2.5170     0.0040   130.4830
 1744.5000    10.2580     2.5120     0.0020   131.2930
 1745.0000    10.2930     2.5060    -0.0020   132.3850
 1745.5000    10.3280     2.5050    -0.0040   132.2970
 1746.0000    10.3640     2.5070    -0.0040   128.1310
 1746.5000    10.3990     2.5220    -0.0040   122.4790
 1747.0000    10.4360     2.5260     0.0010   116.6630
 1747.5000    10.4430     2.5180     0.0020   115.4910
 1748.0000    10.4430     2.5100     0.0020   117.3680
 1748.5000    10.4430     2.5120     0.0020   118.7250
 1749.0000    10.4430     2.5240    -0.0020   118.3370
 1749.5000    10.4430     2.5270    -0.0050   118.2990
 1750.0000    10.4430     2.5170    -0.0080   119.6210
 1750.5000    10.4430     2.5060    -0.0100   121.0830
 1751.0000    10.4430     2.5060    -0.0100   122.5510
 1751.5000    10.4430     2.5120    -0.0060   124.0130
 1752.0000    10.4430     2.5190    -0.0010   125.4730
 1752.5000    10.4440     2.5250     0.0040   126.5190
 1753.0000    10.4860     2.5220     0.0040   126.7150
 1753.5000    10.5890     2.5120     0.0030   126.4500
 1754.0000    10.6820     2.5010     0.0030   125.7990
 1754.5000    10.6600     2.4980     0.0030   122.4160
 1755.0000    10.5590     2.5000     0.0020   119.0720
 1755.5000    10.4620     2.5040     0.0020   115.7350
 1756.0000    10.3660     2.5030     0.0020   112.4110
 1756.5000    10.2700     2.4860     0.0030   112.6040
 1757.0000    10.1730     2.4830     0.0070   113.8850
 1757.5000    10.0760     2.4970     0.0110   113.7210
 1758.0000    10.0310     2.5120     0.0120   112.6540
 1758.5000    10.0040     2.5140     0.0100   112.7900
 1759.0000     9.9770     2.5130     0.0000   118.5220
 1759.5000     9.9510     2.5110    -0.0100   119.8370
 1760.0000     9.9240     2.5110    -0.0120   119.2140
 1760.5000     9.9010     2.5130    -0.0100   121.1290
 1761.0000     9.9020     2.5140    -0.0070   121.9620
 1761.5000     9.9050     2.5160    -0.0040   120.5180
 1762.0000     9.9070     2.5170     0.0000   118.7660
 1762.5000     9.9090     2.5100     0.0000   117.0180
 1763.0000     9.9120     2.5050     0.0000   115.2620
 1763.5000     9.9140     2.5090     0.0000   113.6010
 1764.0000     9.9170     2.5180     0.0000   111.9440
 1764.5000     9.9190     2.5260    -0.0040   118.7700
 1765.0000     9.9210     2.5240    -0.0080   117.2240
 1765.5000     9.9360     2.5160    -0.0120   114.9000
 1766.0000     9.9540     2.5070    -0.0120   112.8280
 1766.5000     9.9720     2.5020    -0.0120   112.9310
 1767.0000     9.9900     2.5020    -0.0080   120.7290
 1767.5000    10.0080     2.5040    -0.0030   125.9240
 1768.0000    10.0260     2.5170     0.0010   126.5850
 1768.5000    10.0430     2.5310     0.0050   126.1680
 1769.0000    10.0420     2.5350     0.0100   123.0900
 1769.5000    10.0420     2.5240     0.0120   119.7200
 1770.0000    10.0420     2.5120    -0.0030   116.4240
 1770.5000    10.0420     2.5020    -0.0040   116.4720
 1771.0000    10.0470     2.5010     0.0000   120.9590
 1771.5000    10.0750     2.5110     0.0060   121.7380
 1772.0000    10.1030     2.5170     0.0060   116.2740
 1772.5000    10.1300     2.5150     0.0060   111.6910
 1773.0000    10.1570     2.5110     0.0060   107.0870
 1773.5000    10.1850     2.5140     0.0060   104.9370
 1774.0000    10.2120     2.5290     0.0080   106.1530
 1774.5000    10.2390     2.5360     0.0100   110.6140
 1775.0000    10.2670     2.5270     0.0130   113.2970
 1775.5000    10.2940     2.5180     0.0140   113.3200
 1776.0000    10.3210     2.5190     0.0140   113.3680
 1776.5000    10.3480     2.5190     0.0140   114.2730
 1777.0000    10.3630     2.5230     0.0190   115.0930
 1777.5000    10.3670     2.5320     0.0240   115.1350
 1778.0000    10.3720     2.5410     0.0260   115.1340
 1778.5000    10.3780     2.5450     0.0230   114.7280
 1779.0000    10.3830     2.5400     0.0180   113.9880
 1779.5000    10.3880     2.5320     0.0130   113.2420
 1780.0000    10.3930     2.5240     0.0080   112.5260
 1780.5000    10.3980     2.5160     0.0030   113.1770
 1781.0000    10.4030     2.5080     0.0000   117.6660
 1781.5000    10.4080     2.5030     0.0000   122.3470
 1782.0000    10.4130     2.5030     0.0010   127.2050
 1782.5000    10.4180     2.5030     0.0040   128.5840
 1783.0000    10.4230     2.5040     0.0060   127.0970
 1783.5000    10.4230     2.5040     0.0060   125.1010
 1784.0000    10.4200     2.5010     0.0050   123.0930
 1784.5000    10.4140     2.4950     0.0040   121.1000
 1785.0000    10.4080     2.4850     0.0020   120.4340
 1785.5000    10.4010     2.4760     0.0010   121.0440
 1786.0000    10.3950     2.4660    -0.0020   121.5480
 1786.5000    10.3890     2.4570    -0.0020   121.7390
 1787.0000    10.3810     2.4520    -0.0020   119.8850
 1787.5000    10.2750     2.4820     0.0030   120.0660
 1788.0000    10.1590     2.4990     0.0060   120.1840
 1788.5000    10.0430     2.5010     0.0110   118.2360
 1789.0000     9.9270     2.5100     0.0150   115.8090
 1789.5000     9.8100     2.5220     0.0180   113.8690
 1790.0000     9.7030     2.5240     0.0170   113.8170
 1790.5000     9.6960     2.5200     0.0120   117.8880
 1791.0000     9.6910     2.5160     0.0080   121.3430
 1791.5000     9.6860     2.5170     0.0040   121.3490
 1792.0000     9.6810     2.5200     0.0040   121.3410
 1792.5000     9.6760     2.5230     0.0040   121.3360
 1793.0000     9.6700     2.5270     0.0040   121.9240
 1793.5000     9.6650     2.5330     0.0130   122.9600
 1794.0000     9.6600     2.5510     0.0230   123.7760
 1794.5000     9.6540     2.5680     0.0280   123.7460
 1795.0000     9.6490     2.5710     0.0240   122.1700
 1795.5000     9.6440     2.5470     0.0190   117.1170
 1796.0000     9.6410     2.5410     0.0140   112.0970
 1796.5000     9.6410     2.5370     0.0090   110.5480
 1797.0000     9.6410     2.5360     0.0040   117.6890
 1797.5000     9.6410     2.5240    -0.0010   118.1430
 1798.0000     9.6410     2.5060    -0.0060   117.4540
 1798.5000     9.6410     2.4990    -0.0090   117.2970
 1799.0000     9.6410     2.4990    -0.0100   119.0470
 1799.5000     9.6420     2.5020    -0.0060   119.7720
 1800.0000     9.6570     2.5050    -0.0010   118.4880
 1800.5000     9.6900     2.5080     0.0020   116.7190
 1801.0000     9.7220     2.5090     0.0020   115.5290
 1801.5000     9.7550     2.5070     0.0000   121.0240
 1802.0000     9.7870     2.5050    -0.0010   123.7240
 1802.5000     9.8190     2.5040    -0.0020   122.4780
 1803.0000     9.8520     2.5050    -0.0020   120.2330
 1803.5000     9.8840     2.5150     0.0020   117.9860
 1804.0000     9.9170     2.5260     0.0070   115.7420
 1804.5000     9.9490     2.5380     0.0120   113.5150
 1805.0000     9.9820     2.5460     0.0110   111.9000
 1805.5000    10.0140     2.5450     0.0090   111.7190
 1806.0000    10.0430     2.5370     0.0070   112.3060
 1806.5000    10.0410     2.5290     0.0050   113.5250
 1807.0000    10.0380     2.5210     0.0040   114.7290
 1807.5000    10.0360     2.5200     0.0040   115.9320
