~VERSION INFORMATION
 VERS.                2.0:   CWLS LOG ASCII STANDARD - VERSION 2.0
 WRAP.                 NO:   ONE LINE PER DEPTH STEP
~WELL INFORMATION
#MNEM.UNIT      DATA TYPE    INFORMATION
#----------   ------------   ------------------------------
 STRT.F          417.0000:   START DEPTH
 STOP.F         4133.0000:   STOP DEPTH
 STEP.F            0.5000:   STEP LENGTH
 NULL.          -999.2500:   NO VALUE
 COMP.    FENIX & SCISSON:   COMPANY
 WELL. FENIX  "LX" #18-11:   WELL
 FLD .              NPR 3:   FIELD
 LOC .      S11 T38N R78W:   LOCATION
 CNTY.            NATRONA:   COUNTY
 STAT.            WYOMING:   STATE
 CTRY. UNITED STATES OF AMERICA:   COUNTRY
 SRVC.       SCHLUMBERGER:   SERVICE COMPANY
 DATE.        14-JAN-1978:   LOGDATE
 API .     49025105590000:   API NUMBER
~CURVE INFORMATION
#MNEM.UNIT       API CODE    CURVE DESCRIPTION
#----------   ------------   ------------------------------
 DEPT.F                  :   
 SPR .MV     07 010 01 00:   SPONTANEOUS POTENTIAL
 SFL .OHMM   07 220 01 00:   SHALLOW FOCUSED LOG RESISTIVITY
 ILD .OHMM   07 120 46 00:   DEEP INDUCTION RESISTIVITY
 ILM .OHMM   07 120 44 00:   INDUCTION LOG MEDIUM RESISTIVITY
 CALD.IN     45 280 60 00:   CALIPER FROM DENSITY LOG
 GRD .GAPI   45 310 01 00:   GAMMA RAY FROM DENSITY LOG
 RHOB.G/C3   45 350 01 00:   BULK DENSITY
 CORR.G/C3   45 356 01 00:   DENSITY CORRECTION
 NPHI.DEC    42 890 03 00:   NEUTRON POROSITY SANDSTONE
~PARAMETER INFORMATION
#MNEM.UNIT          VALUE    DESCRIPTION
#----------   ------------   ------------------------------
 EKB .F         5220.0000:   Kelly bushing
 EGL .F         5210.0000:   Ground level
 EDF .F            0.0000:   Drilling floor
 TD  .F         4125.0000:   Total depth
 DATE.        14-JAN-1978:   Date logged
 CLNT.            A2DTECH:   Client Code
 SL  . 330' FSL & 530' FWL:   Surface Location
 PD  .                 GL:   Permanent Datum
 EPD .F              5210:   Elevation Permanent Datum
 LMF .                 KB:   Log Measured From
 DMF .                 KB:   Drilling Measured From
 DAPD.F                10:   Feet Above Permanent Datum
 DD  .F              4125:   Depth driller
 DL  .F              4121:   Depth logger
 BLI .F              4116:   Bottom log interval
 TLI .F               427:   Top log interval
 CS1 .IN            8.625:   Casing size
 CBD1.      8.625" @ 513':   Casing driller 1
 CBL1.F               427:   Casing logger 1
 BS1 .IN            7.875:   Bit size
 BSD1.F              4125:   Depth drilled with bit1
 DFT .                KCL:   Type fluid in hole
 DFD .                8.8:   Density
 DFV .                 40:   Viscosity
 DFPH.                 12:   pH
 DFL .                7.4:   Fluid loss
 MSS .           MUD TANK:   Source of sample
 RMS .OHMM           .418:   Rm
 MST .F                60:   Rm Meas. temp.
 RMF .OHMM           .343:   Rmf
 MFST.F                60:   Rmf Meas. temp.
 MFSS.               MEAS:   Source Rmf.
 RMB .OHMM            .20:   Rm. at BHT
 BHT .F               123:   BHT.
 TCS .HRS            0600:   Time Circ. stopped
 TLAB.HRS            0845:   Time logger at bottom
 MRT .F               123:   Maximum recorded temp.
 LUN .               8035:   Logging unit number
 LUL .               CSPR:   Logging unit location
 ENGI.             MARTIN:   Recorded By
 WITN.         HARRINGTON:   Witnessed by
 ORIG.      2.5" 5" PRINT:   Origin of data
 UWI .     49025105590000:   Unique Well ID
 DICO. A2D TECHNOLOGIES, INC.:   Digitizing Company
~OTHER INFORMATION
~A   DEPT      SPR        SFL        ILD        ILM       CALD         GRD      RHOB       CORR       NPHI   
# ...
 4103.5000   -21.6260     3.2670     2.7830     2.7880     8.2010  -999.2500     2.4770     0.0110     0.3230
 4104.0000   -21.4270     3.0850     2.7270     2.7320     8.2150  -999.2500     2.4690     0.0110     0.3210
 4104.5000   -21.0590     2.8900     2.6700     2.6770     8.2160  -999.2500     2.4600     0.0170     0.3190
 4105.0000   -21.2830     2.7420     2.6140     2.6220     8.2160  -999.2500     2.4570     0.0220     0.3180
 4105.5000   -21.4950     2.7100     2.5570     2.5670     8.2160  -999.2500     2.4570     0.0270     0.3160
 4106.0000   -21.7070     2.6760     2.5000     2.5090     8.2160  -999.2500     2.4570     0.0320     0.3150
 4106.5000   -21.9170     2.6760     2.4850     2.4850     8.2160  -999.2500     2.4490     0.0300     0.3130
 4107.0000   -22.1260     2.7200     2.4630     2.4850     8.2160  -999.2500     2.4450     0.0260     0.3110
 4107.5000   -22.2130     2.7770     2.5020     2.5360     8.2160  -999.2500     2.4530     0.0220     0.3100
 4108.0000   -22.0980     2.9010     2.5690     2.6010     8.2160  -999.2500     2.4670     0.0180     0.3080
 4108.5000   -21.9870     3.0560     2.6350     2.6660     8.2160  -999.2500     2.4800     0.0220     0.3070
 4109.0000   -21.8880     3.2100     2.7020     2.7310     8.2160  -999.2500     2.4930     0.0310     0.3080
 4109.5000   -21.3000     3.3650     2.7690     2.7960     8.2160  -999.2500     2.5050     0.0370     0.3110
 4110.0000   -20.6260     3.5190     2.8360     2.8610     8.2160  -999.2500     2.5200     0.0370     0.3150
 4110.5000   -20.3150     3.5930     2.8960     2.9260     8.2160  -999.2500     2.5200     0.0240     0.3190
 4111.0000   -20.1030     3.6320     2.9530     2.9910     8.2160  -999.2500     2.5190     0.0180     0.3210
 4111.5000   -20.0600     3.6830     3.0180     3.0460     8.2160  -999.2500     2.5140     0.0200     0.3220
 4112.0000   -20.0590     3.7940     3.0460     3.0750     8.2160  -999.2500     2.5100     0.0150     0.3220
 4112.5000   -20.0600     3.9050     3.0460     3.1030     8.2160  -999.2500     2.5090     0.0050     0.3220
 4113.0000   -20.0600     4.0160     3.0390     3.1320     8.2160  -999.2500     2.5120    -0.0030     0.3200
 4113.5000   -20.0600     4.0610     3.0310     3.2290     8.2160  -999.2500     2.5230     0.0030     0.3180
 4114.0000   -20.0600     4.0680     3.0240     3.3370     8.2160  -999.2500     2.5340     0.0140     0.3170
 4114.5000   -20.0600     4.0740     3.0160     3.4460     8.2160  -999.2500     2.5420     0.0260     0.3170
 4115.0000   -20.0600     4.0800     3.0090     3.5540     8.2160  -999.2500     2.5360     0.0320     0.3170
 4115.5000   -20.0600     4.0860     3.0010     3.5820     8.1960  -999.2500     2.5220     0.0230     0.3170
 4116.0000   -20.1280     4.0920     2.9940     3.6010     8.1700  -999.2500     2.5180     0.0160     0.3170
 4116.5000   -20.2550     4.0950  -999.2500     3.6200     8.1440  -999.2500     2.5340     0.0100     0.3170
 4117.0000  -999.2500  -999.2500  -999.2500  -999.2500     8.1170  -999.2500     2.5620     0.0230     0.3170
 4117.5000  -999.2500  -999.2500  -999.2500  -999.2500     8.0900  -999.2500     2.5900     0.0390     0.3170
 4118.0000  -999.2500  -999.2500  -999.2500  -999.2500     8.0670  -999.2500     2.6000     0.0550     0.3170
 4118.5000  -999.2500  -999.2500  -999.2500  -999.2500     8.0330  -999.2500     2.5850     0.0710     0.3170
 4119.0000  -999.2500  -999.2500  -999.2500  -999.2500     8.0080  -999.2500     2.5610     0.0830     0.3170
 4119.5000  -999.2500  -999.2500  -999.2500  -999.2500     7.7660  -999.2500     2.5360     0.1230  -999.2500
 4120.0000  -999.2500  -999.2500  -999.2500  -999.2500     7.5050  -999.2500     2.5150     0.1600  -999.2500
 4120.5000  -999.2500  -999.2500  -999.2500  -999.2500     7.2390  -999.2500     2.4890     0.1840  -999.2500
 4121.0000  -999.2500  -999.2500  -999.2500  -999.2500     6.9700  -999.2500     2.4670     0.1920  -999.2500
 4121.5000  -999.2500  -999.2500  -999.2500  -999.2500  -999.2500  -999.2500     2.4560     0.2020  -999.2500
 4122.0000  -999.2500  -999.2500  -999.2500  -999.2500  -999.2500  -999.2500     2.4710     0.2120  -999.2500
 4122.5000  -999.2500  -999.2500  -999.2500  -999.2500  -999.2500  -999.2500     2.4880     0.2200  -999.2500
 4123.0000  -999.2500  -999.2500  -999.2500  -999.2500  -999.2500  -999.2500  -999.2500     0.2000  -999.2500
 4123.5000  -999.2500  -999.2500  -999.2500  -999.2500  -999.2500  -999.2500  -999.2500     0.1810  -999.2500
 4124.0000  -999.2500  -999.2500  -999.2500  -999.2500  -999.2500  -999.2500  -999.2500     0.1620  -999.2500
 4124.5000  -999.2500  -999.2500  -999.2500  -999.2500  -999.2500  -999.2500  -999.2500     0.1390  -999.2500
 4125.0000  -999.2500  -999.2500  -999.2500  -999.2500  -999.2500  -999.2500  -999.2500     0.1430  -999.2500
 4125.5000  -999.2500  -999.2500  -999.2500  -999.2500  -999.2500  -999.2500  -999.2500     0.1570  -999.2500
 4126.0000  -999.2500  -999.2500  -999.2500  -999.2500  -999.2500  -999.2500  -999.2500     0.1700  -999.2500
 4126.5000  -999.2500  -999.2500  -999.2500  -999.2500  -999.2500  -999.2500  -999.2500     0.1790  -999.2500
 4127.0000  -999.2500  -999.2500  -999.2500  -999.2500  -999.2500  -999.2500  -999.2500     0.1740  -999.2500
 4127.5000  -999.2500  -999.2500  -999.2500  -999.2500  -999.2500  -999.2500  -999.2500     0.1670  -999.2500
 4128.0000  -999.2500  -999.2500  -999.2500  -999.2500  -999.2500  -999.2500  -999.2500     0.1620  -999.2500
 4128.5000  -999.2500  -999.2500  -999.2500  -999.2500  -999.2500  -999.2500  -999.2500     0.1680  -999.2500
 4129.0000  -999.2500  -999.2500  -999.2500  -999.2500  -999.2500  -999.2500  -999.2500     0.1720  -999.2500
 4129.5000  -999.2500  -999.2500  -999.2500  -999.2500  -999.2500  -999.2500  -999.2500     0.1770  -999.2500
 4130.0000  -999.2500  -999.2500  -999.2500  -999.2500  -999.2500  -999.2500  -999.2500     0.1820  -999.2500
 4130.5000  -999.2500  -999.2500  -999.2500  -999.2500  -999.2500  -999.2500  -999.2500     0.1860  -999.2500
 4131.0000  -999.2500  -999.2500  -999.2500  -999.2500  -999.2500  -999.2500  -999.2500     0.1910  -999.2500
 4131.5000  -999.2500  -999.2500  -999.2500  -999.2500  -999.2500  -999.2500  -999.2500     0.1960  -999.2500
 4132.0000  -999.2500  -999.2500  -999.2500  -999.2500  -999.2500  -999.2500  -999.2500     0.1910  -999.2500
 4132.5000  -999.2500  -999.2500  -999.2500  -999.2500  -999.2500  -999.2500  -999.2500     0.1800  -999.2500
 4133.0000  -999.2500  -999.2500  -999.2500  -999.2500  -999.2500  -999.2500  -999.2500     0.1690  -999.2500
