~VERSION INFORMATION
 VERS.                2.0:   CWLS LOG ASCII STANDARD - VERSION 2.0
 WRAP.                 NO:   ONE LINE PER DEPTH STEP
~WELL INFORMATION
#MNEM.UNIT      DATA TYPE    INFORMATION
#----------   ------------   ------------------------------
 STRT.F          198.0000:   START DEPTH
 STOP.F         3252.0000:   STOP DEPTH
 STEP.F            0.5000:   STEP LENGTH
 NULL.          -999.2500:   NO VALUE
 COMP. FENIX & SCISSON - U.S. NAVY:   COMPANY
 WELL.   FENIX A X #21-33:   WELL
 FLD .              NPR-3:   FIELD
 LOC .      S33 T39N R78W:   LOCATION
 CNTY.            NATRONA:   COUNTY
 STAT.            WYOMING:   STATE
 CTRY. UNITED STATES OF AMERICA:   COUNTRY
 SRVC.              WELEX:   SERVICE COMPANY
 DATE.        06-JUN-1977:   LOGDATE
 API .     49025103750000:   API NUMBER
~CURVE INFORMATION
#MNEM.UNIT       API CODE    CURVE DESCRIPTION
#----------   ------------   ------------------------------
 DEPT.F                  :   
 CALD.IN     45 280 60 00:   CALIPER FROM DENSITY LOG
 GRD .GAPI   45 310 01 00:   GAMMA RAY FROM DENSITY LOG
 RHOB.G/C3   45 350 01 00:   BULK DENSITY
 CORR.G/C3   45 356 01 00:   DENSITY CORRECTION
 NPHI.DEC    42 890 01 00:   NEUTRON POROSITY LIMESTONE
 SPR .MV     07 010 01 00:   SPONTANEOUS POTENTIAL
 GURD.OHMM   07 220 05 00:   GUARD LOG RESISTIVITY
 FORX.OHMM   07 220 00 00:   FORMATION FACTOR
~PARAMETER INFORMATION
#MNEM.UNIT          VALUE    DESCRIPTION
#----------   ------------   ------------------------------
 EKB .F         5147.0000:   Kelly bushing
 EGL .F         5137.0000:   Ground level
 EDF .F            0.0000:   Drilling floor
 EPD .F            0.0000:   Permanent datum
 TD  .F         3254.0000:   Total depth
 CLNT.            A2DTECH:   Client Code
 SL  . 660' FNL & 1320' FWL:   Surface Location
 PD  .                 GL:   Permanent Datum
 DAPD.F                10:   Feet Above Permanent Datum
 DATE.        06-JUN-1977:   Date Logged [DD-MMM-YYYY]
 DD  .F              3249:   Depth driller
 DL  .F              3254:   Depth logger
 BLI .F              3252:   Bottom log interval
 TLI .F               200:   Top log interval
 CS1 .IN            8.625:   Casing size
 CBD1.      8.625" @ 204':   Casing driller 1
 CBL1.F               221:   Casing logger 1
 BS1 .IN            7.875:   Bit size
 BSD1.F              3249:   Depth drilled with bit1
 DFT .            KCL MUD:   Type fluid in hole
 DFD .                  9:   Density
 DFV .                134:   Viscosity
 DFPH.                7.5:   pH
 DFL .                7.8:   Fluid loss
 MSS .           FLOWLINE:   Source of sample
 RMS .OHMM           0.64:   Rm
 MST .F                85:   Rm Meas. temp.
 RMF .OHMM           0.61:   Rmf
 MFST.F                85:   Rmf Meas. temp.
 MFSS.           FANN KIT:   Source Rmf.
 RMC .OHMM              1:   Rmc
 MCST.F                85:   Rmc Meas. temp.
 MCSS.           FANN KIT:   Source Rmc.
 RMB .OHMM           0.46:   Rm. at BHT
 BHT .F               116:   BHT.
 TCS .HRS             2.5:   Time Circ. stopped
 MRT .F               116:   Maximum recorded temp.
 LUN .               8611:   Logging unit number
 LUL .             CASPER:   Logging unit location
 ENGI.            C. DOAK:   Recorded By
 WITN.      B. HARRINGTON:   Witnessed by
 ORIG.           5" PRINT:   Origin of data
 UWI .     49025103750000:   Unique Well ID
 DICO. A2D TECHNOLOGIES, INC.:   Digitizing Company
~OTHER INFORMATION
~A   DEPT     CALD         GRD      RHOB       CORR       NPHI        SPR       GURD       FORX   
# ...
 2587.5000     8.5856    99.9251     2.4785     0.0288     0.2066   -34.3576    13.4884     7.4213
 2588.0000     8.6017   100.5322     2.4868     0.0304     0.2053   -34.6204    11.7650     7.3217
 2588.5000     8.5881   103.5215     2.4869     0.0290     0.2050   -35.1356    11.6129     7.0696
 2589.0000     8.6046   106.5108     2.4847     0.0292     0.2040   -35.1542    27.4586     6.9762
 2589.5000     8.6059   105.6254     2.4877     0.0293     0.2034   -34.3291    10.9754     7.6884
 2590.0000     8.5920   105.9300     2.4930     0.0309     0.2027   -33.5387    10.8653     8.5255
 2590.5000     8.6086   101.7680     2.4977     0.0311     0.2027   -33.6566    11.4118     8.2337
 2591.0000     8.6099    98.7961     2.5055     0.0312     0.2021   -34.2881    10.4415     6.6574
 2591.5000     8.6112    99.1029     2.5090     0.0298     0.2017   -35.0380     9.5555     6.1175
 2592.0000     8.6125   107.9380     2.4993     0.0285     0.2014   -35.1363    12.5091     5.9491
 2592.5000     8.6138   116.3082     2.4904     0.0271     0.2008   -35.1163    12.1762     6.2137
 2593.0000     8.6154   122.0821     2.4807     0.0258     0.2004   -34.2977    11.4538     6.6761
 2593.5000     8.6167   122.6847     2.4748     0.0259     0.2001   -34.3399    13.6891     6.9718
 2594.0000     8.6028   119.7150     2.4958     0.0305     0.2001   -34.3661    18.3108     7.3848
 2594.5000     8.6045   115.2528     2.5011     0.0366     0.2000   -34.7374    10.1838     7.9343
 2595.0000     8.5906   109.5983     2.4997     0.0368     0.2006   -35.2111    12.3037     8.4044
 2595.5000     8.6071   105.7330     2.4998     0.0384     0.2025   -35.4918    19.7979     7.2443
 2596.0000     8.6233   107.8281     2.5015     0.0385     0.2037   -35.9434    10.2368     7.1289
 2596.5000     8.6246   111.4136     2.5044     0.0417     0.2049   -35.6446    10.9718     7.4636
 2597.0000     8.6408   112.0185     2.5090     0.0418     0.2061   -34.6502    11.8552     7.0560
 2597.5000     8.6272   112.0272     2.4941     0.0404     0.2070   -33.9444    10.9677     6.4334
 2598.0000     8.6288   112.0359     2.4754     0.0376     0.2076   -33.9443    10.9224     6.0818
 2598.5000     8.6149   112.0447     2.4665     0.0332     0.2076   -34.7514    13.6226     6.0046
 2599.0000     8.6314   112.3517     2.4606     0.0304     0.2063   -34.3716    12.0467     6.3615
 2599.5000     8.6327   112.9585     2.4681     0.0290     0.2044   -34.3493    13.1834     6.7384
 2600.0000     8.6340   113.5619     2.4764     0.0307     0.2026   -34.3577    14.4247     7.2389
 2600.5000     8.6055   113.5887     2.4818     0.0338     0.2014   -34.2543    13.2051     7.2446
 2601.0000     8.5915   112.7264     2.4856     0.0354     0.1997   -33.9567    11.4562     7.1477
 2601.5000     8.5930   111.2622     2.4864     0.0370     0.1984   -33.6590    10.4710     6.9540
 2602.0000     8.5941   107.7115     2.4790     0.0371     0.1971   -33.5590    22.1826     6.7643
 2602.5000     8.6102   107.4331     2.4730     0.0372     0.1959   -33.5520    13.9108     7.2681
 2603.0000     8.6262   110.4463     2.4746     0.0358     0.1956   -33.9567    13.1753     7.9777
 2603.5000     8.6423   117.0882     2.4836     0.0375     0.1956   -34.3594    14.4563     8.8190
 2604.0000     8.6437   124.8299     2.4840     0.0376     0.1949   -34.3463    12.4963     8.3974
 2604.5000     8.6448   132.0981     2.4800     0.0362     0.1946   -34.3592    12.1682     7.7719
 2605.0000     8.6460   139.3662     2.4854     0.0363     0.1933   -33.6170    18.0250     7.1930
 2605.5000     8.6472   147.8412     2.4922     0.0379     0.1924   -32.9295    13.9906     7.1353
 2606.0000     8.6483   149.6492     2.4862     0.0396     0.1914   -32.9597    13.5293     8.0716
 2606.5000     8.6495   145.8070     2.4893     0.0397     0.1905   -32.9682    19.9086     8.8022
 2607.0000     8.6357   143.7467     2.5043     0.0398     0.1898   -33.4002    11.8145     8.6907
 2607.5000     8.6369   140.1960     2.5074     0.0399     0.1898   -33.9810    11.1131     7.9210
 2608.0000     8.6381   134.2609     2.5022     0.0385     0.1895   -33.9568    11.5010     7.5424
 2608.5000     8.6244   129.8160     2.4888     0.0372     0.1894   -33.9476    11.4416     7.1310
 2609.0000     8.6407   127.1596     2.4784     0.0373     0.1888   -33.6710    20.4179     6.8386
 2609.5000     8.6419   123.5042     2.4732     0.0389     0.1882   -33.4107    10.2728     6.5581
 2610.0000     8.6430   121.2506     2.4747     0.0390     0.1865   -32.9996    13.6325     6.9471
 2610.5000     8.6442   122.7735     2.4819     0.0406     0.1850   -33.7077    10.5792     7.1529
 2611.0000     8.6453   124.2899     2.4936     0.0423     0.1831   -34.3213    10.9597     6.9085
 2611.5000     8.6465   125.2102     2.5019     0.0439     0.1816   -34.6416    11.5138     6.4395
 2612.0000     8.6625   126.1305     2.5057     0.0470     0.1800   -34.3231    14.9662     6.3915
 2612.5000     8.6488   127.3489     2.4976     0.0456     0.1787   -33.9950    13.2358     6.8754
 2613.0000     8.6500   128.5672     2.4865     0.0412     0.1787   -33.8519    10.2033     8.1023
 2613.5000     8.6217   131.2759     2.4708     0.0367     0.1790   -33.5745    12.0461     9.2809
 2614.0000     8.6079   137.0852     2.4635     0.0310     0.1793   -33.5599    11.1788     7.0410
 2614.5000     8.5942   141.7668     2.4589     0.0282     0.1799   -33.4937    12.4911     6.7045
 2615.0000     8.5954   142.3825     2.4756     0.0298     0.1803   -33.2939    13.1216     6.8057
 2615.5000     8.5814   138.2423     2.4904     0.0314     0.1809   -33.0999    25.7722     7.4172
 2616.0000     8.5528   133.7975     2.5065     0.0360     0.1817   -32.9824    95.2820     7.9696
 2616.5000     8.5542   129.3505     2.5021     0.0376     0.1841   -33.8337    15.0981     8.8101
 2617.0000     8.5405   124.8618     2.4962     0.0332     0.1866   -33.9432    14.5327    10.9898
 2617.5000     8.5417   122.2557     2.5030     0.0348     0.1899   -34.3601    13.6458    14.3061
 2618.0000     8.5429   122.8779     2.5129     0.0364     0.1934   -34.3470    13.3765    11.9017
 2618.5000     8.5443   124.0963     2.5212     0.0410     0.1964   -34.3505    16.9208     8.0002
 2619.0000     8.5454   124.4139     2.5250     0.0443     0.1982   -34.3512    15.7969     7.1458
 2619.5000     8.5466   120.2737     2.5221     0.0443     0.1988   -34.3576    12.4303     7.6780
 2620.0000     8.5626   112.5502     2.5170     0.0429     0.1991   -34.3143    12.1990     7.1581
 2620.5000     8.5638   102.7720     2.5056     0.0445     0.1991   -33.9689    11.6365    11.6976
 2621.0000     8.5649    94.4249     2.4977     0.0431     0.1987   -33.9566    12.3063     7.0679
 2621.5000     8.5661    91.4704     2.4889     0.0433     0.1975   -33.9566    12.7489     6.5869
 2622.0000     8.5821    90.0062     2.4949     0.0434     0.1961   -33.9689    14.5426     7.0788
 2622.5000     8.5833    88.5420     2.5048     0.0435     0.1943   -34.3143    13.8720     7.1347
 2623.0000     8.5847    87.9720     2.5108     0.0466     0.1927   -34.3577    12.8732     7.1911
 2623.5000     8.5859    87.6990     2.5207     0.0482     0.1912   -34.3524    17.8060     7.2480
 2624.0000     8.5871    93.0913     2.5193     0.0468     0.1905   -34.3535    14.1060     7.4098
 2624.5000     8.5882    99.5111     2.5104     0.0439     0.1898   -34.2630    13.7361     8.1913
 2625.0000     8.5894   106.3191     2.4993     0.0411     0.1890   -33.7356    17.9024     8.4339
 2625.5000     8.5905   111.9519     2.4870     0.0397     0.1882   -33.5639    30.3544     8.2532
 2626.0000     8.5917   114.9586     2.4755     0.0369     0.1874   -33.5732    12.6836     7.9713
 2626.5000     8.5929   117.9653     2.4711     0.0340     0.1864   -33.8588    12.1822     7.8177
 2627.0000     8.5940   120.9721     2.4697     0.0341     0.1857   -33.9597    13.5190     7.8810
 2627.5000     8.5955   123.3980     2.4706     0.0342     0.1860   -33.9522    13.9161     7.9433
