~VERSION INFORMATION
 VERS.                2.0:   CWLS LOG ASCII STANDARD - VERSION 2.0
 WRAP.                 NO:   ONE LINE PER DEPTH STEP
~WELL INFORMATION
#MNEM.UNIT      DATA TYPE    INFORMATION
#----------   ------------   ------------------------------
 STRT.F           30.0000:   START DEPTH
 STOP.F         3240.0000:   STOP DEPTH
 STEP.F            0.5000:   STEP LENGTH
 NULL.          -999.2500:   NO VALUE
 COMP. LAWRENCE-ALLISON ASSOCIATES WES:   COMPANY
 WELL. LAWRENCE "AX" #87AX28:   WELL
 FLD .   TEAPOT N.P.R. #3:   FIELD
 LOC .      S28 T39N R78W:   LOCATION
 CNTY.            NATRONA:   COUNTY
 STAT.            WYOMING:   STATE
 CTRY. UNITED STATES OF AMERICA:   COUNTRY
 SRVC.       SCHLUMBERGER:   SERVICE COMPANY
 DATE.        28-MAY-1982:   LOGDATE
 API .     49025108860000:   API NUMBER
~CURVE INFORMATION
#MNEM.UNIT       API CODE    CURVE DESCRIPTION
#----------   ------------   ------------------------------
 DEPT.F                  :   
 TENR.LBS    07 635 01 00:   TENSION FROM RESISTIVITY
 GRR .GAPI   07 310 01 00:   GAMMA RAY FROM RESISTIVITY
 SPR .MV     07 010 01 00:   SPONTANEOUS POTENTIAL FROM RES.
 ILD .OHMM   07 120 46 00:   DEEP INDUCTION RESISTIVITY
 ILM .OHMM   07 120 44 00:   INDUCTION LOG MEDIUM RESISTIVITY
 SFL .OHMM   07 220 01 00:   SHALLOW FOCUSED LOG RESISITIVITY
 TEND.LBS    45 635 01 00:   TENSION FORM DENSITY LOG
 NPHI.DEC    42 890 03 00:   NEUTRON POROSITY SANDSTONE
 CALD.IN     45 280 60 00:   CALIPER FROM DENSITY LOG
 CORR.G/C3   45 356 01 00:   DENSITY CORRECTION
 RHOB.G/C3   45 350 01 00:   BULK DENSITY
~PARAMETER INFORMATION
#MNEM.UNIT          VALUE    DESCRIPTION
#----------   ------------   ------------------------------
 EKB .F         5070.0000:   Kelly bushing
 EGL .F         5060.0000:   Ground level
 TD  .F         3220.0000:   Total depth
 CLNT.            A2DTECH:   Client Code
 SL  . 1341' FSL & 162' FEL:   Surface Location
 PD  .                 GL:   Permanent Datum
 EPD .F              5060:   Elevation Permanent Datum
 LMF .                 KB:   Log Measured From
 DMF .                 KB:   Drilling Measured From
 DAPD.F                10:   Feet Above Permanent Datum
 DATE.        28-MAY-1982:   Date Logged [DD-MMM-YYYY]
 DD  .F              3220:   Depth driller
 DL  .F              3215:   Depth logger
 BLI .F              3212:   Bottom log interval
 TLI .F               489:   Top log interval
 CS1 .IN            9.625:   Casing size
 CBD1.      9.625" @ 461':   Casing driller 1
 CBL1.F               489:   Casing logger 1
 BS1 .IN            9.750:   Bit size
 BSD1.F              3220:   Depth drilled with bit1
 DFT .          POLY./KCL:   Type fluid in hole
 DFD .                8.8:   Density
 DFV .                 44:   Viscosity
 DFPH.                7.0:   pH
 DFL .                8.0:   Fluid loss
 MSS .           MUD TANK:   Source of sample
 RMS .OHMM          0.778:   Rm
 MST .F                65:   Rm Meas. temp.
 RMF .OHMM          0.710:   Rmf
 MFST.F                67:   Rmf Meas. temp.
 MFSS.               MEAS:   Source Rmf.
 RMB .OHMM          0.447:   Rm. at BHT
 BHT .F               118:   BHT.
 TCS .HRS            2000:   Time Circ. stopped
 TLAB.HRS            2430:   Time logger at bottom
 MRT .F               118:   Maximum recorded temp.
 LUN .               8043:   Logging unit number
 LUL .               CSPR:   Logging unit location
 ENGI.             DENNIS:   Recorded By
 WITN.             STRONG:   Witnessed by
 ORIG.           5" PRINT:   Origin of data
 UWI .     49025108860000:   Unique Well ID
 DICO. A2D TECHNOLOGIES, INC.:   Digitizing Company
~OTHER INFORMATION
~A   DEPT     TENR         GRR       SPR        ILD        ILM        SFL       TEND       NPHI       CALD       CORR       RHOB   
# ...
  487.5000  -999.2500    67.4749  -999.2500  -999.2500  -999.2500  -999.2500  -999.2500     0.0593  -999.2500  -999.2500  -999.2500
  488.0000  -999.2500    68.1780  -999.2500  -999.2500  -999.2500  -999.2500  -999.2500     0.0727  -999.2500  -999.2500  -999.2500
  488.5000  -999.2500    67.9594  -999.2500  -999.2500  -999.2500  -999.2500  -999.2500     0.0631  -999.2500  -999.2500  -999.2500
  489.0000   549.1419    66.0643     7.5179  1228.0499  1083.6302     0.2007   795.3032     0.0162     9.8116  -999.2500     2.4463
  489.5000   547.4542    64.5361    -9.9062  1355.5112  1516.0936     0.2051   794.5615    -0.0080     9.8570    -0.0426     2.5852
  490.0000   545.9595    65.6986   -16.1871  2000.0000  2000.0000     0.5107   793.8196    -0.0108     9.9196     0.0447     2.7276
  490.5000   544.4618    72.6011   -25.6840  2000.0000  2000.0000     3.4706   793.0779    -0.0096    10.0239     0.0744     2.6700
  491.0000   542.5965    79.9629   -31.9649  1645.7628  1642.9648    11.5772   792.3361    -0.0096    10.1914     0.0604     2.5758
  491.5000   541.1019    83.1900   -34.7236   456.3688   552.8139    14.3423   791.5943    -0.0140    10.5268     0.0398     2.5019
  492.0000   539.7816    86.1874   -36.2736    91.9285   202.6062    11.1035   790.8525    -0.0420    10.9844     0.0200     2.4677
  492.5000   538.2216    88.4956   -38.0976     2.2556     6.3146     9.2967   790.1107    -0.0457    11.3962     0.0053     2.4507
  493.0000   536.6179    89.4256   -40.0907   295.9309     6.0089     8.9756   789.3690    -0.0464    11.6553     0.0046     2.4453
  493.5000   535.1014    88.2198   -41.7973  1581.1342     6.4721     9.0475   788.6271    -0.0415    11.8081     0.0093     2.4516
  494.0000   533.2549    86.4617   -43.0168  2000.0000     7.0408     9.4448   787.8854    -0.0367    11.9161     0.0117     2.4672
  494.5000   531.7602    86.9351   -44.2324  2000.0000    10.4241    10.0035   787.1436    -0.0352    11.9744     0.0126     2.4751
  495.0000   530.2655    89.2434   -45.0003  1852.4774    22.0361    10.2976   786.4018    -0.0346    12.0046     0.0126     2.4791
  495.5000   528.7709    88.1060   -45.9214   937.6341    25.7866    10.4491   785.7143    -0.0322    12.0346     0.0135     2.4791
  496.0000   527.2762    85.3606   -46.6893   115.0342    14.5963    10.2343   783.6769    -0.0262    12.0342     0.0135     2.4775
  496.5000   525.7410    84.8775   -47.6103     9.2933     7.9152     9.9516   781.7784    -0.0174    12.0491     0.0128     2.4723
  497.0000   523.9132    87.2206   -48.3844     9.1653     7.4814     9.5945   779.8798    -0.0137    12.0638     0.0082     2.4684
  497.5000   522.4185    89.0888   -49.1467     9.9903     8.9466     9.2774   777.9813    -0.0031    12.0791     0.0044     2.4646
  498.0000   520.9238    88.1646   -50.0677    10.9661    12.0742     8.9571   776.0828     0.0142    12.0959     0.0029     2.4600
  498.5000   519.4292    86.3380   -50.9888    11.3699    13.9315     8.4650   774.1843     0.0301    12.1083     0.0021     2.4546
  499.0000   517.9344    85.6573   -51.6035    11.1272    12.7072     8.0571   772.2858     0.0334    12.1077     0.0038     2.4524
  499.5000   516.3807    86.8198   -52.2183    10.0123     8.9051     7.5604   770.3873     0.0312    12.0920     0.0085     2.4556
  500.0000   514.5715    88.8983   -52.8331     7.5860     7.7275     7.2476   768.4888     0.0019    12.0916     0.0148     2.4673
  500.5000   513.0768    85.9233   -53.4724     7.3242     7.1933     6.9827   766.5903    -0.0073    12.1065     0.0164     2.4736
  501.0000   511.5821    83.8530   -54.0632     7.0714     6.8070     6.5202   764.6918    -0.0061    12.1365     0.0126     2.4705
  501.5000   510.0875    80.1485   -54.6779     6.7306     6.4799     6.2951   762.7933     0.0032    12.1520     0.0095     2.4577
  502.0000   508.5804    83.6332   -55.2927     6.2708     5.7444     6.0346   760.8948     0.0302    12.1967     0.0088     2.4473
  502.5000   522.3251    85.9347   -55.7543     5.5531     5.2024     5.8263   758.9962     0.0484    12.2419     0.0097     2.4450
  503.0000   520.8304    86.6283   -55.7565     4.6869     4.5144     4.7751   757.0977     0.0466    12.2721     0.0122     2.4436
  503.5000   519.3357    85.9436   -55.4525     3.6800     3.7169     3.6841   755.1992     0.0325    12.3326     0.0199     2.4296
  504.0000   517.8411    84.7994   -55.3015     2.5597     2.6308     2.8017   753.3007     0.0346    12.3780     0.0301     2.3907
  504.5000   516.3464    84.8285   -55.3043     2.2366     2.3157     2.4136   751.4022     0.1215    12.4386     0.0387     2.3281
  505.0000   546.0529    85.9579   -55.3065     2.1594     2.1884     2.3300   749.5037     0.1678    12.4840     0.0442     2.2959
  505.5000   544.1846    86.6515   -55.3087     2.1759     2.1742     2.7270   747.6052     0.2133    12.5302     0.0389     2.2461
  506.0000   542.6900    87.1153   -55.0046     2.2772     2.2388     2.7872   745.7067     0.2176    12.5594     0.0132     2.2080
  506.5000   541.1953    87.3494   -55.0191     3.2243     2.6390     2.8897   743.8082     0.2102    12.3298    -0.0039     2.2353
  507.0000   524.1000    88.0430   -55.3159     3.7469     3.3721     3.9653   741.9097     0.1531    11.8409    -0.0054     2.2798
  507.5000   522.6053    88.9817   -55.3181     4.4167     4.2895     5.6508   740.0112     0.0893    11.7335     0.0064     2.3786
  508.0000   521.0608    89.4301   -55.1666     5.3189     4.9847     5.9851   738.1126     0.0258    11.7178     0.0127     2.4747
  508.5000   535.2166    87.8276   -55.0157     6.0935     5.5502     6.0739   736.2141     0.0127    11.7174     0.0089     2.4763
  509.0000   533.3483    86.6835   -54.8652     7.1319     6.0493     6.2081   734.3156     0.0230    11.7322     0.0058     2.4654
  509.5000   531.8536    85.7691   -54.8675     7.8299     6.3625     6.4362   732.4171     0.0425    11.7318     0.0035     2.4678
  510.0000   545.9595    85.5130   -54.8703     8.0592     6.6919     6.7205   730.5186     0.0513    11.7312     0.0005     2.4734
  510.5000   544.4618    86.9449   -55.1788     8.1219     6.9429     6.9751   728.6201     0.0408    11.7308    -0.0050     2.4758
  511.0000   542.5966    89.4588   -55.3341     8.1261     7.1449     7.2245   726.7216     0.0330    11.7303    -0.0088     2.4693
  511.5000   541.1019    89.4632   -55.3363     8.1303     7.2519     7.2280   724.8231     0.0369    11.7299    -0.0079     2.4619
  512.0000   539.6072    89.0071   -55.3385     8.1345     7.3083     7.2315   724.8610     0.0505    11.7294    -0.0039     2.4659
  512.5000   538.1125    89.4720   -55.4939     8.1387     7.3128     7.2349   725.3113     0.0609    11.7290     0.0000     2.4722
  513.0000   536.6180    91.0844   -55.5207     8.1430     7.3173     7.2384   725.7617     0.0633    11.7133    -0.0007     2.4746
  513.5000   550.7238    91.0888   -55.6520     8.1473     7.3219     7.2419   726.2120     0.0602    11.7128    -0.0008     2.4661
  514.0000   548.8555    90.4041   -55.8073     8.1524     7.3265     7.2462   726.6623     0.0244    11.7123     0.0010     2.4599
  514.5000   547.3608    90.1799   -55.8095     8.1566     7.3321     7.3015   727.1125     0.0161    11.6966     0.0098     2.4732
  515.0000   545.8662    89.4952   -55.9649     8.1608     7.3890     7.3573   727.5629     0.0274    11.6809     0.0174     2.4850
  515.5000   544.3715    88.3511   -55.9671     8.1650     7.4465     7.4134   728.0132     0.0286    11.6346     0.0113     2.4695
  516.0000   542.8768    85.8276   -56.2757     8.1693     7.5043     7.6859   728.4635     0.0197    11.5731     0.0036     2.4501
  516.5000   541.3417    86.7520   -56.4315     8.1154     7.6167     7.9684   728.9138     0.0108    11.4352    -0.0003     2.4509
  517.0000   539.5137    89.2250   -56.5868     8.1111     7.6759     7.6825   729.3641     0.0007    11.2974    -0.0010     2.4627
  517.5000   553.9934    93.6532   -56.7422     8.0098     7.6191     7.4277   729.8144    -0.0088    11.1717     0.0006     2.4740
