~VERSION INFORMATION
 VERS.                2.0:   CWLS LOG ASCII STANDARD - VERSION 2.0
 WRAP.                 NO:   ONE LINE PER DEPTH STEP
~WELL INFORMATION
#MNEM.UNIT      DATA TYPE    INFORMATION
#----------   ------------   ------------------------------
 STRT.F            0.5000:   START DEPTH
 STOP.F         5663.0000:   STOP DEPTH
 STEP.F            0.5000:   STEP LENGTH
 NULL.          -999.2500:   NO VALUE
 COMP.         U. S. NAVY:   COMPANY
 WELL.         US TP #1-3:   WELL
 FLD . TEAPOT NAVAL RESERVE:   FIELD
 LOC .       S3 T38N R78W:   LOCATION
 CNTY.            NATRONA:   COUNTY
 STAT.            WYOMING:   STATE
 CTRY. UNITED STATES OF AMERICA:   COUNTRY
 SRVC.       SCHLUMBERGER:   SERVICE COMPANY
 DATE.        27-FEB-1953:   LOGDATE
 API .     49025064250000:   API NUMBER
~CURVE INFORMATION
#MNEM.UNIT       API CODE    CURVE DESCRIPTION
#----------   ------------   ------------------------------
 DEPT.F                  :   
 SPR .MV     01 010 01 00:   SPONTANEOUS POTENTIAL FROM RES.
 ASN .OHMM   01 041 16 00:   AMPLIFIED SHORT NORMAL 16"
 LAT .OHMM   01 070 00 00:   LATERAL
 LN  .OHMM   01 060 64 00:   LONG NORMAL 64"
 GRN .CPS    35 310 01 00:   GAMMA RAY
 NEUT.NAPI   35 330 01 00:   NEUTRON
~PARAMETER INFORMATION
#MNEM.UNIT          VALUE    DESCRIPTION
#----------   ------------   ------------------------------
 EKB .F            0.0000:   Kelly bushing
 EGL .F            0.0000:   Ground level
 EDF .F            0.0000:   Drilling floor
 EPD .F            0.0000:   Permanent datum
 TD  .F         5653.0000:   Total depth
 DATE.        27-FEB-1953:   Date logged
 CLNT.            A2DTECH:   Client Code
 DD  .F              5653:   Depth driller
 DL  .F              5653:   Depth logger
 BLI .F              5652:   Bottom log interval
 TLI .F               446:   Top log interval
 CBD1.F               445:   Casing driller 1
 CBL1.F               446:   Casing logger 1
 BS1 .IN                9:   Bit size
 BSD1.F              5653:   Depth drilled with bit1
 DFT .          LIMA/BASE:   Type fluid in hole
 DFD .                9.9:   Density
 DFV .                 43:   Viscosity
 RMS .OHMM            1.1:   Rm
 MST .F                55:   Rm Meas. temp.
 RMB .OHMM            .34:   Rm. at BHT
 BHT .F               166:   BHT.
 TCS .HRS               1:   Time Circ. stopped
 MRT .F               166:   Maximum recorded temp.
 LUN .                728:   Logging unit number
 LUL .               CSPR:   Logging unit location
 ENGI.            EVENSON:   Recorded By
 WITN.              MILLS:   Witnessed by
 ORIG.      1" 2.5" PRINT:   Origin of data
 UWI .     49025064250000:   Unique Well ID
 DICO. A2D TECHNOLOGIES, INC.:   Digitizing Company
~OTHER INFORMATION
~A  DEPTH      SPR        ASN        LAT         LN        GRN       NEUT
# ...
 4212.5000   -42.7651     4.4565     4.0551     5.9363    57.7185   175.5009
 4213.0000   -42.7698     4.4565     4.1481     6.0635    53.2173   155.2488
 4213.5000   -43.0448     4.5109     4.2209     6.0628    49.7161   132.4716
 4214.0000   -43.0494     4.5380     4.3262     6.0621    48.2148   119.7953
 4214.5000   -43.0530     4.5516     4.3844     6.0615    48.2555   122.2705
 4215.0000   -42.7857     4.5652     4.5013     6.0600    49.2126   162.6163
 4215.5000   -42.7896     4.6196     4.6635     5.9557    49.9612   200.4450
 4216.0000   -42.7936     4.7011     4.7655     5.9243    50.2101   225.6559
 4216.5000   -42.6178     4.8641     4.8973     5.9900    49.4585   233.1816
 4217.0000   -42.5299     5.3533     4.9066     6.0581    48.2073   253.3253
 4217.5000   -42.2627     5.6522     5.0269     6.0574    46.9473   268.4268
 4218.0000   -41.9943     5.9783     5.2938     6.1918    45.2048   275.9692
 4218.5000   -41.7269     6.5217     5.4259     6.3265    44.2038   240.5491
 4219.0000   -41.7310     6.7391     5.6928     6.4609    43.7024   222.8223
 4219.5000   -41.1923     6.8207     5.5260     6.4601    44.2011   212.6712
 4220.0000   -41.0598     6.7308     5.2830     6.4594    46.6999   159.5910
 4220.5000   -40.9272     6.5217     5.2802     6.5939    49.1987    88.8339
 4221.0000   -40.6603     6.2766     5.2772     6.5932    50.6975    83.7334
 4221.5000   -40.6032     5.8696     5.4097     6.5925    49.1962    95.9844
 4222.0000   -40.1253     5.4620     5.8110     6.4567    46.9448   116.4616
 4222.5000   -39.7894     5.2174     5.9813     6.1857    45.1936   146.7147
 4223.0000   -39.5897     4.9728     6.3450     5.7513    43.8694   184.5434
 4223.5000   -39.3213     4.9185     6.9321     4.9682    42.4572   209.7376
 4224.0000   -39.3261     5.0179     7.5521     4.5621    41.1900   222.3306
 4224.5000   -39.3302     5.2446     8.1003     4.2912    41.4387   207.1124
 4225.0000   -39.3346     5.4891     8.7823     4.1554    43.1877   191.9192
 4225.5000   -39.3386     5.6793     9.3380     4.2899    48.1860   164.0831
 4226.0000   -39.3641     5.7065    10.1027     4.4255    52.1848   161.5078
 4226.5000   -39.5354     5.5707    10.7735     4.7199    54.1838   182.1163
 4227.0000   -39.6223     5.5163    11.1756     4.8719    53.1041   191.7191
 4227.5000   -39.5928     5.4620    11.3073     4.9628    51.8492   163.8831
 4228.0000   -39.3584     5.4348    10.4956     5.0502    50.3748   169.8004
 4228.5000   -39.5853     5.3261     8.8758     5.2317    49.6787   178.9346
 4229.0000   -39.4918     5.2446     7.6602     5.2311    49.4274   171.4177
 4229.5000   -39.3709     5.1876     6.8160     5.3655    50.6760   138.4305
 4230.0000   -39.3750     5.0543     6.3073     5.2297    58.1748   105.5522
 4230.5000   -39.3791     4.9604     5.8525     5.0938    61.4235    97.9265
 4231.0000   -39.3832     4.8641     5.6277     5.1267    65.1723   103.2972
 4231.5000   -39.3133     4.7722     5.2032     5.4979    67.9211   121.9751
 4232.0000   -39.1198     4.7199     4.9110     5.8109    70.4199   135.6635
 4232.5000   -39.1236     4.6739     4.6294     6.0372    71.1688    72.4656
 4233.0000   -39.0752     4.6084     4.2695     6.3066    68.1674    67.2691
 4233.5000   -38.9678     4.5380     4.1317     6.5762    66.1662    92.5676
 4234.0000   -38.8640     4.4293     3.9123     6.5757    65.4150   113.0410
 4234.5000   -38.8682     4.2935     3.5616     6.7102    64.1635   130.3463
 4235.0000   -38.6685     4.2120     3.1560     6.7094    62.1623   140.3974
 4235.5000   -38.7852     4.1304     2.8601     6.7088    59.1611   160.5494
 4236.0000   -38.8812     4.1304     2.5013     6.8086    55.6996   193.3276
 4236.5000   -38.8845     4.1304     2.3635     6.9022    50.4086   233.6817
 4237.0000   -38.8886     4.2391     2.1519     6.9770    45.4074   258.8842
 4237.5000   -38.8927     4.5652     2.0889     7.1114    40.1562   296.7130
 4238.0000   -38.8967     5.1902     2.0861     7.1107    37.4049   344.6428
 4238.5000   -38.9008     5.4585     2.3712     7.3081    38.9035   353.1401
 4239.0000   -38.9049     5.8424     2.7547     7.5665    39.8139   304.1388
 4239.5000   -38.9090     6.3043     3.2907     7.9196    40.9011   273.7940
 4240.0000   -38.9130     6.7935     3.5576     8.3243    41.1502   301.5052
 4240.5000   -39.1889     7.3913     4.0941     8.9992    40.1486   324.1824
 4241.0000   -39.4647     8.2337     4.2952     9.5003    39.3438   354.4354
 4241.5000   -39.7409     8.6957     4.6178    10.0928    39.1462   379.6463
 4242.0000   -39.7448     8.9130     4.8944    10.7540    39.6451   402.3682
 4242.5000   -40.2923     9.2120     5.1617    11.1729    35.3937   412.3746
 4243.0000   -40.6525     9.4022     5.1990    11.6986    35.1425   407.2657
 4243.5000   -40.8438     9.7011     5.3031    12.1033    41.1410   384.4884
 4244.0000   -40.9131     9.7826     5.4656    12.5081    42.1402   399.5900
 4244.5000   -41.3958    10.1902     5.5556    12.6426    40.6386   434.8935
 4245.0000   -41.6715    10.3261     5.5521    12.9121    39.3002   455.0538
 4245.5000   -41.6753    10.3307     5.6846    13.0007    37.7698   417.1167
 4246.0000   -41.9519    10.4620     5.6816    13.0459    35.8849   381.7132
 4246.5000   -41.9552    10.5978     5.6792    13.2055    33.1337   394.2894
 4247.0000   -41.9592    10.5978     5.6763    13.3911    29.6323   429.5930
 4247.5000   -41.9633    10.5978     5.6739    13.4494    24.8810   480.0480
 4248.0000   -41.9678    10.5978     5.6707    13.5839    23.3800   505.2505
 4248.5000   -41.9718    10.7337     6.0723    13.4480    26.6286   520.3604
 4249.0000   -41.9755    10.7337     6.2045    13.5393    30.1273   497.5664
 4249.5000   -41.9804    10.7642     6.6062    13.4466    33.1261   474.7891
 4250.0000   -41.7120    10.8696     6.7770    13.4459    34.3751   464.6465
 4250.5000   -41.7160    10.7337     7.2748    13.4238    33.8737   493.8664
 4251.0000   -41.7206    10.7337     7.4550    13.3095    32.3724   515.0432
 4251.5000   -41.6584    10.5978     7.8086    13.1735    29.3710   525.1025
 4252.0000   -41.4565    10.5978     8.3446    13.1729    27.6198   499.7917
 4252.5000   -41.3419    10.4620     8.6116    13.0372    25.8419   502.2669
 4253.0000   -41.1929    10.3261     8.9790    13.0364    25.1177   504.7505
 4253.5000   -41.1976    10.3261     9.3361    12.9306    29.8661   494.5911
 4254.0000   -41.2011    10.3261     9.6946    12.9000    36.6149   446.5613
 4254.5000   -41.2052    10.3261    10.0951    12.8993    41.5839   403.5820
 4255.0000   -41.2092    10.3261    10.3946    12.8986    44.8624   373.2290
 4255.5000   -41.2133    10.3261    10.8511    12.8980    46.1112   352.9770
 4256.0000   -41.1088    10.3424    11.3209    13.0326    48.1098   354.7400
 4256.5000   -40.9497    10.4620    11.6292    13.0318    51.1085   373.0790
 4257.0000   -40.9538    10.4620    12.0789    13.0386    52.6073   380.6047
 4257.5000   -40.9579    10.4620    12.4932    13.1655    52.8563   385.6136
 4258.0000   -40.9620    10.4952    12.9975    13.4479    51.3549   367.8701
 4258.5000   -40.9660    10.5978    13.4475    13.5696    50.0470   340.0423
 4259.0000   -40.9701    10.6756    13.7970    13.7042    49.1024   317.2651
 4259.5000   -40.9742    10.7337    14.1731    13.9735    51.3512   337.4171
 4260.0000   -40.9783    10.7337    14.6356    14.1080    54.8498   390.3974
 4260.5000   -40.9829    10.8696    14.9025    14.3027    55.0989   377.7211
 4261.0000   -40.9864    10.8696    15.0355    14.5228    54.3473   354.9438
 4261.5000   -40.8696    10.8696    15.1672    14.6467    51.0961   357.4191
 4262.0000   -40.7224    10.8696    15.1644    14.6459    47.5948   362.4279
 4262.5000   -40.7269    10.8696    15.1617    14.6453    44.3587   382.5716
 4263.0000   -40.7310    10.8696    15.0091    14.6446    39.0924   412.8246
 4263.5000   -40.7357    10.8696    14.8863    14.6439    30.8412   483.4817
 4264.0000   -40.7397    10.8696    14.7385    14.6432    29.0899   501.1085
