~VERSION INFORMATION
 VERS.                2.0:   CWLS LOG ASCII STANDARD - VERSION 2.0
 WRAP.                 NO:   ONE LINE PER DEPTH STEP
~WELL INFORMATION
#MNEM.UNIT      DATA TYPE    INFORMATION
#----------   ------------   ------------------------------
 STRT.F           31.0000:   START DEPTH
 STOP.F         2926.0000:   STOP DEPTH
 STEP.F            0.5000:   STEP LENGTH
 NULL.          -999.2500:   NO VALUE
 COMP. LAWERNCE ALLISON AND ASSOCIATES:   COMPANY
 WELL.   FENIX "X" #17-21:   WELL
 FLD .             NPR #3:   FIELD
 LOC .      S21 T39N R78W:   LOCATION
 CNTY.            NATRONA:   COUNTY
 STAT.            WYOMING:   STATE
 CTRY. UNITED STATES OF AMERICA:   COUNTRY
 SRVC.      WESTERN ATLAS:   SERVICE COMPANY
 DATE.        02-NOV-1987:   LOGDATE
 API .     49025111960000:   API NUMBER
~CURVE INFORMATION
#MNEM.UNIT       API CODE    CURVE DESCRIPTION
#----------   ------------   ------------------------------
 DEPT.F                  :   
 CALD.IN     45 280 60 00:   CALIPER FROM DENSITY LOG
 TEND.LBS    45 635 01 00:   TENSION FROM DENSITY LOG
 CORR.G/C3   45 356 01 00:   DENSITY CORRECTION
 RHOB.G/C3   45 350 01 00:   BULK DENSITY
 CNC .DEC    42 890 03 00:   NEUTRON POROSITY SANDSTONE
 SPR .MV     07 010 01 00:   SPONTANEOUS POTENTIAL
 GRR .GAPI   07 310 01 00:   GAMMA RAY FROM RESISTIVITY
 TENR.LBS    07 635 01 00:   TENSION FROM RESISTIVITY
 RFOC.OHMM   07 220 04 00:   RESISTIVITY FOCUSED LOG RES.
 RILD.OHMM   07 120 46 00:   DEEP INDUCTION RESISTIVITY
 RILM.OHMM   07 120 44 00:   INDUCTION LOG MEDIUM RESISTIVITY
~PARAMETER INFORMATION
#MNEM.UNIT          VALUE    DESCRIPTION
#----------   ------------   ------------------------------
 EKB .F         5006.0000:   Kelly bushing
 EGL .F         4995.0000:   Ground level
 EDF .F            0.0000:   Drilling floor
 TD  .F         2915.0000:   Total depth
 DATE.        02-NOV-1987:   Date logged
 CLNT.            A2DTECH:   Client Code
 SL  . 1824' FSL & 399' FWL:   Surface Location
 PD  .                 GL:   Permanent Datum
 DD  .F              2911:   Depth driller
 DL  .F              2915:   Depth logger
 BLI .F              2913:   Bottom log interval
 CS1 .IN            8.625:   Casing size
 CBD1.      8.625" @ 350':   Casing driller 1
 CBL1.F               350:   Casing logger 1
 BS1 .IN            7.875:   Bit size
 DFT .        KCL-POLYMER:   Type fluid in hole
 DFD .                8.8:   Density
 DFV .                 42:   Viscosity
 DFPH.                9.5:   pH
 DFL .                 11:   Fluid loss
 MSS .           FLOWLINE:   Source of sample
 RMS .OHMM           0.41:   Rm
 MST .F                78:   Rm Meas. temp.
 RMF .OHMM           0.29:   Rmf
 MFST.F                78:   Rmf Meas. temp.
 RMC .OHMM           0.51:   Rmc
 MCST.F                78:   Rmc Meas. temp.
 MFSS.               MEAS:   Source Rmf.
 RMB .OHMM           0.29:   Rm. at BHT
 BHT .F               108:   BHT.
 TCS .HRS               5:   Time Circ. stopped
 MRT .F               108:   Maximum recorded temp.
 LUN .            HL-6274:   Logging unit number
 LUL .           GILLETTE:   Logging unit location
 WITN.             STRONG:   Witnessed by
 ORIG.           5" PRINT:   Origin of data
 UWI .     49025111960000:   Unique Well ID
 DICO. A2D TECHNOLOGIES, INC.:   Digitizing Company
 DAPD.                 11:   Feet Above Permanent Datum
 BSD1.               2911:   Depth drilled with bit1
 MCSS.               CALC:   Source Rmc.
 EPD .               4995:   Elevation Permanent Datum
 LMF .                 KB:   Log Measured From
 DMF .                 KB:   Drilling Measured From
 TLI .                 11:   Top log interval
~OTHER INFORMATION
~A   DEPT     CALD       TEND       CORR       RHOB        CNC        SPR         GRR      TENR       RFOC       RILD       RILM   
# ...
  702.0000  -999.2500  -999.2500  -999.2500  -999.2500  -999.2500   -23.6190   100.1590   -81.6710     9.4520    10.3430     9.9560
  702.5000  -999.2500  -999.2500  -999.2500  -999.2500  -999.2500   -23.5030    99.9690   -81.4970     9.4250    10.3190     9.9550
  703.0000  -999.2500  -999.2500  -999.2500  -999.2500  -999.2500   -23.3830    98.4780   -81.3240     9.3970    10.3190     9.9580
  703.5000  -999.2500  -999.2500  -999.2500  -999.2500  -999.2500   -23.2660    97.7650   -81.1510     9.3700    10.3190     9.9620
  704.0000  -999.2500  -999.2500  -999.2500  -999.2500  -999.2500   -23.1570    99.8230   -80.9770     9.3430    10.3190     9.9490
  704.5000  -999.2500  -999.2500  -999.2500  -999.2500  -999.2500   -23.1550   101.2430   -80.8040     9.3160    10.3190     9.9750
  705.0000  -999.2500  -999.2500  -999.2500  -999.2500  -999.2500   -23.1390   104.4400   -80.6300     9.2890    10.3190     9.7660
  705.5000  -999.2500  -999.2500  -999.2500  -999.2500  -999.2500   -23.2670   106.0860   -80.4570     9.2710    10.3190     9.8790
  706.0000  -999.2500  -999.2500  -999.2500  -999.2500  -999.2500   -23.7020   105.9990   -80.2840     9.2980    10.3190     9.9700
  706.5000  -999.2500  -999.2500  -999.2500  -999.2500  -999.2500   -23.9520   102.8910   -80.1100     9.3600    10.3190    10.0570
  707.0000  -999.2500  -999.2500  -999.2500  -999.2500  -999.2500   -23.9220    99.2600   -79.9370     9.4220    10.3190    10.1360
  707.5000  -999.2500  -999.2500  -999.2500  -999.2500  -999.2500   -23.9310    95.7990   -79.7630     9.4830    10.3190    10.1360
  708.0000  -999.2500  -999.2500  -999.2500  -999.2500  -999.2500   -23.9380    96.0900   -79.5900     9.5450    10.3200    10.1020
  708.5000  -999.2500  -999.2500  -999.2500  -999.2500  -999.2500   -23.9080    99.4410   -79.4170     9.6060    10.3190    10.0430
  709.0000  -999.2500  -999.2500  -999.2500  -999.2500  -999.2500   -24.1120   101.1620   -79.2430     9.6060    10.3200     9.9830
  709.5000  -999.2500  -999.2500  -999.2500  -999.2500  -999.2500   -24.4120    99.9210   -79.0700     9.6060    10.3190     9.9230
  710.0000  -999.2500  -999.2500  -999.2500  -999.2500  -999.2500   -24.6780   100.6860   -78.8970     9.6070    10.3200     9.8630
  710.5000  -999.2500  -999.2500  -999.2500  -999.2500  -999.2500   -24.7440   102.8840   -78.7230     9.5310    10.3220     9.8040
  711.0000  -999.2500  -999.2500  -999.2500  -999.2500  -999.2500   -24.3940   102.9060   -78.5500     9.4460    10.2820     9.7440
  711.5000  -999.2500  -999.2500  -999.2500  -999.2500  -999.2500   -24.2790    99.8910   -78.3760     9.3600    10.1670     9.6840
  712.0000  -999.2500  -999.2500  -999.2500  -999.2500  -999.2500   -24.2290    96.8280   -78.2030     9.2740    10.0520     9.6250
  712.5000  -999.2500  -999.2500  -999.2500  -999.2500  -999.2500   -24.2060    97.1960   -78.0300     9.1890     9.9370     9.5650
  713.0000  -999.2500  -999.2500  -999.2500  -999.2500  -999.2500   -24.1560   100.2720   -77.8560     9.1050     9.8220     9.5050
  713.5000  -999.2500  -999.2500  -999.2500  -999.2500  -999.2500   -24.1180   106.7070   -77.6830     9.1050     9.7070     9.4370
  714.0000  -999.2500  -999.2500  -999.2500  -999.2500  -999.2500   -24.0780   106.4790   -77.5090     9.1050     9.5920     9.2690
  714.5000  -999.2500  -999.2500  -999.2500  -999.2500  -999.2500   -24.0380   104.8330   -77.3360     9.1050     9.4770     9.2470
  715.0000  -999.2500  -999.2500  -999.2500  -999.2500  -999.2500   -23.9990   102.0960   -77.1630     8.9780     9.3610     9.1720
  715.5000  -999.2500  -999.2500  -999.2500  -999.2500  -999.2500   -23.9560   102.1620   -76.9890     8.7290     9.2460     9.0960
  716.0000  -999.2500  -999.2500  -999.2500  -999.2500  -999.2500   -23.9300   105.3630   -76.8160     8.4800     9.1310     9.0200
  716.5000  -999.2500  -999.2500  -999.2500  -999.2500  -999.2500   -23.9360   109.1360   -76.6430     8.3260     9.1050     8.9440
  717.0000  -999.2500  -999.2500  -999.2500  -999.2500  -999.2500   -24.0300   108.4670   -76.4690     8.5240     9.2330     9.0260
  717.5000  -999.2500  -999.2500  -999.2500  -999.2500  -999.2500   -24.1150   103.6820   -76.2960     8.7230     9.3610     9.1100
  718.0000  -999.2500  -999.2500  -999.2500  -999.2500  -999.2500   -24.2060   100.4090   -76.1220     8.9230     9.4890     9.1930
  718.5000  -999.2500  -999.2500  -999.2500  -999.2500  -999.2500   -24.2930    97.2190   -75.9490     9.1050     9.6070     9.2690
  719.0000  -999.2500  -999.2500  -999.2500  -999.2500  -999.2500   -24.3810    97.8650   -75.7760     9.1050     9.6000     9.4370
  719.5000  -999.2500  -999.2500  -999.2500  -999.2500  -999.2500   -24.4700   102.2420   -75.6020     9.1050     9.5780     9.2960
  720.0000  -999.2500  -999.2500  -999.2500  -999.2500  -999.2500   -24.5580   106.1040   -75.4290     9.1050     9.5570     9.1430
  720.5000  -999.2500  -999.2500  -999.2500  -999.2500  -999.2500   -24.6470   110.8660   -75.2560     9.1050     9.5350     8.9890
  721.0000  -999.2500  -999.2500  -999.2500  -999.2500  -999.2500   -24.7360   108.3130   -75.0820     8.8940     9.5130     8.8350
  721.5000  -999.2500  -999.2500  -999.2500  -999.2500  -999.2500   -24.8230   103.7890   -74.9090     8.7150     9.4910     8.6820
  722.0000  -999.2500  -999.2500  -999.2500  -999.2500  -999.2500   -24.9120   100.9770   -74.7350     8.4760     9.4690     8.4760
  722.5000  -999.2500  -999.2500  -999.2500  -999.2500  -999.2500   -25.0010    99.9850   -74.5620     8.5170     9.4480     8.5160
  723.0000  -999.2500  -999.2500  -999.2500  -999.2500  -999.2500   -25.0880   100.0670   -74.3890     8.6670     9.4370     8.6630
  723.5000  -999.2500  -999.2500  -999.2500  -999.2500  -999.2500   -25.0830   101.4980   -74.2150     8.8160     9.4370     8.8090
  724.0000  -999.2500  -999.2500  -999.2500  -999.2500  -999.2500   -24.8060   101.5270   -74.0420     8.9440     9.4370     8.9550
  724.5000  -999.2500  -999.2500  -999.2500  -999.2500  -999.2500   -24.6940   101.5560   -73.8680     8.9440     9.4080     9.1050
  725.0000  -999.2500  -999.2500  -999.2500  -999.2500  -999.2500   -24.5680   101.4700   -73.6950     8.8870     9.3290     9.1050
  725.5000  -999.2500  -999.2500  -999.2500  -999.2500  -999.2500   -24.4560    99.4350   -73.5220     8.8290     9.2500     9.1050
  726.0000  -999.2500  -999.2500  -999.2500  -999.2500  -999.2500   -24.3340    98.3070   -73.3480     8.7190     9.1710     8.9470
  726.5000  -999.2500  -999.2500  -999.2500  -999.2500  -999.2500   -24.2180    99.2270   -73.1750     8.4470     9.0920     8.6980
  727.0000  -999.2500  -999.2500  -999.2500  -999.2500  -999.2500   -24.1020   100.0540   -73.0020     8.1740     9.0130     8.4490
  727.5000  -999.2500  -999.2500  -999.2500  -999.2500  -999.2500   -23.9780   100.0700   -72.8280     7.9010     8.9440     8.1990
  728.0000  -999.2500  -999.2500  -999.2500  -999.2500  -999.2500   -23.9230    98.8170   -72.6550     7.6140     9.1810     8.0340
  728.5000  -999.2500  -999.2500  -999.2500  -999.2500  -999.2500   -23.8950    96.2330   -72.4810     8.0300     9.4070     8.3330
  729.0000  -999.2500  -999.2500  -999.2500  -999.2500  -999.2500   -23.8670    95.1110   -72.3080     8.7800     9.6330     8.6490
  729.5000  -999.2500  -999.2500  -999.2500  -999.2500  -999.2500   -23.8360    97.0070   -72.1350     9.5290     9.8590     8.9650
  730.0000  -999.2500  -999.2500  -999.2500  -999.2500  -999.2500   -23.8080   101.1180   -71.9610     9.9570    10.0850     9.2690
  730.5000  -999.2500  -999.2500  -999.2500  -999.2500  -999.2500   -23.7780   104.7290   -71.7880     9.9570    10.3110     9.6070
  731.0000  -999.2500  -999.2500  -999.2500  -999.2500  -999.2500   -23.7490   105.4260   -71.6150     9.9570    10.5370     9.7730
  731.5000  -999.2500  -999.2500  -999.2500  -999.2500  -999.2500   -23.7190   105.3940   -71.4410    10.2240    10.7630     9.9630
  732.0000  -999.2500  -999.2500  -999.2500  -999.2500  -999.2500   -23.6900   103.1610   -71.2680    10.5100    10.9890    10.1540
