~VERSION INFORMATION
 VERS.                2.0:   CWLS LOG ASCII STANDARD - VERSION 2.0
 WRAP.                 NO:   ONE LINE PER DEPTH STEP
~WELL INFORMATION
#MNEM.UNIT      DATA TYPE    INFORMATION
#----------   ------------   ------------------------------
 STRT.F          484.0000:   START DEPTH
 STOP.F         4334.0000:   STOP DEPTH
 STEP.F            0.5000:   STEP LENGTH
 NULL.          -999.2500:   NO VALUE
 COMP.    FENIX & SCISSON:   COMPANY
 WELL. FENIX NPR 3 "JX" #46-27:   WELL
 FLD .              N P R:   FIELD
 LOC .      S27 T39N R78W:   LOCATION
 CNTY.            NATRONA:   COUNTY
 STAT.            WYOMING:   STATE
 CTRY. UNITED STATES OF AMERICA:   COUNTRY
 SRVC.       SCHLUMBERGER:   SERVICE COMPANY
 DATE.        01-MAR-1979:   LOGDATE
 API .     49025107660000:   API NUMBER
~CURVE INFORMATION
#MNEM.UNIT       API CODE    CURVE DESCRIPTION
#----------   ------------   ------------------------------
 DEPT.F                  :   
 TENR.LBS    07 635 01 00:   TENSION FROM RESISTIVITY
 SPR .MV     07 010 01 00:   SPONTANEOUS POTENTIAL
 SFL .OHMM   07 220 01 00:   SHALLOW FOCUSED LOG RESISTIVITY
 ILD .OHMM   07 120 46 00:   DEEP INDUCTION RESISTIVITY
 ILM .OHMM   07 120 44 00:   INDUCTION LOG MEDIUM RESISTIVITY
 TEND.LBS    42 635 01 00:   TENSION FROM COMPENSATE NEUTRON
 GRD .GAPI   45 310 01 00:   GAMMA RAY FROM DENSITY LOG
 CALD.IN     45 280 60 00:   CALIPER FROM DENSITY LOG
 RHOB.G/C3   45 350 01 00:   BULK DENSITY
 CORR.G/C3   45 356 01 00:   DENSITY CORRECTION
 NPHI.DEC    42 890 03 00:   NEUTRON POROSITY SANDSTONE
~PARAMETER INFORMATION
#MNEM.UNIT          VALUE    DESCRIPTION
#----------   ------------   ------------------------------
 EKB .F         5059.0000:   Kelly bushing
 EGL .F         5049.0000:   Ground level
 EDF .F            0.0000:   Drilling floor
 TD  .F         4320.0000:   Total depth
 DATE.        01-MAR-1979:   Date logged
 CLNT.            A2DTECH:   Client Code
 SL  . 1625' FSL & 2281' FWL:   Surface Location
 PD  .                 GL:   Permanent Datum
 DD  .F              4320:   Depth driller
 DL  .F              4319:   Depth logger
 BLI .F              4316:   Bottom log interval
 CS1 .IN            8.625:   Casing size
 CBD1.      8.625" @ 505':   Casing driller 1
 CBL1.F               500:   Casing logger 1
 BS1 .IN            7.875:   Bit size
 DFT .                FGM:   Type fluid in hole
 DFD .                9.1:   Density
 DFV .                 40:   Viscosity
 DFPH.               11.7:   pH
 DFL .                6.5:   Fluid loss
 MSS .               TANK:   Source of sample
 RMS .OHMM           .901:   Rm
 MST .F                65:   Rm Meas. temp.
 RMF .OHMM           .852:   Rmf
 MFST.F                65:   Rmf Meas. temp.
 MFSS.               MEAS:   Source Rmf.
 RMB .OHMM            .39:   Rm. at BHT
 BHT .F               151:   BHT.
 TCS .HRS            1200:   Time Circ. stopped
 MRT .F               151:   Maximum recorded temp.
 LUN .               8043:   Logging unit number
 LUL .               CSPR:   Logging unit location
 ENGI.              PFARR:   Recorded By
 WITN.              AMENO:   Witnessed by
 ORIG.         2.5" PRINT:   Origin of data
 UWI .     49025107660000:   Unique Well ID
 DICO. A2D TECHNOLOGIES, INC.:   Digitizing Company
 DAPD.                 10:   Feet Above Permanent Datum
 BSD1.F              4320:   Depth drilled with bit1
 EPD .F              5049:   Elevation Permanent Datum
 LMF .                 KB:   Log Measured From
 DMF .                 KB:   Drilling Measured From
 TLI .F               500:   Top log interval
 TLAB.HRS            1900:   Time logger at bottom
~OTHER INFORMATION
~A   DEPT     TENR        SPR        SFL        ILD        ILM       TEND         GRD      CALD       RHOB       CORR         NPHI 
# ...
 4296.5000  1356.6021    -5.0460    13.5900    11.3690    10.0790  1686.5081    64.8690     7.9800     2.5840     0.0300     0.1350
 4297.0000  1356.9390    -4.9900    15.4240    11.9440    10.6230  1686.5081    67.1190     7.9800     2.5880     0.0300     0.1470
 4297.5000  1357.2770    -4.9490    17.2570    12.7820    11.6650  1686.5081    67.1700     7.9800     2.5910     0.0230     0.1450
 4298.0000  1357.6140    -4.9300    19.0910    12.0920    12.7820  1686.5081    65.8370     7.9800     2.5960     0.0170     0.1370
 4298.5000  1357.9510    -4.9070    20.9240    10.8270    12.2060  1686.5081    64.1930     7.9800     2.5890     0.0140     0.1160
 4299.0000  1358.2880    -4.8840    22.5230     9.5620    10.6060  1686.5081    64.6540     7.9800     2.6000     0.0150     0.1020
 4299.5000  1358.6260    -4.8620    16.5670     8.2980     9.0060  1686.5081    66.7460     7.9800     2.6120     0.0210     0.0960
 4300.0000  1358.9630    -4.8390    11.4930     7.0330     7.4060  1686.5081    65.9150     7.9800     2.6180     0.0220     0.0890
 4300.5000  1359.3000    -4.8160     6.4190     5.7680     5.8060  1686.5081    55.6010     7.9800     2.6160     0.0230     0.0890
 4301.0000  1359.6379    -4.7940     3.9690     4.5040     4.2060  1686.5081    38.8150     7.9800     2.6160     0.0330     0.1050
 4301.5000  1359.9750    -4.7710     3.7570     3.5570     3.6330  1686.5081    20.7360     7.9800     2.6160     0.0440     0.1210
 4302.0000  1360.3120    -4.7490     3.7570     3.4130     3.4760  1686.5081     7.3450     7.9800     2.6000     0.0500     0.1370
 4302.5000  1360.6500    -4.7260     3.8560     3.2620     3.3060  1686.5081  -999.2500     7.9800     2.5740     0.0480     0.1650
 4303.0000  1360.9871    -4.7030     3.9440     3.1290     3.2460  1686.5081  -999.2500     7.9800     2.5480     0.0410     0.1680
 4303.5000  1361.3240    -4.6810     4.0420     3.1290     3.2460  1686.5081  -999.2500     7.9800     2.5380     0.0340     0.1710
 4304.0000  1361.6610    -4.6580     4.0560     3.1650     3.3070  1686.5081  -999.2500     7.9800     2.5350     0.0280     0.1700
 4304.5000  1361.9990    -4.6360     4.0870     3.2390     3.3770  1686.5081  -999.2500     7.9800     2.5300     0.0220     0.1660
 4305.0000  1362.3361    -4.6120     4.1160     3.3130     3.4460  1686.5081  -999.2500     7.9800     2.5210     0.0170     0.1650
 4305.5000  1362.6730    -4.5920     4.1160     3.3880     3.5150  1686.5081  -999.2500     7.9800     2.5150     0.0100     0.1650
 4306.0000  1363.0110    -4.5660     4.1850     3.4620     3.6170  1686.5081  -999.2500     7.9800     2.5260     0.0120     0.1660
 4306.5000  1363.3480    -4.5880     4.3520     3.5570     3.7660  1686.5081  -999.2500     7.9800     2.5480     0.0210     0.1660
 4307.0000  1363.6851    -4.6190     4.5200     3.7330     3.9160  1686.5081  -999.2500     7.9800     2.5690     0.0290     0.1660
 4307.5000  1364.0220    -4.6510     4.8110     3.8750     4.0420  1686.5081  -999.2500     7.9800     2.5830     0.0400     0.1650
 4308.0000  1364.3600    -4.6810     5.1990     4.1160     4.3660  1686.5081  -999.2500     7.9800     2.5810     0.0400     0.1630
 4308.5000  1364.6970    -4.7120     5.5880     4.3980     4.6470  1686.5081  -999.2500     7.9740     2.5780     0.0340     0.1620
 4309.0000  1365.0341    -4.7440     5.9760     4.6990     4.9280  1686.5081  -999.2500     7.9700     2.5820     0.0290     0.1500
 4309.5000  1365.3719    -4.7740     6.3650     5.0010     5.2100  1686.5081  -999.2500     7.9650     2.5890     0.0240     0.1290
 4310.0000  1365.7090    -4.8060     6.7530     5.2200     5.3780  1686.5081  -999.2500     7.9600     2.6000     0.0250     0.0770
 4310.5000  1366.0460    -4.8370     7.1220     5.1090     5.2440  1686.5081  -999.2500     7.9550     2.6030     0.0260     0.0000
 4311.0000  1366.3840    -4.8660     6.8770     4.9790     5.1100  1686.5081  -999.2500     7.9500     2.6060     0.0270    -0.0110
 4311.5000  1366.7209    -4.9020     6.5380     4.8520     5.0330  1686.5081  -999.2500     7.9450     2.6080     0.0280    -0.0150
 4312.0000  1367.0580    -4.9250     6.0430     4.8080     4.9420  1686.5081  -999.2500     7.9400     2.6100     0.0310    -0.0160
 4312.5000  1367.3950    -4.9370  -999.2500  -999.2500  -999.2500  1686.5081  -999.2500     7.9350     2.6110     0.0340    -0.0160
 4313.0000  1367.7330    -4.4290  -999.2500  -999.2500  -999.2500  1686.5081  -999.2500     7.9300     2.6110     0.0380    -0.0160
 4313.5000  1368.0699  -999.2500  -999.2500  -999.2500  -999.2500  1686.5081  -999.2500     7.9250     2.6040     0.0410    -0.0160
 4314.0000  1368.4070  -999.2500  -999.2500  -999.2500  -999.2500  1686.5081  -999.2500     7.9200     2.5950     0.0420    -0.0160
 4314.5000  1368.7450  -999.2500  -999.2500  -999.2500  -999.2500  1686.5081  -999.2500     7.9150     2.5860     0.0420    -0.0160
 4315.0000  1369.0480  -999.2500  -999.2500  -999.2500  -999.2500  1686.5081  -999.2500     7.9100     2.5760     0.0420    -0.0160
 4315.5000  1346.5610  -999.2500  -999.2500  -999.2500  -999.2500  1686.5081  -999.2500     7.9050     2.5640     0.0430  -999.2500
 4316.0000  1268.5190  -999.2500  -999.2500  -999.2500  -999.2500  1686.5081  -999.2500     7.9000  -999.2500     0.0480  -999.2500
 4316.5000  1190.4760  -999.2500  -999.2500  -999.2500  -999.2500  1686.5081  -999.2500  -999.2500  -999.2500  -999.2500  -999.2500
 4317.0000  1112.4340  -999.2500  -999.2500  -999.2500  -999.2500  1686.5081  -999.2500  -999.2500  -999.2500  -999.2500  -999.2500
 4317.5000  1051.5870  -999.2500  -999.2500  -999.2500  -999.2500  1686.5081  -999.2500  -999.2500  -999.2500  -999.2500  -999.2500
 4318.0000  1054.5270  -999.2500  -999.2500  -999.2500  -999.2500  1686.5081  -999.2500  -999.2500  -999.2500  -999.2500  -999.2500
 4318.5000  1058.1400  -999.2500  -999.2500  -999.2500  -999.2500  1686.5081  -999.2500  -999.2500  -999.2500  -999.2500  -999.2500
 4319.0000  1061.7531  -999.2500  -999.2500  -999.2500  -999.2500  1686.5081  -999.2500  -999.2500  -999.2500  -999.2500  -999.2500
 4319.5000  1065.3660  -999.2500  -999.2500  -999.2500  -999.2500  1686.5081  -999.2500  -999.2500  -999.2500  -999.2500  -999.2500
 4320.0000  1068.9790  -999.2500  -999.2500  -999.2500  -999.2500  1686.5081  -999.2500  -999.2500  -999.2500  -999.2500  -999.2500
 4320.5000  1072.5920  -999.2500  -999.2500  -999.2500  -999.2500  1686.5081  -999.2500  -999.2500  -999.2500  -999.2500  -999.2500
 4321.0000  1076.2050  -999.2500  -999.2500  -999.2500  -999.2500  1686.5081  -999.2500  -999.2500  -999.2500  -999.2500  -999.2500
 4321.5000  1079.8180  -999.2500  -999.2500  -999.2500  -999.2500  1686.5081  -999.2500  -999.2500  -999.2500  -999.2500  -999.2500
 4322.0000  1083.4310  -999.2500  -999.2500  -999.2500  -999.2500  1686.5081  -999.2500  -999.2500  -999.2500  -999.2500  -999.2500
 4322.5000  1087.0439  -999.2500  -999.2500  -999.2500  -999.2500  1686.5081  -999.2500  -999.2500  -999.2500  -999.2500  -999.2500
 4323.0000  1091.2700  -999.2500  -999.2500  -999.2500  -999.2500  1686.5081  -999.2500  -999.2500  -999.2500  -999.2500  -999.2500
 4323.5000  1091.2700  -999.2500  -999.2500  -999.2500  -999.2500  1686.5081  -999.2500  -999.2500  -999.2500  -999.2500  -999.2500
 4324.0000  1051.5870  -999.2500  -999.2500  -999.2500  -999.2500  1686.5081  -999.2500  -999.2500  -999.2500  -999.2500  -999.2500
 4324.5000  -999.2500  -999.2500  -999.2500  -999.2500  -999.2500  1686.5081  -999.2500  -999.2500  -999.2500  -999.2500  -999.2500
 4325.0000  -999.2500  -999.2500  -999.2500  -999.2500  -999.2500  1590.6080  -999.2500  -999.2500  -999.2500  -999.2500  -999.2500
 4325.5000  -999.2500  -999.2500  -999.2500  -999.2500  -999.2500  1447.5861  -999.2500  -999.2500  -999.2500  -999.2500  -999.2500
 4326.0000  -999.2500  -999.2500  -999.2500  -999.2500  -999.2500  1304.5630  -999.2500  -999.2500  -999.2500  -999.2500  -999.2500
 4326.5000  -999.2500  -999.2500  -999.2500  -999.2500  -999.2500  1161.5410  -999.2500  -999.2500  -999.2500  -999.2500  -999.2500
