~VERSION INFORMATION
 VERS.                2.0:   CWLS LOG ASCII STANDARD - VERSION 2.0
 WRAP.                 NO:   ONE LINE PER DEPTH STEP
~WELL INFORMATION
#MNEM.UNIT      DATA TYPE    INFORMATION
#----------   ------------   ------------------------------
 STRT.F            0.0000:   START DEPTH
 STOP.F         3504.0000:   STOP DEPTH
 STEP.F            0.5000:   STEP LENGTH
 NULL.          -999.2500:   NO VALUE
 COMP. LAWRENCE-ALLISON AND ASSOCIATES:   COMPANY
 WELL. LAWRENCE "TX" #16-34:   WELL
 FLD .              NPR 3:   FIELD
 LOC .      S34 T39N R78W:   LOCATION
 CNTY.            NATRONA:   COUNTY
 STAT.            WYOMING:   STATE
 CTRY. UNITED STATES OF AMERICA:   COUNTRY
 SRVC.       SCHLUMBERGER:   SERVICE COMPANY
 DATE.        10-APR-1982:   LOGDATE
 API .     49025108970000:   API NUMBER
~CURVE INFORMATION
#MNEM.UNIT       API CODE    CURVE DESCRIPTION
#----------   ------------   ------------------------------
 DEPT.F                  :   
 SPR .MV     07 010 01 00:   SPONTANEOUS POTENTIAL
 ILD .OHMM   07 120 46 00:   DEEP INDUCTION RESISTIVITY
 SFLU.OHMM   07 220 01 00:   SPHERICALLY FOCUSED LOG UNAVERAGED RESISTIVITY
 TENR.LBS    07 635 01 00:   TENSION FROM RESISTIVITY
 ILM .OHMM   07 120 44 00:   INDUCTION LOG MEDIUM RESISTIVITY
 GRD .GAPI   45 310 01 00:   GAMMA RAY FROM DENSITY LOG
 CALD.IN     45 280 60 00:   CALIPER FROM DENSITY LOG
 RHOB.G/C3   45 350 01 00:   BULK DENSITY
 CORR.G/C3   45 356 01 00:   DENSITY CORRECTION
 TEND.LBS    45 635 01 00:   TENSION FROM DENSITY LOG
 NPHI.DEC    42 890 03 00:   NEUTRON POROSITY SANDSTONE
~PARAMETER INFORMATION
#MNEM.UNIT          VALUE    DESCRIPTION
#----------   ------------   ------------------------------
 EKB .F         5149.0000:   Kelly bushing
 EGL .F         5139.0000:   Ground level
 EDF .F            0.0000:   Drilling floor
 TD  .F         3500.0000:   Total depth
 DATE.        10-APR-1982:   Date logged
 CLNT.            A2DTECH:   Client Code
 SL  . 1406' FSL & 423' FWL:   Surface Location
 PD  .                 GL:   Permanent Datum
 EPD .F              5139:   Elevation Permanent Datum
 LMF .                 KB:   Log Measured From
 DMF .                 KB:   Drilling Measured From
 DAPD.F                10:   Feet Above Permanent Datum
 DD  .F              3500:   Depth driller
 DL  .F              3497:   Depth logger
 BLI .F              3491:   Bottom log interval
 TLI .F               658:   Top log interval
 CS1 .IN            9.625:   Casing size
 CBD1.      9.625" @ 632':   Casing driller 1
 CBL1.F               658:   Casing logger 1
 BS1 .IN             8.75:   Bit size
 BSD1.F              3500:   Depth drilled with bit1
 DFT .           SPUD MUD:   Type fluid in hole
 DFD .                  9:   Density
 DFV .                 44:   Viscosity
 DFPH.                 10:   pH
 DFL .                  7:   Fluid loss
 MSS .           FLOWLINE:   Source of sample
 RMS .OHMM              2:   Rm
 MST .F                53:   Rm Meas. temp.
 RMF .OHMM            1.9:   Rmf
 MFST.F                53:   Rmf Meas. temp.
 RMC .OHMM            1.5:   Rmc
 MCST.F                53:   Rmc Meas. temp.
 MFSS.               MEAS:   Source Rmf.
 MCSS.               CALC:   Source Rmc.
 RMB .OHMM              1:   Rm. at BHT
 BHT .F               106:   BHT.
 TCS .HRS            1100:   Time Circ. stopped
 TLAB.HRS            1330:   Time logger at bottom
 MRT .F               106:   Maximum recorded temp.
 LUN .               8151:   Logging unit number
 LUL .                GLT:   Logging unit location
 ENGI.            NEUFFER:   Recorded By
 WITN.           JENNINGS:   Witnessed by
 ORIG.           5" PRINT:   Origin of data
 UWI .     49025108970000:   Unique Well ID
 DICO. A2D TECHNOLOGIES, INC.:   Digitizing Company
~OTHER INFORMATION
~A    DEPT     SPR        ILD       SFLU       TENR        ILM        GRD       CALD       RHOB       CORR       TEND       NPHI   
# ...
 1769.0000   -11.2430     7.9790     8.6910  1170.7170     7.6620    96.5400     9.5820     2.5970     0.1960  1150.8370     0.2830
 1769.5000   -11.1330     7.9180     8.5240  1170.8400     7.6700    97.5840     9.7750     2.5640     0.2480  1151.1610     0.2790
 1770.0000   -11.0240     7.8570     8.5000  1170.9620     7.6790    95.5160    10.1150     2.4570     0.2500  1151.4840     0.2810
 1770.5000   -10.9130     7.7520     8.9460  1171.0850     7.7620    93.1990    10.4560     2.3150     0.2500  1151.8070     0.2910
 1771.0000   -10.8680     7.9870     9.4470  1171.2080     8.0680    92.1470    10.8880     2.2390     0.2080  1152.1300     0.3020
 1771.5000   -10.8680     8.1730    10.0220  1171.3300     8.3740    91.3150    11.4470     2.2210     0.1650  1152.4540     0.3130
 1772.0000   -10.8680     8.3450    10.5970  1171.4530     8.6580    88.3850    11.9100     2.2530     0.1310  1152.7770     0.3220
 1772.5000   -10.8680     8.0940    10.8970  1171.5750     9.1490    86.2470    11.3700     2.2830     0.0960  1153.1000     0.3230
 1773.0000   -10.8680     7.7240    10.1910  1171.6980     8.5830    88.7330    10.6600     2.3150     0.0620  1153.4230     0.3200
 1773.5000   -10.8680     7.5190     9.2500  1171.8210     7.9390    93.6430    10.1580     2.3760     0.0360  1153.7469     0.3160
 1774.0000   -10.8680     7.2820     8.2450  1171.9430     7.4970    97.2610     9.8780     2.4400     0.0300  1154.0699     0.3070
 1774.5000   -10.8680     7.0440     7.3360  1172.0660     7.2640    99.3910     9.7970     2.5030     0.0650  1154.3929     0.2970
 1775.0000   -10.8680     6.8070     6.8780  1172.1890     7.0300    99.8440     9.7960     2.5420     0.1420  1154.7159     0.2920
 1775.5000   -10.8680     6.5700     6.7210  1172.3110     6.7970    99.6880     9.8690     2.5540     0.2060  1155.0400     0.2920
 1776.0000   -10.8680     6.3330     6.5460  1172.4340     6.5640    99.3210    10.0590     2.5310     0.2330  1155.3630     0.3150
 1776.5000   -10.8680     6.1810     6.3940  1172.5570     6.4130    98.9470    10.2370     2.5020     0.2120  1155.6860     0.3330
 1777.0000   -10.8680     6.0690     6.4290  1172.6790     6.2960    99.7370    10.4200     2.4740     0.1950  1156.0090     0.3590
 1777.5000   -10.8680     5.9560     6.4640  1172.8020     6.1790   101.6920    10.7060     2.4980     0.1890  1156.3330     0.3530
 1778.0000   -10.8680     5.8430     6.5090  1172.9250     6.0620   103.6290    11.0280     2.5360     0.2250  1156.6560     0.3430
 1778.5000   -10.8680     5.7220     6.4470  1173.0470     5.9370   104.7660    11.3380     2.5050     0.2470  1156.9790     0.3400
 1779.0000   -10.8680     5.7220     6.3630  1173.1700     5.9370   103.4130    11.6500     2.4560     0.2160  1157.3020     0.3520
 1779.5000   -10.8680     5.7840     6.2780  1173.2930     6.1170   101.0320    11.9600     2.4210     0.1860  1157.6260     0.3610
 1780.0000   -10.8680     5.8380     6.1930  1173.4150     6.1780    99.6240    11.9880     2.4130     0.1830  1157.9490     0.3700
 1780.5000   -10.8680     5.8930     6.1030  1173.5380     6.2030   100.7010    11.9570     2.4880     0.2100  1158.2720     0.3750
 1781.0000   -10.8680     5.9470     6.0840  1173.6610     6.2280   101.3420    11.4350     2.4760     0.1780  1158.5950     0.3730
 1781.5000   -10.8680     6.0010     6.3380  1173.7830     6.2530   100.9410    10.8130     2.4550     0.1420  1158.9189     0.3700
 1782.0000   -10.8680     6.0470     6.5910  1173.9060     6.2740   101.2610    10.2840     2.4390     0.1050  1159.2419     0.3670
 1782.5000   -10.8680     6.0310     6.8450  1174.0291     6.1980   101.8500    10.1150     2.4780     0.0720  1159.5649     0.3500
 1783.0000   -10.8710     6.0170     7.0030  1174.1510     6.1320   102.4540    10.0130     2.5180     0.0730  1159.8879     0.3300
 1783.5000   -10.8870     6.0030     6.9660  1174.2740     6.0660   102.5720    10.0140     2.5420     0.0750  1160.2120     0.3240
 1784.0000   -10.9020     5.9690     6.9020  1174.3960     6.0010   102.5040    10.0120     2.5410     0.0740  1160.5350     0.3190
 1784.5000   -10.9180     5.8350     6.6710  1174.5190     5.9350   102.4330    10.1080     2.5350     0.0880  1160.8580     0.3150
 1785.0000   -10.9330     5.7010     6.4400  1174.6420     5.8360   102.3610    10.2870     2.5310     0.1160  1161.1810     0.3290
 1785.5000   -10.9490     5.6260     6.1590  1174.7640     5.8530   103.0670    10.4710     2.5260     0.1430  1161.5050     0.3460
 1786.0000   -10.9640     5.7040     6.2360  1174.8870     5.9180   104.5330    10.6170     2.5050     0.1570  1161.8280     0.3630
 1786.5000   -10.9800     5.7660     6.3340  1175.0100     5.9820   107.1700    10.5170     2.4680     0.1210  1162.1510     0.3790
 1787.0000   -10.9950     5.8290     6.4320  1175.1320     6.0470   110.2570    10.3940     2.4470     0.0710  1162.4740     0.3710
 1787.5000   -11.0100     5.7670     6.5300  1175.2550     5.9830   112.9430    10.2570     2.4560     0.0580  1162.7980     0.3630
 1788.0000   -11.0260     5.7040     6.5690  1175.3781     5.9180   112.1930    10.2350     2.4920     0.0570  1163.1210     0.3540
 1788.5000   -11.0410     5.6420     6.5690  1175.5000     5.8540   108.1380    10.2190     2.5150     0.0690  1163.4440     0.3460
 1789.0000   -11.0570     5.6020     6.4580  1175.6230     5.8120   105.7310    10.2450     2.5350     0.1040  1163.7670     0.3420
 1789.5000   -11.0720     5.5670     6.3200  1175.7460     5.7750   103.9300    10.3130     2.5560     0.1510  1164.0909     0.3460
 1790.0000   -11.0880     5.5770     6.1830  1175.8680     5.7860   104.9680    10.3410     2.5790     0.2010  1164.4139     0.3500
 1790.5000   -11.1030     5.6020     6.1030  1175.9910     5.8120   106.0300    10.8400     2.5700     0.2330  1164.7371     0.3610
 1791.0000   -11.1180     5.6280     6.1030  1176.1140     5.8390   106.3710    10.8910     2.5410     0.2120  1165.0601     0.3740
 1791.5000   -11.1340     5.6530     6.2640  1176.2360     5.8650   104.8510    10.5760     2.5070     0.1840  1165.3840     0.3680
 1792.0000   -11.1490     5.6780     6.4590  1176.3590     5.8910   103.3670    10.3060     2.4850     0.1570  1165.7070     0.3540
 1792.5000   -11.1650     5.7030     6.6540  1176.4821     5.9170   102.6230    10.1770     2.4860     0.1290  1166.0300     0.3410
 1793.0000   -11.1800     5.7250     6.8780  1176.6040     5.9400   104.3530    10.2200     2.4880     0.1010  1166.3530     0.3340
 1793.5000   -11.1960     5.7380     6.6880  1176.7271     5.9530   107.3810    10.2930     2.4900     0.0930  1166.6760     0.3600
 1794.0000   -11.2110     5.7500     6.4620  1176.8490     5.9660   110.3690    10.4190     2.4910     0.0890  1167.0000     0.3740
 1794.5000   -11.2270     5.7630     6.1590  1176.9720     5.9790   112.1100    10.5470     2.4900     0.0740  1167.3230     0.3660
 1795.0000   -11.2420     5.7750     6.2410  1177.0950     5.9910   112.1470    10.4950     2.4940     0.0580  1167.6460     0.3590
 1795.5000   -11.2560     5.7870     6.3650  1177.2170     6.0040   113.7100    10.4020     2.5110     0.0520  1167.9690     0.3530
 1796.0000   -11.3410     5.8000     6.4880  1177.3400     6.0170   115.5190    10.1640     2.5320     0.0600  1168.2930     0.3490
 1796.5000   -11.4540     5.8120     6.6120  1177.4630     6.0300   114.9230     9.9360     2.5450     0.0670  1168.6160     0.3620
 1797.0000   -11.5680     5.8250     6.7360  1177.5850     6.0430   110.0330     9.8290     2.5500     0.0670  1168.9390     0.3740
 1797.5000   -11.6820     5.8610     6.8600  1177.7080     6.0800   106.6420     9.8470     2.5480     0.0610  1169.2620     0.3810
 1798.0000   -11.7970     5.9080     6.9830  1177.8311     6.1300   107.0200     9.9200     2.5350     0.0520  1169.5861     0.3660
 1798.5000   -11.9110     5.9560     7.1070  1177.9530     6.1790   109.3380    10.0060     2.5200     0.0430  1169.9091     0.3520
 1799.0000   -12.0250     6.0030     7.2690  1178.0760     6.2280   111.6770     9.8910     2.5140     0.0400  1170.2321     0.3390
