~VERSION INFORMATION
 VERS.                2.0:   CWLS LOG ASCII STANDARD - VERSION 2.0
 WRAP.                 NO:   ONE LINE PER DEPTH STEP
~WELL INFORMATION
#MNEM.UNIT      DATA TYPE    INFORMATION
#----------   ------------   ------------------------------
 STRT.F           50.0000:   START DEPTH
 STOP.F         5698.0000:   STOP DEPTH
 STEP.F            0.5000:   STEP LENGTH
 NULL.          -999.2500:   NO VALUE
 COMP. LAWRENCE - ALLISON:   COMPANY
 WELL. LAWRENCE TPX #57-3:   WELL
 FLD .              NPR 3:   FIELD
 LOC .       S3 T38N R78W:   LOCATION
 CNTY.            NATRONA:   COUNTY
 STAT.            WYOMING:   STATE
 CTRY. UNITED STATES OF AMERICA:   COUNTRY
 SRVC.       SCHLUMBERGER:   SERVICE COMPANY
 DATE.        09-AUG-1982:   LOGDATE
 API .     49025108900000:   API NUMBER
~CURVE INFORMATION
#MNEM.UNIT       API CODE    CURVE DESCRIPTION
#----------   ------------   ------------------------------
 DEPT.F                  :   
 TEND.LBS    45 635 01 00:   TENSION FROM DENSITY LOG
 CALD.IN     45 280 60 00:   CALIPER FROM DENSITY LOG
 NPHI.DEC    42 890 03 00:   NEUTRON POROSITY SANDSTONE
 CORR.G/C3   45 356 01 00:   DENSITY CORRECTION
 RHOB.G/C3   45 350 01 00:   BULK DENSITY
 SPR .MV     11 010 01 00:   SPONTANEOUS POTENTIAL FROM RESISTIVITY
 TENR.LBS    11 635 01 00:   TENSION FROM RESISTIVITY
 GRR .GAPI   11 310 01 00:   GAMMA RAY FROM RESISTIVITY
 LLD .OHMM   11 220 10 00:   LATEROLOG DEEP
 LLS .OHMM   11 220 09 00:   LATEROLOG LOG SHALLOW
 MSFL.OHMM   11 270 04 00:   MICRO SPHERICALLY FOCUSED
~PARAMETER INFORMATION
#MNEM.UNIT          VALUE    DESCRIPTION
#----------   ------------   ------------------------------
 EKB .F         5190.0000:   Kelly bushing
 EGL .F         5180.0000:   Ground level
 EDF .F         5189.0000:   Drilling floor
 TD  .F         5686.0000:   Total depth
 CLNT.            A2DTECH:   Client Code
 SL  . 1002' FSL & 2479' FEL:   Surface Location
 PD  .                 GL:   Permanent Datum
 EPD .F              5180:   Elevation Permanent Datum
 LMF .                 KB:   Log Measured From
 DMF .                 KB:   Drilling Measured From
 DAPD.F                10:   Feet Above Permanent Datum
 DATE.        09-AUG-1982:   Date Logged [DD-MMM-YYYY]
 DD  .F              5685:   Depth driller
 DL  .F              5686:   Depth logger
 BLI .F              5683:   Bottom log interval
 TLI .F               494:   Top log interval
 CS1 .IN            9.625:   Casing size
 CBD1.      9.625" @ 500':   Casing driller 1
 CBL1.F               494:   Casing logger 1
 BS1 .IN             8.75:   Bit size
 BSD1.F              5685:   Depth drilled with bit1
 DFT .                KCL:   Type fluid in hole
 DFD .                9.0:   Density
 DFV .                 38:   Viscosity
 DFPH.                8.5:   pH
 DFL .                9.0:   Fluid loss
 MSS .            MUDTANK:   Source of sample
 RMS .OHMM           0.27:   Rm
 MST .F                79:   Rm Meas. temp.
 RMF .OHMM           0.27:   Rmf
 MFST.F                79:   Rmf Meas. temp.
 MFSS.               MEAS:   Source Rmf.
 RMB .OHMM            .13:   Rm. at BHT
 BHT .F               164:   BHT.
 TCS .HRS            1300:   Time Circ. stopped
 MRT .F               164:   Maximum recorded temp.
 LUN .               8035:   Logging unit number
 LUL .               CSPR:   Logging unit location
 ENGI.            PERAKIS:   Recorded By
 WITN.           L. FIVAS:   Witnessed by
 ORIG.        2" 5" PRINT:   Origin of data
 UWI .     49025108900000:   Unique Well ID
 DICO. A2D TECHNIOLOGIES,INC.:   Digitizing Company
 RMC .OHMM           0.41:   Rmc
 MCST.F                79:   Rmc Meas. temp.
 MCSS.               CALC:   Source Rmc.
 TLAB.HRS            2000:   Time logger at bottom
~OTHER INFORMATION
~A  DEPTH     TEND       CALD       NPHI       CORR       RHOB        SPR       TENR        GRR        LLD        LLS       MSFL
# ...
 5662.0000  2018.0723     8.5272     0.0921     0.0527     2.8384    18.4776  2074.7144    14.3008   220.5194   225.8854   222.7196
 5662.5000  2018.0723     8.5277     0.1023     0.0386     2.7762    18.1122  2059.0430    13.7134   196.2660   183.8342   115.8147
 5663.0000  2018.0723     8.5282     0.1137     0.0267     2.7226    18.1814  2058.2959    12.8155   173.4835   159.1807    96.1243
 5663.5000  2018.0723     8.5286     0.1228     0.0185     2.6966    18.2616  2057.4158    12.2243   166.5161   152.8122    86.6126
 5664.0000  2018.6589     8.4990     0.1266     0.0104     2.6869    18.2704  2056.6929    12.2429   191.1341   170.7618    84.0145
 5664.5000  2021.8510     8.4694     0.1199     0.0052     2.6892    18.2147  2055.9690    12.2578   269.6102   211.5568   115.5112
 5665.0000  2025.0431     8.4548     0.1127     0.0060     2.7027    18.1580  2055.2461    12.2727   338.3672   222.1573   136.4323
 5665.5000  2028.2352     8.4402     0.0985     0.0182     2.7273    18.1021  2054.5232    12.2879   355.1634   205.8177   126.5957
 5666.0000  2031.4274     8.4256     0.0880     0.0582     2.7426    18.0996  2053.7993    12.3030   281.2654   154.2482    96.1823
 5666.5000  2034.6195     8.4111     0.0787     0.0895     2.7200    18.0999  2053.0640    12.3212   215.2002   112.5697    31.7318
 5667.0000  2037.8115     8.4117     0.0740     0.0829     2.6753    18.1000  2052.1721    12.3361   152.6628    87.3006    27.6727
 5667.5000  2032.0703     8.3971     0.0693     0.0658     2.6053    18.1000  2051.4492    12.0442   120.8886    68.6431    24.9224
 5668.0000  2025.2605     8.3825     0.0672     0.0487     2.5696    18.1000  2050.7256    12.0628    84.5874    49.6906    21.0510
 5668.5000  2018.0723     8.3830  -999.2500     0.0554     2.5473    18.1000  2050.0024    12.0777    64.2758    39.0709    17.8588
 5669.0000  2018.0723     8.3684  -999.2500     0.0675     2.5451    18.1000  2077.7280    12.0927    50.4172    33.1392    14.9432
 5669.5000  2018.0723     8.3690  -999.2500     0.0749     2.5466    18.0999  2077.7280    12.1075    46.8838    30.9540    13.0317
 5670.0000  2004.8309     8.3544  -999.2500     0.0712     2.5435    18.0992  2077.7280    12.4255    50.2405    34.1108    12.5131
 5670.5000  1976.1292     8.3550  -999.2500     0.0518     2.5207    18.1015  2062.7803    12.4404    58.0611    38.4330    16.2810
 5671.0000  1967.6168     8.3554  -999.2500     0.0347     2.5058    18.2540  2062.7803    12.4553    64.8322    40.0275    19.4968
 5671.5000  1959.1045     8.3409  -999.2500     0.0377     2.5006  -999.2500  2062.7803  -999.2500    68.5197  -999.2500  -999.2500
 5672.0000  1957.8313     8.3414  -999.2500     0.0527     2.5320  -999.2500  2062.7803  -999.2500  -999.2500  -999.2500  -999.2500
 5672.5000  1957.8313     8.3269  -999.2500     0.0550     2.5447  -999.2500  2062.7803  -999.2500  -999.2500  -999.2500  -999.2500
 5673.0000  1957.8313     8.3123  -999.2500     0.0520     2.5358  -999.2500  2062.7803  -999.2500  -999.2500  -999.2500  -999.2500
 5673.5000  1963.9718     8.3128  -999.2500     0.0550     2.5366  -999.2500  2062.7803  -999.2500  -999.2500  -999.2500  -999.2500
 5674.0000  1970.7817     8.3133  -999.2500     0.0610     2.5405  -999.2500  2077.7280  -999.2500  -999.2500  -999.2500  -999.2500
 5674.5000  1977.9116     8.3288  -999.2500     0.0618     2.5419  -999.2500  2077.7280  -999.2500  -999.2500  -999.2500  -999.2500
 5675.0000  1971.4219     8.3293  -999.2500     0.0537     2.5278  -999.2500  2077.7280  -999.2500  -999.2500  -999.2500  -999.2500
 5675.5000  1964.6121     8.3298  -999.2500     0.0492     2.5130  -999.2500  2077.7280  -999.2500  -999.2500  -999.2500  -999.2500
 5676.0000  1957.8313     8.3455  -999.2500     0.0493     2.5056  -999.2500  2077.7280  -999.2500  -999.2500  -999.2500  -999.2500
 5676.5000  1957.8313     8.3610  -999.2500     0.0553     2.5064  -999.2500  2077.7280  -999.2500  -999.2500  -999.2500  -999.2500
 5677.0000  1957.8313     8.3464  -999.2500     0.0501     2.5109  -999.2500  2077.7280  -999.2500  -999.2500  -999.2500  -999.2500
 5677.5000  1957.8313     8.3168  -999.2500     0.0494     2.5207  -999.2500  2077.7280  -999.2500  -999.2500  -999.2500  -999.2500
 5678.0000  1957.8313     8.3021  -999.2500     0.0539     2.5368  -999.2500  2092.6755  -999.2500  -999.2500  -999.2500  -999.2500
 5678.5000  1957.8313     8.2575  -999.2500     0.0703     2.5632  -999.2500  2107.6233  -999.2500  -999.2500  -999.2500  -999.2500
 5679.0000  1957.8313     8.2271  -999.2500     0.0957     2.5834  -999.2500  2107.6233  -999.2500  -999.2500  -999.2500  -999.2500
 5679.5000  1963.6426     8.1833  -999.2500     0.1240     2.6035  -999.2500  2107.6233  -999.2500  -999.2500  -999.2500  -999.2500
 5680.0000  1970.0269     8.1536  -999.2500     0.1390     2.6155  -999.2500  2107.6233  -999.2500  -999.2500  -999.2500  -999.2500
 5680.5000  1976.4111     8.1239  -999.2500     0.1398     2.6185  -999.2500  2107.6233  -999.2500  -999.2500  -999.2500  -999.2500
 5681.0000  1983.4856     8.1094  -999.2500     0.1256     2.6022  -999.2500  2107.6233  -999.2500  -999.2500  -999.2500  -999.2500
 5681.5000  1990.8173     8.0948  -999.2500     0.1138     2.5740  -999.2500  2107.6233  -999.2500  -999.2500  -999.2500  -999.2500
 5682.0000  1997.9790     8.0803  -999.2500     0.1041     2.5270  -999.2500  2122.5710  -999.2500  -999.2500  -999.2500  -999.2500
 5682.5000  1997.9919     8.0653  -999.2500     0.1004     2.5152  -999.2500  2107.6233  -999.2500  -999.2500  -999.2500  -999.2500
 5683.0000  1997.9919     8.0211  -999.2500     0.1139     2.5137  -999.2500  2122.5710  -999.2500  -999.2500  -999.2500  -999.2500
 5683.5000  1997.9919  -999.2500  -999.2500  -999.2500  -999.2500  -999.2500  2122.5710  -999.2500  -999.2500  -999.2500  -999.2500
 5684.0000  2012.7612  -999.2500  -999.2500  -999.2500  -999.2500  -999.2500  2137.5188  -999.2500  -999.2500  -999.2500  -999.2500
 5684.5000  2029.7858  -999.2500  -999.2500  -999.2500  -999.2500  -999.2500  2137.5188  -999.2500  -999.2500  -999.2500  -999.2500
 5685.0000  2059.7971  -999.2500  -999.2500  -999.2500  -999.2500  -999.2500  2152.4663  -999.2500  -999.2500  -999.2500  -999.2500
 5685.5000  2102.3586  -999.2500  -999.2500  -999.2500  -999.2500  -999.2500  2167.4141  -999.2500  -999.2500  -999.2500  -999.2500
 5686.0000  2118.1829  -999.2500  -999.2500  -999.2500  -999.2500  -999.2500  2167.4141  -999.2500  -999.2500  -999.2500  -999.2500
 5686.5000  2050.0637  -999.2500  -999.2500  -999.2500  -999.2500  -999.2500  2167.4141  -999.2500  -999.2500  -999.2500  -999.2500
 5687.0000  2035.4711  -999.2500  -999.2500  -999.2500  -999.2500  -999.2500  2107.6233  -999.2500  -999.2500  -999.2500  -999.2500
 5687.5000  2021.6917  -999.2500  -999.2500  -999.2500  -999.2500  -999.2500  2032.8849  -999.2500  -999.2500  -999.2500  -999.2500
 5688.0000  1907.7947  -999.2500  -999.2500  -999.2500  -999.2500  -999.2500  1897.9355  -999.2500  -999.2500  -999.2500  -999.2500
 5688.5000  1812.7211  -999.2500  -999.2500  -999.2500  -999.2500  -999.2500  1774.3141  -999.2500  -999.2500  -999.2500  -999.2500
 5689.0000  1740.2625  -999.2500  -999.2500  -999.2500  -999.2500  -999.2500  1659.1929  -999.2500  -999.2500  -999.2500  -999.2500
 5689.5000  1641.3387  -999.2500  -999.2500  -999.2500  -999.2500  -999.2500  1614.3497  -999.2500  -999.2500  -999.2500  -999.2500
 5690.0000  1535.7693  -999.2500  -999.2500  -999.2500  -999.2500  -999.2500  1584.4545  -999.2500  -999.2500  -999.2500  -999.2500
 5690.5000  1518.8549  -999.2500  -999.2500  -999.2500  -999.2500  -999.2500  1569.5067  -999.2500  -999.2500  -999.2500  -999.2500
 5691.0000  1503.3213  -999.2500  -999.2500  -999.2500  -999.2500  -999.2500  1554.5591  -999.2500  -999.2500  -999.2500  -999.2500
 5691.5000  1483.3199  -999.2500  -999.2500  -999.2500  -999.2500  -999.2500  1554.5591  -999.2500  -999.2500  -999.2500  -999.2500
 5692.0000  1459.8192  -999.2500  -999.2500  -999.2500  -999.2500  -999.2500  1539.6113  -999.2500  -999.2500  -999.2500  -999.2500
