~VERSION INFORMATION
 VERS.                2.0:   CWLS LOG ASCII STANDARD - VERSION 2.0
 WRAP.                 NO:   ONE LINE PER DEPTH STEP
~WELL INFORMATION
#MNEM.UNIT      DATA TYPE    INFORMATION
#----------   ------------   ------------------------------
 STRT.F          150.0000:   START DEPTH
 STOP.F         2929.0000:   STOP DEPTH
 STEP.F            0.5000:   STEP LENGTH
 NULL.          -999.2500:   NO VALUE
 COMP.    FENIX & SCISSON:   COMPANY
 WELL.    FENIX AX #12-28:   WELL
 FLD .        TEAPOT DOME:   FIELD
 LOC .      S28 T39N R78W:   LOCATION
 CNTY.            NATRONA:   COUNTY
 STAT.            WYOMING:   STATE
 CTRY. UNITED STATES OF AMERICA:   COUNTRY
 SRVC.           BIRDWELL:   SERVICE COMPANY
 DATE.        06-JUN-1978:   LOGDATE
 API .     49025106420000:   API NUMBER
~CURVE INFORMATION
#MNEM.UNIT       API CODE    CURVE DESCRIPTION
#----------   ------------   ------------------------------
 DEPT.F                  :   
 SPR .MV     05 010 01 00:   SPONTANEOUS POTENTIAL
 SN  .OHMM   05 040 16 00:   SHORT NORMAL 16"
 ILD .OHMM   05 120 46 00:   INDUCTION LOG DEEP RESISTIVITY
 RHOB.G/C3   45 350 01 00:   BULK DENSITY
 CORR.G/C3   45 356 01 00:   DENSITY CORRECTION
 GRD .GAPI   45 310 01 00:   GAMMA RAY FROM DENSITY LOG
 CALD.IN     45 280 60 00:   CALIPER FROM DENSITY LOG
~PARAMETER INFORMATION
#MNEM.UNIT          VALUE    DESCRIPTION
#----------   ------------   ------------------------------
 EKB .F         5000.0000:   Kelly bushing
 EGL .F         4990.0000:   Ground level
 EDF .F            0.0000:   Drilling floor
 EPD .F         5005.0000:   Permanent datum
 TD  .F         2911.0000:   Total depth
 DATE.        06-JUN-1978:   Date logged
 CLNT.            A2DTECH:   Client Code
 SL  . 1250' FNL & 225' FWL:   Surface Location
 PD  .                 GL:   Permanent Datum
 LMF .                 KB:   Log Measured From
 DMF .                 KB:   Drilling Measured From
 DAPD.F                10:   Feet Above Permanent Datum
 DD  .F              2911:   Depth driller
 DL  .F              2912:   Depth logger
 BLI .F              2906:   Bottom log interval
 TLI .F               200:   Top log interval
 CS1 .IN            8.625:   Casing size
 CBD1.      8.625" @ 225':   Casing driller 1
 CBL1.F               225:   Casing logger 1
 BS1 .IN            7.875:   Bit size
 BSD1.F              2911:   Depth drilled with bit1
 DFT .       OIL BASE MUD:   Type fluid in hole
 DFD .                9.2:   Density
 DFV .                 35:   Viscosity
 DFPH.               10.5:   pH
 DFL .                  2:   Fluid loss
 TCS .HRS             3.5:   Time Circ. stopped
 LUN .               2958:   Logging unit number
 LUL .               CASP:   Logging unit location
 ENGI.            POINTER:   Recorded By
 WITN.           MCGINLEY:   Witnessed by
 ORIG.           5" PRINT:   Origin of data
 UWI .     49025106420000:   Unique Well ID
 DICO. A2D TECHNOLOGIES, INC.:   Digitizing Company
~OTHER INFORMATION
~A   DEPT      SPR         SN        ILD       RHOB       CORR         GRD      CALD   
# ...
 1651.5000   -27.4180     6.1270     4.8110     2.4860     0.0240   116.6430     9.5160
 1652.0000   -26.5290     6.1560     4.7750     2.4880     0.0270   117.5530     9.5070
 1652.5000   -26.8680     6.1850     4.7360     2.4880     0.0300   116.8550     9.5190
 1653.0000   -27.2840     6.2130     4.6980     2.4880     0.0330   116.0990     9.5300
 1653.5000   -27.6990     6.2420     4.6600     2.4840     0.0320   116.6540     9.5410
 1654.0000   -27.4830     6.2780     4.6370     2.4800     0.0320   115.5890     9.5520
 1654.5000   -26.8250     6.1820     4.6370     2.4760     0.0310   114.3390     9.5630
 1655.0000   -26.1520     6.0140     4.6370     2.4700     0.0300   115.0920     9.5740
 1655.5000   -26.0990     5.8470     4.6370     2.4630     0.0300   113.4720     9.5850
 1656.0000   -26.4280     5.6790     4.5310     2.4550     0.0290   110.5320     9.5960
 1656.5000   -26.7700     5.5120     4.4050     2.4480     0.0280   108.4850     9.6070
 1657.0000   -26.5440     5.3370     4.2790     2.4360     0.0280   107.5500     9.6180
 1657.5000   -26.0160     5.1530     4.1530     2.4190     0.0270   106.6170     9.6290
 1658.0000   -25.4930     4.9680     4.0390     2.4030     0.0290   104.0500     9.6400
 1658.5000   -25.2290     4.7660     4.0390     2.3890     0.0310   100.8450     9.6510
 1659.0000   -25.8350     4.7840     4.0390     2.3640     0.0320   100.0520     9.6610
 1659.5000   -26.4130     4.8110     4.0390     2.3280     0.0340    99.8040     9.6740
 1660.0000   -26.9900     4.6370     4.0390     2.2960     0.0500    99.3050     9.7260
 1660.5000   -27.0930     4.7480     4.0390     2.3280     0.0970    97.7630     9.8960
 1661.0000   -26.7330     4.9000     4.0390     2.3430     0.0820    96.2560    11.4220
 1661.5000   -26.4840     4.5940     3.9390     2.3540     0.0640    94.7620     9.6400
 1662.0000   -26.4880     4.8110     3.8350     2.3580     0.0760    93.7630     9.7520
 1662.5000   -26.4880     4.6490     3.7320     2.3470     0.0790    95.6000    10.2560
 1663.0000   -26.4880     4.4410     3.6500     2.3370     0.0790    97.4080     9.6680
 1663.5000   -26.4880     4.2290     3.8200     2.3310     0.0830    99.2200     9.7320
 1664.0000   -26.4870     4.3830     3.9310     2.3610     0.0470    98.7450    10.6500
 1664.5000   -26.4880     4.4410     3.9400     2.3230     0.0020    97.9180     9.5630
 1665.0000   -26.5320     4.4690     3.9490     2.2890     0.0070    97.1440     9.6880
 1665.5000   -26.7700     4.2680     3.9580     2.2730     0.0140    99.3480     9.7140
 1666.0000   -27.0080     5.2650     4.0040     2.2610     0.1050   101.8020    10.3920
 1666.5000   -27.2570     5.4720     4.1430     2.4170     0.0590   104.2630    11.0170
 1667.0000   -26.8930     5.4720     4.2990     2.4640     0.0310   106.0700     9.6410
 1667.5000   -26.4400     5.4720     4.5820     2.4900     0.0250   104.0870     9.7220
 1668.0000   -26.1930     5.4720     4.9450     2.4860     0.0270   101.5850     9.7490
 1668.5000   -26.6840     5.8420     4.9320     2.4730     0.0290   101.8460     9.7740
 1669.0000   -27.1590     5.8850     4.9080     2.4550     0.0310   102.9260     9.7990
 1669.5000   -27.6240     5.9270     4.8840     2.4680     0.0330   102.1480     9.8210
 1670.0000   -27.5250     6.2550     4.8550     2.4920     0.0280   102.8660    10.1430
 1670.5000   -27.3490     6.7890     5.0260     2.5150     0.0240   104.6070     9.8430
 1671.0000   -27.1720     6.8560     5.3720     2.5120     0.0290   103.9230     9.6790
 1671.5000   -27.0080     6.9240     5.3530     2.5190     0.0340   102.2510     9.6690
 1672.0000   -27.1530     7.0080     5.3070     2.5280     0.0390   104.3360     9.6620
 1672.5000   -28.0890     6.9780     5.2610     2.5330     0.0430   106.9420     9.6550
 1673.0000   -28.5780     6.9170     5.1850     2.5280     0.0400   109.5430     9.6490
 1673.5000   -28.2560     6.8570     5.0200     2.5240     0.0360   112.1340     9.6370
 1674.0000   -27.5370     6.6130     4.8950     2.5190     0.0330   114.7620     9.6060
 1674.5000   -26.1190     6.1610     4.8790     2.5060     0.0300   115.1510     9.5860
 1675.0000   -25.9080     6.0490     4.8620     2.4910     0.0270   114.4760     9.5680
 1675.5000   -26.5770     5.9790     4.8460     2.4770     0.0280   113.7730     9.5460
 1676.0000   -27.2680     5.8900     4.8290     2.4620     0.0310   113.3800     9.5500
 1676.5000   -27.3830     6.3450     4.8120     2.4760     0.0350   113.7980     9.5910
 1677.0000   -26.6900     6.5030     4.7960     2.4930     0.0390   115.1600     9.8980
 1677.5000   -26.0140     6.3980     4.7790     2.5020     0.0420   114.4180     9.8400
 1678.0000   -25.6580     6.2940     4.7630     2.5100     0.0460   113.6350     9.6310
 1678.5000   -26.4440     6.1900     4.7460     2.5130     0.0470   112.8580     9.6030
 1679.0000   -27.1910     5.9450     4.7290     2.5110     0.0460   112.0750     9.6150
 1679.5000   -27.1150     6.0290     4.5970     2.4990     0.0460   111.3430     9.6240
 1680.0000   -26.9250     6.1110     4.3190     2.4870     0.0450   113.1100     9.6330
 1680.5000   -26.7320     5.4970     4.3640     2.4750     0.0440   115.9820     9.6340
 1681.0000   -26.5210     5.3720     4.4550     2.4740     0.0400   118.2300     9.5340
 1681.5000   -27.0620     5.7300     4.5450     2.4590     0.0370   118.1180     9.4360
 1682.0000   -27.8500     6.0470     4.6810     2.4430     0.0460   121.1090    10.0410
 1682.5000   -28.6400     6.1170     4.8550     2.4270     0.0670   122.2750     9.6240
 1683.0000   -28.5320     6.7400     4.9040     2.4240     0.0880   122.7900     9.6210
 1683.5000   -28.3720     7.0490     4.9950     2.4680     0.0940   123.4090     9.7920
 1684.0000   -28.2160     7.9850     5.5230     2.4890     0.0570   127.7160    10.4590
 1684.5000   -28.0620     8.0160     5.6740     2.4870     0.0410   130.0860     9.5520
 1685.0000   -27.9080     8.0550     5.7830     2.4820     0.0410   131.1750     9.5870
 1685.5000   -27.7530     7.7850     5.6250     2.4780     0.0410   132.0790     9.6140
 1686.0000   -27.5990     7.3990     5.4510     2.4640     0.0410   139.4260     9.4930
 1686.5000   -27.4450     6.9730     5.1380     2.4490     0.0410   145.7280     9.4570
 1687.0000   -27.2910     6.5460     4.8790     2.4340     0.0420   148.2810     9.4420
 1687.5000   -27.1240     6.1200     4.6380     2.4190     0.0550   148.3840     9.4280
 1688.0000   -27.4610     5.7830     4.6470     2.4050     0.0710   147.8650     9.4160
 1688.5000   -28.0310     6.1580     4.6630     2.3980     0.0890   147.7450     9.4270
 1689.0000   -28.6000     6.4680     4.6800     2.3900     0.1020   151.1880    10.1050
 1689.5000   -28.7120     6.7780     4.8930     2.4200     0.1070   154.6440     9.4400
 1690.0000   -28.7570     7.5140     5.0780     2.4660     0.0840   158.0910     9.9830
 1690.5000   -28.8030     8.4730     5.2630     2.4620     0.0500   161.5070    10.3440
 1691.0000   -28.8500     9.3090     5.7320     2.4560     0.0280   163.0510     9.3680
 1691.5000   -29.1600     9.8290     6.3360     2.4510     0.0170   165.2010     9.3560
 1692.0000   -29.7010    10.3500     6.7410     2.4460     0.0170   170.3470     9.3310
 1692.5000   -30.0350    10.8710     7.0610     2.4440     0.0160   172.2510     9.3080
 1693.0000   -29.9240    11.1790     7.3160     2.4430     0.0160   173.6020     9.2860
 1693.5000   -29.8240    11.4060     7.5130     2.4410     0.0160   174.9300     9.2680
 1694.0000   -29.7270    11.6320     7.7100     2.4390     0.0160   175.5650     9.2870
 1694.5000   -29.8370    11.8590     7.8410     2.4360     0.0150   184.1740     9.3060
 1695.0000   -30.2920    12.0860     7.8740     2.4340     0.0150   193.0350     9.3240
 1695.5000   -30.5830    12.3130     7.9080     2.4320     0.0160   197.7990     9.3430
 1696.0000   -30.1380    12.5390     7.9470     2.4300     0.0160   174.4070     9.3610
 1696.5000   -29.7110    12.7630     7.9950     2.4270     0.0170   157.6650     9.3810
