~VERSION INFORMATION
 VERS.                2.0:   CWLS LOG ASCII STANDARD - VERSION 2.0
 WRAP.                 NO:   ONE LINE PER DEPTH STEP
~WELL INFORMATION
#MNEM.UNIT      DATA TYPE    INFORMATION
#----------   ------------   ------------------------------
 STRT.F          200.0000:   START DEPTH
 STOP.F         3160.0000:   STOP DEPTH
 STEP.F            0.5000:   STEP LENGTH
 NULL.          -999.2500:   NO VALUE
 COMP.    FENIX & SCISSON:   COMPANY
 WELL. FENIX NPR 3 "AX" #72-3:   WELL
 FLD .             TEAPOT:   FIELD
 LOC .       S3 T38N R78W:   LOCATION
 CNTY.            NATRONA:   COUNTY
 STAT.            WYOMING:   STATE
 CTRY. UNITED STATES OF AMERICA:   COUNTRY
 SRVC.           BIRDWELL:   SERVICE COMPANY
 DATE.        10-JAN-1978:   LOGDATE
 API .     49025105530000:   API NUMBER
~CURVE INFORMATION
#MNEM.UNIT       API CODE    CURVE DESCRIPTION
#----------   ------------   ------------------------------
 DEPT.F                  :   
 CALD.IN     45 280 60 00:   CALIPER FROM DENSITY LOG
 GRD .GAPI   45 310 01 00:   GAMMA RAY FROM DENSITY LOG
 DEN .LBS    45 635 01 00:   BUCK DENSITY
 CORR.G/C3   45 356 01 00:   DENSITY CORRECTION
 SPR .MV     07 010 01 00:   SPONTANEOUS POTENTIAL
 ILD .OHMM   07 120 46 00:   DEEP INDUCTION RESISTIVITY
 ILM .OHMM   07 120 44 00:   INDUCTION LOG MEDIUM RESISTIVITY
~PARAMETER INFORMATION
#MNEM.UNIT          VALUE    DESCRIPTION
#----------   ------------   ------------------------------
 EKB .F         5164.0000:   Kelly bushing
 EGL .F         5153.0000:   Ground level
 TD  .F         3157.0000:   Total depth
 DATE.        10-JAN-1978:   Date logged
 CLNT.            A2DTECH:   Client Code
 SL  . 900' FNL & 900' FEL:   Surface Location
 PD  .                 GL:   Permanent Datum
 EPD .F              5153:   Elevation Permanent Datum
 LMF .                 KB:   Log Measured From
 DMF .                 KB:   Drilling Measured From
 DAPD.F                11:   Feet Above Permanent Datum
 DD  .F              3156:   Depth driller
 DL  .F              3157:   Depth logger
 BLI .F              3157:   Bottom log interval
 TLI .F               200:   Top log interval
 CS1 .IN            8.625:   Casing size
 CBD1.      8.625" @ 222':   Casing driller 1
 CBL1.F               220:   Casing logger 1
 BS1 .IN            7.875:   Bit size
 BSD1.F              3156:   Depth drilled with bit1
 DFT .                KCL:   Type fluid in hole
 DFD .                8.5:   Density
 DFV .                 36:   Viscosity
 DFPH.                 10:   pH
 DFL .                8.8:   Fluid loss
 MSS .           FLOWLINE:   Source of sample
 RMS .OHMM            1.4:   Rm
 MST .F                66:   Rm Meas. temp.
 RMF .OHMM            .85:   Rmf
 MFST.F                74:   Rmf Meas. temp.
 RMC .OHMM            1.4:   Rmc
 MCST.F                72:   Rmc Meas. temp.
 MFSS.               MEAS:   Source Rmf.
 MCSS.               MEAS:   Source Rmc.
 RMB .OHMM            .83:   Rm. at BHT
 BHT .F               112:   BHT.
 TCS .HRS               4:   Time Circ. stopped
 MRT .F               112:   Maximum recorded temp.
 LUN .               2958:   Logging unit number
 LUL .             CASPER:   Logging unit location
 ENGI.            POINTER:   Recorded By
 WITN.         HARRINGTON:   Witnessed by
 ORIG.           5" PRINT:   Origin of data
 UWI .     49025105530000:   Unique Well ID
 DICO. A2D TECHNOLOGIES, INC.:   Digitizing Company
~OTHER INFORMATION
~A   DEPT     CALD        GRD          DEN     CORR        SPR        ILD        ILM   
# ...
 1155.5000    10.0452    83.3406     2.5038     0.0589   -44.9846    12.2946    12.4099
 1156.0000    10.0452    83.1434     2.4998     0.0649   -44.7816    12.2494    12.5277
 1156.5000    10.0453    83.7374     2.4998     0.0649   -45.1752    12.2353    12.3023
 1157.0000    10.0453    85.7160     2.5038     0.0669   -44.9723    11.8837    12.0808
 1157.5000    10.0454    88.4858     2.5098     0.0669   -44.9682    11.8867    12.0838
 1158.0000    10.0454    90.4643     2.5168     0.0669   -45.3618    11.9999    12.2450
 1158.5000    10.0455    91.4539     2.5199     0.0670   -45.1588    11.8926    12.0244
 1159.0000    10.0455    92.8390     2.5199     0.0670   -44.9558    11.8955    12.0273
 1159.5000    10.0456    93.8285     2.5199     0.0570   -45.1506    11.8979    12.0297
 1160.0000    10.0456    95.2136     2.5309     0.0530   -45.5443    11.9009    12.0327
 1160.5000    10.0456    96.5986     2.5349     0.0491   -44.7446    11.9038    12.0357
 1161.0000    10.0457    97.7859     2.5319     0.0531   -44.7405    11.9068    12.0387
 1161.5000    10.0457    97.3908     2.5259     0.0611   -44.7364    11.9098    12.0417
 1162.0000    10.0458    95.2157     2.5169     0.0671   -44.7323    11.8032    11.9342
 1162.5000    10.0458    90.2719     2.5139     0.0711   -44.9271    11.8061    11.9371
 1163.0000    10.0459    89.8792     2.5139     0.0771   -44.7241    11.8091    11.9401
 1163.5000    10.0459    89.4842     2.5149     0.0831   -44.7200    11.8120    11.9431
 1164.0000    10.0460    89.0893     2.5050     0.0851   -45.3126    11.9246    12.0567
 1164.5000    10.0460    88.1010     2.5000     0.0831   -44.7117    11.8179    11.9490
 1165.0000    10.0461    86.7173     2.4970     0.0832   -44.9066    11.8208    11.9520
 1165.5000    10.0461    87.1135     2.4990     0.0832   -44.9024    11.8237    11.9549
 1166.0000    10.0462    89.6850     2.5180     0.0832   -45.2962    11.8267    11.6317
 1166.5000    10.0462    91.4654     2.5250     0.0832   -45.0932    11.8296    12.1846
 1167.0000    10.0463    93.8391     2.5320     0.0832   -45.2888    11.8326    11.9638
 1167.5000    10.0463    94.6306     2.5310     0.0832   -45.0858    11.7267    11.9668
 1168.0000    10.0464    95.0267     2.5260     0.0833   -45.0817    11.8385    11.9698
 1168.5000    10.0464    95.0272     2.5230     0.0813   -45.0776    11.7325    11.8629
 1169.0000    10.0465    95.0278     2.5240     0.0773   -45.0735    11.8438    12.1529
 1169.5000    10.0465    95.0283     2.5380     0.0673   -45.0694    11.8467    12.1548
 1170.0000    10.0466    93.8424     2.5440     0.0574   -45.0652    11.8497    12.2703
 1170.5000    10.0466    92.6565     2.5440     0.0494   -45.0611    11.7436    11.9388
 1171.0000    10.0467    91.4706     2.5400     0.0494   -45.0570    11.8556    12.0523
 1171.5000    10.0467    90.8779     2.5280     0.0514   -44.8539    11.7495    11.9448
 1172.0000    10.0468    90.8785     2.4961     0.0574   -44.8498    11.8615    12.0583
 1172.5000    10.0468    91.2746     2.4901     0.0635   -44.8457    11.8644    11.9507
 1173.0000    10.0469    90.8797     2.4831     0.0715   -44.8416    11.7582    11.9537
 1173.5000    10.0469    90.8803     2.4801     0.0735   -44.8375    11.7612    11.9566
 1174.0000    10.0470    90.8809     2.4761     0.0695   -44.4354    11.7641    11.9596
 1174.5000    10.0470    90.8815     2.4751     0.0675   -44.8293    11.7670    11.9626
 1175.0000    10.0471    90.6823     2.4792     0.0675   -45.0242    11.8792    12.0762
 1175.5000    10.0471    90.8804     2.4881     0.0596   -45.0201    11.7728    11.9685
 1176.0000    10.0472    91.8696     2.4921     0.0536   -45.2150    11.6675    11.9714
 1176.5000    10.0472    94.2428     2.5011     0.0516   -45.2109    11.8881    12.0852
 1177.0000    10.0473    96.8137     2.5051     0.0516   -45.2068    11.8910    12.0882
 1177.5000    10.0473    98.5937     2.5052     0.0517   -45.2027    11.8940    12.0912
 1178.0000    10.0474    98.7919     2.5032     0.0597   -44.9995    12.0074    11.8734
 1178.5000    10.0474    98.3970     2.5002     0.0617   -45.1928    11.8999    12.0972
 1179.0000    10.0475    97.4090     2.4982     0.0657   -45.1903    11.9023    12.0996
 1179.5000    10.0475    95.6324     2.4982     0.0657   -45.1862    11.9052    12.1026
 1180.0000    10.0476    93.6559     2.5112     0.0657   -45.5811    12.0188    12.2177
 1180.5000    10.0476    93.0633     2.5222     0.0617   -45.1788    11.9112    12.1086
 1181.0000    10.0477    91.0868     2.5252     0.0598   -45.1747    11.9141    12.1116
 1181.5000    10.0477    89.7035     2.5272     0.0498   -44.9716    12.0278    12.1146
 1182.0000    10.0478    89.7041     2.5272     0.0398   -44.7684    11.9201    12.1177
 1182.5000    10.0478    90.4955     2.5172     0.0279   -44.9634    11.9230    12.1207
 1183.0000    10.0478    92.4731     2.5102     0.0279   -44.9592    11.9260    12.1237
 1183.5000    10.0479    94.2529     2.5033     0.0279   -44.9551    11.9290    12.1267
 1184.0000    10.0479    96.2304     2.4933     0.0279   -44.9510    12.0427    12.2420
 1184.5000    10.0480    96.2288     2.4943     0.0319   -45.1282    11.9349    12.1327
 1185.0000    10.0480    96.0313     2.4953     0.0339   -45.1257    11.9379    12.1357
 1185.5000    10.0481    95.8342     2.4903     0.0399   -45.1215    11.9408    12.1387
 1186.0000    10.0481    96.0324     2.4883     0.0440   -45.1173    11.9438    12.1417
 1186.5000    10.0482    97.6144     2.5003     0.0520   -44.9141    11.9468    12.1447
 1187.0000    10.0482    99.5940     2.5003     0.0540   -44.9099    11.9498    12.1478
 1187.5000    10.0185    99.5945     2.5023     0.0560   -45.1054    11.9527    12.1508
 1188.0000    10.0483    99.7927     2.5043     0.0580   -45.1012    12.0668    12.2663
 1188.5000    10.0484   100.1886     2.5053     0.0580   -45.0970    11.9581    12.1562
 1189.0000    10.0484    99.5961     2.5043     0.0581   -45.0928    11.9611    12.1592
 1189.5000    10.0485    98.0152     2.5053     0.0581   -45.0886    11.9641    12.1622
 1190.0000    10.0485    95.4460     2.5004     0.0561   -45.4840    11.9671    12.1653
 1190.5000    10.0486    92.2839     2.4894     0.0541   -45.0801    11.9700    12.1683
 1191.0000    10.0486    91.6915     2.4874     0.0461   -45.0759    11.9730    12.1713
 1191.5000    10.0487    93.2734     2.4874     0.0462   -45.0717    11.9760    12.1743
 1192.0000    10.0487    96.4365     2.4874     0.0442   -45.0674    11.9790    12.1774
 1192.5000    10.0488    97.6230     2.4874     0.0422   -45.0632    11.9820    12.2932
 1193.0000    10.0488    97.6235     2.4884     0.0482   -45.0590    11.9850    12.0716
 1193.5000    10.0489    96.4381     2.4904     0.0582   -45.0548    11.9879    12.1864
 1194.0000    10.0489    94.6598     2.4914     0.0642   -45.0505    11.8806    12.0776
 1194.5000    10.0490    93.8697     2.4954     0.0742   -44.8464    11.8835    12.0806
 1195.0000    10.0490    93.6726     2.4984     0.0742   -44.8422    11.9969    12.1955
 1195.5000    10.0491    93.6732     2.5044     0.0743   -44.8379    11.8895    12.0866
 1196.0000    10.0491    93.6737     2.5084     0.0763   -44.8337    11.8924    11.8688
 1196.5000    10.0492    94.2672     2.5114     0.0743   -44.8295    11.5699    11.8718
 1197.0000     9.9997    95.6513     2.5174     0.0743   -44.8252    11.8102    11.7658
 1197.5000    10.0195    96.4424     2.5234     0.0743   -44.8210    11.8131    11.5977
 1198.0000    10.0187    96.6382     2.5214     0.0764   -44.8176    11.9250    11.3879
 1198.5000    10.0178    96.6387     2.5105     0.0744   -45.0133    12.0385    11.1819
 1199.0000    10.0170    98.0227     2.5005     0.0744   -44.8091    11.9309    10.9801
 1199.5000    10.0162    99.2090     2.5025     0.0744   -45.0049    11.9339    10.8820
 1200.0000    10.0153    99.4071     2.5075     0.0724   -45.0007    11.9369    10.8847
 1200.5000    10.0145    99.6048     2.5093     0.0615   -44.9958    11.9403    10.4146
