~VERSION INFORMATION
 VERS.                2.0:   CWLS LOG ASCII STANDARD - VERSION 2.0
 WRAP.                 NO:   ONE LINE PER DEPTH STEP
~WELL INFORMATION
#MNEM.UNIT      DATA TYPE    INFORMATION
#----------   ------------   ------------------------------
 STRT.F            7.5000:   START DEPTH
 STOP.F         5700.0000:   STOP DEPTH
 STEP.F            0.5000:   STEP LENGTH
 NULL.          -999.2500:   NO VALUE
 COMP. FLUOR DANIEL (NPOSR):   COMPANY
 WELL.   FLOUR "X" #52-10:   WELL
 FLD .             NPR #3:   FIELD
 LOC .      S10 T38N R78W:   LOCATION
 CNTY.            NATRONA:   COUNTY
 STAT.            WYOMING:   STATE
 CTRY. UNITED STATES OF AMERICA:   COUNTRY
 SRVC.      WESTERN ATLAS:   SERVICE COMPANY
 DATE.        12-JAN-1996:   LOGDATE
 API .     49025227600000:   API NUMBER
~CURVE INFORMATION
#MNEM.UNIT       API CODE    CURVE DESCRIPTION
#----------   ------------   ------------------------------
 DEPT.F                  :   
 TENR.LBS    11 635 01 00:   TENSION
 GRR .GAPI   11 310 01 00:   GAMMA RAY FROM RESISTIVITY
 LLD .OHMM   11 220 10 00:   LATEROLOG DEEP
 LLS .OHMM   11 220 09 00:   LATEROLOG SHALLOW
 SPR .MV     11 010 01 00:   SPONTANEOUS POTENTIAL
 CALD.IN     45 280 60 00:   CALIPER FROM DENSITY LOG
 TEND.LBS    45 635 01 00:   TENSION FROM DENSITY LOG
 ZCOR.G/C3   45 356 01 00:   DENSITY CORRECTION
 ZDEN.G/C3   45 350 01 00:   BULK DENSITY
 CNC .DEC    42 890 03 00:   NEUTRON POROSITY SANDSTONE
~PARAMETER INFORMATION
#MNEM.UNIT          VALUE    DESCRIPTION
#----------   ------------   ------------------------------
 EKB .F         5196.0000:   Kelly bushing
 EGL .F         5186.0000:   Ground level
 EDF .F         5195.0000:   Drilling floor
 TD  .F         5699.0000:   Total depth
 DATE.        12-JAN-1996:   Date logged
 CLNT.            A2DTECH:   Client Code
 SL  . 1032' FNL & 2536' FEL:   Surface Location
 PD  .                 GL:   Permanent Datum
 EPD .F              5186:   Elevation Permanent Datum
 LMF .                 KB:   Log Measured From
 DMF .                 KB:   Drilling Measured From
 DAPD.F                11:   Feet Above Permanent Datum
 DD  .F              5699:   Depth driller
 DL  .F              5699:   Depth logger
 BLI .F              5687:   Bottom log interval
 CS1 .IN            9.625:   Casing size
 CBD1.      9.625" @ 520':   Casing driller 1
 CBL1.F               522:   Casing logger 1
 BS1 .IN             8.75:   Bit size
 BSD1.F              5699:   Depth drilled with bit1
 DFT .               CHEM:   Type fluid in hole
 DFD .                9.8:   Density
 DFV .                 50:   Viscosity
 DFPH.                9.5:   pH
 DFL .                8.4:   Fluid loss
 MSS .           FLOWLINE:   Source of sample
 RMS .OHMM          0.515:   Rm
 MST .F                66:   Rm Meas. temp.
 RMF .OHMM          0.499:   Rmf
 MFST.F                66:   Rmf Meas. temp.
 RMC .OHMM          0.761:   Rmc
 MCST.F                66:   Rmc Meas. temp.
 MFSS.               MEAS:   Source Rmf.
 MCSS.               MEAS:   Source Rmc.
 RMB .OHMM          0.233:   Rm. at BHT
 BHT .F               174:   BHT.
 TCS .HRS               6:   Time Circ. stopped
 MRT .F               174:   Maximum recorded temp.
 LUN .            HL 6530:   Logging unit number
 LUL .             CASPER:   Logging unit location
 ENGI.        VERN RAUTIO:   Recorded By
 WITN. LAFRENIERE/OPSAL/HARDY:   Witnessed by
 ORIG.     2.5", 5" PRINT:   Origin of data
 UWI .     49025227600000:   Unique Well ID
 DICO. A2D TECHNOLOGIES, INC.:   Digitizing Company
~OTHER INFORMATION
~A    DEPT    TENR         GRR       LLD        LLS        SPR       CALD       TEND       ZCOR       ZDEN        CNC   
# ...
 4630.5000   -45.4730    63.2370    43.8080    34.7110   -87.9140    10.3280   -24.5100     0.0090     2.6330     0.0700
 4631.0000   -42.9370    61.2000    45.8340    34.6690   -88.0090    10.3280   -24.5100     0.0010     2.6280     0.0670
 4631.5000   -40.2200    61.5530    44.8830    34.6080   -88.1030    10.3280   -24.5100     0.0060     2.6230     0.0680
 4632.0000   -37.5040    64.1580    43.8430    34.5470   -88.1580    10.3280   -24.5100     0.0120     2.6220     0.0700
 4632.5000   -34.7880    66.7650    42.8020    34.4860   -87.9820    10.3280   -24.5100     0.0190     2.6310     0.0730
 4633.0000   -38.8670    67.1580    41.7780    34.4250   -87.8090    10.3280   -31.5030     0.0240     2.6460     0.0820
 4633.5000   -47.4680    67.6410    37.5020    32.5540   -87.6360    10.3280   -39.8040     0.0310     2.6530     0.0900
 4634.0000   -56.0700    72.4940    32.3910    28.5730   -87.4640    10.3280   -48.1050     0.0290     2.6600     0.1000
 4634.5000   -64.6710    85.6960    24.7370    20.8250   -87.2930    10.3280   -56.4050     0.0270     2.6650     0.1220
 4635.0000   -73.9440   101.5640    17.8370    16.8500   -87.1340    10.3280   -63.7250     0.0200     2.6680     0.1480
 4635.5000   -66.0130   116.2420    16.6230    15.1090   -86.8360    10.3280   -58.1570     0.0140     2.6690     0.1760
 4636.0000   -57.4110   118.2050    15.8340    14.5050   -86.5320    10.3270   -53.1760     0.0080     2.6640     0.1990
 4636.5000   -54.9370   113.5030    15.2670    14.2210   -86.2290    10.3270   -48.1960     0.0020     2.6570     0.2050
 4637.0000   -56.8480   111.5860    14.2930    13.9990   -85.9290    10.3260   -44.1180    -0.0030     2.6510     0.2100
 4637.5000   -58.7600   113.5660    13.3650    12.2960   -85.7820    10.3260   -50.0000    -0.0070     2.6450     0.2130
 4638.0000   -60.6710   120.4310    13.9280    12.4260   -85.8430    10.3250   -54.9800     0.0040     2.6390     0.2170
 4638.5000   -62.5830   123.5130    14.5280    14.4090   -85.9020    10.3250   -59.9610     0.0140     2.6420     0.1920
 4639.0000   -65.1520   117.0920    19.9620    18.2590   -85.9610    10.3240   -63.7250     0.0270     2.6470     0.1710
 4639.5000   -69.1220   103.0820    24.9040    22.1080   -86.0200    10.3240   -63.7250     0.0270     2.6520     0.1490
 4640.0000   -73.0920    89.1960    29.8470    25.9580   -86.0800    10.3230   -63.7250     0.0260     2.6510     0.1280
 4640.5000   -71.3280    82.0470    32.9220    27.9840   -86.1380    10.3230   -63.7250     0.0240     2.6480     0.1100
 4641.0000   -67.9980    79.4660    33.1390    28.5730   -86.2960    10.3220   -63.7250     0.0230     2.6460     0.0980
 4641.5000   -64.6690    77.3920    31.8060    27.1180   -86.5100    10.3220   -63.7250     0.0240     2.6430     0.0970
 4642.0000   -61.3390    75.5610    30.5140    25.9310   -86.7260    10.3210   -63.7250     0.0240     2.6370     0.0960
 4642.5000   -58.0090    73.7180    29.1080    24.7440   -86.9440    10.3210   -60.6750     0.0240     2.6290     0.0950
 4643.0000   -54.6800    71.8760    29.1080    24.4090   -87.1630    10.3200   -55.1420     0.0240     2.6210     0.0940
 4643.5000   -48.3470    70.0450    29.1080    24.4090   -87.2220    10.3200   -49.6080     0.0250     2.6130     0.0910
 4644.0000   -40.9740    68.6700    29.1080    24.4090   -87.2720    10.3190   -44.0740     0.0250     2.6090     0.0890
 4644.5000   -33.7020    68.1290    29.2950    24.4090   -87.3240    10.3190   -38.5400     0.0260     2.6130     0.0870
 4645.0000   -33.7020    67.5590    29.6080    24.4090   -87.3760    10.3180   -33.0070     0.0270     2.6150     0.0860
 4645.5000   -34.6400    66.4610    29.9220    24.6710   -87.4530    10.3180   -27.4730     0.0270     2.6280     0.0850
 4646.0000   -36.7040    64.6910    30.2070    24.9820   -87.5300    10.3170   -24.5100     0.0260     2.6340     0.0820
 4646.5000   -38.7690    63.3460    30.6450    25.2930   -87.6070    10.3160   -24.5100     0.0250     2.6390     0.0790
 4647.0000   -40.8330    62.7610    31.1350    25.6040   -87.6840    10.3160   -24.5100     0.0240     2.6410     0.0780
 4647.5000   -42.8970    62.5110    31.6390    25.9140   -87.7650    10.3150   -24.5100     0.0240     2.6430     0.0780
 4648.0000   -42.5630    60.8130    33.5260    27.1280   -87.6580    10.3150   -24.5100     0.0270     2.6460     0.0760
 4648.5000   -40.4970    58.7530    35.4700    28.9940   -87.5050    10.3140   -24.5100     0.0300     2.6480     0.0730
 4649.0000   -38.4310    57.6560    38.0810    30.7720   -87.3510    10.3140   -24.5100     0.0310     2.6430     0.0710
 4649.5000   -36.3650    57.9130    37.2660    31.0580   -87.1980    10.3130   -24.5100     0.0270     2.6340     0.0700
 4650.0000   -34.2990    60.0190    36.0260    29.7580   -87.0440    10.3130   -24.5100     0.0220     2.6250     0.0730
 4650.5000   -34.7330    64.2230    34.7110    28.8390   -86.9650    10.3120   -24.5100     0.0160     2.6160     0.0770
 4651.0000   -36.1840    68.0840    34.7110    28.8390   -86.9510    10.3120   -24.5100     0.0100     2.6080     0.0800
 4651.5000   -37.6340    67.6220    33.7060    28.8390   -86.9390    10.3110   -24.5100     0.0080     2.6030     0.0830
 4652.0000   -39.0850    66.4920    32.6780    28.3220   -86.9260    10.3110   -24.5100     0.0050     2.6020     0.0840
 4652.5000   -40.5350    64.7910    29.7510    27.1340   -86.9140    10.3100   -24.5100     0.0040     2.6010     0.0880
 4653.0000   -41.9850    66.3310    26.1850    24.1480   -86.9020    10.3100   -24.5100     0.0050     2.6050     0.0950
 4653.5000   -43.4360    72.3650    21.9150    20.3980   -86.8890    10.3090   -24.5100     0.0080     2.6140     0.1100
 4654.0000   -45.7950    80.0520    18.3900    16.6470   -86.8770    10.3090   -24.5100     0.0100     2.6290     0.1330
 4654.5000   -51.0160    95.5160    17.9080    14.9370   -86.8650    10.3080   -24.5100     0.0120     2.6490     0.1560
 4655.0000   -48.4570   110.8490    17.6480    15.2170   -86.8530    10.3080   -24.5100     0.0140     2.6610     0.1710
 4655.5000   -36.8540   121.8430    20.1870    17.3240   -86.8400    10.3070   -24.5100     0.0170     2.6580     0.1680
 4656.0000   -46.3780   120.8650    24.2610    20.8520   -86.8280    10.3070   -24.5100     0.0180     2.6560     0.1480
 4656.5000   -63.8830   101.4230    28.3350    23.3130   -86.8160    10.3060   -24.5100     0.0230     2.6480     0.1300
 4657.0000   -54.7220    89.9930    30.8320    25.8040   -86.8030    10.3060   -34.0520     0.0220     2.6450     0.1100
 4657.5000   -45.5080    86.2510    32.3150    26.2370   -86.7910    10.3050   -42.3200     0.0190     2.6490     0.1000
 4658.0000   -36.2940    85.3610    33.7990    26.9730   -86.7790    10.3050   -44.1180     0.0170     2.6520     0.0970
 4658.5000   -39.9560    83.2420    35.3600    28.4580   -86.7670    10.3040   -44.1180     0.0160     2.6560     0.0940
 4659.0000   -48.6590    80.6960    36.3060    29.6110   -86.7680    10.3040   -44.1180     0.0200     2.6560     0.0910
 4659.5000   -54.8840    78.5300    37.3030    30.4880   -86.7680    10.3030   -44.1180     0.0240     2.6560     0.0890
 4660.0000   -57.4950    79.4100    38.4350    30.4880   -86.7680    10.3030   -44.1180     0.0270     2.6550     0.0880
 4660.5000   -60.1060    80.8460    38.3470    30.4880   -86.7680    10.3020   -44.1180     0.0310     2.6530     0.0890
 4661.0000   -62.7160    80.6890    38.2450    30.4880   -86.7680    10.3020   -44.1180     0.0280     2.6510     0.0900
 4661.5000   -62.3640    79.2410    38.1430    30.4880   -86.7670    10.3010   -44.1180     0.0200     2.6500     0.0910
 4662.0000   -59.6160    77.3200    37.1760    30.2380   -86.7680    10.3010   -44.1180     0.0190     2.6520     0.0910
 4662.5000   -56.8680    75.7120    34.8980    29.0160   -86.7840    10.3000   -44.1180     0.0150     2.6590     0.0950
 4663.0000   -54.1190    76.3980    32.6190    26.8920   -86.8780    10.3000   -44.1180     0.0110     2.6570     0.0980
 4663.5000   -49.9410    77.3000    29.7590    24.4940   -86.9700    10.2990   -44.1180     0.0070     2.6470     0.1030
