~VERSION INFORMATION
 VERS.                2.0:   CWLS LOG ASCII STANDARD - VERSION 2.0
 WRAP.                 NO:   ONE LINE PER DEPTH STEP
~WELL INFORMATION
#MNEM.UNIT      DATA TYPE    INFORMATION
#----------   ------------   ------------------------------
 STRT.F          297.0000:   START DEPTH
 STOP.F         2946.0000:   STOP DEPTH
 STEP.F            0.5000:   STEP LENGTH
 NULL.          -999.2500:   NO VALUE
 COMP.    FENIX & SCISSON:   COMPANY
 WELL. FENIX & SCISSON SH "X" #17-10:   WELL
 FLD .             NPR #3:   FIELD
 LOC .      S10 T38N R78W:   LOCATION
 CNTY.            NATRONA:   COUNTY
 STAT.            WYOMING:   STATE
 CTRY. UNITED STATES OF AMERICA:   COUNTRY
 SRVC.       SCHLUMBERGER:   SERVICE COMPANY
 DATE.        05-APR-1977:   LOGDATE
 API .     49025103310000:   API NUMBER
~CURVE INFORMATION
#MNEM.UNIT       API CODE    CURVE DESCRIPTION
#----------   ------------   ------------------------------
 DEPT.F                  :   
 SPR .MV     07 010 01 00:   SPONTANEOUS POTENTIAL
 ILD .OHMM   07 120 46 00:   DEEP INDUCTION RESISTIVITY
 ILM .OHMM   07 120 44 00:   INDUCTION LOG MEDIUM RESISTIVITY
 LL8 .OHMM   07 220 08 00:   LATEROLOG-8 RES.
 CALD.IN     45 280 60 00:   CALIPER FROM DENSITY LOG
 GRD .GAPI   45 310 01 00:   GAMMA RAY FROM DENSITY LOG
 CORR.G/C3   45 356 01 00:   DENSITY CORRECTION
 RHOB.G/C3   45 350 01 00:   BULK DENSITY
~PARAMETER INFORMATION
#MNEM.UNIT          VALUE    DESCRIPTION
#----------   ------------   ------------------------------
 EKB .F         5270.0000:   Kelly bushing
 EGL .F         5260.0000:   Ground level
 TD  .F         2950.0000:   Total depth
 CLNT.            A2DTECH:   Client Code
 SL  . 205' FWL & 1115' FSL:   Surface Location
 DATE.        05-APR-1977:   Date Logged [DD-MMM-YYYY]
 DD  .F              2950:   Depth driller
 DL  .F              2948:   Depth logger
 BLI .F              2946:   Bottom log interval
 TLI .F               310:   Top log interval
 CS1 .              10.75:   Casing size
 CBD1.      10.75" @ 300':   Casing driller 1
 CBL1.IN              310:   Casing logger 1
 BS1 .IN            8.625:   Bit size
 BSD1.F              2950:   Depth drilled with bit1
 DFT .                KCL:   Type fluid in hole
 DFD .                9.0:   Density
 DFV .                 33:   Viscosity
 DFL .                  9:   Fluid loss
 MSS .            MUD PIT:   Source of sample
 RMS .OHMM          0.153:   Rm
 MST .F                60:   Rm Meas. temp.
 RMF .OHMM          0.130:   Rmf
 MFST.F                60:   Rmf Meas. temp.
 MFSS.               MEAS:   Source Rmf.
 RMC .OHMM          0.229:   Rmc
 MCST.F                60:   Rmc Meas. temp.
 MCSS.               CALC:   Source Rmc.
 RMB .OHMM           0.08:   Rm. at BHT
 BHT .F               115:   BHT.
 TCS .HRS               6:   Time Circ. stopped
 MRT .F               115:   Maximum recorded temp.
 LUN .               7689:   Logging unit number
 LUL .               CODY:   Logging unit location
 ENGI.             RASMUS:   Recorded By
 WITN.              LYONS:   Witnessed by
 ORIG.         2.5" PRINT:   Origin of data
 UWI .     49025103310000:   Unique Well ID
 DICO. A2D TECHNOLOGIES, INC.:   Digitizing Company
 PD  .                 GL:   Permanent Datum
 EPD .               5260:   Elevation Permanent Datum
 LMF .                 KB:   Log Measured From
 DMF .                 KB:   Drilling Measured From
 DAPD.                 10:   Feet Above Permanent Datum
~OTHER INFORMATION
~A   DEPT      SPR        ILD        ILM        LL8       CALD        GRD       CORR       RHOB   
  297.0000  -999.2500  -999.2500  -999.2500  -999.2500  -999.2500   130.3191  -999.2500  -999.2500
  297.5000  -999.2500  -999.2500  -999.2500  -999.2500  -999.2500    98.5963  -999.2500  -999.2500
  298.0000  -999.2500  -999.2500  -999.2500  -999.2500  -999.2500    71.2183  -999.2500  -999.2500
  298.5000  -999.2500  -999.2500  -999.2500  -999.2500  -999.2500    67.9369  -999.2500  -999.2500
  299.0000  -999.2500  -999.2500  -999.2500  -999.2500  -999.2500    66.1614  -999.2500  -999.2500
  299.5000  -999.2500  -999.2500  -999.2500  -999.2500  -999.2500    64.8597  -999.2500  -999.2500
  300.0000  -999.2500  -999.2500  -999.2500  -999.2500  -999.2500    65.3470  -999.2500  -999.2500
  300.5000  -999.2500  -999.2500  -999.2500  -999.2500  -999.2500    68.9014  -999.2500  -999.2500
  301.0000  -999.2500  -999.2500  -999.2500  -999.2500  -999.2500    70.8767  -999.2500  -999.2500
  301.5000  -999.2500  -999.2500  -999.2500  -999.2500  -999.2500    71.5987  -999.2500  -999.2500
  302.0000  -999.2500  -999.2500  -999.2500  -999.2500  -999.2500    71.0107  -999.2500  -999.2500
  302.5000  -999.2500  -999.2500  -999.2500  -999.2500  -999.2500    70.1295  -999.2500  -999.2500
  303.0000  -999.2500  -999.2500  -999.2500  -999.2500  -999.2500    69.1065  -999.2500  -999.2500
  303.5000  -999.2500  -999.2500  -999.2500  -999.2500  -999.2500    68.8094  -999.2500  -999.2500
  304.0000  -999.2500  -999.2500  -999.2500  -999.2500  -999.2500    69.1281  -999.2500  -999.2500
  304.5000  -999.2500  -999.2500  -999.2500  -999.2500  -999.2500    70.1579  -999.2500  -999.2500
  305.0000  -999.2500  -999.2500  -999.2500  -999.2500  -999.2500    71.6861  -999.2500  -999.2500
  305.5000  -999.2500  -999.2500  -999.2500  -999.2500  -999.2500    73.5261  -999.2500  -999.2500
  306.0000  -999.2500  -999.2500  -999.2500  -999.2500  -999.2500    72.6521  -999.2500  -999.2500
  306.5000  -999.2500  -999.2500  -999.2500  -999.2500  -999.2500    70.6051  -999.2500  -999.2500
  307.0000  -999.2500  -999.2500  -999.2500  -999.2500  -999.2500    69.7311  -999.2500  -999.2500
  307.5000  -999.2500  -999.2500  -999.2500  -999.2500  -999.2500    70.0302  -999.2500  -999.2500
  308.0000  -999.2500  -999.2500  -999.2500  -999.2500  -999.2500    71.2090  -999.2500  -999.2500
  308.5000  -999.2500  -999.2500  -999.2500  -999.2500  -999.2500    71.2148  -999.2500  -999.2500
  309.0000  -999.2500  -999.2500  -999.2500  -999.2500  -999.2500    70.3408  -999.2500  -999.2500
  309.5000  -999.2500  -999.2500  -999.2500  -999.2500  -999.2500    69.7601  -999.2500  -999.2500
  310.0000  -999.2500  -999.2500  -999.2500  -999.2500    10.8241    70.0591     0.2499  -999.2500
  310.5000  -999.2500  -999.2500  -999.2500  -999.2500    12.2325    87.2295     0.2142     2.3290
  311.0000  -999.2500  -999.2500  -999.2500  -999.2500    13.0543    91.6686     0.1608     2.2660
  311.5000  -999.2500  -999.2500  -999.2500  -999.2500    13.5242    92.3629     0.1108     2.2615
  312.0000   -54.7576     1.1145     1.6972     3.1173    13.7889    90.9618     0.0770     2.2704
  312.5000   -58.8599     1.2520     1.7700     2.8595    13.9069    89.5650     0.0431     2.2764
  313.0000   -61.7908     1.3895     1.8447     2.9419    14.0249    88.4760     0.0274     2.2704
  313.5000   -64.1335     1.5271     1.9491     3.0220    14.1430    88.2805     0.0228     2.2661
  314.0000   -65.5938     1.6646     2.0314     3.0167    14.2317    89.1964     0.0212     2.2766
  314.5000   -66.7601     1.8185     2.1171     2.8983    14.2914    91.2771     0.0221     2.2809
  315.0000   -67.6322     1.9437     2.2065     2.8203    14.3514    92.9423     0.0258     2.2718
  315.5000   -68.5043     1.9715     2.2683     2.7860    14.3805    93.5836     0.0308     2.2676
  316.0000   -69.6705     2.0211     2.2379     3.0492    14.3812    92.4557     0.0338     2.2845
  316.5000   -70.8367     2.0284     2.2693     3.5976    14.3819    90.3792     0.0308     2.3262
  317.0000   -72.2989     2.0648     2.3012     4.1220    14.3790    88.7576     0.0219     2.3469
  317.5000   -73.1741     2.2479     2.4650     4.3918    14.3541    88.4628     0.0234     2.3697
  318.0000   -73.7549     2.5493     2.6404     4.2988    14.3549    88.6275     0.0338     2.3922
  318.5000   -74.3252     2.7204     2.7898     3.9756    14.3556    88.9267     0.0545     2.4093
  319.0000   -74.6091     2.8235     2.9076     3.8685    14.3563    88.9337     0.0707     2.4163
  319.5000   -74.5818     2.9175     3.0303     3.8162    14.3570    88.9395     0.0766     2.4183
  320.0000   -73.9803     2.9703     3.0728     3.7741    14.3578    89.8250     0.0648     2.4033
  320.5000   -73.3789     2.9155     3.0317     3.7751    14.3585    91.5903     0.0515     2.3846
  321.0000   -72.7775     2.8214     2.9504     3.7865    14.3885    92.7691     0.0441     2.3829
  321.5000   -72.4990     2.6708     2.7931     3.7767    14.4285    93.6547     0.0367     2.3823
  322.0000   -73.1078     2.5435     2.6076     3.7038    14.4780    94.8335     0.0352     2.3793
  322.5000   -73.6887     2.4414     2.4694     3.5545    14.5081    96.0123     0.0411     2.3771
  323.0000   -73.9755     2.3603     2.3699     3.3648    14.5088    96.8979     0.0440     2.3730
  323.5000   -74.2623     2.2650     2.3398     3.1746    14.5389    97.1969     0.0409     2.3528
  324.0000   -74.5490     2.1890     2.3085     2.9538    14.5396    96.6162     0.0334     2.3418
  324.5000   -74.7905     2.1457     2.3090     2.5657    14.5110    98.0883     0.0322     2.3344
  325.0000   -74.7794     2.1463     2.3131     2.3648    14.4824    99.5604     0.0411     2.3064
  325.5000   -74.4750     2.1639     2.3869     2.3419    14.4385    99.8594     0.0366     2.3020
  326.0000   -74.4647     2.2618     2.6347     2.8437    14.3798    99.2787     0.0241     2.3065
  326.5000   -74.4544     2.4969     2.9366     3.3409    14.3380    97.5249     0.0203     2.3389
  327.0000   -74.4441     2.7110     3.1475     3.7674    14.3094    95.1653     0.0281     2.3788
  327.5000   -74.4338     2.9036     3.3649     3.8394    14.2809    93.1133     0.0292     2.4098
  328.0000   -74.4902     3.0677     3.6058     3.7879    14.2817    92.2637     0.0217     2.4142
  328.5000   -74.7086     3.1970     3.7484     3.8068    14.2824    92.5631     0.0188     2.4187
  329.0000   -74.9924     3.2420     3.8017     3.9140    14.2831    93.2239     0.0215     2.4246
  329.5000   -75.2763     3.3328     3.8429     4.0242    14.2838    94.1242     0.0296     2.4364
  330.0000   -75.6373     3.3797     3.8968     4.0811    14.2845    94.6334     0.0416     2.4468
  330.5000   -75.9240     3.3348     3.8977     4.1390    14.2976    93.9404     0.0483     2.4571
  331.0000   -76.5049     3.2018     3.8986     4.2555    14.3284    91.4585     0.0543     2.4586
  331.5000   -76.7916     3.0741     3.9159     4.3397    14.3591    89.8171     0.0276     2.4304
  332.0000   -77.3725     3.0751     3.9003     4.4779    14.4047    89.3775     0.0232     2.4143
  332.5000   -77.9534     3.0760     3.8836     4.6040    14.4054    89.3841     0.0217     2.4085
  333.0000   -78.5343     3.1192     3.8489     4.7337    14.4062    89.3900     0.0217     2.4041
  333.5000   -79.1152     3.2066     3.8499     4.8669    14.3611    90.1829     0.0262     2.3953
  334.0000   -79.9902     3.3418     3.8509     5.0039    14.1750    91.2688     0.0506     2.3791
  334.5000   -80.5711     3.4827     3.8725     5.1449    13.7927    89.8915     0.1077     2.3658
  335.0000   -81.1520     3.6296     4.0045     5.3725    13.6174    85.5766     0.1430     2.3496
  335.5000   -81.6240     3.7826     4.2328     5.6779    13.4715    83.5884     0.1069     2.3423
  336.0000   -81.9079     3.9421     4.5086     5.8948    13.3550    82.4067     0.1013     2.3364
  336.5000   -81.8956     4.1083     4.6650     5.8159    13.2677    82.3881     0.1001     2.3349
  337.0000   -81.6999     4.2815     4.7667     5.7251    13.2978    84.3196     0.1113     2.3350
