~VERSION INFORMATION
 VERS.                2.0:   CWLS LOG ASCII STANDARD - VERSION 2.0
 WRAP.                 NO:   ONE LINE PER DEPTH STEP
~WELL INFORMATION
#MNEM.UNIT      DATA TYPE    INFORMATION
#----------   ------------   ------------------------------
 STRT.F           16.0000:   START DEPTH
 STOP.F         4208.0000:   STOP DEPTH
 STEP.F            0.5000:   STEP LENGTH
 NULL.          -999.2500:   NO VALUE
 COMP.    FENIX & SCISSON:   COMPANY
 WELL. FENIX NPR 3 "MX" #41-10:   WELL
 FLD .                NPR:   FIELD
 LOC .      S10 T38N R78W:   LOCATION
 CNTY.            NATRONA:   COUNTY
 STAT.            WYOMING:   STATE
 CTRY. UNITED STATES OF AMERICA:   COUNTRY
 SRVC.       SCHLUMBERGER:   SERVICE COMPANY
 DATE.        04-NOV-1978:   LOGDATE
 API .     49025107260000:   API NUMBER
~CURVE INFORMATION
#MNEM.UNIT       API CODE    CURVE DESCRIPTION
#----------   ------------   ------------------------------
 DEPT.F                  :   
 TENR.LBS    07 635 01 00:   TENSION FROM RESISTIVITY
 SPR .MV     07 010 01 00:   SPONTANEOUS POTENTIAL
 SFL .OHMM   07 220 01 00:   SHALLOW FOCUSED LOG RESISTIVITY
 ILD .OHMM   07 120 46 00:   DEEP INDUCTION RESISTIVITY
 ILM .OHMM   07 120 44 00:   INDUCTION LOG MEDIUM RESISTIVITY
 CALD.IN     45 280 60 00:   CALIPER FROM DENSITY LOG
 GRD .GAPI   45 310 01 00:   GAMMA RAY FROM DENSITY LOG
 TEND.LBS    45 635 01 00:   TENSION FROM DENSITY LOG
 RHOB.G/C3   45 350 01 00:   BULK DENSITY
 CORR.G/C3   45 356 01 00:   DENSITY CORRECTION
 NPHI.DEC    42 890 03 00:   NEUTRON POROSITY SANDSTONE
~PARAMETER INFORMATION
#MNEM.UNIT          VALUE    DESCRIPTION
#----------   ------------   ------------------------------
 EKB .F         5237.0000:   Kelly bushing
 EGL .F         5227.0000:   Ground level
 EDF .F            0.0000:   Drilling floor
 TD  .F         4200.0000:   Total depth
 DATE.        04-NOV-1978:   Date logged
 CLNT.            A2DTECH:   Client Code
 SL  . 70' FNL & 2370' FWL:   Surface Location
 PD  .                 GL:   Permanent Datum
 EPD .F              5227:   Elevation Permanent Datum
 LMF .                 KB:   Log Measured From
 DMF .                 KB:   Drilling Measured From
 DAPD.F                10:   Feet Above Permanent Datum
 DD  .F              4200:   Depth driller
 DL  .F              4191:   Depth logger
 BLI .F              4185:   Bottom log interval
 TLI .F               506:   Top log interval
 CS1 .IN            9.625:   Casing size
 CBD1.      9.625" @ 500':   Casing driller 1
 CBL1.F               506:   Casing logger 1
 BS1 .IN             8.75:   Bit size
 BSD1.F              4200:   Depth drilled with bit1
 DFT .                FGM:   Type fluid in hole
 DFD .                9.3:   Density
 DFV .                 42:   Viscosity
 DFPH.               11.5:   pH
 DFL .                6.4:   Fluid loss
 MSS .               TANK:   Source of sample
 RMS .OHMM           1.08:   Rm
 MST .F                67:   Rm Meas. temp.
 RMF .OHMM           0.83:   Rmf
 MFST.F                67:   Rmf Meas. temp.
 MFSS.               MEAS:   Source Rmf.
 RMB .OHMM           0.58:   Rm. at BHT
 BHT .F               125:   BHT.
 TCS .HRS            0430:   Time Circ. stopped
 TLAB.HRS            0830:   Time logger at bottom
 MRT .F               125:   Maximum recorded temp.
 LUN .               8039:   Logging unit number
 LUL .               CSPR:   Logging unit location
 ENGI.          STADULLIS:   Recorded By
 WITN.              AMEND:   Witnessed by
 ORIG.           5" PRINT:   Origin of data
 UWI .     49025107260000:   Unique Well ID
 DICO. A2D TECHNOLOGIES, INC.:   Digitizing Company
~OTHER INFORMATION
~A   DEPT     TENR        SPR        SFL        ILD        ILM       CALD         GRD      TEND       RHOB       CORR       NPHI   
# ...
 3676.0000  1395.5430   -20.1860     4.8590     3.0300     3.2590     9.5730   133.1150  1706.7480     2.2650     0.0620     0.3450
 3676.5000  1395.8380   -20.1200     4.3540     3.1300     3.3570     9.4680   128.4500  1706.9890     2.3760     0.1180     0.3090
 3677.0000  1396.1331   -20.0540     4.1140     3.1760     3.3990     9.4400   128.8130  1707.2400     2.3480     0.1970     0.3240
 3677.5000  1396.4280   -19.9870     3.9910     3.2210     3.4460     9.3850   131.2350  1707.4910     2.2860     0.1630     0.3370
 3678.0000  1396.7230   -19.9220     3.8800     3.2670     3.4930     9.4460   133.6220  1707.7410     2.2280     0.1000     0.3330
 3678.5000  1397.0179   -19.8540     3.7130     3.3130     3.5410     9.6650   135.6990  1707.9919     2.1730     0.1210     0.3220
 3679.0000  1397.3130   -19.7880     3.7510     3.3580     3.5880     9.8560   137.8820  1708.2419     2.1170     0.2390     0.3280
 3679.5000  1397.6080   -19.7430     4.1450     3.4040     3.6820    10.0610   136.8920  1708.4930     2.0610     0.2320     0.3400
 3680.0000  1397.9030   -19.8170     4.6210     3.4190     3.6820     9.9490   135.8480  1708.7430     2.0570     0.1680     0.3510
 3680.5000  1398.1980   -19.9020     5.1370     3.4040     3.6410     9.7620   134.6870  1708.9940     2.2070     0.0790     0.3570
 3681.0000  1398.4930   -19.9870     5.0090     3.3860     3.5950     9.5580   133.5020  1709.2440     2.4190     0.0340     0.3230
 3681.5000  1398.7880   -20.0710     4.6830     3.3680     3.5480     9.5000   133.8170  1709.4950     2.4630     0.0450     0.3030
 3682.0000  1399.0830   -20.2060     4.5690     3.3420     3.5020     9.5290   134.9020  1709.7450     2.5030     0.0560     0.2960
 3682.5000  1399.3781   -20.4830     4.4120     3.2950     3.3380     9.5570   136.1750  1709.9960     2.5090     0.0520     0.2760
 3683.0000  1399.6730   -20.7550     3.9430     3.1450     3.0970     9.5880   134.8870  1710.2469     2.4920     0.0610     0.2580
 3683.5000  1399.9680   -21.0350     3.4740     2.9640     2.8550     9.6150   131.6550  1710.4969     2.4740     0.0950     0.2580
 3684.0000  1400.2629   -21.3120     3.2350     2.7820     2.6140     9.6460   128.8430  1710.7480     2.3810     0.1390     0.2830
 3684.5000  1400.5580   -21.5240     3.1110     2.6000     2.3730     9.7200   125.7430  1710.9980     2.3160     0.1340     0.3020
 3685.0000  1400.8530   -21.4570     2.8730     2.4190     2.1320     9.8230   128.8640  1711.2490     2.1170     0.1180     0.3620
 3685.5000  1401.1479   -21.3810     2.5300     2.2350     1.9630    10.2220   138.3420  1711.4990     2.0270     0.1030     0.3570
 3686.0000  1401.4430   -21.2390     2.1860     2.2390     1.9890    10.8930   147.3220  1711.7500     2.0020     0.0820     0.3880
 3686.5000  1401.7380   -21.0350     1.8570     2.2610     2.1140    11.5970   156.4210  1712.0000     2.0020     0.0410     0.4960
 3687.0000  1402.0330   -20.8410     2.2200     2.2830     2.2380    11.3790   153.7350  1712.2510     2.0390    -0.0040     0.4840
 3687.5000  1402.3280   -20.6440     2.5670     2.3040     2.3620    10.8610   146.4690  1712.5010     2.1180     0.0010     0.4590
 3688.0000  1402.6230   -20.4330     2.9140     2.3510     2.4870    10.4850   137.3980  1712.7520     2.2880     0.0230     0.4330
 3688.5000  1402.9180   -20.3320     3.2620     2.4520     2.6110    10.2850   134.1650  1713.0031     2.4950     0.0730     0.3800
 3689.0000  1403.2130   -20.2790     3.6150     2.5530     2.6890    10.0700   132.8770  1713.2531     2.4900     0.1200     0.3210
 3689.5000  1403.5081   -20.1640     3.6150     2.6540     2.7030     9.8490   132.3870  1713.5040     2.4980     0.1680     0.3020
 3690.0000  1403.8020   -20.2420     3.5590     2.7900     2.7170     9.8490   133.4980  1713.7540     2.4420     0.1870     0.3030
 3690.5000  1404.0970   -20.3930     3.4830     2.7590     2.7390    10.7520   136.1950  1714.0050     2.3510     0.1620     0.3050
 3691.0000  1404.3920   -20.5220     3.2780     2.6390     2.6810    11.3280   137.4740  1714.2550     2.3090     0.1340     0.3610
 3691.5000  1404.6870   -20.6060     3.0200     2.5200     2.5610    11.2470   135.4390  1714.5060     2.2510     0.1430     0.3620
 3692.0000  1404.9821   -20.7480     2.7110     2.4010     2.4410    10.7500   130.5380  1714.7560     2.1210     0.1790     0.3650
 3692.5000  1405.2770   -20.8780     2.4030     2.2810     2.3200    11.7720   125.9250  1715.0070     2.0010     0.1700     0.4190
 3693.0000  1405.5720   -20.9370     2.2350     2.1620     2.2000    12.8280   125.8250  1715.2570     1.9990     0.1500     0.4670
 3693.5000  1405.8669   -20.8700     2.3190     2.0420     2.0370    13.3020   128.5210  1715.5081     2.0070     0.1560     0.4900
 3694.0000  1406.1620   -20.7830     2.3670     2.0000     2.0590    13.8060   131.3640  1715.7590     2.1570     0.2470     0.5040
 3694.5000  1406.4570   -20.6980     2.4060     2.0000     2.0920    15.5180   131.5030  1716.0090     2.3120     0.2460     0.4640
 3695.0000  1406.7520   -20.6120     2.3460     2.0000     2.1250    15.9890   131.2280  1716.2600     2.3000     0.2470     0.4510
 3695.5000  1407.0470   -20.5260     2.2900     2.0000     2.1540    14.1220   130.6660  1716.5100     2.2440     0.2490     0.4650
 3696.0000  1407.3420   -20.4420     2.2760     2.0000     2.1930    12.2020   132.5520  1716.7610     2.1670     0.2190     0.4780
 3696.5000  1407.6370   -20.3570     2.2760     2.0000     2.2320    10.8960   137.7040  1717.0110     2.0520     0.1530     0.4880
 3697.0000  1407.9320   -20.3370     2.4370     2.0000     2.2170    10.0080   142.6250  1717.2620     2.0590     0.0960     0.2970
 3697.5000  1408.2271   -20.3590     2.6350     2.0000     2.2020     9.8500   146.8790  1717.5120     2.1780     0.0410     0.3190
 3698.0000  1408.5220   -20.3820     2.8420     1.9400     2.1350     9.3980   147.6380  1717.7629     2.3370     0.0470     0.3380
 3698.5000  1408.8170   -20.4040     2.7580     1.8710     2.0000     9.4010   149.3650  1718.0129     2.5140     0.0940     0.3440
 3699.0000  1409.1121   -20.4270     2.4860     1.8020     1.8760     9.4830   154.1990  1718.2640     2.4960     0.1910     0.3500
 3699.5000  1409.4070   -20.4490     2.2130     1.7330     1.7410     9.5840   175.0200  1718.5150     2.4790     0.2500     0.3600
 3700.0000  1409.7020   -20.4710     1.9410     1.6640     1.6320     9.5780   196.5420  1718.7650     2.4650     0.2220     0.3810
 3700.5000  1409.9969   -20.4940     1.6680     1.5950     1.6320     9.6210   215.3350  1719.0160     2.3710     0.1930     0.4030
 3701.0000  1410.2920   -20.5150     1.5730     1.5150     1.6840     9.6350   228.0270  1719.2660     2.3100     0.2030     0.4250
 3701.5000  1410.5870   -20.5350     1.6590     1.5150     1.7340     9.7090   229.3970  1719.5170     2.2980     0.2160     0.4460
 3702.0000  1410.8820   -20.5090     1.8160     1.5440     1.7840     9.8220   214.0320  1719.7670     2.2910     0.2090     0.4520
 3702.5000  1411.1770   -20.4720     2.0910     1.6010     1.8340     9.7840   202.2660  1720.0179     2.2980     0.1820     0.4170
 3703.0000  1411.4720   -20.4360     2.3620     1.6610     1.8850     9.7360   176.2160  1720.2679     2.3130     0.1760     0.3790
 3703.5000  1411.7670   -20.3960     2.3400     1.7220     1.9350     9.9490   153.1250  1720.5190     2.3300     0.1930     0.3670
 3704.0000  1412.0620   -20.3620     2.3180     1.7820     1.9890    10.3310   140.0710  1720.7690     2.3050     0.2230     0.3740
 3704.5000  1412.3560   -20.3420     2.2960     1.8230     1.9630    10.6880   139.6960  1721.0200     2.2700     0.1810     0.3800
 3705.0000  1412.6510   -20.5420     2.2740     1.7940     1.9100    10.4290   141.1910  1721.2710     2.2520     0.1380     0.3830
 3705.5000  1412.9460   -20.7630     2.2520     1.7380     1.8570    10.0820   143.0570  1721.5210     2.3250     0.1210     0.3830
 3706.0000  1413.2410   -20.9340     2.2020     1.6830     1.8040     9.9370   144.9020  1721.7720     2.4000     0.1370     0.3860
