~VERSION INFORMATION
 VERS.                2.0:   CWLS LOG ASCII STANDARD - VERSION 2.0
 WRAP.                 NO:   ONE LINE PER DEPTH STEP
~WELL INFORMATION
#MNEM.UNIT      DATA TYPE    INFORMATION
#----------   ------------   ------------------------------
 STRT.F          197.0000:   START DEPTH
 STOP.F         3238.5000:   STOP DEPTH
 STEP.F            0.5000:   STEP LENGTH
 NULL.          -999.2500:   NO VALUE
 COMP.    FENIX & SCISSON:   COMPANY
 WELL. FENIX 28 "A" #28-11:   WELL
 FLD .              NPR-3:   FIELD
 LOC .      S11 T38N R78W:   LOCATION
 CNTY.            NATRONA:   COUNTY
 STAT.            WYOMING:   STATE
 CTRY. UNITED STATES OF AMERICA:   COUNTRY
 SRVC.              WELEX:   SERVICE COMPANY
 DATE.        25-OCT-1977:   LOGDATE
 API .     49025104350000:   API NUMBER
~CURVE INFORMATION
#MNEM.UNIT       API CODE    CURVE DESCRIPTION
#----------   ------------   ------------------------------
 DEPT.F                  :   
 SPR .MV     07 010 01 00:   SPONTANEOUS POTENTIAL
 TENR.LBS    07 635 01 00:   TENSION FROM RESISTIVITY
 ILM .OHMM   07 120 44 00:   INDUCTION LOG MEDIUM RESISTIVITY
 SGRD.OHMM   07 220 05 00:   SHALLOW SHORT GUARD RESISTIVITY
 ILD .OHMM   07 120 46 00:   INDUCTION LOG DEEP RESISTIVITY
 GRD .GAPI   45 310 01 00:   GAMMA RAY FROM DENSITY LOG
 CALD.IN     45 280 60 00:   CALIPER FROM DENSITY LOG
 CORR.G/C3   45 356 01 00:   DENSITY CORRECTION
 RHOB.G/C3   45 350 01 00:   BULK DENSITY
~PARAMETER INFORMATION
#MNEM.UNIT          VALUE    DESCRIPTION
#----------   ------------   ------------------------------
 EKB .F         5211.0000:   Kelly bushing
 EGL .F         5201.0000:   Ground level
 EDF .F            0.0000:   Drilling floor
 EPD .F         5201.0000:   Permanent datum
 TD  .F         3235.0000:   Total depth
 CLNT.            A2DTECH:   Client Code
 SL  . 330' FSL & 990' FWL:   Surface Location
 PD  .                 GL:   Permanent Datum
 DAPD.F                10:   Feet Above Permanent Datum
 DATE.        25-OCT-1977:   Date Logged [DD-MMM-YYYY]
 DD  .F              3235:   Depth driller
 DL  .F              3231:   Depth logger
 BLI .F              3229:   Bottom log interval
 TLI .F               200:   Top log interval
 CS1 .IN            8.625:   Casing size
 CBD1.      8.625" @ 217':   Casing driller 1
 CBL1.F               217:   Casing logger 1
 BS1 .              7.875:   Bit size
 BSD1.IN             3235:   Depth drilled with bit1
 DFT .            KCL MUD:   Type fluid in hole
 DFD .                8.9:   Density
 DFV .                 35:   Viscosity
 DFPH.               11.5:   pH
 DFL .               16.4:   Fluid loss
 MSS .           FLOWLINE:   Source of sample
 RMS .OHMM           1.18:   Rm
 MST .F                74:   Rm Meas. temp.
 RMF .OHMM           1.74:   Rmf
 MFST.F                74:   Rmf Meas. temp.
 MFSS.               MEAS:   Source Rmf.
 MCSS.               MEAS:   Source Rmc.
 RMB .OHMM           1.15:   Rm. at BHT
 BHT .F               116:   BHT.
 TCS .HRS               3:   Time Circ. stopped
 MRT .F               116:   Maximum recorded temp.
 LUN .               8611:   Logging unit number
 LUL .             CASPER:   Logging unit location
 ENGI.            C. DOAK:   Recorded By
 WITN.      W. PETTINGILL:   Witnessed by
 ORIG.           5" PRINT:   Origin of data
 UWI .     49025104350000:   Unique Well ID
 DICO. A2D TECHNOLOGIES, INC.:   Digitizing Company
~OTHER INFORMATION
~A   DEPT      SPR       TENR        ILM       SGRD        ILD         GRD      CALD       CORR       RHOB   
  197.0000  -999.2500  -999.2500  -999.2500  -999.2500  -999.2500    88.7222  -999.2500  -999.2500  -999.2500
  197.5000  -999.2500  -999.2500  -999.2500  -999.2500  -999.2500    87.3419  -999.2500  -999.2500     1.9186
  198.0000  -999.2500  -999.2500  -999.2500  -999.2500  -999.2500    86.3943  -999.2500  -999.2500     1.9231
  198.5000  -999.2500  -999.2500  -999.2500  -999.2500  -999.2500    85.4467  -999.2500  -999.2500     1.9064
  199.0000  -999.2500  -999.2500  -999.2500  -999.2500  -999.2500    84.4991  -999.2500  -999.2500     1.8895
  199.5000  -999.2500  -999.2500  -999.2500  -999.2500  -999.2500    83.3952  -999.2500  -999.2500     1.8725
  200.0000  -999.2500  -999.2500  -999.2500  -999.2500  -999.2500    81.9789  -999.2500  -999.2500     1.8661
  200.5000  -999.2500  -999.2500  -999.2500  -999.2500  -999.2500    82.6015  -999.2500  -999.2500     1.9036
  201.0000  -999.2500  -999.2500  -999.2500  -999.2500  -999.2500    84.1910  -999.2500  -999.2500     1.9231
  201.5000  -999.2500  -999.2500  -999.2500  -999.2500  -999.2500    85.6961  -999.2500  -999.2500     1.9306
  202.0000  -999.2500  -999.2500  -999.2500  -999.2500  -999.2500    87.2485  -999.2500  -999.2500     1.9449
  202.5000  -999.2500  -999.2500  -999.2500  -999.2500  -999.2500    88.4884  -999.2500  -999.2500     1.9524
  203.0000  -999.2500  -999.2500  -999.2500  -999.2500  -999.2500    89.4158  -999.2500  -999.2500     1.9524
  203.5000  -999.2500  -999.2500  -999.2500  -999.2500  -999.2500    90.1870  -999.2500  -999.2500     1.9509
  204.0000  -999.2500  -999.2500  -999.2500  -999.2500  -999.2500    90.3333  -999.2500  -999.2500     1.9464
  204.5000  -999.2500  -999.2500  -999.2500  -999.2500  -999.2500    89.8481  -999.2500  -999.2500     1.9794
  205.0000  -999.2500  -999.2500  -999.2500  -999.2500  -999.2500    88.7239  -999.2500  -999.2500     2.0013
  205.5000  -999.2500  -999.2500  -999.2500  -999.2500  -999.2500    87.3316  -999.2500  -999.2500     2.0283
  206.0000  -999.2500  -999.2500  -999.2500  -999.2500  -999.2500    86.5402  -999.2500  -999.2500     2.0553
  206.5000  -999.2500  -999.2500  -999.2500  -999.2500  -999.2500    86.8426  -999.2500  -999.2500     2.0822
  207.0000  -999.2500  -999.2500  -999.2500  -999.2500  -999.2500    88.0825  -999.2500  -999.2500     2.1084
  207.5000  -999.2500  -999.2500  -999.2500  -999.2500  -999.2500    89.3224  -999.2500  -999.2500     2.1437
  208.0000  -999.2500  -999.2500  -999.2500  -999.2500  -999.2500    91.4998  -999.2500  -999.2500     2.1744
  208.5000  -999.2500  -999.2500  -999.2500  -999.2500  -999.2500    93.9097  -999.2500  -999.2500     2.2644
  209.0000  -999.2500  -999.2500  -999.2500  -999.2500  -999.2500   100.5771  -999.2500  -999.2500     2.2989
  209.5000  -999.2500  -999.2500  -999.2500  -999.2500  -999.2500   103.9679  -999.2500  -999.2500     2.3402
  210.0000  -999.2500  -999.2500  -999.2500  -999.2500  -999.2500   107.7078  -999.2500  -999.2500     2.3870
  210.5000  -999.2500  -999.2500  -999.2500  -999.2500  -999.2500   109.7289  -999.2500     0.1467     2.3035
  211.0000  -999.2500  -999.2500  -999.2500  -999.2500  -999.2500   110.5104  -999.2500     0.1377     2.2914
  211.5000  -999.2500  -999.2500  -999.2500  -999.2500  -999.2500   110.8025  -999.2500     0.1302     2.2974
  212.0000  -999.2500  -999.2500  -999.2500  -999.2500  -999.2500   110.3211  -999.2500     0.1198     2.3027
  212.5000  -999.2500  -999.2500  -999.2500  -999.2500  -999.2500   109.8423  -999.2500     0.0943     2.2922
  213.0000  -999.2500  -999.2500  -999.2500  -999.2500  -999.2500   109.3634  -999.2500     0.0569     2.2884
  213.5000  -999.2500  -999.2500  -999.2500  -999.2500  -999.2500   108.8846  -999.2500     0.0434     2.3087
  214.0000  -999.2500  -999.2500  -999.2500  -999.2500  -999.2500   108.0932  -999.2500     0.0389     2.3184
  214.5000  -999.2500  -999.2500  -999.2500  -999.2500  -999.2500   106.9894  -999.2500     0.0389     2.3065
  215.0000  -999.2500  -999.2500  -999.2500  -999.2500  -999.2500   105.3993  -999.2500     0.0404     2.2809
  215.5000  -999.2500  -999.2500  -999.2500  -999.2500  -999.2500   104.6255  -999.2500     0.0398     2.2382
  216.0000  -999.2500  -999.2500  -999.2500  -999.2500  -999.2500   106.3316  -999.2500     0.0329     2.2187
  216.5000  -999.2500  -999.2500  -999.2500  -999.2500  -999.2500   107.5715  -999.2500     0.0240     2.2127
  217.0000   -61.1765   617.9372     8.1212     8.9758     5.3749   107.2489    11.1611     0.0045     2.2637
  217.5000   -61.9458   648.0091     7.1208     8.9101     6.0431   106.4576    10.9570    -0.0045     2.3602
  218.0000   -62.2561   663.1008     6.5534     8.9071     6.3400   107.2287    10.8435     0.0269     2.4467
  218.5000   -61.8126   648.2972     8.0080     9.0283     6.3811   108.3124    10.7522     0.0165     2.4670
  219.0000   -62.4306   633.4936     8.4045     9.0881     6.4224   109.5764    10.8296     0.0075     2.4604
  219.5000   -63.1973   633.6377     7.2538     9.1481     6.5088   110.9459    11.0007     0.0045     2.4647
  220.0000   -64.1153   618.8340     6.9241     9.4019     6.5509   111.2508    11.0470     0.0060     2.4812
  220.5000   -65.1846   618.9835     7.4193     9.3979     6.5471   111.5532    10.9992     0.0105     2.4985
  221.0000   -65.9657   619.1582     7.8409     9.1381     6.4095   111.2281    10.9672     0.0105     2.4842
  221.5000   -66.7206   619.3023     7.7862     8.8854     6.1887   110.7493    10.9820     0.0090     2.4760
  222.0000   -65.8232   619.4464     7.2155     8.6398     6.0587   110.1142    11.0125     0.0090     2.4700
  222.5000   -68.4054   619.5905     6.6405     8.6369     5.9314   110.4166    11.0741     0.0075     2.4647
  223.0000   -71.8953   619.7345     6.3263     8.5744     5.8470   111.1289    11.1358     0.0060     2.4572
  223.5000   -72.0568   619.8804     6.3698     8.3953     5.7634   112.1126    11.1978     0.0045     2.4505
  224.0000   -78.2699   620.0587     6.2385     8.3924     5.6423   113.0400    11.2126     0.0045     2.4452
  224.5000   -81.8109   620.2028     6.0679     8.3895     5.5622   113.0299    11.2586     0.0045     2.4392
  225.0000   -84.3419   620.3469     5.9429     8.3861     5.4453   112.3949    11.2734     0.0043     2.4340
  225.5000   -94.8971   620.4909     5.9017     8.2109     5.3680   111.6035    11.2569     0.0030     2.4300
  226.0000   -88.6011   605.6513     6.0249     8.1515     5.3654   110.6559    11.2249     0.0030     2.4268
  226.5000   -80.8958   605.8314     6.1084     7.9812     5.4002   110.6450    11.2241     0.0015     2.4242
  227.0000   -78.7881   605.9791     6.1503     7.9235     5.3975   112.5677    11.2392     0.0015     2.4265
  227.5000   -74.5624   606.1556     5.9821     7.7580     5.3573   114.3731    11.2541     0.0015     2.4302
  228.0000   -72.9060   606.2997     5.9816     7.6487     5.3178   115.9255    11.2844     0.0015     2.4370
  228.5000   -73.6753   606.4437     6.0228     7.5409     5.2787   118.1029    11.3149     0.0000     2.4437
  229.0000   -74.7446   606.5878     6.1487     7.4858     5.2037   116.2178    11.3297     0.0000     2.4460
  229.5000   -76.1286   606.7319     5.9804     7.4832     5.1297   113.3952    11.3288     0.0000     2.4372
  230.0000   -77.9828   606.8760     5.8573     7.4807     5.0569   111.3539    11.3280     0.0000     2.4310
  230.5000   -80.3756   607.0254     5.9796     7.4782     4.9850   111.6666    11.3116     0.0000     2.4415
  231.0000   -83.8655   607.2001     6.1046     7.4241     4.9136   114.2361    11.3109     0.0000     2.4460
  231.5000   -87.0528   607.3442     6.1892     7.3704     4.9113   115.8523    11.3414     0.0000     2.4445
  232.0000   -88.7272   622.4359     6.1886     7.3171     5.0120   115.3735    11.4513     0.0000     2.4430
  232.5000   -89.7965   622.5800     6.1456     7.2139     5.1147   114.8946    11.5274     0.0015     2.4580
  233.0000   -90.5633   622.7241     6.0608     7.0627     5.1836   115.9783    11.5264     0.0075     2.4767
