~VERSION INFORMATION
 VERS.                2.0:   CWLS LOG ASCII STANDARD - VERSION 2.0
 WRAP.                 NO:   ONE LINE PER DEPTH STEP
~WELL INFORMATION
#MNEM.UNIT      DATA TYPE    INFORMATION
#----------   ------------   ------------------------------
 STRT.F            0.0000:   START DEPTH
 STOP.F         2870.0000:   STOP DEPTH
 STEP.F            0.5000:   STEP LENGTH
 NULL.          -999.2500:   NO VALUE
 COMP.  FENIX AND SCISSON:   COMPANY
 WELL.  FENIX "A" #304-28:   WELL
 FLD .             NPR #3:   FIELD
 LOC .      S28 T39N R78W:   LOCATION
 CNTY.            NATRONA:   COUNTY
 STAT.            WYOMING:   STATE
 CTRY. UNITED STATES OF AMERICA:   COUNTRY
 SRVC.         MCCULLOUGH:   SERVICE COMPANY
 DATE.        21-DEC-1977:   LOGDATE
 API .     49025105600000:   API NUMBER
~CURVE INFORMATION
#MNEM.UNIT       API CODE    CURVE DESCRIPTION
#----------   ------------   ------------------------------
 DEPT.F                  :   
 GR  .GAPI   30 310 01 00:   GAMMA RAY
 CALI.IN     70 280 01 00:   CALIPER
~PARAMETER INFORMATION
#MNEM.UNIT          VALUE    DESCRIPTION
#----------   ------------   ------------------------------
 EKB .F            0.0000:   Kelly bushing
 EGL .F            0.0000:   Ground level
 EDF .F         5074.7000:   Drilling floor
 EPD .F         5074.7000:   Permanent datum
 TD  .F         2868.0000:   Total depth
 DATE.        21-DEC-1977:   Date logged
 CLNT.            A2DTECH:   Client Code
 DL  .F              2868:   Depth logger
 BLI .F              2866:   Bottom log interval
 TLI .F              2000:   Top log interval
 CS1 .IN             6.25:   Casing size
 CBD1.     6.625" @ 2935':   Casing driller 1
 BS1 .IN             6.25:   Bit size
 BSD1.F              2868:   Depth drilled with bit1
 DFT .              WATER:   Type fluid in hole
 TCS .HRS             1.5:   Time Circ. stopped
 ENGI.             CONLEY:   Recorded By
 WITN.           HARRISON:   Witnessed by
 ORIG.           5" PRINT:   Origin of data
 UWI .     49025105600000:   Unique Well ID
 DICO. A2D TECHNOLOGIES, INC.:   Digitizing Company
~OTHER INFORMATION
~A    DEPT      GR         CALI 
# ...
 1701.0000  -999.2500     6.7370
 1701.5000  -999.2500     6.7380
 1702.0000  -999.2500     6.7390
 1702.5000  -999.2500     6.7400
 1703.0000  -999.2500     6.7460
 1703.5000  -999.2500     6.7590
 1704.0000  -999.2500     6.7710
 1704.5000  -999.2500     6.7720
 1705.0000  -999.2500     6.7660
 1705.5000  -999.2500     6.7700
 1706.0000  -999.2500     6.7790
 1706.5000  -999.2500     6.7820
 1707.0000  -999.2500     6.7780
 1707.5000  -999.2500     6.7740
 1708.0000  -999.2500     6.7620
 1708.5000  -999.2500     6.7550
 1709.0000  -999.2500     6.7520
 1709.5000  -999.2500     6.7480
 1710.0000  -999.2500     6.7440
 1710.5000  -999.2500     6.7420
 1711.0000  -999.2500     6.7400
 1711.5000  -999.2500     6.7410
 1712.0000  -999.2500     6.7420
 1712.5000  -999.2500     6.7400
 1713.0000  -999.2500     6.7410
 1713.5000  -999.2500     6.7510
 1714.0000  -999.2500     6.7600
 1714.5000  -999.2500     6.7590
 1715.0000  -999.2500     6.7580
 1715.5000  -999.2500     6.7570
 1716.0000  -999.2500     6.7570
 1716.5000  -999.2500     6.7590
 1717.0000  -999.2500     6.7590
 1717.5000  -999.2500     6.7570
 1718.0000  -999.2500     6.7570
 1718.5000  -999.2500     6.7600
 1719.0000  -999.2500     6.7590
 1719.5000  -999.2500     6.7560
 1720.0000  -999.2500     6.7530
 1720.5000  -999.2500     6.7460
 1721.0000  -999.2500     6.7380
 1721.5000  -999.2500     6.7420
 1722.0000  -999.2500     6.7380
 1722.5000  -999.2500     6.7410
 1723.0000  -999.2500     6.9590
 1723.5000  -999.2500     6.8520
 1724.0000  -999.2500     6.8530
 1724.5000  -999.2500     6.8540
 1725.0000  -999.2500     6.8550
 1725.5000  -999.2500     6.8660
 1726.0000  -999.2500     6.8770
 1726.5000  -999.2500     6.8810
 1727.0000  -999.2500     6.8790
 1727.5000  -999.2500     6.8750
 1728.0000  -999.2500     6.8690
 1728.5000  -999.2500     6.8690
 1729.0000  -999.2500     6.8580
 1729.5000  -999.2500     6.8460
 1730.0000  -999.2500     6.8340
 1730.5000  -999.2500     6.8290
 1731.0000  -999.2500     6.8280
 1731.5000  -999.2500     6.8270
 1732.0000  -999.2500     6.8260
 1732.5000  -999.2500     6.8240
 1733.0000  -999.2500     6.8250
 1733.5000  -999.2500     6.8270
 1734.0000  -999.2500     6.8280
 1734.5000  -999.2500     6.8310
 1735.0000  -999.2500     6.8340
 1735.5000  -999.2500     6.8380
 1736.0000  -999.2500     6.8390
 1736.5000  -999.2500     6.8400
 1737.0000  -999.2500     6.8400
 1737.5000  -999.2500     6.8410
 1738.0000  -999.2500     6.8430
 1738.5000  -999.2500     6.8420
 1739.0000  -999.2500     6.8430
 1739.5000  -999.2500     6.8430
 1740.0000  -999.2500     6.8360
 1740.5000  -999.2500     6.8300
 1741.0000  -999.2500     6.8240
 1741.5000  -999.2500     6.8180
 1742.0000  -999.2500     6.8190
 1742.5000  -999.2500     6.8250
 1743.0000  -999.2500     6.8280
 1743.5000  -999.2500     6.8330
 1744.0000  -999.2500     6.8390
 1744.5000  -999.2500     6.8460
 1745.0000  -999.2500     6.8540
 1745.5000  -999.2500     7.0180
 1746.0000  -999.2500     6.8450
 1746.5000  -999.2500     6.8660
 1747.0000  -999.2500     6.8640
 1747.5000  -999.2500     6.8640
 1748.0000  -999.2500     6.8450
 1748.5000  -999.2500     6.8370
 1749.0000  -999.2500     6.8330
 1749.5000  -999.2500     6.8290
 1750.0000  -999.2500     6.8260
 1750.5000  -999.2500     6.8270
 1751.0000  -999.2500     6.8270
 1751.5000  -999.2500     6.8180
 1752.0000  -999.2500     6.8160
 1752.5000  -999.2500     6.8050
 1753.0000  -999.2500     6.8050
 1753.5000  -999.2500     6.8060
 1754.0000  -999.2500     6.8080
 1754.5000  -999.2500     6.8140
 1755.0000  -999.2500     6.8210
 1755.5000  -999.2500     6.8270
 1756.0000  -999.2500     6.8330
 1756.5000  -999.2500     6.8350
 1757.0000  -999.2500     6.8350
 1757.5000  -999.2500     6.8350
 1758.0000  -999.2500     6.8330
 1758.5000  -999.2500     6.8270
 1759.0000  -999.2500     6.8250
 1759.5000  -999.2500     6.8210
 1760.0000  -999.2500     6.8160
 1760.5000  -999.2500     6.8110
 1761.0000  -999.2500     6.8110
 1761.5000  -999.2500     6.8110
 1762.0000  -999.2500     6.8110
 1762.5000  -999.2500     6.8110
 1763.0000  -999.2500     6.8120
 1763.5000  -999.2500     6.8140
 1764.0000  -999.2500     6.8160
 1764.5000  -999.2500     6.8080
 1765.0000  -999.2500     6.8130
 1765.5000  -999.2500     6.8190
 1766.0000  -999.2500     6.8270
 1766.5000  -999.2500     6.8620
 1767.0000  -999.2500     6.8550
 1767.5000  -999.2500     6.9830
 1768.0000  -999.2500     6.9540
 1768.5000  -999.2500     6.9670
 1769.0000  -999.2500     6.9670
 1769.5000  -999.2500     6.9630
 1770.0000  -999.2500     6.9470
 1770.5000  -999.2500     6.9170
 1771.0000  -999.2500     6.9070
 1771.5000  -999.2500     6.9100
 1772.0000  -999.2500     6.9020
 1772.5000  -999.2500     6.8860
 1773.0000  -999.2500     6.8870
 1773.5000  -999.2500     6.8880
 1774.0000  -999.2500     6.8900
 1774.5000  -999.2500     6.9000
 1775.0000  -999.2500     6.9010
 1775.5000  -999.2500     6.9010
 1776.0000  -999.2500     6.9000
 1776.5000  -999.2500     6.8950
 1777.0000  -999.2500     6.8920
 1777.5000  -999.2500     6.8920
 1778.0000  -999.2500     6.8890
 1778.5000  -999.2500     6.8870
 1779.0000  -999.2500     6.8880
 1779.5000  -999.2500     6.8890
 1780.0000  -999.2500     6.8920
 1780.5000  -999.2500     6.8930
 1781.0000  -999.2500     6.8930
 1781.5000  -999.2500     6.8920
 1782.0000  -999.2500     6.8920
 1782.5000  -999.2500     6.8920
 1783.0000  -999.2500     6.8930
 1783.5000  -999.2500     6.8930
 1784.0000  -999.2500     6.8930
 1784.5000  -999.2500     6.8930
 1785.0000  -999.2500     6.8890
 1785.5000  -999.2500     6.8900
 1786.0000  -999.2500     6.8960
 1786.5000  -999.2500     6.9150
 1787.0000  -999.2500     6.9290
 1787.5000  -999.2500     6.9270
 1788.0000  -999.2500     6.9260
 1788.5000  -999.2500     6.9250
 1789.0000  -999.2500     6.9900
 1789.5000  -999.2500     6.9490
 1790.0000  -999.2500     6.9530
 1790.5000  -999.2500     6.9420
 1791.0000  -999.2500     6.9370
 1791.5000  -999.2500     6.9380
 1792.0000  -999.2500     6.9180
 1792.5000  -999.2500     6.8840
 1793.0000  -999.2500     6.8740
 1793.5000  -999.2500     6.8750
 1794.0000  -999.2500     6.8760
 1794.5000  -999.2500     6.8780
 1795.0000  -999.2500     6.8900
 1795.5000  -999.2500     6.9000
 1796.0000  -999.2500     6.8950
 1796.5000  -999.2500     6.8880
 1797.0000  -999.2500     6.8810
 1797.5000  -999.2500     6.8770
 1798.0000  -999.2500     6.8770
 1798.5000  -999.2500     6.8770
 1799.0000  -999.2500     6.8770
 1799.5000  -999.2500     6.8770
 1800.0000  -999.2500     6.8800
 1800.5000  -999.2500     6.8820
 1801.0000  -999.2500     6.8840
 1801.5000  -999.2500     6.8850
 1802.0000  -999.2500     6.8830
 1802.5000  -999.2500     6.8770
 1803.0000  -999.2500     6.8710
 1803.5000  -999.2500     6.8660
 1804.0000  -999.2500     6.8660
 1804.5000  -999.2500     6.8660
 1805.0000  -999.2500     6.8660
 1805.5000  -999.2500     6.8660
 1806.0000  -999.2500     6.8670
 1806.5000  -999.2500     6.8690
 1807.0000  -999.2500     6.8810
 1807.5000  -999.2500     6.9190
 1808.0000  -999.2500     6.9580
 1808.5000  -999.2500     6.9600
 1809.0000  -999.2500     6.9600
 1809.5000  -999.2500     6.9610
 1810.0000  -999.2500     6.9610
 1810.5000  -999.2500     6.9530
 1811.0000  -999.2500     7.0500
 1811.5000  -999.2500     6.9450
 1812.0000  -999.2500     6.9200
 1812.5000  -999.2500     6.9000
 1813.0000  -999.2500     6.9000
 1813.5000  -999.2500     6.9000
 1814.0000  -999.2500     6.9020
 1814.5000  -999.2500     6.9050
 1815.0000  -999.2500     6.9050
 1815.5000  -999.2500     6.9030
 1816.0000  -999.2500     6.9010
 1816.5000  -999.2500     6.9010
 1817.0000  -999.2500     6.9010
 1817.5000  -999.2500     6.9030
 1818.0000  -999.2500     6.9080
 1818.5000  -999.2500     6.9090
 1819.0000  -999.2500     6.9090
 1819.5000  -999.2500     6.9130
 1820.0000  -999.2500     6.9130
 1820.5000  -999.2500     6.9120
 1821.0000  -999.2500     6.9120
 1821.5000  -999.2500     6.9120
 1822.0000  -999.2500     6.9110
