~VERSION INFORMATION
 VERS.                2.0:   CWLS LOG ASCII STANDARD - VERSION 2.0
 WRAP.                 NO:   ONE LINE PER DEPTH STEP
~WELL INFORMATION
#MNEM.UNIT      DATA TYPE    INFORMATION
#----------   ------------   ------------------------------
 STRT.F          602.0000:   START DEPTH
 STOP.F         5553.0000:   STOP DEPTH
 STEP.F            0.5000:   STEP LENGTH
 NULL.          -999.2500:   NO VALUE
 COMP.         U. S. NAVY:   COMPANY
 WELL. U. S. 1-TP-33 NPR #3-33:   WELL
 FLD . TEAPOT NAVAL RESERVE:   FIELD
 LOC .      S33 T39N R78W:   LOCATION
 CNTY.            NATRONA:   COUNTY
 STAT.            WYOMING:   STATE
 CTRY. UNITED STATES OF AMERICA:   COUNTRY
 SRVC.       SCHLUMBERGER:   SERVICE COMPANY
 DATE.        24-JUN-1952:   LOGDATE
 API .     49025065260000:   API NUMBER
~CURVE INFORMATION
#MNEM.UNIT       API CODE    CURVE DESCRIPTION
#----------   ------------   ------------------------------
 DEPT.F                  :   
 SPR .MV     01 010 01 00:   SPONTANEOUS POTENTIAL FROM RES.
 ASN .OHMM   01 041 16 00:   AMPLIFIED SHORT NORMAL 16"
 LAT .OHMM   01 070 08 00:   LATERAL 8'
 LN  .OHMM   01 060 64 00:   LONG NORMAL 64"
~PARAMETER INFORMATION
#MNEM.UNIT          VALUE    DESCRIPTION
#----------   ------------   ------------------------------
 EKB .F         5160.0000:   Kelly bushing
 EGL .F         5147.0000:   Ground level
 TD  .F         5553.0000:   Total depth
 CLNT.            A2DTECH:   Client Code
 DATE.        24-JUN-1952:   Date Logged [DD-MMM-YYYY]
 DD  .F              5549:   Depth driller
 DL  .F              5553:   Depth logger
 BLI .F              5553:   Bottom log interval
 TLI .F               602:   Top log interval
 CBL1.F               602:   Casing logger 1
 BSD1.F              5549:   Depth drilled with bit1
 DFT .           GYP BASE:   Type fluid in hole
 DFD .                9.8:   Density
 DFV .                 44:   Viscosity
 MSS .           FLOWLINE:   Source of sample
 RMS .OHMM            1.4:   Rm
 MST .F                60:   Rm Meas. temp.
 RMB .OHMM           0.48:   Rm. at BHT
 BHT .F               175:   BHT.
 TCS .HRS             1.5:   Time Circ. stopped
 MRT .F               175:   Maximum recorded temp.
 LUN .                563:   Logging unit number
 ENGI.             SANDER:   Recorded By
 WITN.            GRIBBIN:   Witnessed by
 ORIG.      1" 2.5" PRINT:   Origin of data
 UWI .     49025065260000:   Unique Well ID
 DICO. A2D TECHNOLOGIES, INC.:   Digitizing Company
~OTHER INFORMATION
~A  DEPTH      SPR        ASN        LAT         LN
# ...
 1551.0000   -58.1688     6.0901     7.1487     6.9364
 1551.5000   -57.9350     6.0680     7.1491     6.9364
 1552.0000   -57.7035     6.0459     7.1494     6.9364
 1552.5000   -57.6446     6.0238     7.1498     6.9364
 1553.0000   -57.5257     6.0000     7.1502     6.9364
 1553.5000   -57.3542     5.9797     7.1505     6.9364
 1554.0000   -57.3527     5.9576     7.1509     6.9364
 1554.5000   -57.3513     5.9355     7.1512     6.9364
 1555.0000   -57.5296     5.9167     7.1516     6.9364
 1555.5000   -57.6359     5.9167     7.1520     6.9364
 1556.0000   -57.6345     5.8970     7.1523     6.9364
 1556.5000   -57.6331     5.8889     7.0785     6.9364
 1557.0000   -57.6313     5.8971     7.0093     6.9364
 1557.5000   -57.6302     5.9218     7.0097     6.9364
 1558.0000   -57.7581     5.9722     7.0101     6.9364
 1558.5000   -57.9149     6.0101     7.0104     6.9364
 1559.0000   -57.9134     6.0675     6.9349     6.9364
 1559.5000   -57.9117     6.1413     6.8675     6.9364
 1560.0000   -58.1022     6.2278     6.8678     6.9364
 1560.5000   -58.1966     6.3056     6.8682     6.9364
 1561.0000   -58.1952     6.3603     6.7625     6.9364
 1561.5000   -58.1938     6.4140     6.7252     6.9364
 1562.0000   -58.1921     6.4513     6.7256     6.9364
 1562.5000   -58.1909     6.4722     6.7050     6.9364
 1563.0000   -58.3309     6.4722     6.5826     6.9364
 1563.5000   -58.5606     6.4547     6.5830     6.9364
 1564.0000   -58.7618     6.4444     6.5833     6.9364
 1564.5000   -58.7601     6.4383     6.5837     6.9364
 1565.0000   -58.7588     6.4162     6.5841     6.9364
 1565.5000   -59.0446     6.3941     6.5844     6.9364
 1566.0000   -58.8565     6.3889     6.5848     6.9364
 1566.5000   -58.7545     6.3889     6.5851     6.9364
 1567.0000   -58.6788     6.3944     6.5855     6.9364
 1567.5000   -58.4461     6.4167     6.5858     6.9364
 1568.0000   -58.1748     6.4167     6.5862     6.9364
 1568.5000   -57.9808     6.4328     6.5866     6.9364
 1569.0000   -57.7481     6.4444     6.5869     6.9364
 1569.5000   -57.5957     6.4444     6.5873     7.0396
 1570.0000   -57.5942     6.4444     6.5876     7.0809
 1570.5000   -57.5926     6.4444     6.5880     7.0809
 1571.0000   -57.5914     6.4444     6.5884     7.0809
 1571.5000   -57.5899     6.4444     6.5887     7.0809
 1572.0000   -57.6748     6.4526     6.5891     7.0809
 1572.5000   -57.9046     6.5000     6.5894     7.0809
 1573.0000   -58.1605     6.5205     6.5898     7.0809
 1573.5000   -58.1593     6.5721     6.5902     7.0809
 1574.0000   -58.1578     6.6111     6.5905     7.0809
 1574.5000   -58.1564     6.6010     6.5909     7.0809
 1575.0000   -58.1549     6.5278     6.5912     7.0809
 1575.5000   -58.1534     6.4685     6.5916     7.0809
 1576.0000   -57.9412     6.4163     6.5920     7.0597
 1576.5000   -57.8631     6.3721     6.5923     6.9364
 1577.0000   -57.7634     6.3306     6.5927     6.9364
 1577.5000   -57.5727     6.3056     6.5930     6.9364
 1578.0000   -57.5712     6.2865     6.5934     6.9364
 1578.5000   -57.5698     6.2510     6.5937     6.9364
 1579.0000   -57.5684     6.2222     6.5941     6.9364
 1579.5000   -57.4627     6.2202     6.5945     6.9364
 1580.0000   -57.2780     6.1944     6.5948     7.0183
 1580.5000   -57.2765     6.1944     6.5952     7.0809
 1581.0000   -57.2751     6.1944     6.5955     7.0809
 1581.5000   -57.2736     6.1944     6.5959     7.0809
 1582.0000   -57.2722     6.1944     6.5963     7.0809
 1582.5000   -57.3247     6.1944     6.5966     7.0809
 1583.0000   -57.5569     6.2121     6.6039     7.0809
 1583.5000   -57.5554     6.2222     6.7411     7.0809
 1584.0000   -57.5540     6.2411     6.7414     7.0809
 1584.5000   -57.5526     6.3074     6.7417     7.1950
 1585.0000   -57.6110     6.3736     6.7421     7.2254
 1585.5000   -57.8408     6.4399     6.7425     7.2254
 1586.0000   -58.0706     6.5061     6.7429     7.2539
 1586.5000   -58.1219     6.5668     6.7432     7.3699
 1587.0000   -58.1204     6.6111     6.7435     7.3699
 1587.5000   -58.1849     6.6551     6.7439     7.3699
 1588.0000   -58.4052     6.6993     6.7443     7.3699
 1588.5000   -58.4037     6.7328     6.7447     7.4002
 1589.0000   -58.4022     6.7500     6.7450     7.5145
 1589.5000   -58.2726     6.7500     6.7453     7.5145
 1590.0000   -58.1118     6.7500     6.7457     7.4253
 1590.5000   -58.0949     6.7344     6.7460     7.3699
 1591.0000   -57.8212     6.7024     6.7465     7.3699
 1591.5000   -57.6295     6.6625     6.8460     7.3699
 1592.0000   -57.5310     6.6389     6.8908     7.3699
 1592.5000   -57.5296     6.5977     6.8912     7.3699
 1593.0000   -57.5066     6.5684     6.8915     7.3699
 1593.5000   -57.2389     6.5463     6.8919     7.3699
 1594.0000   -57.4342     6.5278     6.8922     7.3699
 1594.5000   -57.5238     6.5278     6.9653     7.3699
 1595.0000   -57.5224     6.5477     7.0366     7.3699
 1595.5000   -57.5209     6.5556     7.0370     7.3699
 1596.0000   -57.5193     6.5726     7.0374     7.3699
 1596.5000   -57.5181     6.6168     7.0377     7.3699
 1597.0000   -57.6628     6.6667     7.0381     7.3699
 1597.5000   -57.8027     6.7051     6.9923     7.3699
 1598.0000   -57.8348     6.7628     6.8951     7.3699
 1598.5000   -58.0872     6.8212     6.8955     7.3699
 1599.0000   -58.0859     6.8675     6.8958     7.3789
 1599.5000   -58.0845     6.9444     6.9725     7.5147
 1600.0000   -57.9872     7.0000     7.0402     7.4181
 1600.5000   -57.7941     7.0534     7.0406     7.3023
 1601.0000   -57.7925     7.0489     7.0410     7.2250
 1601.5000   -57.5768     6.9978     7.0413     7.2151
 1602.0000   -57.5022     6.9341     7.0417     7.0799
 1602.5000   -57.5008     6.8949     7.0420     7.0797
 1603.0000   -57.4539     6.8071     7.0424     7.0121
 1603.5000   -57.2103     6.6920     7.0428     6.9347
 1604.0000   -57.3538     6.5796     7.0431     6.9345
 1604.5000   -57.5043     6.4756     7.0435     6.9342
 1605.0000   -57.6549     6.3954     7.0953     6.8377
 1605.5000   -57.8054     6.3178     7.1879     6.7218
 1606.0000   -57.9559     6.2663     7.1882     6.6060
 1606.5000   -58.0737     6.2464     7.1886     6.4998
 1607.0000   -58.0730     6.2464     7.1889     6.4995
 1607.5000   -58.0723     6.2670     7.1893     6.4029
 1608.0000   -58.0716     6.2900     7.1897     6.3545
 1608.5000   -58.0709     6.3130     7.1839     6.3543
 1609.0000   -58.0701     6.3360     7.1839     6.3540
 1609.5000   -58.0694     6.3610     7.0982     6.3538
 1610.0000   -58.0687     6.3190     6.9827     6.3536
 1610.5000   -57.8834     6.2268     6.8673     6.3533
 1611.0000   -57.6503     6.0825     6.7519     6.3916
 1611.5000   -57.4172     5.8491     6.6365     6.4974
 1612.0000   -57.2032     5.3582     6.4330     6.4971
 1612.5000   -57.2024     5.1217     6.2620     6.5932
 1613.0000   -57.0053     4.9954     6.1466     6.6411
 1613.5000   -56.9135     4.9570     6.0345     6.6794
 1614.0000   -56.9128     5.0212     6.0345     6.7852
 1614.5000   -56.9432     5.3582     6.0345     6.6404
 1615.0000   -57.1988     5.6877     6.0967     6.5438
 1615.5000   -57.4066     5.9676     6.1782     6.4954
 1616.0000   -57.4850     6.1994     6.1839     6.4566
 1616.5000   -57.4843     6.3914     6.3218     6.3504
 1617.0000   -57.4835     6.5330     6.5076     6.3502
 1617.5000   -57.4828     6.6227     6.6092     6.3500
 1618.0000   -57.7026     6.6812     6.6456     6.2823
 1618.5000   -57.7689     6.7049     6.7529     6.2435
 1619.0000   -57.7682     6.6827     6.7529     6.3492
 1619.5000   -57.7675     6.5903     6.7529     6.3489
 1620.0000   -57.7668     6.3152     6.7529     6.3487
 1620.5000   -57.9985     6.0563     6.7141     6.4159
 1621.0000   -58.0529     5.8730     6.6092     6.5313
 1621.5000   -58.0522     5.7699     6.6092     6.6467
 1622.0000   -57.9843     5.7020     6.6092     6.7813
 1622.5000   -57.7632     5.7254     6.6092     6.8774
 1623.0000   -57.7623     5.8373     6.6092     6.9253
 1623.5000   -57.7617     6.0360     6.6092     6.9251
