~VERSION INFORMATION
 VERS.                2.0:   CWLS LOG ASCII STANDARD - VERSION 2.0
 WRAP.                 NO:   ONE LINE PER DEPTH STEP
~WELL INFORMATION
#MNEM.UNIT      DATA TYPE    INFORMATION
#----------   ------------   ------------------------------
 STRT.F         2933.0000:   START DEPTH
 STOP.F         5494.0000:   STOP DEPTH
 STEP.F            0.5000:   STEP LENGTH
 NULL.          -999.2500:   NO VALUE
 COMP.    FENIX & SCISSON:   COMPANY
 WELL. FENIX "TPX" #56-10:   WELL
 FLD .        TEAPOT DOME:   FIELD
 LOC .      S10 T38N R78W:   LOCATION
 CNTY.            NATRONA:   COUNTY
 STAT.            WYOMING:   STATE
 CTRY. UNITED STATES OF AMERICA:   COUNTRY
 SRVC.       SCHLUMBERGER:   SERVICE COMPANY
 DATE.        22-MAY-1978:   LOGDATE
 API .     49025106100000:   API NUMBER
~CURVE INFORMATION
#MNEM.UNIT       API CODE    CURVE DESCRIPTION
#----------   ------------   ------------------------------
 DEPT.F                  :   
 NPHI.DEC    42 890 03 00:   NEUTRON POROSITY SANDSTONE
 GRD .GAPI   45 310 01 00:   GAMMA RAY FROM DENSITY LOG
 CALD.IN     45 280 60 00:   CALIPER FROM DENSITY LOG
 CORR.G/C3   45 356 01 00:   DENSITY CORRECTION
 RHOB.G/C3   45 350 01 00:   BULK DENSITY
 SPR .MV     07 010 01 00:   SPONTANEOUS POTENTIAL
 ILD .OHMM   07 120 46 00:   INDUCTION LOG DEEP RESISTIVITY
 ILM .OHMM   07 120 44 00:   INDUCTION LOG MEDIUM RESISTIVITY
 SFL .OHMM   07 220 01 00:   SHALLOW FOCUSED LOG RESISITIVITY
 DT  .US/F   60 520 00 00:   DELTA TIME
~PARAMETER INFORMATION
#MNEM.UNIT          VALUE    DESCRIPTION
#----------   ------------   ------------------------------
 EKB .F         5212.0000:   Kelly bushing
 EGL .F         5202.0000:   Ground level
 TD  .F         5500.0000:   Total depth
 CLNT.            A2DTECH:   Client Code
 SL  . 1270' FSL & 2130' FEL:   Surface Location
 PD  .                 GL:   Permanent Datum
 EPD .F              5202:   Elevation Permanent Datum
 LMF .                 KB:   Log Measured From
 DMF .                 KB:   Drilling Measured From
 DAPD.F                10:   Feet Above Permanent Datum
 DATE.        22-MAY-1978:   Date Logged [DD-MMM-YYYY]
 DD  .F              5500:   Depth driller
 DL  .F              5499:   Depth logger
 BLI .F              5497:   Bottom log interval
 TLI .F              2971:   Top log interval
 CS1 .IN            8.625:   Casing size
 CBD1.     8.625" @ 2972':   Casing driller 1
 CBL1.F              2971:   Casing logger 1
 BS1 .IN            7.875:   Bit size
 BSD1.F              5500:   Depth drilled with bit1
 DFT .                FGM:   Type fluid in hole
 DFD .                9.3:   Density
 DFV .                 57:   Viscosity
 DFPH.               10.5:   pH
 DFL .                  6:   Fluid loss
 MSS .           MUD TANK:   Source of sample
 RMS .OHMM           0.93:   Rm
 MST .F                58:   Rm Meas. temp.
 RMF .OHMM           0.71:   Rmf
 MFST.F                61:   Rmf Meas. temp.
 MFSS.               MEAS:   Source Rmf.
 RMB .OHMM           0.27:   Rm. at BHT
 BHT .F               198:   BHT.
 TCS .HRS            1500:   Time Circ. stopped
 TLAB.HRS            0100:   Time logger at bottom
 MRT .F               198:   Maximum recorded temp.
 LUN .               8039:   Logging unit number
 LUL .               CSPR:   Logging unit location
 ENGI.          CHALUPSKY:   Recorded By
 WITN.            RHOADES:   Witnessed by
 ORIG.      2.5" 5" PRINT:   Origin of data
 UWI .     49025106100000:   Unique Well ID
 DICO. A2D TECHNOLOGIES, INC.:   Digitizing Company
~OTHER INFORMATION
~A  DEPTH     NPHI        GRD       CALD       CORR       RHOB        SPR        ILD        ILM        SFL         DT
# ...
 5110.5000     0.0931    45.6200     9.7838    -0.0007     2.6937   -36.8427    34.2510    35.5951    63.0551    54.7120
 5111.0000     0.0806    39.7899     9.7838    -0.0022     2.7676   -36.6978    31.0601    41.7041   187.5369    53.6673
 5111.5000     0.0676    36.7127     9.7538    -0.0066     2.7883   -36.4052    27.2114    41.9661   428.3738    52.3198
 5112.0000     0.0658    33.9862     9.7538    -0.0052     2.8075   -36.4125    23.9975    30.2737   333.4169    50.9709
 5112.5000     0.0665    32.2812     9.7538     0.0066     2.8223   -36.4184    21.8859    20.3823   126.8946    53.3843
 5113.0000     0.0717    32.8759     9.7838     0.0288     2.8386   -36.7228    20.6840    17.2460    32.2405    56.6985
 5113.5000     0.0825    59.2964     9.7838     0.0465     2.8504   -37.0272    19.7319    16.3021    23.4038    59.1105
 5114.0000     0.1142    83.3145     9.7838     0.0686     2.8548   -37.1823    19.1807    16.2877    22.7835    63.3269
 5114.5000     0.1415    88.7141     9.8138     0.1010     2.8326   -37.0388    18.9051    16.7341    25.0937    64.3855
 5115.0000     0.1745    86.3058     9.8268     0.0951     2.7483   -37.0448    19.0278    17.9142    30.8905    63.3388
 5115.5000     0.1780    80.8945     9.8438     0.0596     2.6270   -36.9014    20.5193    19.4493    73.0540    60.0364
 5116.0000     0.1496    74.2820     9.8438     0.0251     2.6240   -37.0567    24.7264    22.8047   154.5958    57.2604
 5116.5000     0.1080    60.4623     9.8601     0.0043     2.6655   -37.3624    33.5216    27.9515   209.7728    52.8303
 5117.0000     0.0802    32.8287     9.9039    -0.0127     2.7158   -37.6667    48.7065    34.4179   128.9110    51.4076
 5117.5000     0.0347    19.6096     9.9339    -0.0155     2.7835   -37.6726    76.9072    44.7901   115.2886    51.7895
 5118.0000     0.0206    23.8365     9.9640    -0.0064     2.8577   -37.9770    84.6910    58.6262   128.7698    52.4030
 5118.5000     0.0261    25.0544     9.9640     0.0007     2.8833   -37.6844    86.4183    72.6006   317.4918    52.7788
 5119.0000     0.0297    24.0997     9.9640    -0.0027     2.8829   -37.3903    82.2746    95.0276   964.1600    52.0619
 5119.5000     0.0291    19.2919     9.9940    -0.0042     2.8869   -36.8006    70.4135   100.3742  1272.2560    50.5365
 5120.0000     0.0196    16.4560    10.0240    -0.0052     2.8929   -36.2080    62.0540    87.2954   815.2193    49.5650
 5120.5000     0.0194    15.9700    10.0240    -0.0052     2.9004   -35.7676    57.6636    71.8451   473.9607    48.7439
 5121.0000     0.0204    17.4978    10.0240    -0.0059     2.9057   -35.6227    58.8389    55.5565   200.1920    49.8776
 5121.5000     0.0173    20.3512    10.0541    -0.0074     2.8908   -35.6301    61.2996    36.3825    98.5182    53.2670
 5122.0000     0.0179    21.3584    10.0541    -0.0096     2.8881   -35.1882    68.4459    40.0510    69.5590    54.8519
 5122.5000     0.0179    20.5155    10.0541     0.0170     2.8887   -34.5970    65.6179    72.5900    71.2722    53.8052
 5123.0000     0.0191    17.8255    10.0841     0.0332     2.8843   -34.1551    63.7848    86.8336   245.9014    50.8036
 5123.5000     0.0209    15.0905    10.0841     0.0366     2.8547   -33.8236    65.5376    80.9502   871.5072    49.3810
 5124.0000     0.0200    12.9177    10.0841     0.0288     2.8251   -33.5699    78.4293    86.6611  1454.4656    48.7839
 5124.5000     0.0128    11.3906    10.0841     0.0052     2.8182   -34.1742   148.2901   114.2197  2000.0000    49.6936
 5125.0000     0.0083    10.7613    10.0841    -0.0140     2.8517   -34.7771   161.2417   159.1174  2000.0000    49.7869
 5125.5000     0.0073    10.5034    10.0841    -0.0125     2.9005   -34.9308   126.2858   185.1397  2000.0000    49.5466
 5126.0000     0.0118    11.6987    10.0841    -0.0096     2.9301   -34.4903    83.2725   149.2390  2000.0000    50.5384
 5126.5000     0.0190    14.6958    10.0841     0.0007     2.9478   -34.1962    49.9753    81.6289  1996.5306    49.9429
 5127.0000     0.0269    18.8941    10.0841     0.0155     2.9418   -33.9036    34.2097    49.5358  1631.3854    51.6039
 5127.5000     0.0350    24.8942    10.0841     0.0170     2.9148   -33.9109    26.6589    30.2692   518.2995    58.1512
 5128.0000     0.0407    33.2967    10.1073     0.0092     2.8929   -34.2153    24.3578    17.6210    97.8050    65.3000
 5128.5000     0.0606    46.5041    10.1869     0.0022     2.8602   -34.8182    24.1748    15.2226    26.1198    68.0127
 5129.0000     0.1188    56.7084    10.2481     0.0184     2.8400   -34.8241    23.9931    17.4685    25.2179    66.2141
 5129.5000     0.2001    64.5103    10.2792     0.0622     2.8181   -34.2328    23.8128    24.6745    29.9796    63.0621
 5130.0000     0.2284    65.1434    10.2322     0.1098     2.7394   -33.6418    23.6375    28.3411    50.0974    56.9856
 5130.5000     0.1909    45.2184    10.1570     0.1305     2.5943   -32.7422    28.2828    30.2560   100.9841    55.1026
 5131.0000     0.0733    26.5495    10.0841     0.1057     2.4847   -32.1411    44.9689    40.5080   118.4122    55.1100
 5131.5000     0.0442    21.7457    10.0541     0.0271     2.4418   -31.8684    68.1134    57.2181   127.8180    54.9656
 5132.0000     0.0282    18.0907    10.0240    -0.0284     2.5735   -31.5757   126.1354    76.4654   146.6853    54.5204
 5132.5000     0.0222    15.7303    10.0240    -0.0223     2.7717   -31.4323   174.5945    94.0386   231.5350    51.8195
 5133.0000     0.0187    14.3817    10.0240    -0.0043     2.7924   -31.2890   172.0856   114.0599   567.3475    51.5140
 5133.5000     0.0139    13.2702    10.0240    -0.0022     2.7939   -30.6978   132.8685   144.2449  1500.4395    50.1391
 5134.0000     0.0104    12.2042    10.0240    -0.0022     2.8087   -29.9589    96.8046   128.9734  2000.0000    49.8824
 5134.5000     0.0092    11.5976    10.0240    -0.0007     2.8590   -29.8140    75.6769    99.0446  1651.8649    51.2422
 5135.0000     0.0111    12.6125    10.0240     0.0007     2.8887   -29.8214    60.2749    68.0833  1103.5042    53.3534
 5135.5000     0.0172    16.9563     9.9940     0.0066     2.9042   -29.9765    48.9302    55.6467   173.8292    53.8123
 5136.0000     0.0284    24.0151     9.9940     0.0125     2.9214   -30.2809    41.9851    46.1160    99.6683    55.0695
 5136.5000     0.0483    28.9049     9.9640     0.0229     2.9255   -30.7345    33.8474    40.6370    68.9350    56.9805
 5137.0000     0.0611    33.7970     9.9640     0.0230     2.9163   -30.7404    30.4869    33.3459    50.4028    57.1380
 5137.5000     0.0722    38.6865     9.9640     0.0184     2.8926   -30.7463    27.4599    28.5557    31.4115    57.5951
 5138.0000     0.0774    47.7567     9.9640     0.0170     2.8560   -30.4536    25.0788    24.2956    27.3224    58.6537
 5138.5000     0.0880    66.8037     9.9640     0.0170     2.8125   -30.4597    23.8766    23.2862    25.8314    58.5844
 5139.0000     0.1109    70.4014     9.9640     0.0170     2.7617   -30.7654    23.3709    22.6300    26.5446    58.6655
 5139.5000     0.1326    70.9970     9.9339     0.0168     2.7302   -31.2190    22.7180    22.6100    27.2775    59.2730
 5140.0000     0.1413    70.9902     9.9259     0.0105     2.7120   -31.3741    22.7041    22.5901    29.2235    59.4293
 5140.5000     0.1461    72.1855     9.9039     0.0032     2.6998   -31.5292    22.3779    22.2597    34.2669    59.1344
 5141.0000     0.1458    73.9814     9.9039     0.0004     2.6945   -31.0873    22.0343    21.6324    36.4793    58.9900
 5141.5000     0.1452    75.7773     9.9039    -0.0007     2.6887   -30.7932    21.3974    20.4485    35.8640    59.2215
 5142.0000     0.1453    78.1738     9.9039     0.0037     2.6858   -30.2036    19.9893    19.3293    31.9450    59.9041
 5142.5000     0.1476    78.7686     9.8904    -0.0013     2.6813   -29.9109    18.6394    18.5262    27.3736    60.9627
 5143.0000     0.1518    79.9639     9.8739     0.0004     2.6754   -29.9168    17.8693    17.5123    23.9761    61.7205
 5143.5000     0.1595    81.1604     9.8438     0.0058     2.6695   -29.9227    17.3701    16.4286    20.5672    62.3279
