~VERSION INFORMATION
 VERS.                2.0:   CWLS LOG ASCII STANDARD - VERSION 2.0
 WRAP.                 NO:   ONE LINE PER DEPTH STEP
~WELL INFORMATION
#MNEM.UNIT      DATA TYPE    INFORMATION
#----------   ------------   ------------------------------
 STRT.F          216.0000:   START DEPTH
 STOP.F         3241.0000:   STOP DEPTH
 STEP.F            0.5000:   STEP LENGTH
 NULL.          -999.2500:   NO VALUE
 COMP.    FENIX & SCISSON:   COMPANY
 WELL.    FENIX "A" #72-4:   WELL
 FLD .             NPR #3:   FIELD
 LOC .       S4 T38N R78W:   LOCATION
 CNTY.            NATRONA:   COUNTY
 STAT.            WYOMING:   STATE
 CTRY. UNITED STATES OF AMERICA:   COUNTRY
 SRVC.              WELEX:   SERVICE COMPANY
 DATE.        09-JUL-1977:   LOGDATE
 API .     49025103900000:   API NUMBER
~CURVE INFORMATION
#MNEM.UNIT       API CODE    CURVE DESCRIPTION
#----------   ------------   ------------------------------
 DEPT.F                  :   
 CORR.G/C3   45 356 01 00:   DENSITY CORRECTION
 GRD .GAPI   45 310 01 00:   GAMMA RAY FROM DENSITY LOG
 RHOB.G/C3   45 350 01 00:   BULK DENSITY
 CALD.IN     45 280 60 00:   CALIPER FROM DENSITY LOG
 SPR .MV     07 010 01 00:   SPONTANEOUS POTENTIAL
 ILD .OHMM   07 120 46 00:   DEEP INDUCTION RESISTIVITY
 ILM .OHMM   07 120 44 00:   INDUCTION LOG MEDIUM RESISTIVITY
 SGRD.OHMM   07 220 05 00:   SHALLOW SHORT GUARD RESISTIVITY
~PARAMETER INFORMATION
#MNEM.UNIT          VALUE    DESCRIPTION
#----------   ------------   ------------------------------
 EKB .F         5192.0000:   Kelly bushing
 EGL .F         5182.0000:   Ground level
 TD  .F         3243.0000:   Total depth
 CLNT.            A2DTECH:   Client Code
 SL  . 990' FNL & 990' FEL:   Surface Location
 PD  .                 GL:   Permanent Datum
 EPD .F              5182:   Elevation Permanent Datum
 LMF .                 KB:   Log Measured From
 DMF .                 KB:   Drilling Measured From
 DAPD.F                10:   Feet Above Permanent Datum
 DATE.        09-JUL-1977:   Date Logged [DD-MMM-YYYY]
 DD  .F              3230:   Depth driller
 DL  .F              3243:   Depth logger
 BLI .F              3241:   Bottom log interval
 TLI .F               224:   Top log interval
 CS1 .IN            8.625:   Casing size
 CBD1.      8.625" @ 221':   Casing driller 1
 CBL1.F               224:   Casing logger 1
 BS1 .IN            7.875:   Bit size
 BSD1.F              3230:   Depth drilled with bit1
 DFT .                KCL:   Type fluid in hole
 DFD .                8.9:   Density
 DFV .                 44:   Viscosity
 DFPH.                7.5:   pH
 DFL .                5.8:   Fluid loss
 MSS .            MUD PIT:   Source of sample
 RMS .OHMM           0.24:   Rm
 MST .F                68:   Rm Meas. temp.
 RMF .OHMM           0.20:   Rmf
 MFST.F                68:   Rmf Meas. temp.
 MFSS.               MEAS:   Source Rmf.
 RMC .OHMM           0.31:   Rmc
 MCST.F                68:   Rmc Meas. temp.
 MCSS.               MEAS:   Source Rmc.
 RMB .OHMM           0.13:   Rm. at BHT
 BHT .F               117:   BHT.
 TCS .HRS               3:   Time Circ. stopped
 MRT .F               117:   Maximum recorded temp.
 LUN .               8766:   Logging unit number
 LUL .             CASPER:   Logging unit location
 ENGI.          T. JOYNER:   Recorded By
 WITN.         HARRINGTON:   Witnessed by
 ORIG.           5" PRINT:   Origin of data
 UWI .     49025103900000:   Unique Well ID
 DICO. A2D TECHNOLOGIES, INC.:   Digitizing Company
~OTHER INFORMATION
~A   DEPT     CORR         GRD        RHOB     CALD        SPR        ILD        ILM       SGRD   
# ...
  823.5000     0.0208    99.3704     2.4645    10.2194   -68.8247     8.2142     8.6453     9.9805
  824.0000     0.0216    99.2330     2.4592    10.2209   -68.8247     8.3330     8.7095    10.1235
  824.5000     0.0224    99.0927     2.4638    10.2074   -68.8247     8.3391     8.8964    10.2685
  825.0000     0.0240    98.8063     2.4699    10.2090   -68.8247     8.3992     8.9625    10.3436
  825.5000     0.0240    98.2247     2.4737    10.2107   -68.8247     8.4033     9.0917    10.3471
  826.0000     0.0225    97.9354     2.4768    10.2122   -68.8247     8.4074     9.2228    10.3507
  826.5000     0.0218    98.2480     2.4686    10.2134   -68.8247     8.4121     9.2272    10.3550
  827.0000     0.0211    98.8558     2.4626    10.2151   -68.8247     8.3574     9.2958    10.3586
  827.5000     0.0219    99.1655     2.4581    10.2165   -68.8246     8.3620     9.2360    10.3621
  828.0000     0.0227    99.1773     2.4604    10.2180   -68.8244     8.2506     8.9892    10.3656
  828.5000     0.0243    99.0397     2.4612    10.2194   -68.8250     8.2546     8.6278    10.3692
  829.0000     0.0243    99.3523     2.4621    10.2358   -68.8445     8.1437     8.1670    10.3010
  829.5000     0.0236    99.2120     2.4613    10.2224   -68.9369     7.9807     7.7846    10.2323
  830.0000     0.0214    98.9256     2.4591    10.2388   -69.0278     7.9845     7.3180    10.2367
  830.5000     0.0200    98.9402     2.4532    10.2406   -69.1185     8.0439     7.2200    10.0982
  831.0000     0.0184    99.3264     2.4442    10.2420   -69.2092     8.1603     7.5306     9.9624
  831.5000     0.0170    99.5297     2.4352    10.2282   -69.3000     8.1642     8.0183     9.9666
  832.0000     0.0179    99.7330     2.4315    10.2300   -69.3907     8.1681     8.1904     9.9700
  832.5000     0.0209    99.9363     2.4293    10.2162   -69.4815     8.0593     8.2502     9.9734
  833.0000     0.0247   100.1396     2.4332    10.2180   -69.5722     8.0634     8.1981     9.9815
  833.5000     0.0277   100.3523     2.4410    10.2195   -69.6629     8.0112     8.0894    10.1199
  834.0000     0.0293   100.2146     2.4528    10.2211   -69.7537     8.0160     8.0933    10.1241
  834.5000     0.0300   100.0775     2.4543    10.2224   -69.8444     8.0199     8.0413    10.1275
  835.0000     0.0293   100.2384     2.4514    10.2239   -69.9352     7.9682     7.9897    10.1310
  835.5000     0.0279   100.4017     2.4492    10.2104   -70.0259     7.8621     7.8836     9.9939
  836.0000     0.0279   100.7114     2.4492    10.1970   -70.1166     7.8105     7.8339     9.8595
  836.5000     0.0295   101.0211     2.4538    10.1985   -70.2074     7.6542     7.7836     9.6604
  837.0000     0.0325   101.0328     2.4614    10.2093   -70.2981     7.5162     7.6803     9.4646
  837.5000     0.0356   100.7435     2.4705    10.2166   -70.3890     7.3490     7.6834     9.2727
  838.0000     0.0386   101.3541     2.4830    10.2331   -70.4794     7.2510     7.6876     9.0840
  838.5000     0.0416   101.6609     2.4999    10.2343   -70.5698     7.1328     7.6373     8.9006
  839.0000     0.0432   100.7813     2.5083    10.2359   -70.6172     7.0593     7.6419     8.8419
  839.5000     0.0447   102.1342     2.5128    10.2373   -70.6174     7.0627     7.6455     8.7230
  840.0000     0.0448   103.1893     2.5166    10.2388   -70.6176     7.0173     7.6492     8.6657
  840.5000     0.0448   102.8788     2.5220    10.2552   -70.6178     7.0207     7.6528     8.7291
  841.0000     0.0449   102.6162     2.5197    10.2570   -70.6186     7.0248     7.7096     8.8542
  841.5000     0.0449   101.7366     2.5145    10.2609   -70.6133     7.0281     7.7133     8.9817
  842.0000     0.0449   101.1521     2.5131    10.2748   -70.4817     6.9829     7.7170     9.1103
  842.5000     0.0435   101.1638     2.5109    10.2763   -70.3473     6.9862     7.7743     9.2408
  843.0000     0.0420   101.3215     2.5100    10.2628   -70.2270     6.9896     7.6652     9.3084
  843.5000     0.0406   100.5909     2.5080    10.2344   -70.3964     6.9445     7.3538     9.3764
  844.0000     0.0399   100.6026     2.5073    10.2060   -70.5755     6.8990     7.0674     9.3796
  844.5000     0.0392   100.9123     2.5058    10.1776   -70.7533     6.9031     6.8303     9.2535
  845.0000     0.0377   101.6741     2.5036    10.1343   -70.9306     6.9064     6.6932     9.0659
  845.5000     0.0332   102.4262     2.4999    10.1059   -71.1082     6.7673     6.5135     8.7597
  846.0000     0.0271   102.8846     2.4939    10.0925   -71.2862     6.4944     6.2950     8.4638
  846.5000     0.0207   103.0482     2.4842    10.0943   -71.4630     6.2759     6.0419     8.2348
  847.0000     0.0170   103.9540     2.4759    10.1107   -71.5852     6.1495     5.8791     8.0678
  847.5000     0.0155   103.6676     2.4690    10.1121   -71.3876     6.0257     5.7213     7.8497
  848.0000     0.0163   103.5273     2.4588    10.1136   -71.1887     5.9233     5.6460     7.8523
  848.5000     0.0171   104.4360     2.4543    10.1300   -70.9904     5.7741     5.6098     7.8007
  849.0000     0.0171   103.1064     2.4544    10.1314   -70.7925     5.6297     5.5353     7.8584
  849.5000     0.0179   104.0122     2.4567    10.1329   -70.6494     5.4788     5.4618     7.8611
  850.0000     0.0180   104.6200     2.4597    10.1493   -70.9178     5.4052     5.3521     7.9185
  850.5000     0.0188   105.2280     2.4580    10.1507   -71.1921     5.3333     5.2085     7.8657
  851.0000     0.0188   104.3536     2.4603    10.1525   -71.4651     5.2265     5.0644     7.7726
  851.5000     0.0196   104.9607     2.4604    10.1689   -71.7382     5.1363     4.9333     7.5030
  852.0000     0.0204   103.0379     2.4597    10.1086   -72.0091     4.9887     4.8168     7.2009
  852.5000     0.0212   104.9936     2.4575    10.0797   -72.2168     4.8538     4.7090     6.8924
  853.0000     0.0212   105.7534     2.4516    10.0509   -72.2113     4.7910     4.6441     5.7981
  853.5000     0.0213   105.6190     2.4344    10.0373   -72.2111     4.8613     4.3948     5.5029
  854.0000     0.0213   105.9316     2.4224    10.0231   -72.2113     4.9669     4.3426     6.9714
  854.5000     0.0229   107.1385     2.4156    10.0244   -72.2112     5.0398     4.6577     7.6338
  855.0000     0.0229   106.5570     2.4090    10.0102   -72.2112     5.1137     4.8585     7.7447
  855.5000     0.0229   107.9129     2.4174    10.0115   -72.2112     5.2249     5.0329     7.7490
  856.0000     0.0230   105.6957     2.4370    10.0275   -72.2112     5.3015     5.1420     7.7532
  856.5000     0.0230   106.3065     2.4566    10.0285   -72.2112     5.3939     5.2521     7.7574
  857.0000     0.0231   107.5134     2.4642    10.0375   -72.2112     5.4963     5.4045     7.7616
  857.5000     0.0231   106.9318     2.4643    10.0457   -72.2112     5.5789     5.5217     7.7659
  858.0000     0.0217   108.4368     2.4674    10.0617   -72.2112     5.6635     5.6024     7.8242
  858.5000     0.0210   106.9611     2.4690    10.0475   -72.2112     5.7427     5.6062     7.8285
  859.0000     0.0188   107.7209     2.4675    10.0488   -72.2112     5.7866     5.6490     7.8873
  859.5000     0.0173   107.8809     2.4623    10.0498   -72.2112     5.8715     5.6921     7.8917
  860.0000     0.0159   108.0482     2.4571    10.0508   -72.2112     5.8755     5.6961     7.8970
  860.5000     0.0144   108.5099     2.4565    10.0667   -72.2112     5.8795     5.7008     7.7923
  861.0000     0.0145   107.9224     2.4555    10.0678   -72.2112     5.8836     5.6644     7.7959
  861.5000     0.0129   107.0204     2.4398    10.0688   -72.2112     5.8872     5.6291     7.8008
  862.0000     0.0099   107.3621     2.4334    10.0699   -72.2112     5.8916     5.6339     7.7500
  862.5000     0.0079   106.7837     2.4289    10.0709   -72.2112     5.8956     5.6377     7.7006
  863.0000     0.0079   107.0964     2.4230    10.0719   -72.2112     5.8994     5.6807     7.8136
  863.5000     0.0087   107.1110     2.4171    10.0730   -72.2112     5.9447     5.7241     7.9271
