~VERSION INFORMATION
 VERS.                2.0:   CWLS LOG ASCII STANDARD - VERSION 2.0
 WRAP.                 NO:   ONE LINE PER DEPTH STEP
~WELL INFORMATION
#MNEM.UNIT      DATA TYPE    INFORMATION
#----------   ------------   ------------------------------
 STRT.F          514.0000:   START DEPTH
 STOP.F         4154.0000:   STOP DEPTH
 STEP.F            0.5000:   STEP LENGTH
 NULL.          -999.2500:   NO VALUE
 COMP.    FENIX & SCISSON:   COMPANY
 WELL.  FENIX "MX" #86-10:   WELL
 FLD .        TEAPOT DOME:   FIELD
 LOC .      S10 T38N R78W:   LOCATION
 CNTY.            NATRONA:   COUNTY
 STAT.            WYOMING:   STATE
 CTRY. UNITED STATES OF AMERICA:   COUNTRY
 SRVC.       SCHLUMBERGER:   SERVICE COMPANY
 DATE.        30-SEP-1978:   LOGDATE
 API .     49025107290000:   API NUMBER
~CURVE INFORMATION
#MNEM.UNIT       API CODE    CURVE DESCRIPTION
#----------   ------------   ------------------------------
 DEPT.F                  :   
 SPR .MV     07 010 01 00:   SPONTANEOUS POTENTIAL
 TENR.LBS    07 635 01 00:   TENSION FROM RESISTIVITY
 SFL .OHMM   07 220 01 00:   SHALLOW FOCUSED LOG RESISTIVITY
 ILM .OHMM   07 120 44 00:   INDUCTION LOG MEDIUM RESISTIVITY
 ILD .OHMM   07 120 46 00:   INDUCTION LOG DEEP RESISTIVITY
 CALD.IN     45 280 60 00:   CALIPER FROM DENSITY LOG
 GRD .GAPI   45 310 01 00:   GAMMA RAY FROM DENSITY LOG
 TEND.LBS    45 635 01 00:   TENSION FROM DENSITY LOG
 CORR.G/C3   45 356 01 00:   DENSITY CORRECTION
 RHOB.G/C3   45 350 01 00:   BULK DENSITY
 NPHI.DEC    42 890 03 00:   NEUTRON POROSITY SANDSTONE
~PARAMETER INFORMATION
#MNEM.UNIT          VALUE    DESCRIPTION
#----------   ------------   ------------------------------
 EKB .F         5233.0000:   Kelly bushing
 EGL .F         5222.0000:   Ground level
 EDF .F            0.0000:   Drilling floor
 TD  .F         4150.0000:   Total depth
 DATE.        30-SEP-1978:   Date logged
 CLNT.            A2DTECH:   Client Code
 SL  . 1450' FSL & 600' FEL:   Surface Location
 PD  .                 GL:   Permanent Datum
 LMF .                 KB:   Log Measured From
 DMF .                 KB:   Drilling Measured From
 DAPD.F                11:   Feet Above Permanent Datum
 DD  .F              4150:   Depth driller
 DL  .F              4141:   Depth logger
 BLI .F              4135:   Bottom log interval
 TLI .F               520:   Top log interval
 CS1 .IN            9.625:   Casing size
 CBD1.      9.625" @ 529':   Casing driller 1
 CBL1.F               529:   Casing logger 1
 BS1 .IN             8.75:   Bit size
 BSD1.F              4150:   Depth drilled with bit1
 DFT .                FGM:   Type fluid in hole
 DFD .                9.5:   Density
 DFV .                 36:   Viscosity
 DFPH.                 11:   pH
 DFL .                 60:   Fluid loss
 MSS .           MUD TANK:   Source of sample
 RMS .OHMM            .57:   Rm
 MST .F                68:   Rm Meas. temp.
 RMF .OHMM           .449:   Rmf
 MFST.F                68:   Rmf Meas. temp.
 MFSS.               MEAS:   Source Rmf.
 RMB .OHMM            .27:   Rm. at BHT
 BHT .F               142:   BHT.
 TCS .HRS            1500:   Time Circ. stopped
 TLAB.HRS            0700:   Time logger at bottom
 MRT .F               142:   Maximum recorded temp.
 LUN .               8043:   Logging unit number
 LUL .               CSPR:   Logging unit location
 ENGI.             LARSON:   Recorded By
 WITN.           DINSMORE:   Witnessed by
 ORIG.           5" PRINT:   Origin of data
 UWI .     49025107290000:   Unique Well ID
 DICO. A2D TECHNOLOGIES, INC.:   Digitizing Company
 EPD .               5222:   Elevation Permanent Datum
~OTHER INFORMATION
~A   DEPT      SPR       TENR        SFL        ILM        ILD       CALD         GRD      TEND       CORR       RHOB         NPHI 
# ...
 3625.0000   -38.2870  1172.4470     3.1160     3.3010     2.7970    10.6380   185.7550  1408.3199     0.0280     2.3090     0.3780
 3625.5000   -38.4270  1172.7180     2.7460     3.5530     2.8580    10.7210   171.3630  1408.5060     0.0040     2.3460     0.3410
 3626.0000   -38.3200  1172.9620     4.0660     3.9600     3.1100    10.0460   164.4630  1408.6920     0.0020     2.3800     0.2970
 3626.5000   -38.2330  1181.1700     5.6020     4.3680     3.5830     9.4820   162.7780  1408.8781     0.0020     2.4170     0.2800
 3627.0000   -38.1540  1188.6400     7.1370     4.7750     4.1410     9.5230   163.8030  1409.0640     0.0030     2.4190     0.2850
 3627.5000   -38.0540  1196.1090     8.5850     5.1820     4.7000     9.5400   165.9080  1409.2500     0.0040     2.4190     0.2990
 3628.0000   -38.0500  1203.5790     8.4030     5.5890     5.2580     9.5160   169.8510  1409.4360     0.0080     2.4260     0.2940
 3628.5000   -38.0470  1211.0480     8.1250     5.9970     5.7290     9.5280   173.9620  1409.6219     0.0220     2.4580     0.2860
 3629.0000   -38.0480  1212.3510     8.2040     6.3980     5.5430     9.5770   174.4540  1409.8080     0.0420     2.4460     0.2770
 3629.5000   -38.0480  1211.8710     8.4290     5.9490     5.2710     9.6230   172.7850  1409.9940     0.0760     2.4150     0.2760
 3630.0000   -38.0480  1211.3910     8.4290     5.3230     4.6780    10.1440   172.4410  1410.1801     0.1080     2.1570     0.2830
 3630.5000   -38.0490  1210.9110     7.3040     4.4090     4.0850    10.9680   171.9750  1410.3660     0.0880     2.0030     0.3860
 3631.0000   -38.0480  1210.4310     5.7710     2.9560     3.6120    12.0120   171.4470  1410.5520     0.0690     2.0000     0.3820
 3631.5000   -38.0480  1209.9510     4.2370     3.2170     3.5810    11.7580   170.0100  1410.7380     0.0420     2.0320     0.4310
 3632.0000   -38.0520  1209.4700     2.5990     3.5310     3.5490    10.8940   168.3470  1410.9230     0.0950     2.2520     0.3840
 3632.5000   -38.0460  1208.9900     3.8360     3.8460     3.5180     9.8250   168.0800  1411.1090     0.2360     2.4020     0.3120
 3633.0000   -38.0350  1208.5100     5.1640     4.1600     3.4880     9.7270   170.6360  1411.2950     0.2410     2.3880     0.2920
 3633.5000   -37.8410  1208.0300     6.4920     4.2690     3.4880     9.6310   172.9410  1411.4810     0.2140     2.3660     0.2940
 3634.0000   -37.6750  1207.5500     7.2760     4.2690     3.7790     9.5760   174.2970  1411.6670     0.1870     2.3430     0.3080
 3634.5000   -37.4960  1207.0699     7.1020     4.7050     4.1060     9.5640   174.8900  1411.8530     0.1950     2.3790     0.3150
 3635.0000   -37.3240  1206.5900     6.6280     4.8560     4.4330     9.5520   178.0740  1412.0389     0.2070     2.4270     0.3220
 3635.5000   -37.1490  1206.1100     6.1540     4.8560     4.7600     9.5490   182.3160  1412.2250     0.1880     2.4160     0.3420
 3636.0000   -36.9680  1205.6290     5.8360     4.9420     4.8560     9.5440   186.5880  1412.4110     0.1650     2.4020     0.3530
 3636.5000   -36.9250  1205.1490     5.8900     5.0210     4.8560     9.5380   189.3260  1412.5970     0.0890     2.3640     0.3420
 3637.0000   -37.1930  1204.6689     5.9440     4.9950     4.7480     9.5290   192.1880  1412.7830     0.0640     2.3980     0.3310
 3637.5000   -37.4510  1204.1890     6.3760     4.9420     4.6580     9.5670   196.4230  1412.9690     0.1030     2.4460     0.3200
 3638.0000   -37.7010  1203.7090     6.7890     4.8560     4.5120     9.6740   200.9260  1413.1550     0.1480     2.5090     0.3200
 3638.5000   -37.9790  1203.2290     6.5810     4.8640     4.5310     9.7810   200.8940  1413.3409     0.1870     2.4890     0.3290
 3639.0000   -37.8140  1202.7490     6.1830     4.8860     4.5830     9.7760   199.2000  1413.5270     0.1590     2.4360     0.3430
 3639.5000   -37.4230  1202.2690     5.5230     4.9070     4.6350     9.7200   193.6560  1413.7130     0.0840     2.3670     0.3430
 3640.0000   -37.3730  1201.7880     5.7250     4.9390     4.6870     9.6680   185.5110  1413.8990     0.0600     2.3850     0.3200
 3640.5000   -37.7500  1201.3080     6.3170     4.9130     4.7670     9.6130   176.9350  1414.0850     0.0930     2.4820     0.2950
 3641.0000   -38.0310  1200.8280     6.9090     4.7500     4.7170     9.6050   178.2780  1414.2710     0.1220     2.4750     0.2840
 3641.5000   -37.9050  1200.3480     7.5490     4.5870     4.5950     9.6060   181.8450  1414.5389     0.1610     2.4910     0.2920
 3642.0000   -37.8100  1199.8680     6.6490     4.5120     4.2090     9.6130   186.1400  1414.8571     0.1340     2.4350     0.3460
 3642.5000   -37.6820  1199.3879     5.6710     4.0500     3.7900     9.5920   187.6530  1415.1750     0.0940     2.3730     0.3450
 3643.0000   -37.8820  1198.9080     4.8690     3.6530     3.3700     9.6280   174.5220  1415.4930     0.0880     2.3200     0.3130
 3643.5000   -38.2380  1198.4270     4.5730     3.2550     2.9510     9.6230   162.4410  1415.8110     0.0920     2.2350     0.3370
 3644.0000   -38.5990  1197.9470     4.2690     2.8570     2.5310     9.6790   156.8990  1416.1290     0.0650     2.1270     0.4170
 3644.5000   -38.9280  1197.4670     2.9420     2.2440     2.2330    11.3520   157.1170  1416.4480     0.0180     2.0530     0.5460
 3645.0000   -39.2100  1196.9871     1.9730     2.3790     2.3720    12.8230   159.2400  1416.7660     0.0270     2.1050     0.5010
 3645.5000   -38.8090  1196.5070     2.4080     2.6750     2.4750    11.9820   169.1510  1417.0840     0.0420     2.3170     0.3960
 3646.0000   -38.4440  1196.0270     3.7870     2.9710     2.5630    10.8230   176.6990  1417.4020     0.0580     2.4220     0.3110
 3646.5000   -38.0690  1195.5470     5.1650     3.2670     2.6470     9.8240   185.2150  1417.7200     0.0660     2.4710     0.3150
 3647.0000   -37.6720  1195.0670     6.2220     3.5630     3.1080     9.7760   191.2830  1418.0389     0.0620     2.4660     0.3340
 3647.5000   -37.6540  1194.5861     6.3980     3.8590     3.5540     9.7430   187.8080  1418.3571     0.0570     2.4490     0.3500
 3648.0000   -37.6600  1194.1060     5.8760     4.1550     3.9990     9.7510   180.3180  1418.6750     0.0380     2.4330     0.3500
 3648.5000   -37.7160  1193.6260     5.5720     4.4520     4.4450     9.7380   172.0600  1418.9930     0.0080     2.4260     0.3220
 3649.0000   -37.7620  1193.1460     5.7830     4.7480     4.7670     9.7280   170.9090  1419.3110     0.0080     2.4360     0.3120
 3649.5000   -37.8080  1192.6660     5.9950     4.9460     4.7670     9.7320   172.0100  1419.6290     0.0080     2.4480     0.3080
 3650.0000   -37.8570  1192.1860     6.1670     4.8700     4.6850     9.7370   175.3920  1419.9480     0.0080     2.4590     0.3050
 3650.5000   -37.9050  1191.7061     5.9920     4.7370     4.5410     9.7430   178.3870  1420.2660     0.0110     2.4710     0.3030
 3651.0000   -37.9520  1191.2260     5.8360     4.6030     4.3970     9.7480   181.7820  1420.5840     0.0180     2.4790     0.3000
 3651.5000   -38.0000  1190.7450     5.8360     4.4700     4.2520     9.7520   180.4420  1420.9020     0.0250     2.4760     0.2990
 3652.0000   -38.0470  1190.2650     5.8360     4.3370     4.1080     9.7570   174.4520  1421.2200     0.0310     2.4660     0.3120
 3652.5000   -38.0950  1189.7850     5.6080     4.2040     3.9640     9.7630   167.5340  1421.5389     0.0380     2.4420     0.3260
 3653.0000   -38.1430  1189.3051     5.2240     4.0710     3.8200     9.7630   161.2380  1421.8571     0.0450     2.4290     0.3420
 3653.5000   -38.1900  1188.8250     4.8400     3.9370     3.6760     9.8040   160.0500  1422.1750     0.0520     2.4240     0.3510
 3654.0000   -38.2370  1188.3450     4.5120     3.7540     3.5520     9.8220   158.7640  1422.4930     0.0540     2.4200     0.3470
 3654.5000   -38.2870  1187.8650     4.6330     3.7570     3.4240     9.8370   157.6450  1422.8110     0.0400     2.4170     0.3390
 3655.0000   -38.3320  1187.3850     4.7380     3.7660     3.4400     9.8480   153.2840  1423.1290     0.0280     2.4220     0.3300
