~VERSION INFORMATION
 VERS.                2.0:   CWLS LOG ASCII STANDARD - VERSION 2.0
 WRAP.                 NO:   ONE LINE PER DEPTH STEP
~WELL INFORMATION
#MNEM.UNIT      DATA TYPE    INFORMATION
#----------   ------------   ------------------------------
 STRT.F          200.0000:   START DEPTH
 STOP.F         3038.0000:   STOP DEPTH
 STEP.F            0.5000:   STEP LENGTH
 NULL.          -999.2500:   NO VALUE
 COMP.    FENIX & SCISSON:   COMPANY
 WELL. FENIX NPR 3 "A" #63-28:   WELL
 FLD .            WILDCAT:   FIELD
 LOC .      S28 T39N R78W:   LOCATION
 CNTY.            NATRONA:   COUNTY
 STAT.            WYOMING:   STATE
 CTRY. UNITED STATES OF AMERICA:   COUNTRY
 SRVC.              WELEX:   SERVICE COMPANY
 DATE.        29-MAY-1977:   LOGDATE
 API .     49025103740000:   API NUMBER
~CURVE INFORMATION
#MNEM.UNIT       API CODE    CURVE DESCRIPTION
#----------   ------------   ------------------------------
 DEPT.F                  :   
 SPR .MV     07 010 01 00:   SPONTANEOUS POTENTIAL
 ILM .OHMM   07 120 44 00:   INDUCTION LOG MEDIUM RESISTIVITY
 ILD .OHMM   07 120 46 00:   DEEP INDUCTION RESISTIVITY
 SGRD.OHMM   07 220 05 00:   SHALLOW SHORT GUARD RESISTIVITY
 GRD .GAPI   45 310 01 00:   GAMMA RAY FROM DENSITY LOG
 CALD.IN     45 280 60 00:   CALIPER FROM DENSITY LOG
 RHOB.G/C3   45 350 01 00:   BULK DENSITY
 CORR.G/C3   45 356 01 00:   DENSITY CORRECTION
~PARAMETER INFORMATION
#MNEM.UNIT          VALUE    DESCRIPTION
#----------   ------------   ------------------------------
 EKB .F         5040.0000:   Kelly bushing
 EGL .F         5029.0000:   Ground level
 EDF .F            0.0000:   Drilling floor
 EPD .F         5029.0000:   Permanent datum
 TD  .F         3040.0000:   Total depth
 DATE.        29-MAY-1977:   Date logged
 CLNT.            A2DTECH:   Client Code
 SL  . 1650' FNL & 1650' FEL:   Surface Location
 PD  .                 GL:   Permanent Datum
 LMF .                 KB:   Log Measured From
 DMF .                 KB:   Drilling Measured From
 DD  .F              3040:   Depth driller
 DL  .F              3038:   Depth logger
 BLI .F              3036:   Bottom log interval
 TLI .F               200:   Top log interval
 CS1 .IN            8.625:   Casing size
 BSD1.F              3040:   Depth drilled with bit1
 DFT .            KCL MUD:   Type fluid in hole
 ORIG.     2.5", 5" PRINT:   Origin of data
 UWI .     49025103740000:   Unique Well ID
 DICO. A2D TECHNOLOGIES, INC.:   Digitizing Company
 DAPD.                 11:   Feet Above Permanent Datum
 CBD1.      8.625" @ 220':   Casing driller 1
 BS1 .              7.875:   Bit size
 DFD .                8.7:   Density
 MRT .                108:   Maximum recorded temp.
 ENGI.            C. DOAK:   Recorded By
 WITN.      W. PETTINGILL:   Witnessed by
~OTHER INFORMATION
~A   DEPT      SPR        ILM          ILD     SGRD         GRD        CALD       RHOB      CORR  
# ...
  929.0000   -61.8650     7.9400     7.4850     9.8460    99.5660     9.9870     2.4760     0.0240
  929.5000   -61.8030     7.9600     7.4690     9.8840    99.3560    10.0030     2.4790     0.0220
  930.0000   -61.7330     8.0780     7.4450     9.9000    99.1460    10.0180     2.4680     0.0200
  930.5000   -61.6620     8.1960     7.5390     9.8030    98.8930    10.0340     2.4550     0.0190
  931.0000   -61.5920     8.3140     7.6990     9.7200    98.9060    10.0500     2.4500     0.0170
  931.5000   -61.5210     8.4370     7.8520     9.9000    97.8900    10.0650     2.4530     0.0150
  932.0000   -61.4510     8.5160     8.1290    10.3440    95.1260    10.0810     2.4680     0.0160
  932.5000   -61.3800     8.7440     8.4060    10.7870    92.7340    10.0970     2.4840     0.0180
  933.0000   -61.3100     9.0660     8.6830    11.3210    89.7890    10.1120     2.4920     0.0190
  933.5000   -61.2390     9.3880     8.9730    11.9120    89.4130    10.1270     2.4930     0.0210
  934.0000   -61.1690     9.7090     9.2700    12.3670    88.6120    10.1280     2.4880     0.0230
  934.5000   -61.0970    10.0310     9.5680    12.6890    89.1520    10.1280     2.4840     0.0220
  935.0000   -61.0790    10.3530     9.8650    12.8830    89.9650    10.1280     2.4790     0.0200
  935.5000   -61.0780    10.6130    10.0840    13.1640    90.7700    10.1280     2.4790     0.0190
  936.0000   -61.0780    10.7330    10.2440    13.0920    91.9740    10.1280     2.4800     0.0200
  936.5000   -61.0780    10.8520    10.4270    12.9240    92.6730    10.1280     2.4810     0.0210
  937.0000   -61.0790    10.9710    10.5580    13.0090    92.4060    10.1280     2.4820     0.0230
  937.5000   -61.1110    11.0650    10.4750    13.1640    89.9390    10.1280     2.4770     0.0240
  938.0000   -61.3280    11.0990    10.4100    12.6960    87.6760    10.1280     2.4730     0.0250
  938.5000   -61.4150    11.1330    10.3540    12.5730    86.3040    10.1280     2.4720     0.0260
  939.0000   -61.2470    11.1630    10.3170    12.7040    86.4620    10.1280     2.4820     0.0270
  939.5000   -61.0830    11.2150    10.2810    12.7920    86.4490    10.1280     2.4830     0.0280
  940.0000   -60.9190    11.2600    10.1180    12.4300    86.4290    10.1280     2.4870     0.0290
  940.5000   -60.7530    11.1460     9.9000    12.3440    86.2910    10.1280     2.4810     0.0310
  941.0000   -60.7150    11.0260     9.8100    12.3440    85.5770    10.1280     2.4740     0.0330
  941.5000   -60.7610    10.8530     9.7960    12.3440    85.6950    10.1280     2.4650     0.0340
  942.0000   -60.8070    10.9510     9.7810    12.2630    85.6490    10.1280     2.4650     0.0350
  942.5000   -60.8540    11.1230     9.7660    12.1190    85.6580    10.1280     2.4710     0.0360
  943.0000   -60.8450    11.2960     9.7520    12.3650    85.6630    10.1280     2.4780     0.0370
  943.5000   -60.7550    11.4690     9.7370    12.7150    85.6560    10.1280     2.4760     0.0380
  944.0000   -60.6660    11.5750     9.7200    12.9240    85.6600    10.1280     2.4690     0.0390
  944.5000   -60.5760    11.3090     9.7820    12.8760    85.6590    10.1320     2.4630     0.0400
  945.0000   -60.4870    11.1570     9.8580    12.8170    85.6590    10.1350     2.4550     0.0420
  945.5000   -60.3970    11.2600     9.9350    12.6850    85.6590    10.1390     2.4540     0.0440
  946.0000   -60.3070    11.5330    10.0120    12.5730    85.6590    10.1420     2.4520     0.0460
  946.5000   -60.2380    11.6810    10.0890    12.8060    85.6590    10.1460     2.4530     0.0470
  947.0000   -60.1720    11.4880    10.1660    12.6210    85.6600    10.1490     2.4520     0.0510
  947.5000   -60.1080    11.3330    10.2160    12.3440    85.6570    10.1530     2.4560     0.0600
  948.0000   -60.0420    11.1770    10.2610    12.5190    85.6610    10.1560     2.4620     0.0740
  948.5000   -59.9610    10.9310    10.3060    12.5730    85.6620    10.1600     2.4630     0.0860
  949.0000   -59.8780    10.6710    10.3660    12.5730    85.6440    10.1630     2.4450     0.1010
  949.5000   -59.7950    10.4110    10.3010    12.2470    85.6930    10.1680     2.4140     0.1160
  950.0000   -59.7100    10.1770    10.2060    11.5310    85.6010    10.1680     2.3860     0.1360
  950.5000   -59.7050     9.8040    10.0320    10.7540    86.2160    10.2500     2.3560     0.1470
  951.0000   -59.7060     9.4640     9.7420    11.1030    87.0540    10.3560     2.3240     0.1490
  951.5000   -59.7060     9.1250     9.4510    11.4690    88.2130    10.4610     2.2960     0.1410
  952.0000   -59.7060     8.6100     9.1600    11.3900    89.3900    10.5660     2.2370     0.1240
  952.5000   -59.7060     8.0400     8.8660    11.2750    89.5440    10.6700     2.1880     0.0990
  953.0000   -59.7060     8.2070     8.6250    10.7540    89.1270    10.7870     2.1720     0.0720
  953.5000   -59.8070     8.6920     8.6490    10.7860    88.5960    10.9110     2.1580     0.0600
  954.0000   -59.9240     9.2180     8.7020    10.8530    85.9080    11.0890     2.2670     0.0460
  954.5000   -60.0410     9.7200     8.7560    10.5370    82.7790    11.3020     2.3490     0.0350
  955.0000   -60.1580    13.7830     8.8440    10.3660    83.0680    11.4820     2.3990     0.0350
  955.5000   -60.2700    14.5650     8.9770    10.7220    85.9870    11.5850     2.4330     0.0350
  956.0000   -60.4360    12.9960     9.1090    11.4200    88.4870    10.9730     2.4420     0.0350
  956.5000   -60.6040    11.2730     9.2420    11.7740    91.0500    11.0810     2.4520     0.0350
  957.0000   -60.7750    10.1700     9.3750    11.9210    91.9580    10.9830     2.4590     0.0350
  957.5000   -60.9430     9.9920     9.5070    12.2420    91.8250    10.7870     2.4670     0.0350
  958.0000   -61.0930    10.2760     9.7200    12.8060    91.6830    10.5930     2.4740     0.0350
  958.5000   -61.1440    10.5580     9.7150    12.4290    89.4600    10.4060     2.4780     0.0350
  959.0000   -61.1980    10.5410     9.7040    12.0530    87.6510    10.3140     2.4780     0.0350
  959.5000   -61.2520    10.5210     9.6930    11.8980    85.7590    10.2310     2.4770     0.0340
  960.0000   -61.2740    10.5000     9.6820    12.0630    85.6560    10.1370     2.4760     0.0330
  960.5000   -61.2740    10.4790     9.6710    12.3450    85.9550    10.1280     2.4740     0.0330
  961.0000   -61.2750    10.4610     9.6600    12.6270    86.8420    10.1270     2.4730     0.0320
  961.5000   -61.2750    10.4450     9.6490    12.8060    87.6480    10.1290     2.4720     0.0310
  962.0000   -61.2750    10.4230     9.6380    12.5400    88.4820    10.1280     2.4700     0.0300
  962.5000   -61.2750    10.4020     9.6050    12.2310    89.3170    10.1280     2.4690     0.0280
  963.0000   -61.2750    10.3800     9.5300    12.6890    90.1370    10.1280     2.4640     0.0270
  963.5000   -61.2730    10.2760     9.4550    12.5340    90.9830    10.1280     2.4610     0.0250
  964.0000   -61.3160    10.3120     9.3810    12.3440    91.7980    10.1280     2.4640     0.0240
  964.5000   -61.3720    10.3490     9.3060    12.4440    92.5850    10.1280     2.4650     0.0220
  965.0000   -61.4280    10.3850     9.2320    12.2310    92.6310    10.1280     2.4610     0.0210
  965.5000   -61.4850    10.4220     9.1570    12.6890    92.6430    10.1280     2.4540     0.0190
  966.0000   -61.5410    10.4610     9.0830    12.4750    92.6180    10.1280     2.4490     0.0220
  966.5000   -61.5970    10.2040     9.0130    12.0580    92.6820    10.1300     2.4530     0.0220
  967.0000   -61.6530     9.9210     8.9560    11.6400    92.2440    10.1330     2.4560     0.0210
  967.5000   -61.7100     9.6310     8.8990    11.2600    91.7960    10.1360     2.4540     0.0200
  968.0000   -61.7660     9.5020     8.8410    11.2600    91.4580    10.1380     2.4450     0.0190
  968.5000   -61.8220     9.3830     8.7840    11.4710    91.0510    10.1410     2.4410     0.0180
  969.0000   -61.8590     9.3690     8.7270    11.7890    90.6300    10.1440     2.4420     0.0170
