~VERSION INFORMATION
 VERS.                2.0:   CWLS LOG ASCII STANDARD - VERSION 2.0
 WRAP.                 NO:   ONE LINE PER DEPTH STEP
~WELL INFORMATION
#MNEM.UNIT      DATA TYPE    INFORMATION
#----------   ------------   ------------------------------
 STRT.F          212.0000:   START DEPTH
 STOP.F         2806.0000:   STOP DEPTH
 STEP.F            0.5000:   STEP LENGTH
 NULL.          -999.2500:   NO VALUE
 COMP.    FENIX & SCISSON:   COMPANY
 WELL.    FENIX AX #12-21:   WELL
 FLD .        TEAPOT DOME:   FIELD
 LOC .      S21 T39N R78W:   LOCATION
 CNTY.            NATRONA:   COUNTY
 STAT.            WYOMING:   STATE
 CTRY. UNITED STATES OF AMERICA:   COUNTRY
 SRVC.           BIRDWELL:   SERVICE COMPANY
 DATE.        14-AUG-1973:   LOGDATE
 API .     49025106930000:   API NUMBER
~CURVE INFORMATION
#MNEM.UNIT       API CODE    CURVE DESCRIPTION
#----------   ------------   ------------------------------
 DEPT.F                  :   
 SN  .OHMM   05 040 16 00:   SHORT NORMAL 16"
 ILD .OHMM   05 120 46 00:   INDUCTION LOG DEEP RESISTIVITY
 RHOB.G/C3   45 350 01 00:   BULK DENSITY
 CORR.G/C3   45 356 01 00:   DENSITY CORRECTION
 GRD .GAPI   45 310 01 00:   GAMMA RAY FROM DENSITY LOG
 CALD.IN     45 280 60 00:   CALIPER FROM DENSITY LOG
 SPR .MV     05 010 01 00:   SPONTANEOUS POTENTIAL
~PARAMETER INFORMATION
#MNEM.UNIT          VALUE    DESCRIPTION
#----------   ------------   ------------------------------
 EKB .F         4998.0000:   Kelly bushing
 EGL .F         4988.0000:   Ground level
 EDF .F            0.0000:   Drilling floor
 EPD .F         4988.0000:   Permanent datum
 TD  .F         2809.0000:   Total depth
 DATE.        14-AUG-1973:   Date logged
 CLNT.            A2DTECH:   Client Code
 SL  . 1300' FNL & 300' FWL:   Surface Location
 PD  .                 GL:   Permanent Datum
 DD  .F              2800:   Depth driller
 DL  .F              2809:   Depth logger
 BLI .F              2803:   Bottom log interval
 TLI .F               235:   Top log interval
 CS1 .IN            8.625:   Casing size
 BS1 .IN            7.875:   Bit size
 BSD1.F              2800:   Depth drilled with bit1
 DFT .                GEL:   Type fluid in hole
 DFD .                9.7:   Density
 DFV .                 34:   Viscosity
 DFPH.                 12:   pH
 MSS .           FLOWLINE:   Source of sample
 RMS .OHMM            .15:   Rm
 MST .F                57:   Rm Meas. temp.
 RMF .OHMM            .95:   Rmf
 MFST.F                69:   Rmf Meas. temp.
 RMC .OHMM            1.5:   Rmc
 MCST.F                78:   Rmc Meas. temp.
 MFSS.               MEAS:   Source Rmf.
 RMB .OHMM            .87:   Rm. at BHT
 BHT .F               115:   BHT.
 TCS .HRS               3:   Time Circ. stopped
 MRT .F               115:   Maximum recorded temp.
 LUN .               3006:   Logging unit number
 LUL .               CASP:   Logging unit location
 ENGI.             MILLER:   Recorded By
 WITN.           MCGINLEY:   Witnessed by
 UWI .     49025106930000:   Unique Well ID
 DICO. A2D TECHNOLOGIES, INC.:   Digitizing Company
 ORIG.           5" PRINT:   Origin of data
~OTHER INFORMATION
~A   DEPT       SN        ILD       RHOB       CORR         GRD      CALD        SPR   
# ...
 1395.0000     8.3900     6.4270     2.6020     0.1370    82.6340     8.9550   -10.7870
 1395.5000     8.3900     6.4270     2.6010     0.1360    81.8590     8.9080   -10.8320
 1396.0000     8.3900     6.4270     2.6000     0.1360    82.2580     8.8360   -10.8770
 1396.5000     8.3900     6.4270     2.6010     0.1390    85.3210     8.8970   -10.9220
 1397.0000     8.3900     6.4270     2.6040     0.1430    86.0850     8.9540   -10.9670
 1397.5000     8.3900     6.4270     2.6020     0.1410    86.3450     9.0100   -11.0110
 1398.0000     8.3900     6.4270     2.5980     0.1410    86.6050     9.0150   -11.0560
 1398.5000     8.3900     6.4270     2.5970     0.1440    86.3600     8.9510   -11.1010
 1399.0000     8.4770     6.4270     2.5970     0.1520    85.8950     8.8850   -11.1450
 1399.5000     8.5760     6.4270     2.6080     0.1640    85.4190     8.8940   -11.1900
 1400.0000     8.6760     6.4270     2.6250     0.1690    84.9440     8.9330   -11.2350
 1400.5000     8.7850     6.4270     2.6090     0.1530    83.8480     8.9750   -11.2800
 1401.0000     8.6770     6.4270     2.5980     0.1310    82.1700     8.9400   -11.3250
 1401.5000     8.5250     6.4270     2.5930     0.1210    80.4780     8.8800   -11.3430
 1402.0000     8.3720     6.4270     2.5910     0.1150    79.4710     8.8180   -11.1780
 1402.5000     8.2190     6.4300     2.5840     0.1140    89.9320     8.8100   -11.0110
 1403.0000     8.0880     6.4330     2.5700     0.1120    90.5200     8.8490   -10.8450
 1403.5000     8.1200     6.4370     2.5640     0.1210    90.8470     8.8880   -10.6800
 1404.0000     8.1550     6.4410     2.5640     0.1290    90.8810     8.8880   -10.5830
 1404.5000     8.1900     6.4450     2.5650     0.1330    84.6240     8.8560   -10.6180
 1405.0000     8.2240     6.4480     2.5720     0.1350    84.6660     8.8230   -10.6520
 1405.5000     8.2590     6.4520     2.5730     0.1370    84.5860     8.8710   -10.6850
 1406.0000     8.2940     6.4560     2.5740     0.1380    84.5820     8.9840   -10.7180
 1406.5000     8.3290     6.4590     2.5750     0.1390    86.8900     8.9000   -10.7510
 1407.0000     8.3640     6.4630     2.5760     0.1420    86.7960     8.8500   -10.7840
 1407.5000     8.3980     6.4670     2.5780     0.1520    86.7410     8.8550   -10.8180
 1408.0000     8.4330     6.4700     2.5880     0.1580    86.6800     9.2250   -10.8510
 1408.5000     8.4680     6.4740     2.5980     0.1590    86.6930     9.0240   -10.8840
 1409.0000     8.4380     6.4780     2.6010     0.1560    84.1850     8.8550   -10.9170
 1409.5000     8.4080     6.4810     2.6040     0.1560    80.3020     8.9110   -10.9500
 1410.0000     8.3770     6.4860     2.6070     0.1560    79.7230     8.9140   -10.9560
 1410.5000     8.3470     6.4660     2.6060     0.1560    81.1790     8.8130   -10.9280
 1411.0000     8.3170     6.4330     2.6060     0.1560    83.5080     8.9090   -10.9000
 1411.5000     8.2870     6.4000     2.6120     0.1570    84.2410     8.9610   -10.8730
 1412.0000     8.2570     6.3670     2.6140     0.1480    84.9490     9.0000   -10.8450
 1412.5000     8.2270     6.3340     2.5870     0.1360    84.4360     9.0390   -10.8170
 1413.0000     8.1970     6.3010     2.5850     0.1290    83.3310     9.0040   -10.7900
 1413.5000     8.1660     6.2680     2.5810     0.1280    82.5520     8.9590   -10.7620
 1414.0000     8.0890     6.2350     2.5710     0.1300    83.6510     8.9250   -10.7340
 1414.5000     8.0040     6.2020     2.5650     0.1350    84.6810     8.9350   -10.7070
 1415.0000     7.9200     6.1680     2.5640     0.1480    83.8340     8.9440   -10.6790
 1415.5000     7.8350     6.1350     2.5620     0.1610    82.4060     8.9300   -10.6510
 1416.0000     7.7240     6.1020     2.5610     0.1710    81.6700     8.9100   -10.6240
 1416.5000     7.7330     6.0690     2.5590     0.1810    83.9270     8.9490   -10.5960
 1417.0000     7.7450     6.0270     2.5800     0.1880    86.5520     9.0090   -10.5720
 1417.5000     7.7560     6.0290     2.5850     0.1880    87.1460     9.0570   -10.5730
 1418.0000     7.7680     6.0320     2.5850     0.1900    87.5840     9.0160   -10.5730
 1418.5000     7.7800     6.0350     2.5840     0.1940    90.3030     8.9750   -10.5730
 1419.0000     7.7920     6.0380     2.5800     0.1960    90.9620     8.9650   -10.5730
 1419.5000     7.8340     6.0410     2.5790     0.1960    90.9880     9.0290   -10.5730
 1420.0000     7.8860     6.0450     2.6070     0.1790    91.1510     8.9780   -10.5730
 1420.5000     7.9390     6.0480     2.5780     0.1490    91.9720     8.8700   -10.5730
 1421.0000     7.9910     6.0510     2.5810     0.1180    92.0150     8.8370   -10.5730
 1421.5000     8.0440     6.0540     2.5840     0.1040    89.9470     8.8070   -10.5730
 1422.0000     8.0880     6.0570     2.5870     0.1040    86.7000     8.7760   -10.5730
 1422.5000     7.9960     6.0600     2.5830     0.1030    87.7090     8.7680   -10.5730
 1423.0000     7.9170     6.0630     2.5750     0.1040    87.9460     8.6980   -10.5730
 1423.5000     7.8680     6.0670     2.5710     0.1090    87.1370     8.6550   -10.5730
 1424.0000     7.8680     6.0700     2.5760     0.1120    86.6750     8.6650   -10.5730
 1424.5000     7.8680     6.0730     2.5780     0.1100    92.6560     8.6630   -10.5730
 1425.0000     7.8790     6.0760     2.5790     0.1040    94.1340     8.6390   -10.5730
 1425.5000     7.8980     6.0790     2.5750     0.0960    94.6040     8.6130   -10.5730
 1426.0000     7.9180     6.0820     2.5740     0.0870    94.0450     8.7530   -10.5730
 1426.5000     7.9370     6.0820     2.5750     0.0860    90.5030     8.6680   -10.5730
 1427.0000     7.9570     6.0820     2.5780     0.0860    90.6130     8.5190   -10.5730
 1427.5000     7.9760     6.0820     2.5810     0.0850    88.0100     8.5470   -10.5870
 1428.0000     7.9960     6.0820     2.5840     0.0850    84.9510     8.5810   -10.6060
 1428.5000     8.0150     6.0820     2.5840     0.0850    83.3330     8.6140   -10.6250
 1429.0000     8.0340     6.0820     2.5780     0.0770    85.2700     8.6460   -10.6450
 1429.5000     8.0540     6.0820     2.5690     0.0690    86.2590     8.6620   -10.6640
 1430.0000     8.0730     6.0820     2.5650     0.0670    87.7070     8.6740   -10.6830
 1430.5000     8.0870     6.0820     2.5570     0.0640    88.6890     8.6850   -10.7020
 1431.0000     8.0810     6.0820     2.5570     0.0620    88.5840     8.6970   -10.7210
 1431.5000     8.0760     6.0820     2.5620     0.0600    88.7740     8.7090   -10.7400
 1432.0000     8.0710     6.0820     2.5530     0.0590    90.2260     8.6500   -10.7590
 1432.5000     8.0660     6.0820     2.5520     0.0590    95.7470     8.5810   -10.7620
 1433.0000     8.0610     6.0820     2.5550     0.0620    96.0630     8.5730   -10.7410
 1433.5000     8.0560     6.0820     2.5600     0.0680    96.5610     8.5730   -10.7210
 1434.0000     8.0500     6.0810     2.5660     0.0740    96.7650     8.5720   -10.7000
 1434.5000     8.0450     6.0880     2.5660     0.0750    90.2860     8.5680   -10.6790
 1435.0000     8.0400     6.0230     2.5630     0.0760    90.2880     8.5650   -10.6580
 1435.5000     8.0350     6.0350     2.5590     0.0760    90.4670     8.5610   -10.6380
 1436.0000     8.0300     6.0420     2.5600     0.0770    91.2800     8.5570   -10.6170
 1436.5000     8.0250     6.0480     2.5610     0.0770    94.8460     8.5590   -10.5960
 1437.0000     8.0200     6.0550     2.5650     0.0780    94.4370     8.5970   -10.5760
 1437.5000     8.0150     6.0610     2.5670     0.0780    93.6500     8.6350   -10.6070
 1438.0000     8.0140     6.0680     2.5690     0.0790    92.1290     8.6550   -10.6450
 1438.5000     8.0140     6.0740     2.5760     0.0830    88.5520     8.6610   -10.6830
 1439.0000     8.0190     6.0810     2.5830     0.0880    89.0420     8.6680   -10.7200
 1439.5000     8.0240     6.0880     2.5860     0.0920    89.9010     8.6920   -10.7580
 1440.0000     8.0290     6.0940     2.5860     0.0930    92.7590     8.7470   -10.7960
