~VERSION INFORMATION
 VERS.                2.0:   CWLS LOG ASCII STANDARD - VERSION 2.0
 WRAP.                 NO:   ONE LINE PER DEPTH STEP
~WELL INFORMATION
#MNEM.UNIT      DATA TYPE    INFORMATION
#----------   ------------   ------------------------------
 STRT.F          197.0000:   START DEPTH
 STOP.F         3074.5000:   STOP DEPTH
 STEP.F            0.5000:   STEP LENGTH
 NULL.          -999.2500:   NO VALUE
 COMP.    FENIX & SCISSON:   COMPANY
 WELL.   FENIX "A" #36-21:   WELL
 FLD .             NPR #3:   FIELD
 LOC .      S21 T39N R78W:   LOCATION
 CNTY.            NATRONA:   COUNTY
 STAT.            WYOMING:   STATE
 CTRY. UNITED STATES OF AMERICA:   COUNTRY
 SRVC.              WELEX:   SERVICE COMPANY
 DATE.        06-JUL-1977:   LOGDATE
 API .     49025103920000:   API NUMBER
~CURVE INFORMATION
#MNEM.UNIT       API CODE    CURVE DESCRIPTION
#----------   ------------   ------------------------------
 DEPT.F                  :   
 CALD.IN     45 280 60 00:   CALIPER FROM DENSITY LOG
 GRD .GAPI   45 310 01 00:   GAMMA RAY FROM DENSITY LOG
 CORR.G/C3   45 356 01 00:   DENSITY CORRECTION
 RHOB.G/C3   45 350 01 00:   BULK DENSITY
 SPR .MV     11 010 01 00:   SPONTANEOUS POTENTIAL FROM RES.
 FORX.OHMM   11 000 00 00:   FORMATION FACTOR
 GURD.OHMM   11 220 05 00:   GUARD LOG RESISTIVITY
 NPHI.DEC    42 890 03 00:   NEUTRON POROSITY SANDSTONE
~PARAMETER INFORMATION
#MNEM.UNIT          VALUE    DESCRIPTION
#----------   ------------   ------------------------------
 EKB .F         4960.0000:   Kelly bushing
 EGL .F         4950.0000:   Ground level
 EDF .F            0.0000:   Drilling floor
 EPD .F         4950.0000:   Permanent datum
 TD  .F         3078.0000:   Total depth
 CLNT.            A2DTECH:   Client Code
 SL  . 1650' FSL & 1650' FWL:   Surface Location
 PD  .                 GL:   Permanent Datum
 DAPD.F                10:   Feet Above Permanent Datum
 DATE.        06-JUL-1977:   Date Logged [DD-MMM-YYYY]
 DD  .F              3066:   Depth driller
 DL  .F              3078:   Depth logger
 BLI .F              3076:   Bottom log interval
 TLI .F               200:   Top log interval
 CS1 .IN            8.625:   Casing size
 BS1 .IN            7.875:   Bit size
 BSD1.F              3066:   Depth drilled with bit1
 DFT .            KCL MUD:   Type fluid in hole
 DFD .                9.2:   Density
 DFV .                 35:   Viscosity
 DFPH.                7.5:   pH
 DFL .                 18:   Fluid loss
 MSS .           FLOWLINE:   Source of sample
 RMS .OHMM            0.9:   Rm
 MST .F                80:   Rm Meas. temp.
 RMF .OHMM           0.81:   Rmf
 MFST.F                80:   Rmf Meas. temp.
 MFSS.               FANN:   Source Rmf.
 RMC .OHMM           1.06:   Rmc
 MCST.F                80:   Rmc Meas. temp.
 MCSS.                KIT:   Source Rmc.
 RMB .OHMM           0.60:   Rm. at BHT
 BHT .F               119:   BHT.
 TCS .HRS               3:   Time Circ. stopped
 MRT .F               119:   Maximum recorded temp.
 LUN .               8611:   Logging unit number
 LUL .             CASPER:   Logging unit location
 ENGI.             C DOAK:   Recorded By
 WITN.         HARRINGTON:   Witnessed by
 ORIG.           5" PRINT:   Origin of data
 UWI .     49025103920000:   Unique Well ID
 DICO. A2D TECHNOLOGIES,INC.:   Digitizing Company
~OTHER INFORMATION
~A   DEPT     CALD         GRD      CORR       RHOB        SPR       FORX       GURD       NPHI   
# ...
 1128.5000     8.0540    86.8012     0.0693     2.4667   -70.3608     7.7852     6.0395     0.3144
 1129.0000     8.0557    87.7207     0.0695     2.4579   -70.3485     8.0596     6.3829     0.3150
 1129.5000     8.0574    88.3385     0.0662     2.4445   -70.3383     8.4011     6.0822     0.3144
 1130.0000     8.0888    89.5454     0.0609     2.4275   -70.3282     8.0063     5.8762     0.3087
 1130.5000     8.0905    91.0468     0.0566     2.4112   -70.3180     7.3716     6.3842     0.3009
 1131.0000     8.0926    92.5482     0.0553     2.3957   -70.3078     7.1719     6.2472     0.3003
 1131.5000     8.0944    94.9494     0.0570     2.3867   -70.2976     7.3736     6.0420     0.2985
 1132.0000     8.0961    94.2795     0.0617     2.4025   -70.2874     7.3746     6.0008     0.2988
 1132.5000     8.0978    91.4633     0.0649     2.4186   -70.2769     7.2746     5.9599     0.3008
 1133.0000     8.0996    89.7247     0.0651     2.4382   -70.2646     7.2756     5.8382     0.2993
 1133.5000     8.1013    88.5752     0.0652     2.4436   -70.2544     7.1769     5.7585     0.2957
 1134.0000     8.1030    88.0076     0.0624     2.4303   -70.2442     7.2278     5.7589     0.2936
 1134.5000     8.0604    90.3998     0.0626     2.4200   -70.2340     7.4309     5.7197     0.2975
 1135.0000     8.0178    92.4904     0.0598     2.4104   -70.2239     6.8891     5.6416     0.3013
 1135.5000     7.9888    91.0463     0.0570     2.4001   -70.3638     6.7955     5.6364     0.3044
 1136.0000     7.9621    89.3037     0.0528     2.3897   -70.5030     7.1326     5.4135     0.3074
 1136.5000     7.9642    88.7473     0.0515     2.3809   -70.6425     6.9876     5.3395     0.3201
 1137.0000     7.9657    89.6668     0.0517     2.3758   -70.6297     6.7053     5.3032     0.3280
 1137.5000     7.9677    90.5792     0.0503     2.3721   -70.6196     6.5238     5.2670     0.3353
 1138.0000     7.9694    89.7242     0.0490     2.3692   -70.6094     6.7586     5.2311     0.3351
 1138.5000     7.9712    89.1638     0.0493     2.3685   -70.5992     6.8485     5.2678     0.3271
 1139.0000     7.9877    89.4870     0.0495     2.3701   -70.4393     6.8021     5.2682     0.3244
 1139.5000     7.9894    90.1048     0.0512     2.3724   -70.4292     6.7098     5.2323     0.3225
 1140.0000     7.9912    91.0172     0.0543     2.3762   -70.5689     6.6649     5.3422     0.3229
 1140.5000     7.9929    91.6427     0.0561     2.3882   -70.5584     6.6658     5.4922     0.3258
 1141.0000     7.9947    87.7650     0.0592     2.4016   -70.5479     6.7128     5.3430     0.3307
 1141.5000     8.0111    84.3357     0.0624     2.4136   -70.5356     6.7601     5.1978     0.3353
 1142.0000     7.9981    82.3026     0.0626     2.4196   -70.5255     6.8078     5.1981     0.3392
 1142.5000     8.0003    81.4404     0.0628     2.4242   -70.5165     6.9542     5.3440     0.3369
 1143.0000     8.0020    82.0654     0.0600     2.4250   -70.5051     7.1958     5.7263     0.3261
 1143.5000     8.0037    83.8614     0.0571     2.3997   -70.4949     7.2467     5.5708     0.3165
 1144.0000     8.0055    85.6574     0.0514     2.3716   -70.4848     7.6060     8.7409     0.3007
 1144.5000     8.0071    87.7479     0.0516     2.3657   -70.4746     8.7921     7.3313     0.2968
 1145.0000     8.0089    88.9548     0.0518     2.3695   -70.4644    11.6655     5.7281     0.2878
 1145.5000     8.0107    89.5847     0.0522     2.3793   -70.6039     7.2008     5.4205     0.2786
 1146.0000     8.0124    89.8969     0.0567     2.3972   -70.5912     7.0544     5.3098     0.2810
 1146.5000     8.0142    89.9317     0.0584     2.4084   -70.5810     7.0553     5.2013     0.2904
 1147.0000     8.0163    89.9604     0.0586     2.4144   -70.5709     7.0563     5.2740     0.2976
 1147.5000     8.0028    89.9891     0.0588     2.4212   -70.5607     7.0637     5.4221     0.3012
 1148.0000     8.0050    87.9559     0.0619     2.4287   -70.5505     7.2557     5.4978     0.3025
 1148.5000     8.0067    85.3337     0.0636     2.4303   -70.5404     7.4084     5.6134     0.3038
 1149.0000     8.0084    83.3005     0.0683     2.4296   -70.5299     7.4094     5.6917     0.3026
 1149.5000     7.9949    81.8564     0.0715     2.4512   -70.5175     7.4104     5.8921     0.3005
 1150.0000     7.9971    81.0015     0.0761     2.4996   -70.6570     7.5142     6.0573     0.3006
 1150.5000     7.9841    81.9772     0.0748     2.5190   -70.6468     7.5649     5.9323     0.3006
 1151.0000     8.0006    85.7788     0.0720     2.5221   -70.4895     7.7220     5.8907     0.3004
 1151.5000     7.9875    89.6367     0.0692     2.4917   -70.4830     7.9917     5.8899     0.2992
 1152.0000     7.9897    93.2000     0.0650     2.4516   -70.4764     9.0464     6.8080     0.2966
 1152.5000     7.9914    93.8106     0.0606     2.4004   -70.4699    11.3562     7.7615     0.2912
 1153.0000     7.9932    90.0173     0.0609     2.4125   -70.4633     9.6894     6.7593     0.2862
 1153.5000     7.9949    87.1005     0.0611     2.4284   -70.4562     7.8239     6.0516     0.2817
 1154.0000     7.9966    85.3619     0.0613     2.4387   -70.4489     7.4543     5.7256     0.2817
 1154.5000     7.9982    84.8012     0.0615     2.4410   -70.4415     7.6661     5.8480     0.2863
 1155.0000     8.0001    84.8306     0.0631     2.4374   -70.4341     7.7137     5.7570     0.2923
 1155.5000     8.0018    85.2057     0.0648     2.4330   -70.4266     7.6067     5.7231     0.3017
 1156.0000     8.0035    86.6620     0.0650     2.4279   -70.4192     7.6057     5.8019     0.3066
 1156.5000     8.0053    88.1635     0.0623     2.4228   -70.4102     7.7636     5.9637     0.3113
 1157.0000     8.0071    89.9594     0.0625     2.4170   -70.4028     7.8165     5.9627     0.3182
 1157.5000     8.0089    91.1663     0.0626     2.4133   -70.5470     7.7615     5.9209     0.3185
 1158.0000     8.0109    89.7223     0.0613     2.4097   -70.6894     7.6016     5.7987     0.3142
 1158.5000     8.0127    89.1547     0.0600     2.4046   -70.6802     7.4965     5.7184     0.3062
 1159.0000     8.0142    90.0742     0.0587     2.4010   -70.6728     7.4955     5.7177     0.3025
 1159.5000     8.0160    91.2813     0.0574     2.3981   -70.6654     7.4945     5.7169     0.3049
 1160.0000     8.0179    90.3486     0.0576     2.3975   -70.6581     7.4935     5.7956     0.3094
 1160.5000     8.0196    88.0984     0.0578     2.3998   -70.6507     7.4924     5.7948     0.3154
 1161.0000     8.0213    87.5380     0.0580     2.3999   -70.6433     7.4914     5.7541     0.3181
 1161.5000     8.0231    87.2793     0.0582     2.3992   -70.7859     7.5420     5.7933     0.3103
 1162.0000     8.0249    86.7189     0.0584     2.3986   -70.7783     7.5934     5.9545     0.3039
 1162.5000     8.0117    88.4389     0.0601     2.4017   -70.7710     7.6978     6.2055     0.3001
 1163.0000     7.9987    90.9042     0.0618     2.4055   -70.7635     7.8036     6.3784     0.3010
 1163.5000     8.0009    92.9408     0.0620     2.4071   -70.7560     7.9109     6.2468     0.2998
 1164.0000     7.9726    92.0943     0.0622     2.4072   -70.7470     7.8012     6.0340     0.3000
 1164.5000     7.9746    91.2478     0.0624     2.4088   -70.7397     7.5880     5.8688     0.2974
 1165.0000     7.9765    90.9812     0.0625     2.4103   -70.7323     7.5870     5.7082     0.2925
 1165.5000     7.9782    90.7238     0.0627     2.4112   -70.7410     7.5338     5.6682     0.2928
 1166.0000     7.9799    91.0648     0.0644     2.4105   -70.8691     7.5849     5.7067     0.2952
 1166.5000     7.9669    91.1020     0.0661     2.4106   -70.8608     7.5318     5.7059     0.2985
 1167.0000     7.9696    91.4345     0.0663     2.4185   -70.8526     7.4191     5.7051     0.3027
 1167.5000     7.9852    92.0693     0.0665     2.4428   -70.8452     7.3756     5.6649     0.3087
 1168.0000     7.9873    92.9901     0.0652     2.4488   -70.8378     7.4770     5.7035     0.3162
 1168.5000     7.9890    92.7327     0.0639     2.4393   -70.8305     7.5796     5.7442     0.3216
