~VERSION INFORMATION
 VERS.                2.0:   CWLS LOG ASCII STANDARD - VERSION 2.0
 WRAP.                 NO:   ONE LINE PER DEPTH STEP
~WELL INFORMATION
#MNEM.UNIT      DATA TYPE    INFORMATION
#----------   ------------   ------------------------------
 STRT.F            0.0000:   START DEPTH
 STOP.F          619.0000:   STOP DEPTH
 STEP.F            0.5000:   STEP LENGTH
 NULL.          -999.2500:   NO VALUE
 COMP.       FLUOR DANIEL:   COMPANY
 WELL.      FLUOR X #52-3:   WELL
 FLD .                NPR:   FIELD
 LOC .       S3 T38N R78W:   LOCATION
 CNTY.            NATRONA:   COUNTY
 STAT.            WYOMING:   STATE
 CTRY. UNITED STATES OF AMERICA:   COUNTRY
 SRVC.     ATLAS WIRELINE:   SERVICE COMPANY
 DATE.        18-AUG-1994:   LOGDATE
 API .     49025226460000:   API NUMBER
~CURVE INFORMATION
#MNEM.UNIT       API CODE    CURVE DESCRIPTION
#----------   ------------   ------------------------------
 DEPT.F                  :   
 GRR .GAPI   07 310 01 00:   GAMMA RAY FROM RESISTIVITY
 TENR.LBS    07 635 01 00:   TENSION
 RILD.OHMM   07 120 46 00:   INDUCTION LOG DEEP RESISTIVITY
 RILM.OHMM   07 120 44 00:   INDUCTION LOG MEDIUM RESISTIVITY
~PARAMETER INFORMATION
#MNEM.UNIT          VALUE    DESCRIPTION
#----------   ------------   ------------------------------
 EKB .F         5131.0000:   Kelly bushing
 EGL .F         5121.0000:   Ground level
 EDF .F         5130.0000:   Drilling floor
 EPD .F         5121.0000:   Permanent datum
 TD  .F          611.0000:   Total depth
 DATE.        18-AUG-1994:   Date logged
 CLNT.            A2DTECH:   Client Code
 SL  . 699' FNL & 2048' FEL:   Surface Location
 PD  .                 GL:   Permanent Datum
 LMF .                 KB:   Log Measured From
 DMF .                 KB:   Drilling Measured From
 DAPD.F                10:   Feet Above Permanent Datum
 DD  .F               580:   Depth driller
 DL  .F               611:   Depth logger
 BLI .F               609:   Bottom log interval
 CS1 .IN            9.625:   Casing size
 CBD1.       9.625" @ 54':   Casing driller 1
 CBL1.F                56:   Casing logger 1
 BS1 .IN             8.75:   Bit size
 BSD1.F               580:   Depth drilled with bit1
 DFT .                AIR:   Type fluid in hole
 LUN .            HL 6530:   Logging unit number
 LUL .             CASPER:   Logging unit location
 WITN.        GARY STRONG:   Witnessed by
 ORIG.           5" PRINT:   Origin of data
 UWI .     49025226460000:   Unique Well ID
 DICO. A2D TECHNOLOGIES, INC.:   Digitizing Company
~OTHER INFORMATION
~A    DEPT      GRR      TENR       RILD       RILM   
# ...
   73.0000   135.0520   -47.6850     9.4450     9.6690
   73.5000   135.2760   -48.4710     9.3460     9.5450
   74.0000   137.2080   -49.2580     9.2470     9.4220
   74.5000   139.2230   -50.0440     9.1490     9.2980
   75.0000   138.6550   -50.8310     9.1260     9.1260
   75.5000   138.1780   -51.6170     9.1260     9.1390
   76.0000   138.9700   -52.4040     9.1260     9.1590
   76.5000   140.8720   -53.1910     9.1260     9.1790
   77.0000   140.2130   -49.1580     9.1210     9.1980
   77.5000   139.9770   -43.0500     9.0730     9.2120
   78.0000   140.7990   -36.9430     9.0250     9.1340
   78.5000   140.2940   -35.0630     8.9770     9.0770
   79.0000   136.5300   -39.5770     8.9300     9.0190
   79.5000   133.2490   -44.0920     8.8760     8.9610
   80.0000   134.9740   -48.6060     8.8850     8.8760
   80.5000   136.0820   -53.4270     8.8950     8.8820
   81.0000   136.3390   -52.6340     8.9060     8.8950
   81.5000   138.2670   -51.7830     8.9160     8.9070
   82.0000   140.0170   -50.9320     8.9260     8.9200
   82.5000   135.3840   -50.0810     8.9370     8.9320
   83.0000   132.8920   -49.2300     8.9470     8.9450
   83.5000   135.1880   -48.3790     8.9590     8.9580
   84.0000   140.6250   -47.5280     8.9040     8.9120
   84.5000   143.6450   -46.6770     8.8440     8.8610
   85.0000   141.4490   -45.8260     8.7840     8.8100
   85.5000   140.6100   -44.9750     8.7240     8.7590
   86.0000   143.1920   -44.1230     8.6630     8.7080
   86.5000   146.4160   -43.2720     8.5990     8.6570
   87.0000   144.4400   -42.4210     8.4800     8.6060
   87.5000   141.8330   -41.5700     8.3610     8.5520
   88.0000   141.3870   -40.7190     8.2400     8.3760
   88.5000   143.6870   -39.8680     8.0660     8.1900
   89.0000   146.4830   -39.0170     7.8890     8.0050
   89.5000   147.6900   -38.1660     7.7110     7.7880
   90.0000   147.5890   -37.3150     7.5340     7.5540
   90.5000   147.4480   -36.4640     7.3560     7.3590
   91.0000   146.7630   -35.6130     7.1790     7.2010
   91.5000   145.2690   -34.7620     7.0750     7.0980
   92.0000   143.7220   -33.9110     7.0270     7.0740
   92.5000   143.9910   -33.5240     6.9720     7.0500
   93.0000   149.7500   -34.5840     7.0780     7.0370
   93.5000   154.3920   -35.6450     7.2010     7.3370
   94.0000   151.5530   -36.7060     7.3960     7.6160
   94.5000   145.5830   -37.7660     7.6190     7.8490
   95.0000   139.5890   -38.8270     7.8410     8.0020
   95.5000   133.6590   -39.8880     8.0240     8.1560
   96.0000   131.0650   -40.9490     8.0660     8.2530
   96.5000   130.5800   -42.0090     8.1170     8.2820
   97.0000   131.9580   -43.0700     8.1760     8.3100
   97.5000   132.5800   -44.1310     8.2340     8.3380
   98.0000   131.3690   -45.1910     8.3170     8.3670
   98.5000   129.6150   -46.2520     8.3080     8.3950
   99.0000   125.8020   -47.3130     8.2920     8.3800
   99.5000   121.6320   -48.3740     8.2760     8.3650
  100.0000   120.6280   -49.4340     8.2600     8.3500
  100.5000   127.5620   -50.4950     8.2410     8.3350
  101.0000   135.1730   -51.5560     8.2530     8.3170
  101.5000   141.9100   -52.6170     8.2690     8.3440
  102.0000   140.7640   -53.4270     8.2860     8.3890
  102.5000   138.7520   -53.4270     8.3030     8.4340
  103.0000   137.5270   -53.4270     8.3210     8.4790
  103.5000   135.8150   -44.1530     8.3470     8.5240
  104.0000   131.4700   -26.7470     8.3730     8.5520
  104.5000   127.1260   -27.2050     8.3990     8.5520
  105.0000   124.4450   -32.2580     8.4250     8.5520
  105.5000   124.9800   -37.3110     8.4520     8.5520
  106.0000   127.7920   -42.3650     8.4780     8.5520
  106.5000   130.4480   -47.4180     8.5040     8.5520
  107.0000   131.4410   -52.4710     8.5310     8.5520
  107.5000   133.1990   -52.9700     8.5570     8.5520
  108.0000   135.3960   -52.4050     8.5830     8.5520
  108.5000   138.4250   -51.8410     8.6090     8.5510
  109.0000   137.0930   -51.2760     8.6410     8.5850
  109.5000   136.0590   -50.7120     8.7010     8.6830
  110.0000   137.2410   -50.1470     8.7610     8.7800
  110.5000   138.2760   -49.5830     8.8210     8.8780
  111.0000   135.8660   -49.0180     8.8760     8.9750
  111.5000   132.2560   -48.4540     8.8280     9.0420
  112.0000   130.5850   -47.8890     8.7600     8.9210
  112.5000   135.3410   -47.3250     8.6910     8.8280
  113.0000   140.5720   -46.7600     8.6230     8.7360
  113.5000   142.0440   -46.1960     8.5550     8.6440
  114.0000   136.6370   -45.6310     8.4870     8.5510
  114.5000   133.2260   -45.0660     8.4180     8.4590
  115.0000   134.4150   -44.5020     8.3500     8.3670
  115.5000   136.2360   -43.9370     8.2820     8.2400
  116.0000   138.0840   -43.3730     8.2140     8.2660
  116.5000   139.9290   -42.8080     8.1600     8.3060
  117.0000   141.7940   -42.2440     8.1430     8.3460
  117.5000   142.6990   -41.6790     8.1260     8.3950
  118.0000   143.3910   -41.1150     8.1090     8.3740
  118.5000   143.3180   -40.5500     8.0890     8.3480
  119.0000   142.1300   -39.9860     8.1060     8.3210
  119.5000   139.3760   -39.4210     8.1270     8.2940
  120.0000   138.0410   -38.8570     8.1470     8.2680
  120.5000   140.0540   -38.2920     8.1630     8.2400
  121.0000   143.0370   -37.7280     8.0440     8.1790
  121.5000   144.0410   -37.1630     7.9410     8.1010
  122.0000   143.0200   -36.5990     7.8670     8.0140
  122.5000   144.1930   -36.0340     8.0140     8.1280
  123.0000   144.7400   -35.4700     8.1290     8.2560
  123.5000   144.2130   -34.9050     8.2450     8.3840
  124.0000   143.6850   -34.3410     8.3600     8.5120
  124.5000   142.5230   -33.7760     8.4750     8.6400
  125.0000   140.0830   -33.2660     8.5910     8.7680
  125.5000   137.6980   -35.3110     8.7060     8.8960
  126.0000   136.0860   -37.1760     8.8220     9.0240
  126.5000   136.7680   -39.0410     8.9370     9.1520
  127.0000   136.8320   -40.9060     9.0210     9.2800
  127.5000   133.3140   -42.7710     9.0970     9.4080
  128.0000   129.5100   -43.3470     9.1730     9.4670
  128.5000   126.1270   -43.3470     9.2500     9.4010
  129.0000   128.7060   -43.3470     9.2980     9.3530
  129.5000   133.4950   -43.3470     9.1470     9.3060
  130.0000   134.7410   -43.3470     9.0380     9.1870
  130.5000   133.6780   -43.3470     8.9290     9.0530
  131.0000   134.2280   -43.3470     8.7980     8.9190
  131.5000   138.4520   -43.3470     8.6470     8.7860
  132.0000   140.8120   -43.3470     8.4950     8.6520
  132.5000   142.8750   -43.3470     8.3440     8.5190
  133.0000   142.9620   -43.3470     8.1920     8.3950
  133.5000   143.0980   -43.3470     8.0410     8.1420
  134.0000   143.4490   -43.3470     7.8890     7.9310
  134.5000   143.6400   -43.3470     7.7880     7.8680
  135.0000   142.5870   -45.7950     7.7710     7.8050
  135.5000   141.3500   -48.2810     7.7540     7.7220
  136.0000   139.2480   -50.7680     7.7370     7.7810
  136.5000   137.9330   -53.4270     7.7220     7.8690
  137.0000   137.5410   -42.6300     7.7730     7.9570
  137.5000   136.0930   -33.8420     7.8190     8.0450
  138.0000   132.3590   -36.8260     7.8650     8.1330
  138.5000   130.2430   -39.8100     7.9110     8.2210
  139.0000   129.9070   -42.7940     7.9570     8.3170
  139.5000   130.2950   -45.7780     8.0030     8.3860
  140.0000   132.5650   -48.7620     8.1030     8.4620
  140.5000   135.4980   -51.7450     8.2610     8.5370
  141.0000   137.2060   -52.3160     8.4200     8.6130
  141.5000   136.8750   -49.7690     8.5060     8.6880
  142.0000   138.7850   -47.2220     8.5560     8.7640
  142.5000   139.0960   -44.6740     8.6050     8.8390
  143.0000   138.7160   -42.1270     8.6550     8.9150
  143.5000   138.1420   -39.5800     8.7040     8.9590
  144.0000   137.6690   -37.0330     8.7380     8.9590
  144.5000   139.2360   -34.4860     8.7680     8.9590
  145.0000   141.6100   -35.8580     8.7940     8.9590
  145.5000   141.5630   -40.8310     8.7640     8.9210
