~VERSION INFORMATION
 VERS.                2.0:   CWLS LOG ASCII STANDARD - VERSION 2.0
 WRAP.                 NO:   ONE LINE PER DEPTH STEP
~WELL INFORMATION
#MNEM.UNIT      DATA TYPE    INFORMATION
#----------   ------------   ------------------------------
 STRT.F          450.0000:   START DEPTH
 STOP.F         3098.0000:   STOP DEPTH
 STEP.F            0.5000:   STEP LENGTH
 NULL.          -999.2500:   NO VALUE
 COMP. FENIX & SCISSON - U.S NAVY:   COMPANY
 WELL. FENIX NPR 3 "AX" #11-33:   WELL
 FLD .              N P R:   FIELD
 LOC .      S33 T39N R78W:   LOCATION
 CNTY.            NATRONA:   COUNTY
 STAT.            WYOMING:   STATE
 CTRY. UNITED STATES OF AMERICA:   COUNTRY
 SRVC.              WELEX:   SERVICE COMPANY
 DATE.        12-MAR-1977:   LOGDATE
 API .     49025103210000:   API NUMBER
~CURVE INFORMATION
#MNEM.UNIT       API CODE    CURVE DESCRIPTION
#----------   ------------   ------------------------------
 DEPT.F                  :   
 CALD.IN     45 280 60 00:   CALIPER FROM DENSITY LOG
 GRD .GAPI   45 310 01 00:   GAMMA RAY FROM DENSITY LOG
 RHOB.G/C3   45 350 01 00:   BULK DENSITY
 CORR.G/C3   45 356 01 00:   DENSITY CORRECTION
 SPR .MV     07 010 01 00:   SPONTANEOUS POTENTIAL
 SGRD.MV     07 010 01 00:   SHALLOW GUARD RESISTIVITY
 ILD .OHMM   07 120 46 00:   DEEP INDUCTION RESISTIVITY
 ILM .OHMM   07 120 44 00:   INDUCTION LOG MEDIUM RESISTIVITY
~PARAMETER INFORMATION
#MNEM.UNIT          VALUE    DESCRIPTION
#----------   ------------   ------------------------------
 EKB .F         5133.0000:   Kelly bushing
 EGL .F         5122.0000:   Ground level
 TD  .F         3130.0000:   Total depth
 DATE.        12-MAR-1977:   Date logged
 CLNT.            A2DTECH:   Client Code
 SL  . 331' FNL & 430' FWL:   Surface Location
 PD  .                 GL:   Permanent Datum
 DD  .F              3130:   Depth driller
 DL  .F              3102:   Depth logger
 BLI .F              3100:   Bottom log interval
 CS1 .IN            8.625:   Casing size
 CBD1.      8.625" @ 459':   Casing driller 1
 CBL1.F               455:   Casing logger 1
 BS1 .IN            7.875:   Bit size
 DFT .                KCL:   Type fluid in hole
 DFD .                9.3:   Density
 DFV .                 36:   Viscosity
 DFL .               16.2:   Fluid loss
 MSS .           FLOWLINE:   Source of sample
 RMS .OHMM           0.37:   Rm
 MST .F                50:   Rm Meas. temp.
 RMF .OHMM           0.32:   Rmf
 MFST.F                55:   Rmf Meas. temp.
 RMC .OHMM           0.58:   Rmc
 MCST.F                55:   Rmc Meas. temp.
 MFSS.               MEAS:   Source Rmf.
 RMB .OHMM           .168:   Rm. at BHT
 BHT .F               110:   BHT.
 TCS .HRS               4:   Time Circ. stopped
 MRT .F               110:   Maximum recorded temp.
 LUN .               0716:   Logging unit number
 LUL .             VERNAT:   Logging unit location
 ENGI.        E. CALLAHAN:   Recorded By
 WITN.            K. JAPP:   Witnessed by
 ORIG.           5" PRINT:   Origin of data
 UWI .     49025103210000:   Unique Well ID
 DICO. A2D TECHNOLOGIES, INC.:   Digitizing Company
 DAPD.F                11:   Feet Above Permanent Datum
 BSD1.               3950:   Depth drilled with bit1
 MCSS.               CALC:   Source Rmc.
 EPD .F              5122:   Elevation Permanent Datum
 LMF .                 KB:   Log Measured From
 DMF .                 KB:   Drilling Measured From
 TLI .F               455:   Top log interval
~OTHER INFORMATION
~A   DEPT       CALD       GRD        RHOB      CORR       SPR       SGRD        ILD        ILM   
# ...
 2353.5000     9.4978   135.0729     2.4938     0.0441   -45.2616    20.2266     4.3503     4.9942
 2354.0000     9.5175   134.6747     2.4868     0.0521   -44.8604    19.6693     4.3513     4.9954
 2354.5000     9.5371   135.2674     2.5047     0.0661   -44.8549     6.1721     4.3519     4.9507
 2355.0000     9.5568   136.6529     2.5067     0.0741   -45.0473     5.8434     4.3533     4.9519
 2355.5000     9.5567   136.8493     2.4668     0.0481   -45.0418     6.0648     4.3543     4.9986
 2356.0000     9.5566   137.2438     2.4648     0.0541   -44.8384     6.8374     4.3956     4.9997
 2356.5000     9.5564   137.8365     2.5037     0.0621   -44.8329     6.7133     4.3966     5.0011
 2357.0000     9.5563   139.4201     2.4887     0.0701   -44.6295     6.2963     4.4381     5.1423
 2357.5000     9.5760   136.2473     2.4737     0.0521   -44.8219     6.1829     4.5213     5.1910
 2358.0000     9.5560   135.6510     2.4518     0.0461   -44.6185     7.2984     4.5644     5.2400
 2358.5000     9.5955   134.4601     2.4468     0.0401   -44.4151     6.9083     4.5655     5.1939
 2359.0000     9.6152   134.0619     2.4468     0.0461   -44.4096     6.7214     4.5667     5.1941
 2359.5000     9.6151   133.8619     2.4817     0.0521   -44.4041     6.6003     4.5673     5.1958
 2360.0000     9.6348   134.0582     2.4649     0.0481   -44.5964     6.5414     4.5686     5.1494
 2360.5000     9.6941   135.0473     2.4481     0.0301   -44.3930     6.4830     4.4047     5.0564
 2361.0000     9.6939   137.6216     2.4339     0.0301   -44.5854     6.1929     4.2858     4.8750
 2361.5000     9.7334   139.2051     2.4241     0.0281   -44.5799     6.0256     4.0940     4.7432
 2362.0000     9.7729   140.3922     2.4159     0.0261   -44.3765     5.2018     3.9832     4.5730
 2362.5000     9.7728   140.5885     2.4259     0.0401   -44.3710     5.2030     3.8400     4.4495
 2363.0000     9.7925   141.3796     2.4348     0.0401   -44.5634     5.2042     3.6685     4.1729
 2363.5000     9.8518   144.9445     2.4071     0.0281   -44.7557     5.2054     3.5047     4.0230
 2364.0000     9.9111   148.1131     2.4059     0.0321   -44.9481     4.9725     3.4412     3.8785
 2364.5000     9.9110   150.6645     2.3852     0.0381   -44.9426     4.7500     3.2570     3.6710
 2365.0000     9.9108   151.0605     2.3620     0.0441   -44.7392     4.4551     3.1400     3.5719
 2365.5000     9.9305   153.6354     2.3740     0.0720   -44.5358     4.2164     3.0550     3.4121
 2366.0000     9.9106   148.6997     2.3340     0.0900   -44.7293     2.8131     3.0003     3.2895
 2366.5000     9.9302   146.7163     2.2842     0.0979   -44.5259     3.0287     2.9734     3.2903
 2367.0000     9.9499   144.7329     2.2802     0.1119   -44.5204     4.0295     2.9200     3.4144
 2367.5000     9.9696   144.3347     2.3410     0.0979   -44.5148     4.6696     2.8937     3.4786
 2368.0000    10.2466   144.7291     2.4069     0.0490   -44.5093     4.5857     2.7134     3.4794
 2368.5000     9.9693   145.5197     2.4697     0.0560   -44.5038     4.4210     2.7139     3.4802
 2369.0000     9.9295   144.5271     2.4697     0.0600   -44.6962     4.6731     2.8956     3.5132
 2369.5000     9.8700   144.3270     2.4657     0.0760   -44.4928     4.1091     2.9232     3.5140
 2370.0000     9.8699   141.7490     2.4807     0.0939   -44.6852     4.2251     2.9509     3.5148
 2370.5000     9.9291   141.5490     2.4987     0.1059   -44.8776     4.6335     3.0901     3.7152
 2371.0000     9.9290   141.5471     2.4752     0.0690   -44.8721     4.8527     3.1770     3.6149
 2371.5000     9.9487   141.7433     2.4557     0.0530   -44.8666     4.4271     3.1778     3.5826
 2372.0000     9.9485   142.7324     2.4787     0.0470   -44.8610     4.2683     3.1785     3.5506
 2372.5000     9.9682   139.5602     2.4607     0.0590   -44.6576     4.3072     3.1792     3.6508
 2373.0000     9.9483   139.5583     2.4398     0.0410   -44.6521     4.3082     3.1800     3.6517
 2373.5000     9.9679   139.5565     2.4597     0.0460   -44.8445     4.3092     3.1807     3.6191
 2374.0000     9.9480   141.3369     2.4398     0.0520   -44.8390     4.2707     3.1815     3.6534
 2374.5000     9.9478   140.3452     2.4507     0.0480   -44.6356     4.2717     3.1822     3.6537
 2375.0000     9.9675   140.1452     2.4397     0.0480   -44.6300     4.2740     3.1829     3.6888
 2375.5000     9.9476   140.3414     2.4328     0.0380   -44.8225     4.3141     3.1837     3.6897
 2376.0000     9.9474   140.7357     2.4497     0.0380   -45.0149     4.6886     3.1847     3.6231
 2376.5000     9.9473   142.5160     2.4537     0.0400   -45.0094     4.6444     3.0993     3.5907
 2377.0000     9.9471   141.5244     2.4537     0.0380   -45.0039     4.0480     3.1576     3.5916
 2377.5000     9.9272   140.7301     2.4238     0.0360   -44.8004     4.2396     3.2170     3.6256
 2378.0000     9.9469   142.3130     2.4218     0.0340   -44.5970     4.6493     3.2177     3.7279
 2378.5000     9.9467   141.5187     2.4417     0.0320   -44.3935     4.7808     3.2184     3.8330
 2379.0000     9.9466   140.9225     2.4427     0.0320   -44.3880     4.0892     3.2190     3.9412
 2379.5000     9.9267   142.5054     2.4188     0.0280   -44.3825     4.0899     3.2199     3.9787
 2380.0000     9.9265   142.3054     2.4188     0.0360   -43.9811     4.9178     3.2207     4.0164
 2380.5000     9.9264   144.6806     2.4357     0.0340   -43.5796     5.5440     3.2211     4.0174
 2381.0000     9.9460   146.4618     2.4407     0.0360   -43.5741     5.4441     3.1632     4.0183
 2381.5000     9.9459   149.8381     2.4747     0.0488   -43.5686     5.0126     3.0778     3.9459
 2382.0000     9.9260   150.8284     2.4467     0.0580   -43.3651     4.3275     3.0225     3.7348
 2382.5000     9.9456   155.5812     2.4387     0.0360   -43.3596     3.8406     2.9953     3.6007
 2383.0000     9.9257   156.5704     2.4457     0.0500   -43.5520     3.5358     2.9685     3.4712
 2383.5000     9.9256   155.1830     2.4537     0.0560   -43.5465     3.3467     2.9969     3.3776
 2384.0000     9.9056   154.3898     2.4627     0.0659   -44.1348     4.1748     2.8628     3.3168
 2384.5000     9.9055   152.8040     2.4607     0.0480   -43.5354     4.4947     2.7600     3.2870
 2385.0000     9.9053   153.9914     2.4577     0.0480   -43.5299     4.2543     2.7353     3.2576
 2385.5000     9.9052   154.1884     2.4438     0.0480   -43.7223     3.6390     2.7360     3.2582
 2386.0000     9.8456   152.9990     2.4299     0.0380   -43.3209     3.3815     2.7618     3.2591
 2386.5000     9.7663   149.2134     2.4207     0.0360   -43.3153     3.7772     2.7623     3.2900
 2387.0000     9.7463   146.0420     2.4435     0.0400   -43.7058     4.2980     2.8145     3.3834
 2387.5000     9.7462   145.2479     2.4666     0.0599   -43.7002     4.1432     2.8939     3.4151
 2388.0000     9.7461   142.4731     2.4936     0.0659   -43.8927     3.9215     2.9212     3.4159
 2388.5000     9.7261   139.6980     2.5205     0.0819   -43.8872     4.3804     3.0037     3.6107
 2389.0000     9.7062   136.3257     2.5006     0.0819   -44.0796     4.4219     3.0601     3.8165
 2389.5000     9.7060   134.3467     2.5235     0.0639   -44.0741     4.4230     3.2345     3.9241
 2390.0000     9.6860   132.5624     2.5235     0.0639   -44.0686     4.5478     3.6132     4.3035
 2390.5000     9.6860   130.5801     2.5065     0.0599   -43.4691     5.6214     3.8192     4.7194
 2391.0000     9.6660   130.1822     2.4946     0.0559   -42.8696     6.3955     3.8910     4.7639
 2391.5000     9.6659   130.1805     2.5125     0.0559   -43.2601     6.6348     3.9642     4.8093
 2392.0000     9.6658   130.9709     2.5135     0.0499   -43.2545     6.1104     3.9651     4.8104
 2392.5000     9.6458   131.7613     2.4961     0.0459   -43.0521     5.9457     4.1528     4.8115
 2393.0000     9.6457   132.5516     2.4746     0.0459   -43.2446     5.9471     4.1919     4.8126
 2393.5000     9.6455   132.1537     2.4846     0.0519   -43.0410     5.5773     4.3503     4.8133
