~VERSION INFORMATION
 VERS.                2.0:   CWLS LOG ASCII STANDARD - VERSION 2.0
 WRAP.                 NO:   ONE LINE PER DEPTH STEP
~WELL INFORMATION
#MNEM.UNIT      DATA TYPE    INFORMATION
#----------   ------------   ------------------------------
 STRT.F          211.5000:   START DEPTH
 STOP.F         3103.0000:   STOP DEPTH
 STEP.F            0.5000:   STEP LENGTH
 NULL.          -999.2500:   NO VALUE
 COMP.    FENIX & SCISSON:   COMPANY
 WELL. FENIX NPR 3 "AX" #38-10:   WELL
 FLD .  TEAPOT DOME - NPR:   FIELD
 LOC .      S10 T38N R78W:   LOCATION
 CNTY.            NATRONA:   COUNTY
 STAT.            WYOMING:   STATE
 CTRY. UNITED STATES OF AMERICA:   COUNTRY
 SRVC.           BIRDWELL:   SERVICE COMPANY
 DATE.        01-JUL-1978:   LOGDATE
 API .     49025106550000:   API NUMBER
~CURVE INFORMATION
#MNEM.UNIT       API CODE    CURVE DESCRIPTION
#----------   ------------   ------------------------------
 DEPT.F                  :   
 CALD.IN     45 280 60 00:   CALIPER FROM DENSITY LOG
 GRD .GAPI   45 310 01 00:   GAMMA RAY FROM DENSITY LOG
 RHOB.G/C3   45 350 01 00:   BULK DENSITY
 CORR.G/C3   45 356 01 00:   DENSITY CORRECTION
 NPOR.DEC    42 890 03 00:   ALPHA PROCESSED NEUTRON POROSITY
 SPR .MV     05 010 01 00:   SPONTANEOUS POTENTIAL
 SN  .OHMM   05 040 00 00:   SHORT NORMAL
 ILD .OHMM   05 120 46 00:   DEEP INDUCTION RESISTIVITY
~PARAMETER INFORMATION
#MNEM.UNIT          VALUE    DESCRIPTION
#----------   ------------   ------------------------------
 EKB .F         5240.0000:   Kelly bushing
 EGL .F         5230.0000:   Ground level
 TD  .F         3103.0000:   Total depth
 DATE.        01-JUL-1978:   Date logged
 CLNT.            A2DTECH:   Client Code
 SL  . 200' FSL & 2100' FWL:   Surface Location
 PD  .                 GL:   Permanent Datum
 EPD .F              5230:   Elevation Permanent Datum
 LMF .                 KB:   Log Measured From
 DMF .                 KB:   Drilling Measured From
 DAPD.F                10:   Feet Above Permanent Datum
 DD  .F              3100:   Depth driller
 DL  .F              3103:   Depth logger
 BLI .F              3096:   Bottom log interval
 TLI .F               228:   Top log interval
 CS1 .IN            8.625:   Casing size
 CBD1.      8.625" @ 224':   Casing driller 1
 CBL1.F               228:   Casing logger 1
 BS1 .IN            7.875:   Bit size
 BSD1.F              3100:   Depth drilled with bit1
 DFT .            MUD/GEL:   Type fluid in hole
 DFD .                8.7:   Density
 DFV .                 31:   Viscosity
 DFPH.               10.5:   pH
 DFL .                  7:   Fluid loss
 MSS .           FLOWLINE:   Source of sample
 BHT .F               109:   BHT.
 TCS .HRS             4.5:   Time Circ. stopped
 MRT .F               109:   Maximum recorded temp.
 LUN .               2958:   Logging unit number
 LUL .               CASP:   Logging unit location
 ENGI.             MILLER:   Recorded By
 ORIG.      2.5" 5" PRINT:   Origin of data
 UWI .     49025106550000:   Unique Well ID
 DICO. A2D TECHNOLOGIES, INC.:   Digitizing Company
~OTHER INFORMATION
~A   DEPT     CALD         GRD      RHOB       CORR       NPOR        SPR         SN        ILD   
# ...
  819.0000    10.9753    76.5007     2.4775     0.0170  -999.2500    -6.1578     8.0292     9.1303
  819.5000    10.9751    77.4877     2.4745     0.0150  -999.2500    -5.9634     8.0277     9.2128
  820.0000    10.9552    78.0792     2.4646     0.0090  -999.2500    -6.1637     8.1003     9.2111
  820.5000    10.9748    80.2530     2.4635     0.0150  -999.2500    -6.1666     8.0248     9.2094
  821.0000    10.9746    80.2510     2.4546     0.0090  -999.2500    -6.3675     8.0234     9.2078
  821.5000    10.9744    79.0623     2.4645     0.0190  -999.2500    -6.5678     8.0219     9.2061
  822.0000    10.9742    76.0931     2.4744     0.0408  -999.2500    -6.7680     8.0205     9.6367
  822.5000    10.9739    73.1234     2.4993     0.0368  -999.2500    -6.5736     8.0190     9.2876
  823.0000    10.9737    69.3638     2.4863     0.0328  -999.2500    -6.7739     8.0175     9.2859
  823.5000    10.9735    69.1641     2.4774     0.0328  -999.2500    -6.9742     8.0158     9.2842
  824.0000    10.9734    68.7673     2.4615     0.0366  -999.2500    -7.3718     7.9411     9.2826
  824.5000    10.9732    72.9183     2.4565     0.0426  -999.2500    -7.3748     7.8671     9.1121
  825.0000    10.9730    77.0704     2.4486     0.0546  -999.2500    -7.5750     7.8657     9.0272
  825.5000    10.9728    78.8486     2.4456     0.0704  -999.2500    -7.7753     7.8643     9.0252
  826.0000    10.9726    78.4689     2.4267     0.0882  -999.2500    -7.9756     7.8629     8.6188
  826.5000    10.9724    77.0642     2.4138     0.1438  -999.2500    -7.7812     7.5780     8.6181
  827.0000    10.9722    76.6667     2.3889     0.2014  -999.2500    -7.7841     7.3708     8.2292
  827.5000    10.9720    76.2692     2.3730     0.2252  -999.2500    -7.9844     7.4375     8.2277
  828.0000    10.9718    74.6849     2.3422     0.2430  -999.2500    -7.7899     7.3682     8.2262
  828.5000    10.9716    72.1112     2.3242     0.2630  -999.2500    -7.3987     7.2328     8.0013
  829.0000    10.9714    69.7357     2.3728     0.2908  -999.2500    -7.4017     7.2315     7.9267
  829.5000    10.9712    69.9316     2.5287     0.2966  -999.2500    -7.4046     7.1641     7.9984
  830.0000    10.9710    72.1054     2.5120     0.2728  -999.2500    -7.2102     7.0971     7.7797
  830.5000    10.9708    74.4770     2.4403     0.1436  -999.2500    -7.4104     6.8400     7.9224
  831.0000    10.9706    76.6512     2.4504     0.0682  -999.2500    -7.2160     6.8388     7.8486
  831.5000    10.9704    78.8250     2.4552     0.0662  -999.2500    -7.4163     6.8375     7.7752
  832.0000    10.9702    80.4054     2.4206     0.0702  -999.2500    -7.2219     6.5899     7.6324
  832.5000    10.9898    79.8097     2.4047     0.0800  -999.2500    -7.4221     6.4104     7.2887
  833.0000    10.9698    78.4232     2.3976     0.0998  -999.2500    -7.4251     6.1644     6.9604
  833.5000    10.9696    76.4433     2.3739     0.1098  -999.2500    -7.4280     5.8993     6.8956
  834.0000    10.9694    74.2656     2.2955     0.1356  -999.2500    -7.4309     5.8985     6.8313
  834.5000    10.9692    70.3074     2.2885     0.1514  -999.2500    -7.6312     6.0064     6.5237
  835.0000    10.9690    67.9320     2.2666     0.1832  -999.2500    -7.6341     6.0053     6.4632
  835.5000    10.9688    64.1890     2.4074     0.2250  -999.2500    -7.8344     5.9492     6.2862
  836.0000    10.9686    65.5549     2.4859     0.2626  -999.2500    -7.2453     5.8937     6.1583
  836.5000    10.9882    73.2666     2.4402     0.1554  -999.2500    -7.8408     5.7855     6.0330
  837.0000    10.9880    76.6271     2.4451     0.0500  -999.2500    -8.0411     5.6273     5.8914
  837.5000    10.9680    76.4278     2.4640     0.0202  -999.2500    -8.0441     5.5749     5.8369
  838.0000    10.9678    69.5023     2.4719     0.0162  -999.2500    -8.4417     5.5743     5.8794
  838.5000    10.9874    68.1158     2.4600     0.0440  -999.2500    -8.4446     5.6243     5.9222
  839.0000    10.9872    68.3295     2.4878     0.0658  -999.2500    -8.4476     5.7274     5.9654
  839.5000    10.9672    69.1187     2.5029     0.1174  -999.2500    -8.4505     5.7264     6.0088
  840.0000    10.9670    78.9890     2.4969     0.1076  -999.2500    -8.6508     5.7781     6.0525
  840.5000    10.9668    80.3717     2.4830     0.0520  -999.2500    -8.0616     5.8841     6.0966
  841.0000    10.9864    79.1830     2.4840     0.0260  -999.2500    -8.2619     5.8436     6.1410
  841.5000    10.9862    76.8071     2.4860     0.0240  -999.2500    -8.2648     5.8775     6.1857
  842.0000    10.9860    74.2339     2.4818     0.0240  -999.2500    -7.8730     5.9117     6.2307
  842.5000    10.9858    74.0341     2.4778     0.0260  -999.2500    -8.0733     5.9460     6.2761
  843.0000    10.9856    74.6256     2.4877     0.0320  -999.2500    -8.0762     5.9805     6.3218
  843.5000    10.9656    76.4038     2.5026     0.0418  -999.2500    -8.0792     6.0152     6.3678
  844.0000    10.9852    78.7754     2.5036     0.0378  -999.2500    -7.8847     6.0501     6.4142
  844.5000    10.9850    79.3668     2.4798     0.0318  -999.2500    -7.8877     6.0852     6.4609
  845.0000    10.9848    79.5627     2.4797     0.0338  -999.2500    -8.0885     6.1206     6.4987
  845.5000    10.9846    79.5607     2.4827     0.0358  -999.2500    -8.2888     6.1561     6.5581
  846.0000    10.9844    80.7455     2.4837     0.0398  -999.2500    -8.2917     6.1918     6.5959
  846.5000    10.9843    81.5348     2.4837     0.0438  -999.2500    -8.2947     6.2278     6.6339
  847.0000    10.9841    83.5108     2.4837     0.0476  -999.2500    -8.2976     6.2639     6.6721
  847.5000    10.9839    83.5088     2.4837     0.0496  -999.2500    -8.3005     6.3003     6.7106
  848.0000    10.9836    83.1113     2.4807     0.0516  -999.2500    -8.5008     6.3368     6.7493
  848.5000    10.9834    83.1094     2.4846     0.0516  -999.2500    -8.5037     6.3736     6.7881
  849.0000    10.9832    83.3052     2.4866     0.0536  -999.2500    -8.7040     6.4297     6.7317
  849.5000    10.9830    84.0941     2.4946     0.0476  -999.2500    -8.9043     6.4293     6.7291
  850.0000    10.9829    84.4877     2.4947     0.0496  -999.2500    -9.1046     6.4876     6.6665
  850.5000    10.9826    84.3148     2.4939     0.0408  -999.2500    -9.1075     6.5054     6.6653
  851.0000    10.9823    83.2953     2.4917     0.0396  -999.2500    -8.9131     6.5233     6.6691
  851.5000    10.9820    81.1168     2.4848     0.0336  -999.2500    -8.5213     6.5412     6.6728
  852.0000    10.9817    79.7291     2.4808     0.0276  -999.2500    -8.9189     6.5592     6.6766
  852.5000    10.9814    79.3307     2.4768     0.0256  -999.2500    -8.9224     6.5773     6.6804
  853.0000    10.9810    78.3391     2.4768     0.0256  -999.2500    -8.9254     6.5992     6.6841
  853.5000    10.9807    77.9408     2.4816     0.0296  -999.2500    -8.9283     6.5379     6.6879
  854.0000    10.9804    77.9381     2.4895     0.0316  -999.2500    -8.5365     6.5367     6.6916
  854.5000    10.9801    78.9241     2.4845     0.0316  -999.2500    -8.3426     6.5356     6.6954
  855.0000    10.9798    79.3168     2.4825     0.0314  -999.2500    -8.9371     6.5344     6.6992
  855.5000    10.9795    78.1259     2.4865     0.0334  -999.2500    -8.9400     6.5332     6.7029
  856.0000    10.9792    78.9158     2.4904     0.0334  -999.2500    -9.1403     6.4723     6.7067
  856.5000    10.9789    85.4548     2.4954     0.0314  -999.2500    -9.1432     6.5308     6.7105
  857.0000    10.9786    81.0853     2.4964     0.0254  -999.2500    -9.1461     6.5296     6.7142
  857.5000    10.9782    79.3024     2.4924     0.0174  -999.2500    -9.3464     6.5285     6.7180
  858.0000    10.9779    79.2996     2.4785     0.0174  -999.2500    -9.1520     6.5273     6.7218
  858.5000    10.9776    79.6922     2.4844     0.0214  -999.2500    -9.1549     6.5261     6.7256
  859.0000    10.9772    79.0963     2.4934     0.0234  -999.2500    -9.1578     6.5851     6.7294
