~VERSION INFORMATION
 VERS.                2.0:   CWLS LOG ASCII STANDARD - VERSION 2.0
 WRAP.                 NO:   ONE LINE PER DEPTH STEP
~WELL INFORMATION
#MNEM.UNIT      DATA TYPE    INFORMATION
#----------   ------------   ------------------------------
 STRT.F          200.5000:   START DEPTH
 STOP.F         3118.5000:   STOP DEPTH
 STEP.F            0.5000:   STEP LENGTH
 NULL.          -999.2500:   NO VALUE
 COMP.    FENIX & SCISSON:   COMPANY
 WELL. FENIX SCISSON "A" #16-27:   WELL
 FLD .                NPR:   FIELD
 LOC .      S27 T39N R78W:   LOCATION
 CNTY.            NATRONA:   COUNTY
 STAT.            WYOMING:   STATE
 CTRY. UNITED STATES OF AMERICA:   COUNTRY
 SRVC.       SCHLUMBERGER:   SERVICE COMPANY
 DATE.        31-AUG-1977:   LOGDATE
 API .     49025104180000:   API NUMBER
~CURVE INFORMATION
#MNEM.UNIT       API CODE    CURVE DESCRIPTION
#----------   ------------   ------------------------------
 DEPT.F                  :   
 CALD.IN     45 280 60 00:   CALIPER FROM DENSITY LOG
 GRD .GAPI   45 310 01 00:   GAMMA RAY FROM DENSITY LOG
 DPHI.DEC    42 890 03 00:   DENSITY POROSITY SANDSTONE
 RHOB.G/C3   45 350 01 00:   BULK DENSITY
 CORR.G/C3   45 356 01 00:   DENSITY CORRECTION
 SPR .MV     07 010 01 00:   SPONTANEOUS POTENTIAL
 GURD.OHMM   07 220 05 00:   GUARD LOG RESISTIVITY
 ILD .OHMM   07 120 46 00:   DEEP INDUCTION RESISTIVITY
 ILM .OHMM   07 120 44 00:   INDUCTION LOG MEDIUM RESISTIVITY
~PARAMETER INFORMATION
#MNEM.UNIT          VALUE    DESCRIPTION
#----------   ------------   ------------------------------
 EKB .F         5095.0000:   Kelly bushing
 EGL .F         5085.0000:   Ground level
 EDF .F            0.0000:   Drilling floor
 TD  .F         3121.0000:   Total depth
 DATE.        31-AUG-1977:   Date logged
 CLNT.            A2DTECH:   Client Code
 SL  . 1430' FSL & 330' FNL:   Surface Location
 PD  .                 GL:   Permanent Datum
 EPD .F              5085:   Elevation Permanent Datum
 LMF .                 KB:   Log Measured From
 DMF .                 KB:   Drilling Measured From
 DAPD.F                10:   Feet Above Permanent Datum
 DD  .F              3120:   Depth driller
 DL  .F              3121:   Depth logger
 BLI .F              3119:   Bottom log interval
 TLI .F               200:   Top log interval
 CS1 .IN            8.625:   Casing size
 CBD1.      8.625" @ 206':   Casing driller 1
 CBL1.F               215:   Casing logger 1
 BS1 .IN            7.875:   Bit size
 BSD1.F              3120:   Depth drilled with bit1
 DFT .            KCL/MUD:   Type fluid in hole
 DFD .                  9:   Density
 DFV .                 36:   Viscosity
 DFPH.                 11:   pH
 DFL .                8.4:   Fluid loss
 MSS .           FLOWLINE:   Source of sample
 RMS .OHMM            2.5:   Rm
 MST .F                89:   Rm Meas. temp.
 RMF .OHMM           2.45:   Rmf
 MFST.F                89:   Rmf Meas. temp.
 RMC .OHMM           3.30:   Rmc
 MCST.F                89:   Rmc Meas. temp.
 MFSS.               FANN:   Source Rmf.
 MCSS.                KIT:   Source Rmc.
 RMB .OHMM           1.91:   Rm. at BHT
 BHT .F               116:   BHT.
 TCS .HRS              12:   Time Circ. stopped
 MRT .F               116:   Maximum recorded temp.
 LUN .               9585:   Logging unit number
 LUL .             CASPEN:   Logging unit location
 ENGI.         G. BENTSEN:   Recorded By
 WITN.      W. PETTINGILL:   Witnessed by
 ORIG.           5" PRINT:   Origin of data
 UWI .     49025104180000:   Unique Well ID
 DICO. A2D TECHNOLOGIES, INC.:   Digitizing Company
~OTHER INFORMATION
~A   DEPT     CALD         GRD      DPHI       RHOB        CORR       SPR       GURD        ILD        ILM   
  200.5000  -999.2500    45.1045  -999.2500  -999.2500    -0.5218  -999.2500  -999.2500  -999.2500  -999.2500
  201.0000     8.6282    45.1067  -999.2500  -999.2500    -0.5178  -999.2500  -999.2500  -999.2500  -999.2500
  201.5000     8.6284    45.1100  -999.2500  -999.2500    -0.5178  -999.2500  -999.2500  -999.2500  -999.2500
  202.0000     8.6482    45.1122  -999.2500  -999.2500    -0.5178  -999.2500  -999.2500  -999.2500  -999.2500
  202.5000     8.6484    45.3105  -999.2500  -999.2500    -0.5177  -999.2500  -999.2500  -999.2500  -999.2500
  203.0000     8.6486    45.5100  -999.2500  -999.2500    -0.5177  -999.2500  -999.2500  -999.2500  -999.2500
  203.5000     8.6487    46.1017  -999.2500  -999.2500    -0.5157  -999.2500  -999.2500  -999.2500  -999.2500
  204.0000     8.6490    46.3007  -999.2500  -999.2500    -0.5097  -999.2500  -999.2500  -999.2500  -999.2500
  204.5000     8.6492    46.4996  -999.2500  -999.2500    -0.4989  -999.2500  -999.2500  -999.2500  -999.2500
  205.0000     8.6495    46.8947  -999.2500  -999.2500    -0.4897  -999.2500  -999.2500  -999.2500  -999.2500
  205.5000     8.6300    47.0937  -999.2500  -999.2500    -0.4793  -999.2500  -999.2500  -999.2500  -999.2500
  206.0000     8.6301    47.0966  -999.2500     2.0042    -0.4658  -999.2500  -999.2500  -999.2500  -999.2500
  206.5000     8.6304    47.0988  -999.2500     2.0131    -0.4618  -999.2500  -999.2500  -999.2500  -999.2500
  207.0000     8.6110    47.8864  -999.2500     2.0306    -0.4414  -999.2500  -999.2500  -999.2500  -999.2500
  207.5000     8.6112    49.2627  -999.2500     2.0519    -0.4209  -999.2500  -999.2500  -999.2500  -999.2500
  208.0000     8.5918    50.0505  -999.2500     2.0539    -0.4001  -999.2500  -999.2500  -999.2500  -999.2500
  208.5000     8.5920    51.0345  -999.2500     2.0708    -0.3728  -999.2500  -999.2500  -999.2500  -999.2500
  209.0000     8.5922    51.2337  -999.2500     2.0917    -0.3456  -999.2500  -999.2500  -999.2500  -999.2500
  209.5000     8.5924    52.2179  -999.2500     2.0967    -0.3184  -999.2500  -999.2500  -999.2500  -999.2500
  210.0000     8.5926    54.1833  -999.2500     2.1017    -0.2966  -999.2500  -999.2500  -999.2500  -999.2500
  210.5000     8.5928    56.3452  -999.2500     2.1156    -0.2557  -999.2500  -999.2500  -999.2500  -999.2500
  211.0000     8.5929    57.1328     0.2963     2.1452    -0.2147  -999.2500  -999.2500  -999.2500  -999.2500
  211.5000     8.5736    60.4725     0.2786     2.1749    -0.1738  -999.2500  -999.2500  -999.2500  -999.2500
  212.0000     8.5738    63.6162     0.2608     2.1962    -0.1295  -999.2500  -999.2500  -999.2500  -999.2500
  212.5000     8.5936    65.7781     0.2438     2.2337    -0.0624  -999.2500  -999.2500  -999.2500  -999.2500
  213.0000     8.6330    69.1186     0.2215     2.2711     0.0276  -999.2500     4.1780  -999.2500  -999.2500
  213.5000     8.7706    74.1003     0.2112     2.3125     0.0396  -999.2500     5.5542  -999.2500  -999.2500
  214.0000     9.1438    78.9412     0.1746     2.3543     0.1251    -6.1108     5.5638  -999.2500  -999.2500
  214.5000     9.5562    81.3028     0.1809     2.3513     0.1251   -12.4464     5.5351     6.0104     2.5943
  215.0000     9.6939    80.9118     0.1630     2.3494     0.1212   -21.9549     5.9037     6.0557     1.4447
  215.5000     9.9101    80.7197     0.1626     2.3871     0.1212   -27.0993     6.6516     5.9762     0.8384
  216.0000     9.9693    80.3311     0.1435     2.4031     0.1113   -31.2538     7.1906     6.1923     0.4209
  216.5000     9.9695    80.3353     0.1435     2.4100     0.1113   -36.4008     6.9614     7.0225     0.3670
  217.0000     9.9697    80.3394     0.1435     2.4091     0.1054   -39.1703     6.4220     7.8532     0.3428
  217.5000     9.9700    79.5581     0.1431     2.4091     0.1074   -40.1543     6.2581     7.6965     0.3626
  218.0000    10.0095    79.1695     0.1439     2.4111     0.1055   -40.7419     5.9778     7.2854     0.4848
  218.5000    10.0686    78.5845     0.1467     2.4111     0.1035   -40.9330     5.7852     6.8962     0.7189
  219.0000    10.1867    78.5886     0.1511     2.4061     0.0996   -41.9170     5.7993     6.4827     0.9951
  219.5000    10.4423    78.7890     0.1526     2.4012     0.0996   -42.3063     6.3562     6.1364     3.0037
  220.0000    10.5602    78.5967     0.1538     2.3952     0.0976   -43.0920     6.5025     6.0559     4.9743
  220.5000    12.3086    78.7972     0.1574     2.3843     0.0977   -43.4813     6.6982     7.2602     5.0467
  221.0000    12.3678    80.5690     0.1626     2.3764     0.0838   -44.0688     7.4949     7.2651     4.9473
  221.5000    12.3289    81.1624     0.1685     2.3694     0.0739   -44.6563     7.7205     7.6854     5.5305
  222.0000    11.6615    81.3631     0.1693     2.3685     0.0620   -45.4419     8.0632     8.1301     6.0961
  222.5000    10.9543    81.1708     0.1639     2.3744     0.0540   -45.8312     8.1908     8.6014     6.5820
  223.0000     9.8157    80.7821     0.1586     2.3834     0.0421   -46.0222     7.3531     8.6072     6.7249
  223.5000     9.5605    79.8040     0.1498     2.3973     0.0422   -46.0151     6.9730     8.2043     6.3689
  224.0000     9.3447    79.0223     0.1502     2.4043     0.0422   -46.0079     6.4305     7.7660     6.0742
  224.5000     9.2663    76.8668     0.1522     2.4033     0.0402   -45.9964     5.9323     7.3512     6.0364
  225.0000     9.2469    74.5123     0.1554     2.4014     0.0363   -46.9845     6.8234     6.9104     5.9592
  225.5000     9.2079    69.9986     0.1581     2.3944     0.0324   -50.7414     8.2935     6.3621     5.9647
  226.0000     9.2080    65.3915     0.1577     2.3904     0.0304   -54.4997     8.5431     6.0229     6.0107
  226.5000     9.2081    60.7843     0.1561     2.3925     0.0284   -54.8887     8.1015     5.8612     6.0579
  227.0000     9.1888    56.1771     0.1538     2.3974     0.0305   -55.2778     7.6800     5.8658     6.2324
  227.5000     9.1694    52.5232     0.1497     2.4004     0.0325   -55.4687     7.7519     5.8701     6.2805
  228.0000     9.1696    51.3465     0.1462     2.4064     0.0365   -55.8578     8.2085     5.9150     6.4169
  228.5000     9.1503    50.7600     0.1462     2.4074     0.0365   -55.8505     8.6920     5.9190     6.4673
  229.0000     9.1111    49.9774     0.1470     2.4074     0.0365   -56.0414     8.9536     6.0477     6.6078
  229.5000     9.1507    49.7838     0.1493     2.4055     0.0406   -56.8268     9.1597     6.0525     6.6130
  230.0000     9.1116    49.7868     0.1521     2.3985     0.0406   -57.6121     9.1787     6.0988     6.3070
  230.5000     9.1118    49.3966     0.1585     2.3896     0.0406   -57.0104     9.0064     6.1029     6.2678
  231.0000     9.1513    49.5961     0.1573     2.3906     0.0406   -57.7957     8.9046     6.1496     6.2305
  231.5000     9.0926    50.1888     0.1569     2.3906     0.0347   -59.3736     8.7375     6.1537     6.1077
  232.0000     9.1125    50.5849     0.1565     2.3926     0.0327   -60.1589     8.5764     6.1577     6.1133
  232.5000     9.1520    51.1776     0.1569     2.3926     0.0328   -60.7461     8.5352     6.1187     6.1181
  233.0000     9.1522    51.3772     0.1592     2.3887     0.0328   -63.1150     8.3232     6.0397     5.9563
  233.5000     9.1131    50.9870     0.1620     2.3837     0.0308   -64.8910     8.1108     5.7971     5.9618
  234.0000     9.1133    50.7934     0.1660     2.3718     0.0249   -66.2706     7.9066     5.4874     5.9665
  234.5000     9.1529    50.4031     0.1719     2.3648     0.0249   -67.0558     7.5524     5.1943     5.9712
  235.0000     9.1138    50.2095     0.1719     2.3669     0.0250   -67.4446     7.2116     5.0204     5.5392
  235.5000     9.0747    50.6057     0.1715     2.3669     0.0270   -67.4372     6.7451     4.8856     5.2106
  236.0000     9.0945    50.6087     0.1739     2.3649     0.0310   -67.6279     5.5726     4.7881     5.0721
  236.5000     9.1734    50.8083     0.1775     2.3629     0.0231   -66.8280     4.7327     4.6936     4.9379
