~VERSION INFORMATION
 VERS.                2.0:   CWLS LOG ASCII STANDARD - VERSION 2.0
 WRAP.                 NO:   ONE LINE PER DEPTH STEP
~WELL INFORMATION
#MNEM.UNIT      DATA TYPE    INFORMATION
#----------   ------------   ------------------------------
 STRT.F            0.5000:   START DEPTH
 STOP.F          582.5000:   STOP DEPTH
 STEP.F            0.5000:   STEP LENGTH
 NULL.          -999.2500:   NO VALUE
 COMP.   LAWRENCE ALLISON:   COMPANY
 WELL. LAWRANCE SHX #31-34:   WELL
 FLD .             NPR #3:   FIELD
 LOC .      S34 T39N R78W:   LOCATION
 CNTY.            NATRONA:   COUNTY
 STAT.            WYOMING:   STATE
 CTRY. UNITED STATES OF AMERICA:   COUNTRY
 SRVC.           GEARHART:   SERVICE COMPANY
 DATE.        22-SEP-1988:   LOGDATE
 API .     49025112470000:   API NUMBER
~CURVE INFORMATION
#MNEM.UNIT       API CODE    CURVE DESCRIPTION
#----------   ------------   ------------------------------
 DEPT.F                  :   
 GRR .GAPI   07 310 01 00:   GAMMA RAY FROM RESISTIVITY
 RILD.OHMM   07 120 46 00:   RESISTIVITY INDUCTION LOG DEEP
 RILM.OHMM   07 120 44 00:   RESISTIVITY INDUCTION LOG MEDIUM
 TENR.LBS    07 635 01 00:   TENSION FROM RESISTIVITY
~PARAMETER INFORMATION
#MNEM.UNIT          VALUE    DESCRIPTION
#----------   ------------   ------------------------------
 EKB .F         5075.0000:   Kelly bushing
 EGL .F         5065.0000:   Ground level
 EDF .F            0.0000:   Drilling floor
 TD  .F          577.5000:   Total depth
 CLNT.            A2DTECH:   Client Code
 PD  .                 GL:   Permanent Datum
 EPD .F              5065:   Elevation Permanent Datum
 LMF .                 KB:   Log Measured From
 DMF .                 KB:   Drilling Measured From
 DAPD.F                10:   Feet Above Permanent Datum
 DATE.        22-SEP-1988:   Date Logged [DD-MMM-YYYY]
 DD  .F               575:   Depth driller
 DL  .F             577.5:   Depth logger
 BLI .F               569:   Bottom log interval
 TLI .F                 0:   Top log interval
 CS1 .IN            9.625:   Casing size
 CBD1.       9.625" @ 50':   Casing driller 1
 CBL1.F                50:   Casing logger 1
 BS1 .IN             8.75:   Bit size
 BSD1.F               575:   Depth drilled with bit1
 DFT .                AIR:   Type fluid in hole
 TLAB.HRS            2350:   Time logger at bottom
 MRT .F                70:   Maximum recorded temp.
 LUN .               7597:   Logging unit number
 LUL .           GILLETTE:   Logging unit location
 ENGI.          HUCKFFLOT:   Recorded By
 WITN.             STRONG:   Witnessed by
 ORIG.           5" PRINT:   Origin of data
 UWI .     49025112470000:   Unique Well ID
 DICO. A2D TECHNOLOGIES, INC.:   Digitizing Company
 SL  . 324' FNL & 1963' FEL:   Surface Location
~OTHER INFORMATION
~A    DEPT      GRR      RILD       RILM       TENR   
# ...
  219.5000   117.0111     7.9732     7.1512     0.0000
  220.0000   118.2509     8.0847     7.2964     0.0000
  220.5000   117.0738     8.0847     7.3982     0.0000
  221.0000   114.3141     8.1977     7.5015     0.0000
  221.5000   112.0084     8.2548     7.5545     0.0000
  222.0000   113.2482     8.2548     7.6591     0.0000
  222.5000   115.9985     8.3123     7.7660     0.0000
  223.0000   117.2387     8.3701     7.7660     0.0000
  223.5000   116.9754     8.3701     7.7660     0.0000
  224.0000   114.2878     8.3701     7.8200     0.0000
  224.5000   114.6212     8.3123     7.8200     0.0000
  225.0000   115.5589     8.3123     7.7660     0.0000
  225.5000   114.9860     8.3123     7.8200     0.0000
  226.0000   112.0041     8.1977     7.7660     0.0000
  226.5000   110.8191     8.1977     7.7660     0.0000
  227.0000   112.9731     8.1410     7.7660     0.0000
  227.5000   117.5440     8.0847     7.2964     0.0000
  228.0000   117.8775     8.0287     7.0969     0.0000
  228.5000   115.1898     7.9732     7.2460     0.0000
  229.0000   112.5021     7.9181     7.2460     0.0000
  229.5000   113.1456     7.7549     7.1462     0.0000
  230.0000   118.1311     7.5426     7.0969     0.0000
  230.5000   120.8752     7.4386     6.9509     0.0000
  231.0000   119.6919     7.1849     6.7608     0.0000
  231.5000   118.2065     6.8918     6.4855     0.0000
  232.0000   115.8147     6.5098     6.1357     0.0000
  232.5000   119.7736     6.0228     5.5966     0.0000
  233.0000   121.9135     5.5358     5.1314     0.0000
  233.5000   121.3344     5.0487     4.6662     0.0000
  234.0000   116.8278     4.5617     4.2010     0.0000
  234.5000   111.7233     4.0747     3.7957     0.0000
  235.0000   110.8358     3.5891     3.3112     0.0000
  235.5000   110.8672     3.1896     2.9843     0.0000
  236.0000   111.4965     2.9331     2.6343     0.0000
  236.5000   111.8240     2.8347     2.2913     0.0000
  237.0000   111.2509     2.8150     2.0385     0.0000
  237.5000   109.4634     2.7956     2.0813     0.0000
  238.0000   104.9568     2.7956     2.1398     0.0000
  238.5000   102.5265     2.8943     2.2668     0.0000
  239.0000   105.3852     2.9965     2.4106     0.0000
  239.5000   110.7786     3.2342     2.5623     0.0000
  240.0000   114.1270     3.5950     2.7084     0.0000
  240.5000   116.8712     4.0680     3.3792     0.0000
  241.0000   119.0111     4.5410     4.1411     0.0000
  241.5000   119.9811     4.9391     4.7479     0.0000
  242.0000   120.5782     5.5192     5.2316     0.0000
  242.5000   118.7906     5.9571     5.5299     0.0000
  243.0000   117.9031     6.3410     5.7673     0.0000
  243.5000   120.3515     6.6567     5.9679     0.0000
  244.0000   126.7273     6.8441     6.0094     0.0000
  244.5000   131.8884     6.8918     6.0933     0.0000
  245.0000   129.4966     6.8918     6.1783     0.0000
  245.5000   126.5005     6.8918     6.1783     0.0000
  246.0000   125.6193     6.8391     6.1783     0.0000
  246.5000   125.0402     6.6567     6.1783     0.0000
  247.0000   126.2801     6.6107     6.1783     0.0000
  247.5000   127.2116     6.4745     6.1357     0.0000
  248.0000   128.4452     6.2925     6.0933     0.0000
  248.5000   128.7727     5.9985     5.8451     0.0000
  249.0000   127.2932     5.8343     5.5299     0.0000
  249.5000   125.2036     5.5963     5.2280     0.0000
  250.0000   122.8055     5.4431     4.8813     0.0000
  250.5000   126.4623     5.2941     4.5862     0.0000
  251.0000   130.2140     5.2211     4.4300     0.0000
  251.5000   132.5548     5.1850     4.3079     0.0000
  252.0000   131.3778     5.1850     4.2496     0.0000
  252.5000   130.4903     5.2776     4.4300     0.0000
  253.0000   130.2190     5.4168     4.6040     0.0000
  253.5000   130.2447     5.5561     4.8258     0.0000
  254.0000   128.7655     5.6953     5.0476     0.0000
  254.5000   127.2801     5.9870     5.2694     0.0000
  255.0000   125.4925     6.1558     5.4913     0.0000
  255.5000   125.2027     6.3734     5.7513     0.0000
  256.0000   127.6638     6.7376     5.9118     0.0000
  256.5000   128.8974     6.9276     6.2910     0.0000
  257.0000   128.9226     7.1229     6.6946     0.0000
  257.5000   128.3434     7.4261     6.8814     0.0000
  258.0000   125.6495     7.6886     6.8322     0.0000
  258.5000   123.8683     7.7428     6.8309     0.0000
  259.0000   122.6849     7.7433     6.7824     0.0000
  259.5000   121.7974     7.6902     6.7339     0.0000
  260.0000   122.4331     7.5848     6.6861     0.0000
  260.5000   123.6796     7.4809     6.6386     0.0000
  261.0000   125.2086     7.3274     6.5914     0.0000
  261.5000   127.3486     6.8369     6.4945     0.0000
  262.0000   128.2800     6.5587     6.4084     0.0000
  262.5000   128.6073     6.3355     6.2320     0.0000
  263.0000   128.6329     6.1093     5.9770     0.0000
  263.5000   129.2681     5.7902     5.5328     0.0000
  264.0000   129.8974     5.6713     5.2011     0.0000
  264.5000   130.5268     5.5936     4.7851     0.0000
  265.0000   130.8540     5.5169     4.5576     0.0000
  265.5000   130.2002     5.6725     4.6849     0.0000
  266.0000   125.7746     5.9140     4.9507     0.0000
  266.5000   121.8722     6.0387     5.1957     0.0000
  267.0000   121.2868     6.2957     5.3781     0.0000
  267.5000   123.7352     6.5644     5.5279     0.0000
  268.0000   127.0898     6.7958     5.7612     0.0000
  268.5000   128.3234     6.9391     6.0047     0.0000
  269.0000   128.3485     7.1348     6.2152     0.0000
  269.5000   130.1864     7.3360     6.4330     0.0000
  270.0000   134.4411     7.4977     6.6126     0.0000
  270.5000   137.4936     7.7021     6.7498     0.0000
  271.0000   137.2167     7.7026     6.8903     0.0000
  271.5000   134.4833     7.7567     6.9372     0.0000
  272.0000   128.7360     7.8155     6.9876     0.0000
  272.5000   125.7092     7.8362     7.0798     0.0000
  273.0000   126.0070     7.8569     7.0781     0.0000
  273.5000   127.5105     7.8776     7.0767     0.0000
  274.0000   129.0139     7.8983     7.0264     0.0000
  274.5000   130.2167     7.9190     6.9762     0.0000
  275.0000   128.0962     7.9397     6.9266     0.0000
  275.5000   125.9757     7.9604     6.8775     0.0000
  276.0000   128.6876     7.9248     6.8761     0.0000
  276.5000   128.9855     7.7083     6.8269     0.0000
  277.0000   127.7699     7.7090     6.8256     0.0000
  277.5000   125.3473     7.6562     6.8721     0.0000
  278.0000   124.7372     7.7100     6.8704     0.0000
  278.5000   127.1472     7.8183     6.8687     0.0000
  279.0000   129.5584     7.5001     6.9154     0.0000
  279.5000   131.9696     7.2450     6.9618     0.0000
  280.0000   132.8703     7.0963     6.9605     0.0000
  280.5000   130.4462     6.8481     6.9590     0.0000
  281.0000   128.9300     6.5306     6.6740     0.0000
  281.5000   131.0391     6.3965     5.9723     0.0000
  282.0000   134.4653     6.3088     5.4190     0.0000
  282.5000   137.9763     6.3092     5.2335     0.0000
  283.0000   137.0629     6.2660     5.3052     0.0000
  283.5000   134.0361     6.2231     5.4912     0.0000
  284.0000   127.5890     6.1805     5.6837     0.0000
  284.5000   122.2408     6.1383     5.8019     0.0000
  285.0000   116.7970     6.0963     5.8818     0.0000
  285.5000   115.8864     5.9713     5.5248     0.0000
  286.0000   119.0131     5.8487     5.2258     0.0000
  286.5000   125.2377     5.5334     4.5801     0.0000
  287.0000   129.1595     5.3823     4.2136     0.0000
  287.5000   133.0813     5.3827     4.0695     0.0000
  288.0000   135.4926     5.5346     4.3605     0.0000
  288.5000   133.9749     5.7302     4.5763     0.0000
  289.0000   131.5523     5.9741     4.9765     0.0000
  289.5000   130.3381     6.1853     5.1820     0.0000
  290.0000   129.4260     6.5386     5.5528     0.0000
  290.5000   127.3042     6.7231     5.8682     0.0000
  291.0000   126.3921     6.9127     6.0770     0.0000
  291.5000   126.0843     6.9613     6.2434     0.0000
  292.0000   126.6989     6.9136     6.2856     0.0000
