~VERSION INFORMATION
 VERS.                2.0:   CWLS LOG ASCII STANDARD - VERSION 2.0
 WRAP.                 NO:   ONE LINE PER DEPTH STEP
~WELL INFORMATION
#MNEM.UNIT      DATA TYPE    INFORMATION
#----------   ------------   ------------------------------
 STRT.F          200.0000:   START DEPTH
 STOP.F         3050.0000:   STOP DEPTH
 STEP.F            0.5000:   STEP LENGTH
 NULL.          -999.2500:   NO VALUE
 COMP.     FENIX & SISSON:   COMPANY
 WELL. FENIX & SISSON "AX" #16-28:   WELL
 FLD .              NPR 3:   FIELD
 LOC .      S28 T39N R78W:   LOCATION
 CNTY.            NATRONA:   COUNTY
 STAT.            WYOMING:   STATE
 CTRY. UNITED STATES OF AMERICA:   COUNTRY
 SRVC.      DRESSER ATLAS:   SERVICE COMPANY
 DATE.        01-JUL-1977:   LOGDATE
 API .     49025103930000:   API NUMBER
~CURVE INFORMATION
#MNEM.UNIT       API CODE    CURVE DESCRIPTION
#----------   ------------   ------------------------------
 DEPT.F                  :   
 CALD.IN     45 280 60 00:   CALIPER FROM DENSITY LOG
 GRD .GAPI   45 310 01 00:   GAMMA RAY FROM DENSITY LOG
 CORR.G/C3   45 356 01 00:   DENSITY CORRECTION
 TEND.LBS    45 635 01 00:   TENSION FROM DENSITY LOG
 SPR .MV     07 010 01 00:   SPONTANEOUS POTENTIAL
 ILD .OHMM   07 120 46 00:   DEEP INDUCTION RESISTIVITY
 ILM .OHMM   07 120 44 00:   INDUCTION LOG MEDIUM RESISTIVITY
 SFL .OHMM   07 220 01 00:   SHALLOW FOCUSED LOG RESISTIVITY
 RHOB.G/C3   45 350 01 00:   BULK DENSITY
~PARAMETER INFORMATION
#MNEM.UNIT          VALUE    DESCRIPTION
#----------   ------------   ------------------------------
 EKB .F         5067.0000:   Kelly bushing
 EGL .F         5057.0000:   Ground level
 EDF .F         5066.0000:   Drilling floor
 EPD .F            0.0000:   Permanent datum
 TD  .F         3036.0000:   Total depth
 DATE.        01-JUL-1977:   Date logged
 CLNT.            A2DTECH:   Client Code
 SL  . 1220' FSL & 330' FWL:   Surface Location
 PD  .                 GL:   Permanent Datum
 DAPD.F                10:   Feet Above Permanent Datum
 DD  .F              3034:   Depth driller
 DL  .F              3036:   Depth logger
 BLI .F              3034:   Bottom log interval
 TLI .F               214:   Top log interval
 CS1 .IN            8.625:   Casing size
 CBD1.      8.625" @ 204':   Casing driller 1
 CBL1.F               214:   Casing logger 1
 BS1 .IN            7.875:   Bit size
 BSD1.F              3034:   Depth drilled with bit1
 DFT .                KCL:   Type fluid in hole
 DFD .                  9:   Density
 DFV .                 34:   Viscosity
 DFPH.                7.2:   pH
 DFL .                8.8:   Fluid loss
 MSS .         CIRCULATED:   Source of sample
 RMS .OHMM           .112:   Rm
 MST .F                75:   Rm Meas. temp.
 RMF .OHMM           .085:   Rmf
 MFST.F                75:   Rmf Meas. temp.
 RMC .OHMM           .141:   Rmc
 MCST.F                75:   Rmc Meas. temp.
 MFSS.               MEAS:   Source Rmf.
 MCSS.               MEAS:   Source Rmc.
 RMB .OHMM           .067:   Rm. at BHT
 BHT .F               124:   BHT.
 TCS .HRS               1:   Time Circ. stopped
 MRT .F               124:   Maximum recorded temp.
 LUN .               6134:   Logging unit number
 LUL .              GLTTE:   Logging unit location
 ENGI.              GOULD:   Recorded By
 WITN.         PETTINGILL:   Witnessed by
 ORIG.       2.5"5" PRINT:   Origin of data
 UWI .     49025103930000:   Unique Well ID
 DICO. A2D TECHNOLOGIES, INC.:   Digitizing Company
~OTHER INFORMATION
~A   DEPT     CALD         GRD      CORR       TEND        SPR        ILD        ILM        SFL       RHOB   
# ...
  747.5000     8.2290    89.4790     0.0190   -46.6270   -67.3560     7.1050     9.3040    11.7590     2.5010
  748.0000     8.1800    89.0210     0.0250   -49.9870   -67.0290     7.5280     9.1870    12.3920     2.5170
  748.5000     8.1650    89.7460     0.0300   -56.5870   -66.7210     7.9190     9.2170    13.0240     2.5280
  749.0000     8.2190    90.7660     0.0270   -63.1880   -66.3670     8.3110     9.2520    13.4910     2.5260
  749.5000     8.3210    90.6320     0.0350   -51.5500   -66.3230     8.5820     9.2870    13.4200     2.5420
  750.0000     8.3090    90.4670     0.0450   -21.8930   -66.2660     8.6900     9.3220    13.3490     2.5530
  750.5000     8.2440    91.6710     0.0460   -15.6350   -66.2280     8.7970     9.3570    13.2780     2.5560
  751.0000     8.1650    91.7280     0.0430   -45.1590   -66.1780     8.9050     9.4890    13.2070     2.5430
  751.5000     8.0870    91.2190     0.0380   -44.9550   -66.1320     9.0130     9.6200    13.1360     2.5350
  752.0000     8.0460    90.6970     0.0330    32.3700   -66.0860     9.1870     9.7520    13.0210     2.5320
  752.5000     8.0670    90.7310     0.0280    13.3220   -66.0380     9.1130     9.8870    13.0590     2.5190
  753.0000     8.1560    91.5320     0.0250   -46.6270   -65.9950     8.9170     9.6230    13.1590     2.5120
  753.5000     8.2020    92.8390     0.0260   -31.0910   -65.9440     8.7220     9.3530    13.2620     2.5140
  754.0000     8.0740    94.1360     0.0270   -16.8650   -65.9490     8.5270     9.0830    12.8080     2.5090
  754.5000     8.0270    95.3190     0.0220    32.4800   -65.9600     8.3310     9.0200    12.3230     2.5060
  755.0000     8.0220    94.8610     0.0220   -11.8060   -66.2930     8.1360     9.0200    12.2740     2.5110
  755.5000     8.1460    94.5630     0.0240   -46.6270   -66.6420     7.9320     9.3780    12.2240     2.5300
  756.0000     8.2870    94.8680     0.0220   -46.6270   -66.9970     7.8570     9.8870    12.1730     2.5190
  756.5000     8.2270    94.7030     0.0160   -46.6270   -67.3800     7.7780     9.8460    12.1220     2.5140
  757.0000     8.1390    93.6260     0.0110   -46.6270   -67.4190     7.6980     9.7300    11.9890     2.5080
  757.5000     8.1250    92.5890     0.0130   -46.6270   -67.1580     7.6460     9.6140    11.7870     2.5080
  758.0000     8.2520    91.5980     0.0180   -46.6270   -66.9320     7.7950     9.4980    11.4510     2.5200
  758.5000     8.3660    90.6090     0.0290   -46.6270   -66.7050     8.0710     9.3820    11.6680     2.5250
  759.0000     8.3360    90.1230     0.0310   -44.8680   -66.4700     8.3470     9.1870    12.3200     2.5270
  759.5000     8.1870    89.8150     0.0290   -33.6850   -66.2420     8.6230     9.2230    13.0210     2.5240
  760.0000     8.1040    90.1960     0.0240   -22.5020   -66.0100     8.8990     9.3330    13.1130     2.5070
  760.5000     8.1650    91.1910     0.0160   -11.3190   -65.8030     9.1750     9.4430    13.2130     2.4920
  761.0000     8.2600    90.5500     0.0130    -0.1350   -65.6080     9.5230     9.5530    13.5340     2.4860
  761.5000     8.2970    89.9660     0.0170    -6.3700   -65.4110     9.5050     9.6630    14.0630     2.4960
  762.0000     8.1370    90.9580     0.0210   -19.3190   -65.2140     9.4680     9.7730    14.5370     2.5000
  762.5000     8.0080    90.3220     0.0200   -32.2680   -65.0230     9.4320     9.8820    14.5370     2.4910
  763.0000     8.0050    89.8700     0.0200   -45.2170   -64.8160     9.3950     9.9920    14.5370     2.4900
  763.5000     8.0810    89.8610     0.0260   -35.6650   -64.8270     9.3590    10.0700    14.5370     2.5000
  764.0000     8.1980    89.2900     0.0300   -23.3630   -64.9490     9.3220     9.8720    14.5370     2.5070
  764.5000     8.1140    89.3340     0.0290   -11.0620   -65.0590     9.2850     9.6500    14.5370     2.5130
  765.0000     7.9660    89.9210     0.0270   -14.2200   -65.1600     9.2490     9.3570    14.5370     2.5160
  765.5000     7.9680    90.7030     0.0260   -25.1540   -65.2920     9.2120     9.5080    14.5370     2.5160
  766.0000     8.1000    91.4000     0.0250   -36.0890   -65.4110     9.1760     9.7300    14.2540     2.5100
  766.5000     8.2270    91.3410     0.0240   -46.6270   -65.5360     9.1390    10.0700    13.9310     2.5100
  767.0000     8.3030    90.7330     0.0230   -48.3270   -65.6580     9.1030     9.9850    13.7580     2.5120
  767.5000     8.1280    90.5090     0.0230   -49.9670   -65.7760     9.0660     9.8020    13.9460     2.4970
  768.0000     8.0280    90.6910     0.0230   -51.6070   -65.9140     9.0300     9.6180    14.1220     2.5020
  768.5000     8.0890    90.8750     0.0260   -53.2470   -65.8530     8.9930     9.4350    14.2980     2.5120
  769.0000     8.2540    91.1250     0.0300   -54.8880   -65.6720     8.9570     9.1870    14.5370     2.5180
  769.5000     8.3410    91.5940     0.0330   -56.5480   -65.5110     8.9200     9.2760    14.2800     2.5230
  770.0000     8.1510    92.0540     0.0330   -56.5480   -65.3480     8.8840     9.4130    13.8840     2.5310
  770.5000     7.9820    92.3730     0.0350   -56.5480   -65.1840     8.8450     9.5510    13.2620     2.5290
  771.0000     7.9890    91.5020     0.0360   -56.5480   -65.0230     8.8020     9.6880    13.3960     2.5220
  771.5000     8.0490    90.9950     0.0330   -56.5480   -64.8460     8.7580     9.8260    13.7580     2.5200
  772.0000     8.2310    91.5260     0.0310   -56.5480   -64.7800     8.7140     9.9630    13.5540     2.5140
  772.5000     8.2810    92.0120     0.0260   -56.5480   -64.8540     8.6700    10.0700    13.2620     2.5090
  773.0000     8.1720    91.5270     0.0160   -56.5480   -64.9120     8.6270    10.0700    13.2620     2.4990
  773.5000     8.0680    90.8260     0.0070   -52.6490   -64.9720     8.5830    10.0700    13.2620     2.4820
  774.0000     8.0780    90.9860     0.0010   -45.2680   -65.0370     8.5390    10.0700    13.2620     2.4760
  774.5000     8.1740    91.3520     0.0100   -37.8870   -65.0940     8.4950    10.0700    13.2620     2.4870
  775.0000     8.2640    91.7720     0.0200   -30.5060   -65.1500     8.4520    10.0700    13.2620     2.5150
  775.5000     8.1950    92.1960     0.0290   -21.9580   -65.0650     8.3810    10.0700    13.2620     2.5130
  776.0000     8.1100    91.7820     0.0300    -5.5560   -64.9810     8.4250    10.0700    13.1570     2.5070
  776.5000     8.1640    91.2640     0.0310    10.8470   -64.8940     8.5370    10.0700    13.0250     2.5110
  777.0000     8.2080    90.7420     0.0330    31.3490   -64.7830     8.6480    10.0700    12.8920     2.5230
  777.5000     8.2630    90.2540     0.0350    35.7140   -64.9320     8.7340    10.0700    12.7840     2.5190
  778.0000     8.2830    89.8230     0.0310     9.2190   -65.2840     8.8030    10.0700    13.2360     2.5120
  778.5000     8.2190    89.3970     0.0280   -17.2770   -65.6130     8.8710    10.0700    13.6180     2.5110
  779.0000     8.1210    89.0190     0.0250   -30.8410   -65.9260     8.9390    10.0700    14.0130     2.4990
  779.5000     8.1360    89.0320     0.0160   -40.0670   -66.2570     9.0070    10.0700    13.8100     2.4930
  780.0000     8.2540    89.2340     0.0150   -49.2930   -66.1180     9.0750    10.0700    13.5080     2.4970
  780.5000     8.3210    89.6390     0.0230   -54.3340   -65.8070     9.1430    10.0700    13.6480     2.5010
  781.0000     8.2870    90.7730     0.0310   -43.9750   -65.5030     9.3570    10.0700    13.9000     2.5160
  781.5000     8.1920    90.7990     0.0330   -33.6150   -65.2070     9.3100    10.0700    14.0130     2.5350
  782.0000     8.1050    88.9600     0.0350   -23.2560   -64.8960     9.2600    10.0060    13.8790     2.5320
  782.5000     8.1030    88.1470     0.0350   -18.7500   -64.7040     9.2100     9.8190    13.7620     2.5250
  783.0000     8.1850    88.5670     0.0350   -23.6710   -64.6140     9.1600     9.6320    13.6450     2.5170
  783.5000     8.2740    89.2240     0.0330    -8.7300   -64.5160     9.1100     9.4450    13.5280     2.5040
