~VERSION INFORMATION
 VERS.                2.0:   CWLS LOG ASCII STANDARD - VERSION 2.0
 WRAP.                 NO:   ONE LINE PER DEPTH STEP
~WELL INFORMATION
#MNEM.UNIT      DATA TYPE    INFORMATION
#----------   ------------   ------------------------------
 STRT.F            1.5000:   START DEPTH
 STOP.F          985.0000:   STOP DEPTH
 STEP.F            0.5000:   STEP LENGTH
 NULL.          -999.2500:   NO VALUE
 COMP.       FLUOR DANIEL:   COMPANY
 WELL.  FLUOR 41 "X" #1-2:   WELL
 FLD .          N.P.R. #3:   FIELD
 LOC .       S2 T38N R78W:   LOCATION
 CNTY.            NATRONA:   COUNTY
 STAT.            WYOMING:   STATE
 CTRY. UNITED STATES OF AMERICA:   COUNTRY
 SRVC.     ATLAS WIRELINE:   SERVICE COMPANY
 DATE.        09-AUG-1994:   LOGDATE
 API .     49025226450000:   API NUMBER
~CURVE INFORMATION
#MNEM.UNIT       API CODE    CURVE DESCRIPTION
#----------   ------------   ------------------------------
 DEPT.F                  :   
 GRR .GAPI   07 310 01 00:   GAMMA RAY FROM RESISTIVITY
 TENR.LBS    07 635 01 00:   TENSION FROM RESISTIVITY
 RILD.OHMM   07 120 46 00:   INDUCTION LOG DEEP RESISTIVITY
 RILM.OHMM   07 120 44 00:   INDUCTION LOG MEDIUM RESISTIVITY
~PARAMETER INFORMATION
#MNEM.UNIT          VALUE    DESCRIPTION
#----------   ------------   ------------------------------
 EKB .F         5143.0000:   Kelly bushing
 EGL .F         5133.0000:   Ground level
 EDF .F         5142.0000:   Drilling floor
 TD  .F          970.0000:   Total depth
 CLNT.            A2DTECH:   Client Code
 PD  .                 GL:   Permanent Datum
 EPD .F              5133:   Elevation Permanent Datum
 LMF .                 KB:   Log Measured From
 DMF .                 KB:   Drilling Measured From
 DAPD.F                10:   Feet Above Permanent Datum
 DATE.        09-AUG-1994:   Date Logged [DD-MMM-YYYY]
 DD  .F               970:   Depth driller
 DL  .F               970:   Depth logger
 BLI .F               962:   Bottom log interval
 TLI .F                 0:   Top log interval
 CS1 .IN            9.625:   Casing size
 CBD1.       9.625" @ 56':   Casing driller 1
 CBL1.F                59:   Casing logger 1
 BS1 .IN             8.75:   Bit size
 BSD1.F               970:   Depth drilled with bit1
 DFT .                AIR:   Type fluid in hole
 MRT .F                94:   Maximum recorded temp.
 LUN .            HL 6530:   Logging unit number
 LUL .             CASPER:   Logging unit location
 ENGI.      PAT RASMUSSEN:   Recorded By
 WITN.        GARY STRONG:   Witnessed by
 ORIG.           5" PRINT:   Origin of data
 UWI .     49025226450000:   Unique Well ID
 DICO. A2D TECHNOLOGIES, INC.:   Digitizing Company
 SL  . 173' FNL & 2204' FWL:   Surface Location
~OTHER INFORMATION
~A    DEPT      GRR      TENR       RILD       RILM   
# ...
  658.5000   129.1830   -18.9461     7.4529     7.4733
  659.0000   125.8387   -18.6532     7.3991     7.4194
  659.5000   124.9223   -18.3603     7.2948     7.3658
  660.0000   125.2199   -18.0674     7.1919     7.3126
  660.5000   128.5944   -25.3046     7.1400     7.2094
  661.0000   130.6709    -9.9398     7.0885     7.0583
  661.5000   127.9322    -9.5853     6.9885     6.9586
  662.0000   125.4983    -9.2924     6.8900     6.9568
  662.5000   125.7974   -16.6029     6.8880     6.9548
  663.0000   127.0040   -16.2367     6.8858     6.9042
  663.5000   127.9085   -15.9439     6.8839     6.8544
  664.0000   128.2064   -23.1811     6.7868     6.8525
  664.5000   126.9863   -22.8881     6.5072     6.5700
  665.0000   125.4427   -30.1254     6.1101     6.1687
  665.5000   125.1520   -29.7592     5.8583     5.9144
  666.0000   125.1461   -29.4663     5.6958     5.7102
  666.5000   125.4452   -29.1734     5.5377     5.5516
  667.0000   127.8657   -28.9157     5.4974     5.5115
  667.5000   131.1982   -28.5876     5.4959     5.5486
  668.0000   131.8008   -28.2947     5.4944     5.5855
  668.5000   128.7585   -20.4717     5.4930     5.7821
  669.0000   123.8968   -20.1788     5.4915     6.0279
  669.5000   123.5874   -19.8795     5.5670     6.1105
  670.0000   127.8289   -19.5197     5.8031     6.1946
  670.5000   129.6439   -11.6967     6.1340     6.2799
  671.0000   129.9430    -3.8737     6.4025     6.4109
  671.5000   130.5426    -3.5808     6.6186     6.5933
  672.0000   133.2681    -3.2879     6.6635     6.7750
  672.5000   135.9936   -10.5983     6.7083     6.7727
  673.0000   137.8088   -17.7711     6.7060     6.7238
  673.5000   137.4992   -25.0000     6.7042     6.7220
  674.0000   133.1472   -17.1687     6.6558     6.6734
  674.5000   131.4176   -16.8103     6.5619     6.6716
  675.0000   132.9292   -16.5175     6.4694     6.6235
  675.5000   132.9218   -16.2245     6.4625     6.5300
  676.0000   132.9159   -15.9316     6.3760     6.4378
  676.5000   131.0890   -15.6387     6.3300     6.3913
  677.0000   129.8692   -15.3458     6.2407     6.2569
  677.5000   131.0772    -7.5228     6.0254     6.0832
  678.0000   134.7214    -7.2289     5.6577     5.7116
  678.5000   135.9213    -6.9277     5.3124     5.3255
  679.0000   131.3616    -6.5709     4.8174     4.9310
  679.5000   127.4103    -6.2779     4.3984     4.5977
  680.0000   127.1024    -5.9850     4.3370     4.4390
  680.5000   129.2194    -5.6922     4.3662     4.4069
  681.0000   127.6961     2.1309     4.4259     4.4723
  681.5000   127.3867     2.4238     4.4868     4.6245
  682.0000   129.2017    -4.8193     4.5803     4.7540
  682.5000   132.5648    -4.5181     4.8754     4.8532
  683.0000   135.2597    -4.2169     5.1535     5.1302
  683.5000   133.7349   -11.4648     5.4474     5.6547
  684.0000   131.6045   -11.0987     5.7999     5.9359
  684.5000   130.9917   -18.4091     6.0506     6.1448
  685.0000   133.4137   -10.5129     6.2567     6.3640
  685.5000   138.2636    -2.6898     6.4314     6.6774
  686.0000   138.2577    -2.3969     6.6113     6.8167
  686.5000   135.8239    -2.1041     6.7023     6.8625
  687.0000   135.2110    -9.3373     6.7949     6.9082
  687.5000   137.4305   -16.5785     6.9361     6.9551
  688.0000   142.4815   -16.2124     7.0315     7.0504
  688.5000   143.3875   -15.9194     7.1312     7.1479
  689.0000   140.3453   -15.6265     7.2263     7.3476
  689.5000   133.3591    -7.8035     7.2749     7.4487
  690.0000   131.5322     0.0195     7.2724     7.4988
  690.5000   131.5263     0.3124     7.2704     7.5492
  691.0000   133.0379     0.6053     7.2685     7.4422
  691.5000   135.2230     0.8983     7.3685     7.4402
  692.0000   136.3645    -6.3390     7.6276     7.7020
  692.5000   129.6803   -13.5762     7.6789     7.8086
  693.0000   130.2829   -20.7402     7.6767     7.7517
  693.5000   133.3104   -20.4473     7.6742     7.7496
  694.0000   129.3591   -20.1544     7.7797     7.8017
  694.5000   128.1393   -34.9949     7.7776     7.7453
  695.0000   129.0438    -4.5083     7.7755     7.7428
  695.5000   130.8589     3.3147     7.7734     7.6869
  696.0000   130.7964    -3.9225     7.7713     7.6848
  696.5000   128.4176   -18.6166     7.6617     7.6293
  697.0000   128.1083   -18.3237     7.6064     7.3148
  697.5000   129.9233   -18.0308     7.4939     7.2115
  698.0000   136.5942   -17.7379     7.3415     7.1097
  698.5000   141.1421   -17.4450     7.0391     6.9605
  699.0000   140.8312   -17.1521     6.9398     6.8147
  699.5000   140.2184   -24.3893     6.7472     6.6714
  700.0000   138.9985   -24.0964     6.4127     6.4369
  700.5000   136.2544   -22.1776     5.8661     5.7996
  701.0000   134.1183   -15.8994     5.2822     5.2585
  701.5000   133.4992    -9.6212     4.8697     4.7568
  702.0000   133.1816    -7.5253     3.9392     4.1456
  702.5000   132.2594    -7.1536     3.4019     3.4092
  703.0000   132.2478    -6.7094     2.8771     2.9645
  703.5000   134.0570    -6.3468     2.6089     2.5778
  704.0000   136.4734   -13.5143     2.3988     2.4371
  704.5000   135.1502   -13.1517     2.2659     2.2720
  705.0000   127.6458   -12.7891     2.1743     2.2713
  705.5000   123.9923   -12.4247     2.1585     2.2866
  706.0000   123.0701    -4.4431     2.2033     2.3177
  706.5000   125.1829   -11.7013     2.3126     2.4328
  707.0000   133.0619   -11.2480     2.5310     2.7765
  707.5000   138.2501   -10.8854     2.9360     3.1214
  708.0000   140.0189   -10.5228     3.3419     3.6161
  708.5000   139.7008   -10.1602     3.8137     4.1558
  709.0000   139.3856    -9.7891     4.4130     4.6771
  709.5000   139.0705    -1.8142     4.7629     5.1550
  710.0000   139.6658    -1.4516     5.2859     5.3734
  710.5000   143.0165     6.4411     5.6298     5.6006
  711.0000   145.1053    14.3338     5.7429     5.7974
  711.5000   143.8767    14.6964     5.8618     5.9593
  712.0000   144.4720     7.5289     5.8191     5.9160
  712.5000   144.7667     0.3614     5.7372     5.8729
  713.0000   144.1452    -6.8061     5.8969     5.9534
  713.5000   142.9195    -6.3529     5.8539     5.9509
  714.0000   143.9511    -5.9902     5.8109     5.8665
  714.5000   148.9631    -5.6276     5.5711     5.6243
  715.0000   151.6857    -5.2711     5.1944     5.2804
  715.5000   148.6362    -4.8946     4.8771     4.9231
  716.0000   148.0176    -4.4492     4.6434     4.7199
  716.5000   148.3094    -4.0866     4.4794     4.5831
  717.0000   149.8472   -11.3447     4.2976     4.4295
  717.5000   152.5320   -18.5123     4.2367     4.3667
  718.0000   149.4854   -18.0590     4.1767     4.3349
  718.5000   144.9214   -17.6958     4.1753     4.3334
  719.0000   141.2679   -17.3193     4.2620     4.4545
  719.5000   141.2281   -16.8805     4.4448     4.6106
  720.0000   144.4205   -16.5663     4.7611     4.7725
  720.5000   151.2451   -16.1898     5.0323     5.0096
  721.0000   153.9678   -15.7927     5.3189     5.3322
  721.5000   150.9182    -7.9000     5.6219     5.7956
  722.0000   147.2637     0.0000     5.8599     6.0834
  722.5000   146.0381     0.4460     6.0663     6.3560
  723.0000   147.8474     0.8086     6.4106     6.7021
  723.5000   149.9601     1.1712     6.6357     6.8415
  724.0000   145.9910     1.5338     6.7735     6.9838
  724.5000   140.8291     1.8964     6.9626     7.1290
  725.0000   141.4245     2.2590     7.0581     7.1266
  725.5000   143.5372    -4.9085     7.0556     7.1237
  726.0000   148.9884   -12.0760     7.0042     6.9739
  726.5000   148.6732   -11.6227     6.8565     6.8750
  727.0000   148.3580    -3.7300     6.7125     6.7775
  727.5000   148.0425     4.1627     6.5714     6.6814
  728.0000   144.9934    19.5856     6.3443     6.5867
  728.5000   143.7677    19.9548     6.2110     6.4029
  729.0000   144.6665    12.8713     6.0686     6.0958
  729.5000   146.1723     5.6132     5.7887     5.7232
  730.0000   147.3746    -1.4637     5.4350     5.3359
  730.5000   148.6050    -8.7219     5.0324     4.9749
  731.0000   150.6867   -15.8133     4.6596     4.8029
