~VERSION INFORMATION
 VERS.                2.0:   CWLS LOG ASCII STANDARD - VERSION 2.0
 WRAP.                 NO:   ONE LINE PER DEPTH STEP
~WELL INFORMATION
#MNEM.UNIT      DATA TYPE    INFORMATION
#----------   ------------   ------------------------------
 STRT.F          590.0000:   START DEPTH
 STOP.F         3428.0000:   STOP DEPTH
 STEP.F            0.5000:   STEP LENGTH
 NULL.          -999.2500:   NO VALUE
 COMP.    FENIX & SCISSON:   COMPANY
 WELL. FENIX NPR 3 "AX" #25-27:   WELL
 FLD .                NPR:   FIELD
 LOC .      S27 T39N R78W:   LOCATION
 CNTY.            NATRONA:   COUNTY
 STAT.            WYOMING:   STATE
 CTRY. UNITED STATES OF AMERICA:   COUNTRY
 SRVC.       SCHLUMBERGER:   SERVICE COMPANY
 DATE.        13-AUG-1981:   LOGDATE
 API .     49025108780000:   API NUMBER
~CURVE INFORMATION
#MNEM.UNIT       API CODE    CURVE DESCRIPTION
#----------   ------------   ------------------------------
 DEPT.F                  :   
 CALD.IN     45 280 60 00:   CALIPER FROM DENSITY LOG
 GRD .GAPI   45 310 01 00:   GAMMA RAY FROM DENSITY LOG
 CORR.G/C3   45 356 01 00:   DENSITY CORRECTION
 RHOB.G/C3   45 350 01 00:   BULK DENSITY
 NPHI.DEC    42 890 03 00:   NEUTRON POROSITY SANDSTONE
 TENR.LBS    07 635 01 00:   TENSION
 SPR .MV     07 010 01 00:   SPONTANEOUS POTENTIAL
 ILD .OHMM   07 120 46 00:   INDUCTION LOG DEEP RESISTIVITY
 ILM .OHMM   07 120 44 00:   INDUCTION LOG MEDIUM RESISTIVITY
 SFL .OHMM   07 220 01 00:   SHALLOW FOCUSED LOG RESISTIVITY
 TEND.LBS    45 635 01 00:   TENSION FROM DENSITY LOG
~PARAMETER INFORMATION
#MNEM.UNIT          VALUE    DESCRIPTION
#----------   ------------   ------------------------------
 EKB .F         5057.0000:   Kelly bushing
 EGL .F         5047.0000:   Ground level
 EDF .F            0.0000:   Drilling floor
 TD  .F         3415.0000:   Total depth
 DATE.        13-AUG-1981:   Date logged
 CLNT.            A2DTECH:   Client Code
 SL  . 2100' FSL & 1050' FWL:   Surface Location
 PD  .                 GL:   Permanent Datum
 EPD .F              5047:   Elevation Permanent Datum
 LMF .                 KB:   Log Measured From
 DMF .                 KB:   Drilling Measured From
 DAPD.F                10:   Feet Above Permanent Datum
 DD  .F              3400:   Depth driller
 DL  .F              3415:   Depth logger
 BLI .F              3409:   Bottom log interval
 TLI .F               603:   Top log interval
 CS1 .IN            9.625:   Casing size
 CBD1.      9.625" @ 607':   Casing driller 1
 CBL1.F               603:   Casing logger 1
 BS1 .IN            7.875:   Bit size
 BSD1.F              3400:   Depth drilled with bit1
 DFT .                FGM:   Type fluid in hole
 DFD .                8.7:   Density
 DFV .                 36:   Viscosity
 DFPH.                  9:   pH
 DFL .                 13:   Fluid loss
 MSS .           MUD/TANK:   Source of sample
 RMS .OHMM           1.69:   Rm
 MST .F                75:   Rm Meas. temp.
 RMF .OHMM           1.34:   Rmf
 MFST.F                75:   Rmf Meas. temp.
 MFSS.               MEAS:   Source Rmf.
 RMB .OHMM           1.09:   Rm. at BHT
 BHT .F               120:   BHT.
 TCS .HRS            2145:   Time Circ. stopped
 TLAB.HRS            0200:   Time logger at bottom
 MRT .F               120:   Maximum recorded temp.
 LUN .               8039:   Logging unit number
 LUL .               CSPR:   Logging unit location
 ENGI.            PURPICH:   Recorded By
 WITN.              FIVAS:   Witnessed by
 ORIG.           5" PRINT:   Origin of data
 UWI .     49025108780000:   Unique Well ID
 DICO. A2D TECHNOLOGIES, INC.:   Digitizing Company
~OTHER INFORMATION
~A   DEPT     CALD         GRD      CORR       RHOB         NPHI     TENR        SPR        ILD        ILM        SFL       TEND   
# ...
 1688.0000     8.4420    99.6350     0.0130     2.5510     0.3080   783.3230   -83.6880     7.5890     6.7340     8.9570   818.6730
 1688.5000     8.4410    96.5500     0.0070     2.5510     0.3030   783.4750   -83.5490     7.6610     6.7610     8.8760   818.8200
 1689.0000     8.4400    97.8840     0.0060     2.5490     0.3150   783.6270   -83.2380     7.7400     6.7870     8.9720   818.9680
 1689.5000     8.4390   100.6670     0.0040     2.5420     0.3200   783.7790   -82.9360     7.8110     6.8740     9.1100   819.1150
 1690.0000     8.4380   102.2720     0.0070     2.5450     0.3100   783.9310   -82.6350     7.7840     6.8650     9.2060   819.2630
 1690.5000     8.4370   102.6490     0.0140     2.5540     0.2920   784.0830   -82.3330     7.7620     6.8460     9.1970   819.4100
 1691.0000     8.4360   101.3380     0.0230     2.5630     0.2940   784.2350   -82.0310     7.7410     6.8270     9.1670   819.5570
 1691.5000     8.4320   100.5960     0.0290     2.5630     0.2970   784.3880   -81.7290     7.7200     6.8090     9.1370   819.7050
 1692.0000     8.4090   101.2630     0.0260     2.5570     0.3080   784.5400   -81.4260     7.6990     6.7900     9.1220   819.8520
 1692.5000     8.3860   103.5360     0.0230     2.5520     0.3280   784.6920   -81.1240     7.6780     6.7720     8.9650   820.0000
 1693.0000     8.3760   104.9830     0.0240     2.5530     0.3220   784.8440   -80.8550     7.6570     6.7530     8.8220   820.1470
 1693.5000     8.3760   102.6470     0.0250     2.5550     0.3160   784.9960   -80.9660     7.6360     6.7350     8.6790   820.2950
 1694.0000     8.3760    98.7030     0.0170     2.5640     0.3090   785.1480   -81.1710     7.6150     6.7160     8.5580   820.4420
 1694.5000     8.3760    95.3260     0.0070     2.5730     0.3060   785.3000   -81.6310     7.6000     6.6980     8.6060   820.5890
 1695.0000     8.3760    97.3310     0.0140     2.5750     0.2990   785.4520   -81.9940     7.6380     6.6880     8.6760   820.7370
 1695.5000     8.3760   100.4530     0.0310     2.5810     0.2990   785.6040   -82.3710     7.6700     6.8130     8.7460   820.8840
 1696.0000     8.3760   103.5890     0.0510     2.5910     0.3020   785.7570   -82.6880     7.6700     6.9080     9.1800   821.0320
 1696.5000     8.3760   106.7660     0.0560     2.6000     0.3110   785.9090   -82.8450     7.6530     7.0010    10.4650   821.1790
 1697.0000     8.3760   109.6980     0.0530     2.6010     0.3190   786.0610   -83.0510     7.6410     6.8710    10.9490   821.3270
 1697.5000     8.3760   108.3960     0.0500     2.6050     0.3170   786.2130   -83.2500     7.6290     6.7280     9.7920   821.4740
 1698.0000     8.3760   102.4810     0.0460     2.6050     0.3110   786.3650   -83.6490     7.6160     6.5670     8.9020   821.6210
 1698.5000     8.3900    97.0500     0.0370     2.5790     0.3070   786.5170   -84.0320     7.6040     6.6100     8.0650   821.7690
 1699.0000     8.4340    95.7120     0.0230     2.5530     0.3100   786.6690   -84.1130     7.5150     6.6880     8.0280   821.9160
 1699.5000     8.4420    95.9940     0.0200     2.5470     0.3120   786.8210   -83.8960     7.3460     6.6610     8.4760   822.0640
 1700.0000     8.4480    96.8360     0.0240     2.5550     0.3090   786.9740   -83.4230     7.2610     6.6220     8.9730   822.2110
 1700.5000     8.4530    98.0820     0.0300     2.5630     0.3020   787.1260   -82.8450     7.2610     6.5840     9.1220   822.3580
 1701.0000     8.4590   100.5720     0.0300     2.5670     0.2660   787.2780   -82.3580     7.2940     6.5450     8.7890   822.5060
 1701.5000     8.4650   102.9980     0.0320     2.5670     0.2770   787.4300   -82.0870     7.3300     6.5060     8.5330   822.6530
 1702.0000     8.4710   104.4670     0.0290     2.5600     0.2950   787.5820   -81.8260     7.3660     6.4480     8.2510   822.8010
 1702.5000     8.4750   105.2470     0.0220     2.5440     0.3120   787.7340   -81.6540     7.4020     6.4660     8.2510   822.9480
 1703.0000     8.4750   107.4460     0.0120     2.5280     0.3220   787.8860   -81.6450     7.4390     6.5000     8.2510   823.0960
 1703.5000     8.4750   109.6680     0.0080     2.5200     0.3190   788.0380   -81.6470     7.4750     6.5340     8.3370   823.2430
 1704.0000     8.4750   108.9650     0.0060     2.5180     0.3090   788.1900   -81.6470     7.5110     6.5680     8.6260   823.3900
 1704.5000     8.4750   105.7900     0.0160     2.5240     0.3010   788.3430   -81.6460     7.5480     6.6030     8.9150   823.5380
 1705.0000     8.4750   102.5260     0.0300     2.5420     0.3030   788.4950   -81.6490     7.5840     6.6370     9.2900   823.6850
 1705.5000     8.4750   101.8560     0.0420     2.5660     0.3090   788.6470   -81.8130     7.6200     6.6710     9.1310   823.8330
 1706.0000     8.4750   104.4440     0.0470     2.5760     0.3140   788.7990   -81.9910     7.6570     6.7050     8.8110   823.9800
 1706.5000     8.4750   107.2580     0.0360     2.5720     0.3140   788.9510   -82.2830     7.6930     6.7400     8.6700   824.1280
 1707.0000     8.4750   107.0750     0.0330     2.5640     0.3110   789.1030   -82.3950     7.7290     6.7740     8.8380   824.2750
 1707.5000     8.4750   106.7250     0.0310     2.5520     0.2990   789.2550   -82.3130     7.7400     6.8110     9.0390   824.4220
 1708.0000     8.4750   106.3880     0.0310     2.5450     0.2950   789.4070   -82.2220     7.6500     6.7820     8.9840   824.5700
 1708.5000     8.4750   106.2360     0.0260     2.5470     0.2940   789.5600   -82.0700     7.5810     6.7240     8.8730   824.7170
 1709.0000     8.4750   106.4240     0.0300     2.5600     0.2980   789.7120   -81.9170     7.5120     6.6650     8.7150   824.8650
 1709.5000     8.4750   106.7310     0.0330     2.5710     0.3030   789.8640   -81.9420     7.4430     6.6070     8.6360   825.0120
 1710.0000     8.4750   107.6340     0.0340     2.5720     0.3070   790.0160   -82.1160     7.3950     6.5480     8.5930   825.1590
 1710.5000     8.4770   108.5910     0.0400     2.5650     0.3250   790.1680   -82.2900     7.4680     6.5080     8.5320   825.3070
 1711.0000     8.4820   110.7680     0.0680     2.5860     0.3340   790.3200   -82.4280     7.4800     6.5740     8.4700   825.4540
 1711.5000     8.4870   112.5480     0.0900     2.6110     0.3250   790.4720   -82.3380     7.4920     6.5840     8.4030   825.6020
 1712.0000     8.4910   113.5360     0.1060     2.6240     0.3100   790.6240   -82.2430     7.5040     6.5940     8.5450   825.7490
 1712.5000     8.4920   114.0980     0.1150     2.6330     0.2960   790.7770   -82.1070     7.5160     6.6040     8.7020   825.8970
 1713.0000     8.4730   113.9550     0.1110     2.6270     0.2930   790.9290   -81.9660     7.5270     6.6140     8.8760   826.0440
 1713.5000     8.4560   113.8160     0.1020     2.6120     0.2920   791.0810   -81.8600     7.6000     6.6240     9.0390   826.1910
 1714.0000     8.4560   112.9350     0.0890     2.5990     0.2960   791.2330   -81.9880     7.6150     6.6940     8.9980   826.3390
 1714.5000     8.4570   110.9270     0.0750     2.5880     0.2990   791.3850   -82.1150     7.6310     6.6850     8.9570   826.4860
 1715.0000     8.4580   108.9040     0.0620     2.5820     0.3090   791.5370   -82.2340     7.6470     6.6890     8.8760   826.6340
 1715.5000     8.4590   108.4300     0.0490     2.5710     0.3180   791.6890   -82.0520     7.6630     6.6880     8.9570   826.7810
 1716.0000     8.4590   110.4900     0.0400     2.5480     0.3140   791.8410   -81.8510     7.6800     6.6880     9.0050   826.9290
 1716.5000     8.4600   112.7740     0.0340     2.5270     0.3070   791.9930   -81.7800     7.6960     6.6880     9.0740   827.0760
 1717.0000     8.4610   113.0690     0.0380     2.5340     0.3040   792.1460   -81.7120     7.7120     6.6880     9.1220   827.2230
 1717.5000     8.4620   109.1270     0.0690     2.5640     0.3020   792.2980   -81.6570     7.7290     6.6880     8.9990   827.3710
 1718.0000     8.4630   104.4520     0.1080     2.5880     0.3040   792.4500   -82.0150     7.7400     6.6880     8.8760   827.5180
