~VERSION INFORMATION
 VERS.                2.0:   CWLS LOG ASCII STANDARD - VERSION 2.0
 WRAP.                 NO:   ONE LINE PER DEPTH STEP
~WELL INFORMATION
#MNEM.UNIT      DATA TYPE    INFORMATION
#----------   ------------   ------------------------------
 STRT.F           31.5000:   START DEPTH
 STOP.F         3370.0000:   STOP DEPTH
 STEP.F            0.5000:   STEP LENGTH
 NULL.          -999.2500:   NO VALUE
 COMP. LAWRENCE ALLISON & ASSOC - WEST:   COMPANY
 WELL. LAWRENCE "AX" #46-34:   WELL
 FLD .             NPR #3:   FIELD
 LOC .      S34 T39N R78W:   LOCATION
 CNTY.            NATRONA:   COUNTY
 STAT.            WYOMING:   STATE
 CTRY. UNITED STATES OF AMERICA:   COUNTRY
 SRVC.       SCHLUMBERGER:   SERVICE COMPANY
 DATE.        30-APR-1986:   LOGDATE
 API .     49025111380000:   API NUMBER
~CURVE INFORMATION
#MNEM.UNIT       API CODE    CURVE DESCRIPTION
#----------   ------------   ------------------------------
 DEPT.F                  :   
 TENR.LBS    07 635 01 00:   TENSION FROM RESISTIVITY
 GRR .GAPI   07 310 01 00:   GAMMA RAY FROM RESISTIVITY
 CALR.IN     07 280 01 00:   CALIPER FROM RESISTIVITY
 SPR .MV     07 010 01 00:   SPONTANEOUS POTENTIAL
 TEND.LBS    45 635 01 00:   TENSION FROM DENSITY LOG
 DEN .G/C3   45 350 01 00:   BULK DENSITY
 CORR.G/C3   45 356 01 00:   DENSITY CORRECTION
 CNC .DEC    42 890 03 00:   NEUTRON PORISITY SANDSTONE
 RFOC.OHMM   07 220 04 00:   RESISTIVITY FOCUSED LOG
 RILD.OHMM   07 120 46 00:   RESISTIVITY INDUCTION LOG DEEP
 RILM.OHMM   07 120 44 00:   RESISTIVITY INDUCTION LOG MEDIUM
~PARAMETER INFORMATION
#MNEM.UNIT          VALUE    DESCRIPTION
#----------   ------------   ------------------------------
 EKB .F         5094.0000:   Kelly bushing
 EGL .F         5082.0000:   Ground level
 EDF .F            0.0000:   Drilling floor
 TD  .F         3370.0000:   Total depth
 DATE.        30-APR-1986:   Date logged
 CLNT.            A2DTECH:   Client Code
 SL  . 2462' FWL & 1545' FSL:   Surface Location
 PD  .                 GL:   Permanent Datum
 EPD .F              5082:   Elevation Permanent Datum
 LMF .                 KB:   Log Measured From
 DMF .                 KB:   Drilling Measured From
 DAPD.F                12:   Feet Above Permanent Datum
 DD  .F              3370:   Depth driller
 DL  .F              3369:   Depth logger
 BLI .F              3367:   Bottom log interval
 CS1 .IN            8.625:   Casing size
 CBD1.      8.625" @ 642':   Casing driller 1
 CBL1.F               642:   Casing logger 1
 BS1 .IN            7.875:   Bit size
 BSD1.F              3370:   Depth drilled with bit1
 DFT .        POLYMER/KCL:   Type fluid in hole
 DFD .                8.9:   Density
 DFV .                 36:   Viscosity
 DFPH.                8.5:   pH
 DFL .               10.2:   Fluid loss
 MSS .           FLOWLINE:   Source of sample
 RMS .OHMM           .319:   Rm
 MST .F                79:   Rm Meas. temp.
 RMF .OHMM            .24:   Rmf
 MFST.F                79:   Rmf Meas. temp.
 RMC .OHMM            .40:   Rmc
 MCST.F                79:   Rmc Meas. temp.
 MFSS.               CALC:   Source Rmf.
 MCSS.               CALC:   Source Rmc.
 RMB .OHMM            .21:   Rm. at BHT
 BHT .F               117:   BHT.
 TCS .HRS               4:   Time Circ. stopped
 MRT .F               117:   Maximum recorded temp.
 LUN .            HL-6264:   Logging unit number
 LUL .           GILLETTE:   Logging unit location
 ENGI.     P. M. FAHLSING:   Recorded By
 WITN.             STRONG:   Witnessed by
 ORIG.        2" 5" PRINT:   Origin of data
 UWI .     49025111380000:   Unique Well ID
 DICO. A2D TECHNOLOGIES, INC.:   Digitizing Company
 TLI .                  0:   Top log interval
~OTHER INFORMATION
~A   DEPT     TENR        GRR       CALR        SPR       TEND        DEN       CORR        CNC       RFOC       RILD       RILM   
# ...
 1526.0000   -71.5190   100.1300     9.1440   -84.3430  -999.2500  -999.2500  -999.2500  -999.2500     7.3330     5.9450     5.8380
 1526.5000   -74.4730    99.8610     9.1450   -84.7260  -999.2500  -999.2500  -999.2500  -999.2500     7.1060     5.9500     5.8420
 1527.0000   -74.4730   101.8600     9.1480   -84.9020  -999.2500  -999.2500  -999.2500  -999.2500     6.8850     5.9540     5.8470
 1527.5000   -74.4730   107.1650     9.1500   -84.9260  -999.2500  -999.2500  -999.2500  -999.2500     6.8570     5.9590     5.8510
 1528.0000   -67.0850   109.7570     9.1490   -84.9610  -999.2500  -999.2500  -999.2500  -999.2500     6.9570     5.9630     5.8550
 1528.5000   -64.4430   107.4720     9.1460   -85.0000  -999.2500  -999.2500  -999.2500  -999.2500     7.0670     5.9670     5.8600
 1529.0000   -64.4430   104.6690     9.1450   -85.0270  -999.2500  -999.2500  -999.2500  -999.2500     6.9210     5.9720     5.8640
 1529.5000   -64.4430   102.5030     9.1420   -85.0740  -999.2500  -999.2500  -999.2500  -999.2500     6.8410     5.9760     5.8680
 1530.0000   -64.4430   100.4170     9.1410   -85.0920  -999.2500  -999.2500  -999.2500  -999.2500     6.9370     5.9800     5.8740
 1530.5000   -64.4430    99.6650     9.1390   -85.1080  -999.2500  -999.2500  -999.2500  -999.2500     7.0330     5.9630     5.8300
 1531.0000   -64.4430   100.3380     9.1370   -85.0920  -999.2500  -999.2500  -999.2500  -999.2500     7.1320     5.9030     5.7720
 1531.5000   -64.4430   102.0110     9.1350   -84.8680  -999.2500  -999.2500  -999.2500  -999.2500     6.9960     5.8440     5.7140
 1532.0000   -64.4430   104.9310     9.1330   -84.5910  -999.2500  -999.2500  -999.2500  -999.2500     6.8180     5.7850     5.6560
 1532.5000   -64.4430   104.1220     9.1310   -84.3330  -999.2500  -999.2500  -999.2500  -999.2500     6.6410     5.7260     5.5980
 1533.0000   -64.4430   103.0240     9.1290   -84.0630  -999.2500  -999.2500  -999.2500  -999.2500     6.5020     5.6670     5.5400
 1533.5000   -68.4480   105.1410     9.1270   -83.7980  -999.2500  -999.2500  -999.2500  -999.2500     6.5020     5.6080     5.4820
 1534.0000   -72.3590   107.7430     9.1250   -83.5320  -999.2500  -999.2500  -999.2500  -999.2500     6.5020     5.5490     5.4240
 1534.5000   -74.4730   107.7100     9.1230   -83.2660  -999.2500  -999.2500  -999.2500  -999.2500     6.5630     5.5050     5.4250
 1535.0000   -72.1220   104.7660     9.1210   -82.9980  -999.2500  -999.2500  -999.2500  -999.2500     6.4640     5.5560     5.4700
 1535.5000   -68.6140   105.4790     9.1190   -83.1640  -999.2500  -999.2500  -999.2500  -999.2500     6.3710     5.6030     5.5150
 1536.0000   -65.1070   106.6070     9.1170   -83.7680  -999.2500  -999.2500  -999.2500  -999.2500     6.4060     5.6500     5.5590
 1536.5000   -61.6000   107.5360     9.1150   -84.3840  -999.2500  -999.2500  -999.2500  -999.2500     6.7470     5.6970     5.6040
 1537.0000   -58.0930   108.1030     9.1130   -84.9870  -999.2500  -999.2500  -999.2500  -999.2500     6.7310     5.7440     5.6490
 1537.5000   -54.4130   105.6030     9.1110   -85.3020  -999.2500  -999.2500  -999.2500  -999.2500     6.7090     5.7890     5.6940
 1538.0000   -55.7290   103.1380     9.1110   -85.2990  -999.2500  -999.2500  -999.2500  -999.2500     6.6850     5.8330     5.7380
 1538.5000   -58.0940   100.7680     9.1110   -85.2990  -999.2500  -999.2500  -999.2500  -999.2500     6.8420     5.8760     5.7830
 1539.0000   -60.4590   100.5850     9.1120   -85.3020  -999.2500  -999.2500  -999.2500  -999.2500     7.0030     5.9280     5.8190
 1539.5000   -62.8250   100.9950     9.1130   -85.2970  -999.2500  -999.2500  -999.2500  -999.2500     7.1320     5.8280     5.6720
 1540.0000   -65.1900   102.0050     9.1140   -85.3030  -999.2500  -999.2500  -999.2500  -999.2500     6.8840     5.7010     5.5480
 1540.5000   -67.5550   103.8290     9.1150   -85.2970  -999.2500  -999.2500  -999.2500  -999.2500     6.6780     5.5750     5.4240
 1541.0000   -69.9200   103.7840     9.1160   -85.3030  -999.2500  -999.2500  -999.2500  -999.2500     6.5630     5.4480     5.3050
 1541.5000   -72.2850   104.8700     9.1170   -85.2960  -999.2500  -999.2500  -999.2500  -999.2500     6.4160     5.4050     5.3050
 1542.0000   -74.4730   106.4950     9.1180   -85.1530  -999.2500  -999.2500  -999.2500  -999.2500     6.3250     5.4220     5.3050
 1542.5000   -74.4730   108.3070     9.1190   -84.9040  -999.2500  -999.2500  -999.2500  -999.2500     6.2830     5.4390     5.3300
 1543.0000   -74.4730   109.6990     9.1200   -84.6780  -999.2500  -999.2500  -999.2500  -999.2500     6.2090     5.4560     5.3480
 1543.5000   -74.4730   108.8260     9.1210   -84.4220  -999.2500  -999.2500  -999.2500  -999.2500     6.4150     5.4730     5.3670
 1544.0000   -74.4730   105.4670     9.1220   -84.2040  -999.2500  -999.2500  -999.2500  -999.2500     6.6020     5.4890     5.3860
 1544.5000   -74.4730   101.1070     9.1230   -83.9410  -999.2500  -999.2500  -999.2500  -999.2500     6.7900     5.5060     5.4050
 1545.0000   -74.4730   101.2410     9.1240   -83.7130  -999.2500  -999.2500  -999.2500  -999.2500     6.8200     5.5230     5.4240
 1545.5000   -74.4730   103.5150     9.1250   -83.8440  -999.2500  -999.2500  -999.2500  -999.2500     6.7220     5.5400     5.4430
 1546.0000   -74.4730   105.6160     9.1260   -84.0730  -999.2500  -999.2500  -999.2500  -999.2500     6.6240     5.5570     5.4460
 1546.5000   -74.4730   107.7750     9.1270   -84.2650  -999.2500  -999.2500  -999.2500  -999.2500     6.5630     5.5330     5.4230
 1547.0000   -74.4730   106.4390     9.1280   -84.4840  -999.2500  -999.2500  -999.2500  -999.2500     6.5990     5.5100     5.4000
 1547.5000   -74.4730   104.9440     9.1290   -84.6890  -999.2500  -999.2500  -999.2500  -999.2500     6.6360     5.4870     5.3770
 1548.0000   -74.4730   106.3740     9.1300   -84.8930  -999.2500  -999.2500  -999.2500  -999.2500     6.6730     5.4630     5.3540
 1548.5000   -72.7600   107.7520     9.1290   -85.1130  -999.2500  -999.2500  -999.2500  -999.2500     6.5210     5.4400     5.3310
 1549.0000   -71.1170   107.5500     9.1280   -85.2890  -999.2500  -999.2500  -999.2500  -999.2500     6.2930     5.4170     5.3050
 1549.5000   -69.4740   107.1390     9.1270   -85.3130  -999.2500  -999.2500  -999.2500  -999.2500     6.0390     5.2570     5.1660
 1550.0000   -67.8320   106.1330     9.1260   -85.2860  -999.2500  -999.2500  -999.2500  -999.2500     6.1140     5.2670     5.1740
 1550.5000   -66.1890   104.2310     9.1250   -85.3140  -999.2500  -999.2500  -999.2500  -999.2500     6.2240     5.2760     5.1820
 1551.0000   -64.5470   104.0930     9.1240   -85.2860  -999.2500  -999.2500  -999.2500  -999.2500     6.3330     5.2840     5.1900
 1551.5000   -62.9040   105.1870     9.1230   -85.1130  -999.2500  -999.2500  -999.2500  -999.2500     6.3590     5.2920     5.1980
 1552.0000   -61.2620   105.1580     9.1220   -84.9620  -999.2500  -999.2500  -999.2500  -999.2500     6.3130     5.3000     5.2080
 1552.5000   -59.6190   103.6780     9.1210   -84.8120  -999.2500  -999.2500  -999.2500  -999.2500     6.2660     5.2610     5.1190
 1553.0000   -57.9760   102.2870     9.1200   -84.6270  -999.2500  -999.2500  -999.2500  -999.2500     6.3950     5.1420     5.0020
 1553.5000   -56.3340   100.1700     9.1190   -84.4690  -999.2500  -999.2500  -999.2500  -999.2500     6.5580     5.0230     4.8850
 1554.0000   -54.4130    97.0370     9.1180   -84.2930  -999.2500  -999.2500  -999.2500  -999.2500     6.6850     4.9040     4.7480
 1554.5000   -57.5880    98.0630     9.1170   -84.1270  -999.2500  -999.2500  -999.2500  -999.2500     6.2930     4.8460     4.7660
 1555.0000   -61.4090   101.6300     9.1160   -83.9570  -999.2500  -999.2500  -999.2500  -999.2500     5.9110     4.8680     4.7870
 1555.5000   -65.2310   105.3100     9.1150   -83.7870  -999.2500  -999.2500  -999.2500  -999.2500     5.5290     4.8900     4.8090
 1556.0000   -69.0520   107.7050     9.1140   -83.8340  -999.2500  -999.2500  -999.2500  -999.2500     5.2570     4.9120     4.8300
