~VERSION INFORMATION
 VERS.                2.0:   CWLS LOG ASCII STANDARD - VERSION 2.0
 WRAP.                 NO:   ONE LINE PER DEPTH STEP
~WELL INFORMATION
#MNEM.UNIT      DATA TYPE    INFORMATION
#----------   ------------   ------------------------------
 STRT.F          508.0000:   START DEPTH
 STOP.F         3170.0000:   STOP DEPTH
 STEP.F            0.5000:   STEP LENGTH
 NULL.          -999.2500:   NO VALUE
 COMP. FENIX & SCISSON - U.S. NAVY:   COMPANY
 WELL. FENIX NPR-3 "A" #58-34:   WELL
 FLD .                NPR:   FIELD
 LOC .      S34 T39N R78W:   LOCATION
 CNTY.            NATRONA:   COUNTY
 STAT.            WYOMING:   STATE
 CTRY. UNITED STATES OF AMERICA:   COUNTRY
 SRVC.       SCHLUMBERGER:   SERVICE COMPANY
 DATE.        15-MAR-1977:   LOGDATE
 API .     49025103180000:   API NUMBER
~CURVE INFORMATION
#MNEM.UNIT       API CODE    CURVE DESCRIPTION
#----------   ------------   ------------------------------
 DEPT.F                  :   
 CALD.IN     45 280 60 00:   CALIPER FROM DENSITY LOG
 GRD .GAPI   45 310 01 00:   GAMMA RAY FROM DENSITY LOG
 RHOB.G/C3   45 350 01 00:   BULK DENSITY
 CORR.G/C3   45 356 01 00:   DENSITY CORRECTION
 SPR .MV     07 010 01 00:   SPONTANEOUS POTENTIAL
 LL8 .OHMM   07 220 08 00:   LATEROLOG-8 RES.
 ILD .OHMM   07 120 46 00:   DEEP INDUCTION RESISTIVITY
 ILM .OHMM   07 120 44 00:   INDUCTION LOG MEDIUM RESISTIVITY
~PARAMETER INFORMATION
#MNEM.UNIT          VALUE    DESCRIPTION
#----------   ------------   ------------------------------
 EKB .F         5129.0000:   Kelly bushing
 EGL .F         5117.0000:   Ground level
 EDF .F            0.0000:   Drilling floor
 EPD .F            0.0000:   Permanent datum
 TD  .F         3170.0000:   Total depth
 DATE.        15-MAR-1977:   Date logged
 CLNT.            A2DTECH:   Client Code
 SL  . 2310' FEL & 330' FSL:   Surface Location
 PD  .                 GL:   Permanent Datum
 DAPD.F                12:   Feet Above Permanent Datum
 DD  .F              3170:   Depth driller
 DL  .F              3170:   Depth logger
 BLI .F              3169:   Bottom log interval
 TLI .F               508:   Top log interval
 CS1 .IN            8.625:   Casing size
 CBD1.      8.625" @ 524':   Casing driller 1
 CBL1.F               522:   Casing logger 1
 BS1 .IN            7.875:   Bit size
 BSD1.F              3170:   Depth drilled with bit1
 DFT .                KCL:   Type fluid in hole
 DFD .                9.2:   Density
 DFV .                 36:   Viscosity
 DFPH.                  9:   pH
 DFL .                  9:   Fluid loss
 MSS .                PIT:   Source of sample
 RMS .OHMM             .3:   Rm
 MST .F                58:   Rm Meas. temp.
 RMF .OHMM            .29:   Rmf
 MFST.F                58:   Rmf Meas. temp.
 MFSS.               MEAS:   Source Rmf.
 RMB .OHMM            .15:   Rm. at BHT
 BHT .F               120:   BHT.
 TCS .HRS               6:   Time Circ. stopped
 MRT .F               120:   Maximum recorded temp.
 LUN .               7711:   Logging unit number
 LUL .               CSPR:   Logging unit location
 ENGI.             SAYLER:   Recorded By
 WITN.               JAPP:   Witnessed by
 ORIG.           5" PRINT:   Origin of data
 UWI .     49025103180000:   Unique Well ID
 DICO. A2D TECHNOLOGIES, INC.:   Digitizing Company
~OTHER INFORMATION
~A   DEPT       CALD       GRD      RHOB        CORR       SPR        LL8        ILD        ILM   
# ...
 1196.5000     9.7328   154.5915     2.5236     0.0259   -52.4740     7.9699     6.6984     6.4234
 1197.0000     9.7325   154.3900     2.5256     0.0289   -52.4652     7.9725     6.6382     6.4755
 1197.5000     9.7321   153.7901     2.5325     0.0319   -52.4564     8.0483     6.8264     6.5280
 1198.0000     9.7318   155.7700     2.5275     0.0288   -52.6670     8.1249     6.8914     6.5810
 1198.5000     9.7317   156.7580     2.5235     0.0178   -52.8776     8.1275     6.8936     6.6344
 1199.0000     9.6318   153.5798     2.5225     0.0158   -53.0881     8.1301     6.8958     6.6882
 1199.5000     9.6315   151.1951     2.5195     0.0158   -53.2987     8.1327     6.9614     6.7424
 1200.0000     9.6311   147.8192     2.5145     0.0148   -53.5093     8.5161     6.9636     6.7971
 1200.5000     9.5975   147.6435     2.5228     0.0157   -53.6926     8.1665     7.0885     6.8522
 1201.0000     9.5906   148.0059     2.5304     0.0177   -53.5068     8.2118     7.1589     6.9299
 1201.5000     9.5704   147.6033     2.5424     0.0247   -53.5058     8.2880     7.2253     7.0084
 1202.0000     9.5501   146.6079     2.5554     0.0297   -54.0821     8.5194     7.2924     7.0591
 1202.5000     9.5697   143.4260     2.5494     0.0207   -54.0811     8.6775     7.2931     7.1305
 1203.0000     9.5494   141.8334     2.5503     0.0207   -54.0801     8.8385     7.2937     7.2025
 1203.5000     9.5691   140.8359     2.5453     0.0156   -53.4211     8.8393     7.4291     7.2753
 1204.0000     9.5089   139.0412     2.5333     0.0066   -52.7620     8.7596     7.4980     7.3488
 1204.5000     9.4886   140.2295     2.5323     0.0096   -52.3223     8.7604     7.5676     7.4231
 1205.0000     9.4885   142.2071     2.5343     0.0116   -52.3213     8.6814     7.5682     7.4981
 1205.5000     9.4481   142.9947     2.5303     0.0115   -52.3203     8.8425     7.7796     7.5738
 1206.0000     9.4281   143.5839     2.5132     0.0075   -52.0999     9.0894     7.8518     7.6504
 1206.5000     9.4078   143.5769     2.5162     0.0145   -51.8795     9.0902     7.9247     7.7277
 1207.0000     9.3280   137.8203     2.5492     0.0185   -51.8784     9.1746     8.1081     7.8058
 1207.5000     9.3077   136.8232     2.5641     0.0165   -51.8774     9.5173     8.1831     7.8846
 1208.0000     9.2876   136.0245     2.5721     0.0114   -52.0957     9.9637     8.2597     7.9643
 1208.5000     9.2871   136.2172     2.5731     0.0124   -52.5334    10.0561     8.3366     8.0448
 1209.0000     9.2867   137.2031     2.5541     0.0074   -52.5324     9.8747     8.4142     8.1261
 1209.5000     9.3061   137.7934     2.5331     0.0064   -52.5314     9.7857     8.4925     8.2082
 1210.0000     9.3058   138.3826     2.5331     0.0134   -52.3109     9.8765     8.6506     8.2911
 1210.5000     9.3253   135.9967     2.5550     0.0194   -52.0905     9.8774     8.7311     8.3749
 1211.0000     9.3249   134.0086     2.5650     0.0243   -52.5283     9.7884     8.8124     8.4953
 1211.5000     9.3245   133.4083     2.5740     0.0303   -52.5272     9.7893     8.8944     8.3413
 1212.0000     9.2845   134.3941     2.5720     0.0293   -52.9651     9.8801     8.8952     8.3418
 1212.5000     9.3237   134.7851     2.5709     0.0283   -52.9640    10.0635     8.8538     8.5755
 1213.0000     9.3233   136.1672     2.5609     0.0243   -52.9630    10.3446     8.8546     8.5763
 1213.5000     9.3229   136.9557     2.5469     0.0152   -52.9620    10.6332     8.9368     8.7359
 1214.0000     9.3225   136.9501     2.5369     0.0042   -53.3998    10.7319     9.1863     8.7367
 1214.5000     9.3221   136.9446     2.5359     0.0032   -53.3986    10.7329     9.3571     8.8180
 1215.0000     9.3615   137.1372     2.5439     0.0062   -53.3976    10.4433     9.2724     8.9001
 1215.5000     9.3609   137.3298     2.5478     0.0101   -53.3966    10.2549     9.3579     8.9829
 1216.0000     9.3605   137.9188     2.5408     0.0081   -52.9567    10.3501     9.3586     9.0666
 1216.5000     9.3601   137.9132     2.5418     0.0131   -52.5167    10.5421     9.3598     9.1510
 1217.0000     9.3399   137.1149     2.5468     0.0151   -52.0768    10.7378     9.3951     9.2361
 1217.5000     9.3395   136.7129     2.5418     0.0151   -51.8563    10.8374     9.4306     9.2371
 1218.0000     9.3391   138.2917     2.5437     0.0120   -51.4163    10.8384     9.4662     9.2380
 1218.5000     9.3016   142.0524     2.5427     0.0130   -51.1957    10.8394     9.5019     9.2388
 1219.0000     9.2789   143.8313     2.5467     0.0200   -50.9752    10.7417     9.4978     9.1553
 1219.5000     9.2587   143.6274     2.5487     0.0190   -50.5352    10.6448     9.4984     9.1561
 1220.0000     9.2583   142.6297     2.5517     0.0150   -50.0951    10.5489     9.4992     9.1570
 1220.5000     9.2579   142.0295     2.5546     0.0129   -50.0940    10.5498     9.5001     9.1578
 1221.0000     9.2575   140.8349     2.5476     0.0069   -50.3124    10.5508     9.5885     9.1587
 1221.5000     9.2571   137.4610     2.5376     0.0039   -50.3113    10.5519     9.5894     9.0758
 1222.0000     9.2564   133.8890     2.5336    -0.0001   -50.3103    10.4568     9.6787     9.0048
 1222.5000     9.2365   134.2798     2.5356     0.0009   -50.3092    10.4578     9.7688     9.1733
 1223.0000     9.2361   135.4630     2.5286    -0.0002   -50.3081    10.5548     9.9506     9.3450
 1223.5000     9.2357   135.2594     2.5295     0.0038   -50.5266    10.6528    10.1357     9.6081
 1224.0000     9.2353   132.0831     2.5315     0.0058   -51.1841    10.9502    10.5156     9.8786
 1224.5000     9.2349   129.5023     2.5235     0.0038   -51.6221    11.2559    10.8100    10.1378
 1225.0000     9.2345   128.1103     2.5305     0.0018   -51.8406    11.6762    11.2150    10.5175
 1225.5000     9.2341   128.6993     2.5404    -0.0003   -52.0591    12.2238    11.4237    10.9116
 1226.0000     9.2337   130.4767     2.5274    -0.0023   -52.2776    12.6805    11.7436    11.0132
 1226.5000     9.2335   132.4521     2.5274    -0.0023   -52.4961    12.9158    11.9619    11.1157
 1227.0000     9.2329   134.0323     2.5354    -0.0013   -52.9342    13.1554    12.1845    11.4269
 1227.5000     9.2325   133.6307     2.5494     0.0027   -52.9332    13.3996    12.4113    11.5332
 1228.0000     9.2321   132.8278     2.5613     0.0026   -52.9322    13.4008    12.5268    11.8562
 1228.5000     9.2317   133.2217     2.5633     0.0036   -52.4920    13.4020    12.5282    11.9665
 1229.0000     9.2313   137.3772     2.5553     0.0056   -52.0518    13.4032    12.5293    11.9676
 1229.5000     9.2310   139.1540     2.5483     0.0066   -51.8312    13.4044    12.5305    12.0025
 1230.0000     9.2306   139.9393     2.5353     0.0056   -51.3910    13.2829    12.5316    12.0036
 1230.5000     9.2698   137.9545     2.5323     0.0055   -51.1703    13.2851    12.5323    12.0047
 1231.0000     9.2694   135.9687     2.5282     0.0055   -50.7300    13.1653    12.4195    12.0058
 1231.5000     9.2690   134.5770     2.5222     0.0045   -50.5094    13.1665    12.4206    12.0070
 1232.0000     9.2686   132.3934     2.5282     0.0055   -50.0691    13.2887    12.4217    12.0081
 1232.5000     9.2683   132.3880     2.5312     0.0195   -49.8484    13.4120    12.4229    12.0856
 1233.0000     9.3074   134.3625     2.5431     0.0245   -49.6277    13.2911    12.0188    11.9764
 1233.5000     9.3268   137.1290     2.5601     0.0254   -49.6266    13.0513    12.0192    11.7597
 1234.0000     9.3264   139.3024     2.5541     0.0254   -50.0647    12.6992    11.8022    11.5470
 1234.5000     9.3261   140.0887     2.5501     0.0224   -50.0637    12.3566    11.5668    11.2345
 1235.0000     9.3455   140.6769     2.5530     0.0174   -50.0626    12.0232    11.3361    10.9306
 1235.5000     9.3451   140.4733     2.5490     0.0143   -49.8418    11.8063    11.1101    10.6348
 1236.0000     9.3447   139.4755     2.5430     0.0193   -49.8407    11.6999    10.8885    10.4424
 1236.5000     9.3443   141.2538     2.5410     0.0233   -50.2790    11.5944    10.6713    10.3480
