~VERSION INFORMATION
 VERS.                2.0:   CWLS LOG ASCII STANDARD - VERSION 2.0
 WRAP.                 NO:   ONE LINE PER DEPTH STEP
~WELL INFORMATION
#MNEM.UNIT      DATA TYPE    INFORMATION
#----------   ------------   ------------------------------
 STRT.F          200.0000:   START DEPTH
 STOP.F         3060.0000:   STOP DEPTH
 STEP.F            0.5000:   STEP LENGTH
 NULL.          -999.2500:   NO VALUE
 COMP.    FENIX & SCISSON:   COMPANY
 WELL. FENIX & SCISSON NPR "AX" #81-10:   WELL
 FLD .                NPR:   FIELD
 LOC .      S10 T38N R78W:   LOCATION
 CNTY.            NATRONA:   COUNTY
 STAT.            WYOMING:   STATE
 CTRY. UNITED STATES OF AMERICA:   COUNTRY
 SRVC.              WELEX:   SERVICE COMPANY
 DATE.        28-NOV-1977:   LOGDATE
 API .     49025104400000:   API NUMBER
~CURVE INFORMATION
#MNEM.UNIT       API CODE    CURVE DESCRIPTION
#----------   ------------   ------------------------------
 DEPT.F                  :   
 CALD.IN     45 280 60 00:   CALIPER FROM DENSITY LOG
 GRD .GAPI   45 310 01 00:   GAMMA RAY FROM DENSITY LOG
 RHOB.G/C3   45 350 01 00:   BULK DENSITY
 CORR.G/C3   45 356 01 00:   DENSITY CORRECTION
 TEND.LBS    45 635 01 00:   TENSION FROM DENSITY LOG
 NPHI.DEC    42 890 03 00:   NEUTRON POROSITY SANDSTONE
 SPR .MV     07 010 01 00:   SPONTANEOUS POTENTIAL
 IL  .OHMM   07 120 00 00:   INDUCTION LOG RES.
 ASGR.OHMM   07 221 05 00:   AMPLIFIED SHALLOW GUARD
 SNP .DEC    41 890 00 00:   SIDEWALL NEUTRON POROSITY
~PARAMETER INFORMATION
#MNEM.UNIT          VALUE    DESCRIPTION
#----------   ------------   ------------------------------
 EKB .F         5147.0000:   Kelly bushing
 EGL .F         5137.0000:   Ground level
 EDF .F            0.0000:   Drilling floor
 TD  .F         3058.0000:   Total depth
 DATE.        28-NOV-1977:   Date logged
 CLNT.            A2DTECH:   Client Code
 PD  .                 GL:   Permanent Datum
 EPD .F              5137:   Elevation Permanent Datum
 LMF .                 KB:   Log Measured From
 DMF .                 KB:   Drilling Measured From
 DD  .F              3055:   Depth driller
 DL  .F              3058:   Depth logger
 BLI .F              3055:   Bottom log interval
 TLI .F               200:   Top log interval
 CS1 .IN            8.625:   Casing size
 CBD1.      8.625" @ 205':   Casing driller 1
 CBL1.F               215:   Casing logger 1
 BSD1.F              3055:   Depth drilled with bit1
 DFT .            KCL/MUD:   Type fluid in hole
 ENGI.            BENTSEN:   Recorded By
 WITN.         HARRINGTON:   Witnessed by
 ORIG.           5" PRINT:   Origin of data
 UWI .     49025104400000:   Unique Well ID
 DICO. A2D TECHNOLOGIES, INC.:   Digitizing Company
 DAPD.                 10:   Feet Above Permanent Datum
 BS1 .IN            7.875:   Bit size
 DFD .                8.9:   Density
 DFV .                 35:   Viscosity
 MSS .           FLOWLINE:   Source of sample
 RMS .OHMM            .17:   Rm
 MST .F                75:   Rm Meas. temp.
 RMF .OHMM            .12:   Rmf
 MFST.F                75:   Rmf Meas. temp.
 MFSS.               FANN:   Source Rmf.
 RMC .OHMM            .50:   Rmc
 MCST.F                75:   Rmc Meas. temp.
 MCSS.                KIT:   Source Rmc.
 RMB .OHMM           .113:   Rm. at BHT
 BHT .F               113:   BHT.
 TCS .HRS             2.5:   Time Circ. stopped
 MRT .F               113:   Maximum recorded temp.
 LUN .               9685:   Logging unit number
 LUL .             CASPER:   Logging unit location
 SL  . 601' FNL & 200' FEL:   Surface Location
~OTHER INFORMATION
~A   DEPT       CALD      GRD       RHOB       CORR        TEND        NPHI       SPR        IL       ASGR        SNP   
  200.0000     8.5100   211.3450  -999.2500  -999.2500   950.9510     0.2300    -0.0990  -999.2500  -999.2500  -999.2500
  200.5000     8.5100   210.2510     1.6700  -999.2500   950.9510     0.2290    -0.0990  -999.2500  -999.2500  -999.2500
  201.0000     8.4900    80.8530     1.6720  -999.2500   950.9510     0.2290    -0.0990  -999.2500  -999.2500  -999.2500
  201.5000     8.4700    80.4580     1.6770  -999.2500   930.9310     0.2280    -0.2980  -999.2500  -999.2500  -999.2500
  202.0000     8.4690    82.0440     1.6870  -999.2500   930.9310     0.2280    -0.5170  -999.2500  -999.2500  -999.2500
  202.5000     8.4700    83.2800     1.6990  -999.2500   910.9110     0.2270    -1.3440  -999.2500  -999.2500  -999.2500
  203.0000     8.4700    84.4200     1.7120  -999.2500   935.3470     0.2260    -2.1730  -999.2500  -999.2500  -999.2500
  203.5000     8.4700    84.7710     1.7240  -999.2500   944.1790     0.2260    -3.0250  -999.2500  -999.2500  -999.2500
  204.0000     8.4700    83.8560     1.7370  -999.2500   953.0120     0.2250    -3.9230  -999.2500  -999.2500  -999.2500
  204.5000     8.4700    82.9040     1.7490  -999.2500   961.8440     0.2250    -4.8200  -999.2500  -999.2500  -999.2500
  205.0000     8.4700    83.0560     1.7620  -999.2500   970.6770     0.2240    -5.7170  -999.2500  -999.2500  -999.2500
  205.5000     8.4700    83.6510     1.7740  -999.2500   979.5090     0.2260    -6.6140  -999.2500  -999.2500  -999.2500
  206.0000     8.4700    84.2160     1.7870  -999.2500   988.3410     0.2270    -7.5120  -999.2500  -999.2500  -999.2500
  206.5000     8.4700    84.1480     1.7990  -999.2500   990.3150     0.2290    -8.4080  -999.2500  -999.2500  -999.2500
  207.0000     8.4700    84.0230     1.8120  -999.2500   988.9620     0.2300    -9.2700  -999.2500  -999.2500  -999.2500
  207.5000     8.4730    84.5280     1.8240  -999.2500   987.6090     0.2300   -10.5030  -999.2500  -999.2500  -999.2500
  208.0000     8.4780    85.2970     1.8390    -0.5040   986.2570     0.2290   -11.7290  -999.2500  -999.2500  -999.2500
  208.5000     8.4830    86.0680     1.8560    -0.4980   984.9040     0.2280   -13.5440  -999.2500  -999.2500  -999.2500
  209.0000     8.4880    86.8400     1.8720    -0.4940   983.5510     0.2280   -15.6970  -999.2500  -999.2500  -999.2500
  209.5000     8.4930    87.6130     1.8890    -0.4850   982.1980     0.2280   -17.8270  -999.2500  -999.2500  -999.2500
  210.0000     8.4980    88.3770     1.9050    -0.4790   980.8460     0.2280   -19.9270  -999.2500  -999.2500  -999.2500
  210.5000     8.5030    88.9770     1.9320    -0.4710   979.4930     0.2250   -22.1550  -999.2500  -999.2500  -999.2500
  211.0000     8.5070    88.8140     1.9570    -0.4500   978.1400     0.2230   -25.2530  -999.2500  -999.2500  -999.2500
  211.5000     8.5120    88.7860     1.9830    -0.4250   976.7880     0.2170   -28.7920  -999.2500  -999.2500  -999.2500
  212.0000     8.5170    88.8320     2.0270    -0.3740   975.4350     0.2090   -32.5730  -999.2500  -999.2500  -999.2500
  212.5000     8.5220    89.1460     2.0960    -0.3220   974.0820     0.2000   -36.3090  -999.2500  -999.2500  -999.2500
  213.0000     8.5280    89.5630     2.1720    -0.2450   972.7290     0.1910   -39.3450  -999.2500  -999.2500  -999.2500
  213.5000     8.5710    89.9430     2.2210    -0.1760   971.3770     0.1850   -41.4950  -999.2500  -999.2500  -999.2500
  214.0000     8.6730    92.3320     2.2750    -0.1010   970.0240     0.1860   -44.9170  -999.2500  -999.2500  -999.2500
  214.5000     8.9420    95.0240     2.3340    -0.0260   968.6710     0.1820   -48.3460  -999.2500  -999.2500  -999.2500
  215.0000     9.3230    97.7380     2.3730     0.0510   967.3190     0.1770   -50.5050  -999.2500  -999.2500  -999.2500
  215.5000     9.7020   100.4200     2.3640     0.0920   965.9660     0.1720   -52.6330  -999.2500  -999.2500  -999.2500
  216.0000    10.0740   102.7890     2.3530     0.0990   964.6130     0.1620   -54.7990  -999.2500  -999.2500  -999.2500
  216.5000    10.3090   102.9290     2.3530     0.0870   963.2610     0.1480   -56.3420     2.0600     0.9320     0.2710
  217.0000    10.4640   103.1300     2.3540     0.0770   961.9080     0.1360   -57.7180     2.3620     1.5180     0.2500
  217.5000    10.6000   103.2890     2.3540     0.0670   960.5550     0.1350   -59.0840     2.7360     1.8760     0.2380
  218.0000    10.5490   103.9200     2.3540     0.0570   959.2020     0.1380   -60.4530     2.9570     2.1610     0.2370
  218.5000    10.4510   104.5990     2.3550     0.0460   957.8500     0.1430   -61.6300     3.1880     2.5340     0.2470
  219.0000    10.3550   105.2740     2.3550     0.0360   956.4970     0.1460   -62.7130     3.6900     2.9880     0.2580
  219.5000    10.0760   105.8520     2.3670     0.0260   955.1440     0.1460   -63.7930     4.1870     3.4300     0.2520
  220.0000     9.7460   105.8510     2.3910     0.0150   953.7920     0.1430   -64.8750     4.6830     3.7610     0.2450
  220.5000     9.4110   105.8460     2.4150     0.0120   952.4390     0.1410   -65.9590     5.1800     4.3800     0.2380
  221.0000     9.3890   105.4100     2.4400     0.0100   951.0860     0.1380   -67.0710     5.6770     4.9920     0.2300
  221.5000     9.3850   104.6410     2.4470     0.0090   949.7340     0.1350   -68.1050     6.1700     5.4140     0.2210
  222.0000     9.3790   103.8650     2.4490     0.0070   948.3810     0.1340   -69.1920     6.6160     5.6150     0.2150
  222.5000     9.3720   104.0410     2.4510     0.0060   947.0280     0.1330   -69.7460     6.7180     5.8130     0.2150
  223.0000     9.3660   104.7190     2.4520     0.0040   945.6750     0.1320   -70.1390     6.8450     5.8930     0.2160
  223.5000     9.3600   105.4050     2.4530     0.0030   944.3230     0.1320   -70.5230     7.0300     5.9860     0.2170
  224.0000     9.3540   106.1000     2.4550     0.0030   942.9700     0.1330   -70.9070     8.6950     6.1270     0.2180
  224.5000     9.3470   106.8100     2.4560     0.0040   941.6170     0.1340   -71.2910     8.9140     6.1850     0.2170
  225.0000     9.3410   106.6820     2.4580     0.0050   940.2650     0.1340   -71.6740     8.5390     6.2880     0.2090
  225.5000     9.3350   106.8820     2.4570     0.0050   938.9120     0.1320   -72.0820     8.1350     6.4080     0.2040
  226.0000     9.3290   107.3810     2.4570     0.0060   937.5590     0.1280   -73.0950     7.7190     6.4520     0.2020
  226.5000     9.3220   107.8810     2.4560     0.0070   936.2060     0.1260   -74.1450     7.6030     6.5130     0.2120
  227.0000     9.3160   108.3880     2.4550     0.0080   934.8540     0.1280   -75.1940     7.8280     6.5870     0.2220
  227.5000     9.3100   108.9570     2.4550     0.0090   933.5010     0.1320   -76.2400     8.0560     6.6610     0.2320
  228.0000     9.3030   109.5190     2.4560     0.0100   932.1480     0.1360   -77.2860     8.0480     6.6630     0.2420
  228.5000     9.2970   109.7270     2.4570     0.0110   930.9310     0.1410   -78.0540     7.7270     6.6340     0.2560
  229.0000     9.2910   109.5330     2.4570     0.0110   930.9310     0.1460   -78.5230     7.4930     6.6040     0.2700
  229.5000     9.2850   109.7510     2.4580     0.0120   930.9310     0.1500   -78.9930     7.4420     6.5750     0.2860
  230.0000     9.2780   110.4510     2.4590     0.0130   930.9310     0.1550   -79.4590     7.3990     6.5990     0.3030
  230.5000     9.2720   111.1460     2.4590     0.0140   930.9310     0.1610   -79.9060     7.3550     6.5850     0.3190
  231.0000     9.2660   111.7950     2.4580     0.0150   930.9310     0.1670   -80.8350     7.3110     6.5220     0.3910
  231.5000     9.2600   111.8740     2.4540     0.0160   930.9310     0.1760   -81.8440     7.2670     6.4630     0.4330
  232.0000     9.2530   111.9320     2.4500     0.0160   930.9310     0.1860   -82.8600     7.2220     6.2700     0.4650
  232.5000     9.2470   111.9730     2.4450     0.0140   930.9310     0.1960   -83.8760     7.1780     6.1820     0.4830
  233.0000     9.2410   112.6010     2.4330     0.0110   930.9310     0.2010   -84.8910     7.1340     6.2210     0.4800
