~VERSION INFORMATION
 VERS.                2.0:   CWLS LOG ASCII STANDARD - VERSION 2.0
 WRAP.                 NO:   ONE LINE PER DEPTH STEP
~WELL INFORMATION
#MNEM.UNIT      DATA TYPE    INFORMATION
#----------   ------------   ------------------------------
 STRT.F           63.5000:   START DEPTH
 STOP.F         4112.0000:   STOP DEPTH
 STEP.F            0.5000:   STEP LENGTH
 NULL.          -999.2500:   NO VALUE
 COMP. LAWRENCE-ALLISON & ASSOC:   COMPANY
 WELL. LAWRENCE "X" #34-34:   WELL
 FLD .           N.P.R.#3:   FIELD
 LOC .      S34 T39N R78W:   LOCATION
 CNTY.            NATRONA:   COUNTY
 STAT.            WYOMING:   STATE
 CTRY. UNITED STATES OF AMERICA:   COUNTRY
 SRVC.      DRESSER ATLAS:   SERVICE COMPANY
 DATE.        19-OCT-1983:   LOGDATE
 API .     49025109440000:   API NUMBER
~CURVE INFORMATION
#MNEM.UNIT       API CODE    CURVE DESCRIPTION
#----------   ------------   ------------------------------
 DEPT.F                  :   
 AC  .US/F   60 250 00 00:   ACCOUSTIC
 TENS.LBS    60 635 01 00:   TENSION FROM SONIC
 ILD .OHMM   07 120 46 00:   DEEP INDUCTION RESISTIVITY
 ILM .OHMM   07 120 44 00:   INDUCTION LOG MEDIUM RESISTIVITY
 RFOC.OHMM   07 220 04 00:   RESISTIVITY FOCUSED LOG RES.
 TENR.LBS    07 635 01 00:   TENSION FROM RESISTIVITY
 SPR .MV     07 010 01 00:   SPONTANEOUS POTENTIAL
 GRR .GAPI   07 310 01 00:   GAMMA RAY FROM RESISTIVITY
 CALD.IN     45 280 60 00:   CALIPER FROM DENSITY LOG
 RHOB.G/C3   45 350 01 00:   BULK DENSITY
 CORR.G/C3   45 356 01 00:   DENSITY CORRECTION
 TEND.LBS    45 635 01 00:   TENSION FROM DENSITY LOG
 NPHI.DEC    42 890 03 00:   NEUTRON POROSITY SANDSTONE
~PARAMETER INFORMATION
#MNEM.UNIT          VALUE    DESCRIPTION
#----------   ------------   ------------------------------
 EKB .F         5100.0000:   Kelly bushing
 EGL .F         5090.0000:   Ground level
 TD  .F         4107.0000:   Total depth
 DATE.        19-OCT-1983:   Date logged
 CLNT.            A2DTECH:   Client Code
 SL  . 1997' FNL & 1661' FWL:   Surface Location
 PD  .                 GL:   Permanent Datum
 EPD .F              5090:   Elevation Permanent Datum
 LMF .                 KB:   Log Measured From
 DMF .                 KB:   Drilling Measured From
 DAPD.F                10:   Feet Above Permanent Datum
 DD  .F              4107:   Depth driller
 DL  .F              4102:   Depth logger
 BLI .F              4100:   Bottom log interval
 CS1 .IN            9.625:   Casing size
 CBD1.      9.625" @ 695':   Casing driller 1
 CBL1.F               696:   Casing logger 1
 BS1 .IN            7.875:   Bit size
 BSD1.F              4107:   Depth drilled with bit1
 DFT .            GEL-KCL:   Type fluid in hole
 DFD .                  9:   Density
 DFV .                 43:   Viscosity
 DFPH.                  9:   pH
 DFL .                 11:   Fluid loss
 MSS .           FLOWLINE:   Source of sample
 RMS .OHMM          0.313:   Rm
 MST .F                72:   Rm Meas. temp.
 RMF .OHMM          0.265:   Rmf
 MFST.F                68:   Rmf Meas. temp.
 RMC .OHMM          0.598:   Rmc
 MCST.F                68:   Rmc Meas. temp.
 MFSS.               MEAS:   Source Rmf.
 MCSS.               MEAS:   Source Rmc.
 RMB .OHMM          0.173:   Rm. at BHT
 BHT .F               130:   BHT.
 TCS .HRS               4:   Time Circ. stopped
 MRT .F               130:   Maximum recorded temp.
 LUN .               6774:   Logging unit number
 LUL .               GLTE:   Logging unit location
 ENGI.           FAHLEING:   Recorded By
 WITN.           JENNINGS:   Witnessed by
 ORIG.           5" PRINT:   Origin of data
 UWI .     49025109440000:   Unique Well ID
 DICO. A2D TECHNOLOGIES, INC.:   Digitizing Company
~OTHER INFORMATION
~A   DEPT       AC       TENS        ILD        ILM       RFOC       TENR        SPR         GRR      CALD       RHOB       CORR       TEND       NPHI   
# ...
 1129.5000  -999.2500  -999.2500     6.7830     6.5330     6.9730   -62.5630   -54.0310   102.3730     9.5510     2.5140     0.0530   -62.7930     0.2800
 1130.0000  -999.2500  -999.2500     6.7950     6.5180     6.9710   -62.5630   -53.9220   100.1820     9.5620     2.5260     0.0570   -64.6440     0.2730
 1130.5000  -999.2500  -999.2500     6.8070     6.5030     6.9680   -62.5630   -53.8120   100.2580     9.5730     2.5290     0.0550   -66.4960     0.2740
 1131.0000  -999.2500  -999.2500     6.8180     6.4880     6.9820   -62.5630   -53.7030    99.4650     9.5840     2.5320     0.0400   -68.3470     0.2730
 1131.5000  -999.2500  -999.2500     6.8300     6.4660     7.0020   -62.5630   -53.5940    98.1900     9.5950     2.5360     0.0260   -70.1980     0.2680
 1132.0000  -999.2500  -999.2500     6.8420     6.4890     7.0220   -62.5630   -53.4850    98.6780     9.6060     2.5360     0.0260   -72.0490     0.2710
 1132.5000  -999.2500  -999.2500     6.8530     6.5310     7.0420   -62.5630   -53.3770   100.5190     9.6180     2.5340     0.0310   -73.9000     0.2740
 1133.0000  -999.2500  -999.2500     6.8650     6.5730     7.0620   -62.5630   -53.2680   102.3570     9.6270     2.5250     0.0360   -75.7510     0.2770
 1133.5000  -999.2500  -999.2500     6.8770     6.6150     7.0820   -62.5630   -53.1540   104.2000     9.6260     2.5060     0.0410   -77.6020     0.2730
 1134.0000  -999.2500  -999.2500     6.8890     6.6570     7.1150   -62.5630   -53.0630   104.0550     9.6260     2.5030     0.0500   -79.4530     0.2680
 1134.5000  -999.2500  -999.2500     6.8990     6.7000     7.2050   -62.5630   -52.8260   102.0210     9.6270     2.5170     0.0590   -81.3040     0.2630
 1135.0000  -999.2500  -999.2500     7.0060     6.7420     7.2950   -62.5630   -52.5970   100.6360     9.6380     2.5290     0.0670   -83.1550     0.2590
 1135.5000  -999.2500  -999.2500     7.1370     6.7930     7.3850   -62.5630   -52.3540   100.6780     9.6460     2.5370     0.0720   -85.0060     0.2550
 1136.0000  -999.2500  -999.2500     7.2680     6.8800     7.4750   -62.5630   -52.6920   100.5780     9.6250     2.5320     0.0730   -86.8580     0.2480
 1136.5000  -999.2500  -999.2500     7.3690     6.9670     7.5650   -62.5630   -53.1850    96.7220     9.6060     2.5200     0.0510   -88.7090     0.2420
 1137.0000  -999.2500  -999.2500     7.3690     7.0990     7.6560   -62.5630   -53.6840    93.7220     9.5860     2.5230     0.0370   -90.5600     0.2370
 1137.5000  -999.2500  -999.2500     7.4210     7.1210     7.7460   -62.5630   -54.1820    93.0280     9.5630     2.5300     0.0630   -92.4110     0.2380
 1138.0000  -999.2500  -999.2500     7.5390     7.1420     7.8360   -62.5630   -54.6790    97.4040     9.5460     2.5480     0.0980   -94.2620     0.2430
 1138.5000  -999.2500  -999.2500     7.6490     7.1630     7.8660   -62.5630   -55.1810   101.0420     9.5450     2.5680     0.1110   -96.1130     0.2610
 1139.0000  -999.2500  -999.2500     7.6600     7.1770     7.8660   -62.5630   -55.3440   104.2650     9.5450     2.5810     0.1020   -97.9640     0.2610
 1139.5000  -999.2500  -999.2500     7.6730     7.1900     7.8660   -62.5630   -55.2730   104.0900     9.5450     2.5750     0.0820   -99.8150     0.2530
 1140.0000  -999.2500  -999.2500     7.6860     7.2040     7.8660   -62.5630   -55.2020   101.5220     9.5450     2.5600     0.0470  -101.6660     0.2450
 1140.5000  -999.2500  -999.2500     7.6990     7.2170     7.8660   -62.5630   -55.1300   100.4380     9.5450     2.5420     0.0150  -101.8740     0.2490
 1141.0000  -999.2500  -999.2500     7.7120     7.2300     7.8660   -62.5630   -55.0590    99.7190     9.5450     2.5390     0.0180   -96.6060     0.2580
 1141.5000  -999.2500  -999.2500     7.7210     7.2440     7.8660   -62.5630   -54.9880    98.9920     9.5450     2.5440     0.0360   -91.3370     0.2570
 1142.0000  -999.2500  -999.2500     7.7210     7.2570     7.8660   -62.5630   -54.9160    98.2490     9.5450     2.5480     0.0540   -86.0690     0.2530
 1142.5000  -999.2500  -999.2500     7.7210     7.2700     7.8660   -62.5630   -54.8450    98.3800     9.5450     2.5500     0.0720   -80.8000     0.2490
 1143.0000  -999.2500  -999.2500     7.7210     7.2840     7.8660   -62.5630   -54.7730    98.5880     9.5450     2.5430     0.0820   -75.5320     0.2450
 1143.5000  -999.2500  -999.2500     7.7210     7.2970     7.8660   -62.5630   -54.7020    98.3970     9.5450     2.5370     0.0820   -70.2630     0.2410
 1144.0000  -999.2500  -999.2500     7.7860     7.3330     7.8660   -62.5630   -54.6310    98.0150     9.5450     2.5300     0.0600   -64.9950     0.2420
 1144.5000  -999.2500  -999.2500     7.8710     7.3760     7.8660   -62.5630   -54.5590    96.4600     9.5450     2.5250     0.0500   -61.4710     0.2510
 1145.0000  -999.2500  -999.2500     7.9550     7.4180     7.8660   -62.5630   -54.4880    95.7480     9.5450     2.5300     0.0390   -59.4440     0.2550
 1145.5000  -999.2500  -999.2500     8.0400     7.4610     7.8660   -62.5630   -54.4150    95.7690     9.5450     2.5320     0.0450   -57.4160     0.2520
 1146.0000  -999.2500  -999.2500     8.0890     7.5030     7.8660   -62.5630   -54.3500    95.8020     9.5450     2.5290     0.0530   -55.3880     0.2470
 1146.5000  -999.2500  -999.2500     8.0890     7.5460     7.8660   -62.5630   -54.4610    94.8580     9.5450     2.5250     0.0570   -53.3610     0.2480
 1147.0000  -999.2500  -999.2500     8.0890     7.5780     7.8660   -62.5630   -54.5790    92.6910     9.5450     2.5250     0.0510   -51.3330     0.2500
 1147.5000  -999.2500  -999.2500     8.0890     7.5780     7.8660   -62.5630   -54.6960    94.6970     9.5450     2.5280     0.0480   -49.3050     0.2520
 1148.0000  -999.2500  -999.2500     8.0890     7.5780     7.8660   -62.5630   -54.8130    96.9810     9.5450     2.5310     0.0460   -47.2780     0.2570
 1148.5000  -999.2500  -999.2500     8.0890     7.5780     7.8660   -62.5630   -54.9300    94.9720     9.5450     2.5340     0.0510   -45.2500     0.2620
 1149.0000  -999.2500  -999.2500     8.0890     7.5780     7.8660   -62.5630   -55.0470    94.7880     9.5450     2.5340     0.0560   -43.2220     0.2700
 1149.5000  -999.2500  -999.2500     8.0890     7.4940     7.8660   -62.5630   -55.1640    98.1690     9.5450     2.5320     0.0610   -41.1950     0.2790
 1150.0000  -999.2500  -999.2500     8.0890     7.4160     7.8660   -62.5630   -55.2800   100.6360     9.5450     2.5300     0.0570   -39.1670     0.2810
 1150.5000  -999.2500  -999.2500     8.0890     7.3000     7.8660   -62.5630   -55.3430   100.9990     9.5450     2.5250     0.0520   -37.1390     0.2680
 1151.0000  -999.2500  -999.2500     8.0890     7.3740     7.8660   -62.5630   -55.2690   100.7290     9.5450     2.5220     0.0470   -35.1120     0.2630
 1151.5000  -999.2500  -999.2500     8.0890     7.5150     7.8660   -62.5630   -55.1990   100.2720     9.5450     2.5220     0.0400   -33.0840     0.2690
 1152.0000  -999.2500  -999.2500     8.0890     7.5780     7.8660   -62.5630   -55.1290    99.8000     9.5450     2.5210     0.0210   -32.5160     0.2740
 1152.5000  -999.2500  -999.2500     8.0900     7.5780     7.8660   -62.5630   -55.0590    99.2880     9.5450     2.5170     0.0170   -33.1500     0.2660
 1153.0000  -999.2500  -999.2500     8.0900     7.5780     7.8660   -62.5630   -54.9890    97.2290     9.5450     2.5140     0.0320   -33.7840     0.2560
 1153.5000  -999.2500  -999.2500     8.0500     7.5780     7.8660   -62.5630   -54.9190    97.2320     9.5450     2.5110     0.0470   -34.4180     0.2480
 1154.0000  -999.2500  -999.2500     7.9840     7.5570     7.8660   -62.5630   -54.8490    98.9040     9.5450     2.5120     0.0560   -35.0530     0.2510
 1154.5000  -999.2500  -999.2500     7.9180     7.5060     7.8660   -62.5630   -54.7780    99.7220     9.5450     2.5170     0.0500   -35.6870     0.2590
 1155.0000  -999.2500  -999.2500     7.8520     7.4550     7.8660   -62.5630   -54.7080    99.4860     9.5450     2.5230     0.0390   -36.3210     0.2730
