~VERSION INFORMATION
 VERS.                2.0:   CWLS LOG ASCII STANDARD - VERSION 2.0
 WRAP.                 NO:   ONE LINE PER DEPTH STEP
~WELL INFORMATION
#MNEM.UNIT      DATA TYPE    INFORMATION
#----------   ------------   ------------------------------
 STRT.F            0.0000:   START DEPTH
 STOP.F         4000.0000:   STOP DEPTH
 STEP.F            0.5000:   STEP LENGTH
 NULL.          -999.2500:   NO VALUE
 COMP. LAWRENCE &  ALLISON ASSOC.:   COMPANY
 WELL. LAWRENCE NPR 3 "TX" #14-28:   WELL
 FLD .              N P R:   FIELD
 LOC .      S28 T39N R78W:   LOCATION
 CNTY.            NATRONA:   COUNTY
 STAT.            WYOMING:   STATE
 CTRY. UNITED STATES OF AMERICA:   COUNTRY
 SRVC.      DRESSER ATLAS:   SERVICE COMPANY
 DATE.        11-APR-1984:   LOGDATE
 API .     49025109710000:   API NUMBER
~CURVE INFORMATION
#MNEM.UNIT       API CODE    CURVE DESCRIPTION
#----------   ------------   ------------------------------
 DEPT.F                  :   
 RHOB.G/C3   45 350 01 00:   BULK DENSITY
 CORR.G/C3   45 356 01 00:   DENSITY CORRECTION
 TEND.LBS    45 635 01 00:   TENSION FROM DENSITY LOG
 CNC .DEC    42 890 03 00:   NEUTRON PORISITY SANDSTONE
 DT  .US/F   60 520 00 00:   DELTA TIME
 TENS.LBS    60 635 01 00:   TENSION FROM SONIC LOG
 GRR .GAPI   07 310 01 00:   GAMMA RAY FROM RESISTIVITY
 SPR .MV     07 010 01 00:   SPONTANEOUS POTENTIAL
 CALR.IN     07 280 01 00:   CALIPER FROM RESISTIVITY
 TENR.LBS    07 635 01 00:   TENSION
 RILD.OHMM   07 120 46 00:   INDUCTION LOG DEEP RESISTIVITY
 RILM.OHMM   07 120 44 00:   INDUCTION LOG MEDIUM RESISTIVITY
 RFOC.OHMM   07 220 01 00:   RESISTIVITY FOCUSED LOG RES.
~PARAMETER INFORMATION
#MNEM.UNIT          VALUE    DESCRIPTION
#----------   ------------   ------------------------------
 EKB .F         5024.0000:   Kelly bushing
 EGL .F         5014.0000:   Ground level
 TD  .F         3996.0000:   Total depth
 DATE.        11-APR-1984:   Date logged
 CLNT.            A2DTECH:   Client Code
 SL  . 250' FWL & 2100' FNL:   Surface Location
 PD  .                 GL:   Permanent Datum
 EPD .F              5014:   Elevation Permanent Datum
 LMF .                 KB:   Log Measured From
 DMF .                 KB:   Drilling Measured From
 DD  .F              3996:   Depth driller
 DL  .F              3994:   Depth logger
 BLI .F              3992:   Bottom log interval
 CS1 .IN            8.625:   Casing size
 CBD1.      8.625" @ 404':   Casing driller 1
 CBL1.F               404:   Casing logger 1
 BS1 .IN            7.875:   Bit size
 DFT .            GEL/KCL:   Type fluid in hole
 DFD .                9.1:   Density
 DFV .                 38:   Viscosity
 DFPH.                  8:   pH
 DFL .                 14:   Fluid loss
 MSS .           FLOWLINE:   Source of sample
 RMS .OHMM           .417:   Rm
 MST .F                90:   Rm Meas. temp.
 RMF .OHMM           .313:   Rmf
 MFST.F                90:   Rmf Meas. temp.
 RMC .OHMM           .521:   Rmc
 MCST.F                90:   Rmc Meas. temp.
 MFSS.               CALC:   Source Rmf.
 RMB .OHMM            .25:   Rm. at BHT
 BHT .F               150:   BHT.
 TCS .HRS               3:   Time Circ. stopped
 MRT .F               150:   Maximum recorded temp.
 LUN .               6307:   Logging unit number
 LUL .               GLTE:   Logging unit location
 ENGI.           FAHLSING:   Recorded By
 WITN.             STRONG:   Witnessed by
 ORIG.           5" PRINT:   Origin of data
 UWI .     49025109710000:   Unique Well ID
 DICO. A2D TECHNOLOGIES, INC.:   Digitizing Company
 DAPD.F                10:   Feet Above Permanent Datum
 BSD1.F              3996:   Depth drilled with bit1
 MCSS.               CALC:   Source Rmc.
~OTHER INFORMATION
~A    DEPT    RHOB       CORR       TEND        CNC         DT       TENS         GRR       SPR       CALR       TENR       RILD       RILM       RFOC   
# ...
  884.0000  -999.2500  -999.2500  -999.2500  -999.2500  -999.2500  -999.2500   101.9540   -54.1550     8.6840   -17.7130    10.1160     9.1800     8.8050
  884.5000  -999.2500  -999.2500  -999.2500  -999.2500  -999.2500  -999.2500   111.5080   -53.9470     8.6850   -17.3600    10.1200     9.1270     8.7350
  885.0000  -999.2500  -999.2500  -999.2500  -999.2500  -999.2500  -999.2500   117.6050   -53.7390     8.6860   -17.0070    10.1230     9.0740     8.6650
  885.5000  -999.2500  -999.2500  -999.2500  -999.2500  -999.2500  -999.2500   115.7000   -53.5290     8.6870   -16.6530    10.1260     9.0450     8.5640
  886.0000  -999.2500  -999.2500  -999.2500  -999.2500  -999.2500  -999.2500   104.9120   -53.5120     8.6870   -16.3000    10.1290     9.1680     8.4050
  886.5000  -999.2500  -999.2500  -999.2500  -999.2500  -999.2500  -999.2500    95.8380   -53.6210     8.6870   -15.9470    10.1320     9.2530     8.5010
  887.0000  -999.2500  -999.2500  -999.2500  -999.2500  -999.2500  -999.2500    96.2480   -53.7330     8.6870   -15.5930    10.1360     9.3380     8.6500
  887.5000  -999.2500  -999.2500  -999.2500  -999.2500  -999.2500  -999.2500    99.9300   -53.8440     8.6870   -16.7410    10.1390     9.4230     8.7990
  888.0000  -999.2500  -999.2500  -999.2500  -999.2500  -999.2500  -999.2500   102.0810   -53.9550     8.6870   -18.7020    10.1420     9.4700     8.8810
  888.5000  -999.2500  -999.2500  -999.2500  -999.2500  -999.2500  -999.2500    98.7880   -54.0670     8.6870   -20.6630    10.1450     9.4090     8.8030
  889.0000  -999.2500  -999.2500  -999.2500  -999.2500  -999.2500  -999.2500    95.5630   -54.1780     8.6870   -22.6230    10.1480     9.3680     8.7290
  889.5000  -999.2500  -999.2500  -999.2500  -999.2500  -999.2500  -999.2500    95.4660   -54.2900     8.6870   -24.5840    10.1520     9.3260     8.6550
  890.0000  -999.2500  -999.2500  -999.2500  -999.2500  -999.2500  -999.2500    96.5020   -54.4010     8.6870   -26.5450    10.1550     9.2850     8.5810
  890.5000  -999.2500  -999.2500  -999.2500  -999.2500  -999.2500  -999.2500    99.7230   -54.5120     8.6870   -28.5060    10.1580     9.2430     8.5070
  891.0000  -999.2500  -999.2500  -999.2500  -999.2500  -999.2500  -999.2500   102.8890   -54.6240     8.6870   -30.4670    10.1610     9.2050     8.4620
  891.5000  -999.2500  -999.2500  -999.2500  -999.2500  -999.2500  -999.2500   106.0440   -54.7350     8.6870   -32.4270    10.1650     9.1750     8.4320
  892.0000  -999.2500  -999.2500  -999.2500  -999.2500  -999.2500  -999.2500   108.5190   -54.8460     8.6870   -34.3880    10.1680     9.1450     8.4020
  892.5000  -999.2500  -999.2500  -999.2500  -999.2500  -999.2500  -999.2500   108.4870   -54.9580     8.6870   -34.8210    10.1710     9.1150     8.3710
  893.0000  -999.2500  -999.2500  -999.2500  -999.2500  -999.2500  -999.2500   107.3510   -55.0470     8.6870   -33.5230    10.1740     9.0850     8.3410
  893.5000  -999.2500  -999.2500  -999.2500  -999.2500  -999.2500  -999.2500   105.6480   -55.1090     8.6870   -32.2260    10.1770     9.0450     8.3110
  894.0000  -999.2500  -999.2500  -999.2500  -999.2500  -999.2500  -999.2500   103.9620   -55.1710     8.6870   -30.9290    10.1810     9.0750     8.2800
  894.5000  -999.2500  -999.2500  -999.2500  -999.2500  -999.2500  -999.2500   102.2400   -55.2320     8.6870   -29.6310    10.1840     9.1190     8.2520
  895.0000  -999.2500  -999.2500  -999.2500  -999.2500  -999.2500  -999.2500   103.3150   -55.2940     8.6870   -28.3340    10.1870     9.1640     8.2520
  895.5000  -999.2500  -999.2500  -999.2500  -999.2500  -999.2500  -999.2500   105.8320   -55.3560     8.6870   -27.0360    10.1900     9.2080     8.3170
  896.0000  -999.2500  -999.2500  -999.2500  -999.2500  -999.2500  -999.2500   107.6910   -55.4180     8.6870   -25.7390    10.2160     9.2530     8.3600
  896.5000  -999.2500  -999.2500  -999.2500  -999.2500  -999.2500  -999.2500   106.2890   -55.4790     8.6870   -24.4420    10.2450     9.2970     8.4040
  897.0000  -999.2500  -999.2500  -999.2500  -999.2500  -999.2500  -999.2500   103.3070   -55.5420     8.6870   -23.1440    10.2730     9.3420     8.4470
  897.5000  -999.2500  -999.2500  -999.2500  -999.2500  -999.2500  -999.2500   100.5180   -55.6070     8.6870   -21.8470    10.3020     9.3860     8.4910
  898.0000  -999.2500  -999.2500  -999.2500  -999.2500  -999.2500  -999.2500   100.3080   -55.4620     8.6870   -20.5500    10.3300     9.4310     8.5340
  898.5000  -999.2500  -999.2500  -999.2500  -999.2500  -999.2500  -999.2500   106.2770   -55.2920     8.6870   -19.2520    10.3590     9.4750     8.5780
  899.0000  -999.2500  -999.2500  -999.2500  -999.2500  -999.2500  -999.2500   104.7770   -55.1220     8.6870   -17.9550    10.3880     9.5190     8.6210
  899.5000  -999.2500  -999.2500  -999.2500  -999.2500  -999.2500  -999.2500   101.4200   -54.9520     8.6870   -16.6580    10.4160     9.5640     8.6650
  900.0000  -999.2500  -999.2500  -999.2500  -999.2500  -999.2500  -999.2500    98.9600   -54.7820     8.6870   -15.3600    10.4450     9.6080     8.7080
  900.5000  -999.2500  -999.2500  -999.2500  -999.2500  -999.2500  -999.2500    99.5390   -54.6110     8.6870   -14.0630    10.4740     9.6530     8.7520
  901.0000  -999.2500  -999.2500  -999.2500  -999.2500  -999.2500  -999.2500   100.2780   -54.4370     8.6870   -12.7660    10.5020     9.6970     8.7950
  901.5000  -999.2500  -999.2500  -999.2500  -999.2500  -999.2500  -999.2500   101.0300   -54.5230     8.6870   -11.4680    10.5310     9.7420     8.8390
  902.0000  -999.2500  -999.2500  -999.2500  -999.2500  -999.2500  -999.2500   100.5700   -54.7070     8.6870   -10.1710    10.5590     9.7860     8.8820
  902.5000  -999.2500  -999.2500  -999.2500  -999.2500  -999.2500  -999.2500    99.0620   -54.8900     8.6870    -8.8730    10.5880     9.8260     8.9260
  903.0000  -999.2500  -999.2500  -999.2500  -999.2500  -999.2500  -999.2500    99.8950   -55.0720     8.6870    -7.5760    10.6170     9.8390     8.9690
  903.5000  -999.2500  -999.2500  -999.2500  -999.2500  -999.2500  -999.2500   101.1320   -55.2550     8.6870    -6.2790    10.6450     9.8530     9.0130
  904.0000  -999.2500  -999.2500  -999.2500  -999.2500  -999.2500  -999.2500   100.9370   -55.4380     8.6870    -5.6560    10.6740     9.8660     9.0560
  904.5000  -999.2500  -999.2500  -999.2500  -999.2500  -999.2500  -999.2500   100.3650   -55.6220     8.6870    -6.0810    10.7030     9.8790     9.1000
  905.0000  -999.2500  -999.2500  -999.2500  -999.2500  -999.2500  -999.2500    99.7820   -55.8010     8.6870    -6.5070    10.7310     9.8930     9.1430
  905.5000  -999.2500  -999.2500  -999.2500  -999.2500  -999.2500  -999.2500    99.2010   -55.8080     8.6870    -6.9320    10.7600     9.9060     9.1870
  906.0000  -999.2500  -999.2500  -999.2500  -999.2500  -999.2500  -999.2500    98.6270   -55.8070     8.6870    -7.3580    10.7890     9.9130     9.2300
  906.5000  -999.2500  -999.2500  -999.2500  -999.2500  -999.2500  -999.2500    98.2590   -55.8070     8.6870    -7.7830    10.8170     9.8490     9.2740
  907.0000  -999.2500  -999.2500  -999.2500  -999.2500  -999.2500  -999.2500    99.1220   -55.8080     8.6870    -8.2090    10.8460     9.8040     9.2970
  907.5000  -999.2500  -999.2500  -999.2500  -999.2500  -999.2500  -999.2500   101.6820   -55.8130     8.6870    -8.6340    10.8660     9.7590     9.1870
  908.0000  -999.2500  -999.2500  -999.2500  -999.2500  -999.2500  -999.2500   104.2080   -55.5710     8.6870    -9.0600    10.8330     9.7130     9.1120
  908.5000  -999.2500  -999.2500  -999.2500  -999.2500  -999.2500  -999.2500   104.3300   -55.2850     8.6870    -9.4860    10.8070     9.6680     9.0370
  909.0000  -999.2500  -999.2500  -999.2500  -999.2500  -999.2500  -999.2500    99.3970   -54.9970     8.6870    -9.9110    10.7800     9.6230     8.9610
  909.5000  -999.2500  -999.2500  -999.2500  -999.2500  -999.2500  -999.2500    94.7820   -54.7100     8.6870   -10.3370    10.7540     9.5570     8.8810
