~VERSION INFORMATION
 VERS.                2.0:   CWLS LOG ASCII STANDARD - VERSION 2.0
 WRAP.                 NO:   ONE LINE PER DEPTH STEP
~WELL INFORMATION
#MNEM.UNIT      DATA TYPE    INFORMATION
#----------   ------------   ------------------------------
 STRT.F            1.0000:   START DEPTH
 STOP.F         2854.0000:   STOP DEPTH
 STEP.F            0.5000:   STEP LENGTH
 NULL.          -999.2500:   NO VALUE
 COMP.          INTEX OIL:   COMPANY
 WELL. INTEX N.P.R. "AX" #42-29:   WELL
 FLD .             TEAPOT:   FIELD
 LOC .      S29 T39N R78W:   LOCATION
 CNTY.            NATRONA:   COUNTY
 STAT.            WYOMING:   STATE
 CTRY. UNITED STATES OF AMERICA:   COUNTRY
 SRVC.       SCHLUMBERGER:   SERVICE COMPANY
 DATE.        30-MAY-1986:   LOGDATE
 API .     49025095240000:   API NUMBER
~CURVE INFORMATION
#MNEM.UNIT       API CODE    CURVE DESCRIPTION
#----------   ------------   ------------------------------
 DEPT.F                  :   
 SPR .MV     05 010 01 00:   SPONTANEOUS POTENTIAL FROM RES.
 ASN .OHMM   05 041 16 00:   AMPLIFIED SHORT NORMAL 16"
 ILD .OHMM   05 120 46 00:   INDUCTION LOG DEEP
 GRD .GAPI   45 310 01 00:   GAMMA RAY FROM DENSITY LOG
 CALD.IN     45 280 60 00:   CALIPER FROM DENSITY LOG
 CORR.G/C3   45 356 01 00:   DENSITY CORRECTION
 RHOB.G/C3   45 350 01 00:   BULK DENSITY
 CALI.IN     30 280 01 00:   CALIPER FROM GAMMA RAY LOG
 GR  .GAPI   30 310 01 00:   GAMMA RAY
~PARAMETER INFORMATION
#MNEM.UNIT          VALUE    DESCRIPTION
#----------   ------------   ------------------------------
 EKB .F         5020.3000:   Kelly bushing
 EGL .F         5010.0000:   Ground level
 EDF .F            0.0000:   Drilling floor
 TD  .F         2860.0000:   Total depth
 CLNT.            A2DTECH:   Client Code
 DATE.        30-MAY-1986:   Date Logged [DD-MMM-YYYY]
 DD  .F              2860:   Depth driller
 DL  .F              2855:   Depth logger
 BLI .F              2854:   Bottom log interval
 TLI .F               164:   Top log interval
 CS1 .              8.625:   Casing size
 CBD1.      8.625" @ 167':   Casing driller 1
 CBL1.IN              164:   Casing logger 1
 BS1 .IN            7.875:   Bit size
 BSD1.F              2860:   Depth drilled with bit1
 DFT .  LIGND-SULFATE LCM:   Type fluid in hole
 DFD .                8.9:   Density
 DFV .                 33:   Viscosity
 DFPH.               11.0:   pH
 DFL .                9.2:   Fluid loss
 MSS .           FLOWLINE:   Source of sample
 RMS .OHMM           1.47:   Rm
 MST .F                55:   Rm Meas. temp.
 RMF .OHMM           1.13:   Rmf
 MFST.F                75:   Rmf Meas. temp.
 RMB .OHMM           0.78:   Rm. at BHT
 BHT .F               108:   BHT.
 TCS .HRS               3:   Time Circ. stopped
 MRT .F               108:   Maximum recorded temp.
 LUN .               3527:   Logging unit number
 LUL .               CSPR:   Logging unit location
 ENGI.            MANGOLO:   Recorded By
 WITN.             TUTTLE:   Witnessed by
 ORIG.      1" 2.5" PRINT:   Origin of data
 UWI .     49025095240000:   Unique Well ID
 DICO. A2D TECHNOLOGIES, INC.:   Digitizing Company
 PD  .                 GL:   Permanent Datum
 EPD .               5010:   Elevation Permanent Datum
 LMF .                 KB:   Log Measured From
 DMF .                 KB:   Drilling Measured From
 DAPD.              10.32:   Feet Above Permanent Datum
 MFSS.         MEAS PRESS:   Source Rmf.
~OTHER INFORMATION
~A    DEPT     SPR        ASN        ILD        GRD       CALD       CORR       RHOB        CALI        GR   
# ...
  256.5000   -66.9870    15.3078    12.8511  -999.2500  -999.2500  -999.2500  -999.2500     8.4132    74.9577
  257.0000   -66.9863    15.2439    12.8525  -999.2500  -999.2500  -999.2500  -999.2500     8.3842    74.7389
  257.5000   -66.9855    15.2439    12.7679  -999.2500  -999.2500  -999.2500  -999.2500     8.3850    73.8349
  258.0000   -66.9848    15.2439    12.7079  -999.2500  -999.2500  -999.2500  -999.2500     8.3858    72.7389
  258.5000   -66.9840    15.2439    12.6774  -999.2500  -999.2500  -999.2500  -999.2500     8.3865    72.3976
  259.0000   -66.9832    15.2439    12.5634  -999.2500  -999.2500  -999.2500  -999.2500     8.3873    75.0165
  259.5000   -66.7401    15.2439    12.5652  -999.2500  -999.2500  -999.2500  -999.2500     8.3880    77.7425
  260.0000   -66.6769    15.2439    12.5664  -999.2500  -999.2500  -999.2500  -999.2500     8.3888    77.8717
  260.5000   -66.6761    15.2439    12.4966  -999.2500  -999.2500  -999.2500  -999.2500     8.3895    75.1100
  261.0000   -66.7393    15.2439    12.4218  -999.2500  -999.2500  -999.2500  -999.2500     8.3903    73.1083
  261.5000   -66.9840    15.2439    12.4233  -999.2500  -999.2500  -999.2500  -999.2500     8.3911    72.0673
  262.0000   -67.2287    15.2867    12.4249  -999.2500  -999.2500  -999.2500  -999.2500     8.3918    75.8606
  262.5000   -67.2828    15.1671    12.3156  -999.2500  -999.2500  -999.2500  -999.2500     8.3926    80.5810
  263.0000   -67.2820    15.0442    12.2802  -999.2500  -999.2500  -999.2500  -999.2500     8.3932    83.8605
  263.5000   -67.2096    15.0442    12.2817  -999.2500  -999.2500  -999.2500  -999.2500     8.3939    86.4368
  264.0000   -66.9756    14.9558    12.2537  -999.2500  -999.2500  -999.2500  -999.2500     8.4243    88.0783
  264.5000   -66.9747    14.8362    12.1371  -999.2500  -999.2500  -999.2500  -999.2500     8.4251    87.1734
  265.0000   -66.7759    14.7165    12.1386  -999.2500  -999.2500  -999.2500  -999.2500     8.4258    81.3394
  265.5000   -66.6684    14.5969    12.1401  -999.2500  -999.2500  -999.2500  -999.2500     8.4377    78.2789
  266.0000   -66.6677    14.4543    12.1416  -999.2500  -999.2500  -999.2500  -999.2500     8.4569    76.8538
  266.5000   -66.6669    14.4543    12.1013  -999.2500  -999.2500  -999.2500  -999.2500     8.4577    80.3231
  267.0000   -66.6660    14.4543    11.9969  -999.2500  -999.2500  -999.2500  -999.2500     8.4881    85.4704
  267.5000   -66.6654    14.4133    11.9987  -999.2500  -999.2500  -999.2500  -999.2500     8.4889    90.2940
  268.0000   -66.8110    14.3068    11.8918  -999.2500  -999.2500  -999.2500  -999.2500     8.4896    90.3192
  268.5000   -67.0556    14.3068    11.8540  -999.2500  -999.2500  -999.2500  -999.2500     8.4866    84.8160
  269.0000   -67.2730    14.3068    11.8555  -999.2500  -999.2500  -999.2500  -999.2500     8.4614    82.0209
  269.5000   -67.2720    14.3068    11.8299  -999.2500  -999.2500  -999.2500  -999.2500     8.4622    81.2917
  270.0000   -67.0579    14.3068    11.7109  -999.2500  -999.2500  -999.2500  -999.2500     8.4302    81.1866
  270.5000   -66.9657    14.3068    11.7124  -999.2500  -999.2500  -999.2500  -999.2500     8.4103    82.0857
  271.0000   -66.9649    14.3068    11.7138  -999.2500  -999.2500  -999.2500  -999.2500     8.4110    83.1927
  271.5000   -66.9992    14.1937    11.7153  -999.2500  -999.2500  -999.2500  -999.2500     8.4116    83.3559
  272.0000   -67.2682    14.1593    11.6774  -999.2500  -999.2500  -999.2500  -999.2500     8.4122    83.5718
  272.5000   -67.4886    14.1019    11.5706  -999.2500  -999.2500  -999.2500  -999.2500     8.4128    83.5779
  273.0000   -67.5717    14.0118    11.5725  -999.2500  -999.2500  -999.2500  -999.2500     8.3828    83.9511
  273.5000   -67.5709    14.0101    11.5738  -999.2500  -999.2500  -999.2500  -999.2500     8.3835    84.9035
  274.0000   -67.5702    13.8905    11.5753  -999.2500  -999.2500  -999.2500  -999.2500     8.3841    83.7282
  274.5000   -67.5693    13.8643    11.5251  -999.2500  -999.2500  -999.2500  -999.2500     8.3847    78.6520
  275.0000   -67.3400    13.7332    11.4307  -999.2500  -999.2500  -999.2500  -999.2500     8.3853    76.3609
  275.5000   -67.0938    13.5316    11.4322  -999.2500  -999.2500  -999.2500  -999.2500     8.3859    76.8568
  276.0000   -67.0671    13.4120    11.4336  -999.2500  -999.2500  -999.2500  -999.2500     8.3763    78.5466
  276.5000   -67.3621    13.2743    11.3442  -999.2500  -999.2500  -999.2500  -999.2500     8.3565    81.3390
  277.0000   -67.8704    13.1727    11.2891  -999.2500  -999.2500  -999.2500  -999.2500     8.3572    84.2827
  277.5000   -67.8697    12.9793    11.2537  -999.2500  -999.2500  -999.2500  -999.2500     8.3578    86.0581
  278.0000   -67.8689    12.7860    11.1249  -999.2500  -999.2500  -999.2500  -999.2500     8.3584    86.1456
  278.5000   -67.8682    12.6484    10.8512  -999.2500  -999.2500  -999.2500  -999.2500     8.3590    85.6349
  279.0000   -67.8095    12.3894    10.7493  -999.2500  -999.2500  -999.2500  -999.2500     8.3596    86.2262
  279.5000   -67.5617    12.1698    10.6303  -999.2500  -999.2500  -999.2500  -999.2500     8.3602    87.7004
  280.0000   -67.3171    11.9305    10.4622  -999.2500  -999.2500  -999.2500  -999.2500     8.3609    89.3222
  280.5000   -67.2554    11.6912    10.2006  -999.2500  -999.2500  -999.2500  -999.2500     8.3717    90.0616
  281.0000   -67.2546    11.4257     9.8260  -999.2500  -999.2500  -999.2500  -999.2500     8.3927    90.0671
  281.5000   -67.2538    11.0619     9.4808  -999.2500  -999.2500  -999.2500  -999.2500     8.3933    89.3387
  282.0000   -67.2531    10.8260     9.0325  -999.2500  -999.2500  -999.2500  -999.2500     8.3939    89.0544
  282.5000   -67.2523    10.4064     8.4292  -999.2500  -999.2500  -999.2500  -999.2500     8.3945    90.4506
  283.0000   -67.2515    10.0724     7.6390  -999.2500  -999.2500  -999.2500  -999.2500     8.4257    90.0891
  283.5000   -67.2508     9.8714     6.7065  -999.2500  -999.2500  -999.2500  -999.2500     8.4263    89.3607
  284.0000   -67.2500     9.5411     6.1477  -999.2500  -999.2500  -999.2500  -999.2500     8.4269    89.7332
  284.5000   -67.2630     9.0292     5.9474  -999.2500  -999.2500  -999.2500  -999.2500     8.4275    91.2066
  285.0000   -67.5532     8.4071     5.7080  -999.2500  -999.2500  -999.2500  -999.2500     8.4587    92.3130
  285.5000   -67.5526     8.1678     5.5620  -999.2500  -999.2500  -999.2500  -999.2500     8.4899    93.4194
  286.0000   -67.6921     8.0203     5.6421  -999.2500  -999.2500  -999.2500  -999.2500     8.5007   101.8653
  286.5000   -67.8560     8.0669     6.1550  -999.2500  -999.2500  -999.2500  -999.2500     8.5319   108.1093
  287.0000   -67.8552     8.3304     6.9478  -999.2500  -999.2500  -999.2500  -999.2500     8.5937   112.1515
  287.5000   -67.8543     8.7889     7.9646  -999.2500  -999.2500  -999.2500  -999.2500     8.6147   112.5240
  288.0000   -67.8537     9.7640     8.9321  -999.2500  -999.2500  -999.2500  -999.2500     8.5337   105.5570
  288.5000   -67.8529    10.6106     9.6170  -999.2500  -999.2500  -999.2500  -999.2500     8.4120    96.7551
  289.0000   -67.8521    11.3536     9.8594  -999.2500  -999.2500  -999.2500  -999.2500     8.3311    93.4579
  289.5000   -67.8224    11.6371    10.1463  -999.2500  -999.2500  -999.2500  -999.2500     8.2806    92.9602
  290.0000   -67.5456    11.9797    10.1475  -999.2500  -999.2500  -999.2500  -999.2500     8.2813    92.3680
  290.5000   -67.3300    12.2419    10.1490  -999.2500  -999.2500  -999.2500  -999.2500     8.2820    87.9698
  291.0000   -67.2393    12.4582    10.1504  -999.2500  -999.2500  -999.2500  -999.2500     8.2826    87.2414
  291.5000   -67.2386    12.7778    10.1519  -999.2500  -999.2500  -999.2500  -999.2500     8.2832    90.1826
  292.0000   -67.2744    13.0843    10.1535  -999.2500  -999.2500  -999.2500  -999.2500     8.2736    90.4512
  292.5000   -67.5419    13.3481    10.2655  -999.2500  -999.2500  -999.2500  -999.2500     8.2537    87.6248
