~VERSION INFORMATION
 VERS.                2.0:   CWLS LOG ASCII STANDARD - VERSION 2.0
 WRAP.                 NO:   ONE LINE PER DEPTH STEP
~WELL INFORMATION
#MNEM.UNIT      DATA TYPE    INFORMATION
#----------   ------------   ------------------------------
 STRT.F          508.0000:   START DEPTH
 STOP.F         3170.0000:   STOP DEPTH
 STEP.F            0.5000:   STEP LENGTH
 NULL.          -999.2500:   NO VALUE
 COMP. FENIX & SCISSON - U.S. NAVY:   COMPANY
 WELL. FENIX NPR-3 "A" #58-34:   WELL
 FLD .                NPR:   FIELD
 LOC .      S34 T39N R78W:   LOCATION
 CNTY.            NATRONA:   COUNTY
 STAT.            WYOMING:   STATE
 CTRY. UNITED STATES OF AMERICA:   COUNTRY
 SRVC.       SCHLUMBERGER:   SERVICE COMPANY
 DATE.        15-MAR-1977:   LOGDATE
 API .     49025103180000:   API NUMBER
~CURVE INFORMATION
#MNEM.UNIT       API CODE    CURVE DESCRIPTION
#----------   ------------   ------------------------------
 DEPT.F                  :   
 CALD.IN     45 280 60 00:   CALIPER FROM DENSITY LOG
 GRD .GAPI   45 310 01 00:   GAMMA RAY FROM DENSITY LOG
 RHOB.G/C3   45 350 01 00:   BULK DENSITY
 CORR.G/C3   45 356 01 00:   DENSITY CORRECTION
 SPR .MV     07 010 01 00:   SPONTANEOUS POTENTIAL
 LL8 .OHMM   07 220 08 00:   LATEROLOG-8 RES.
 ILD .OHMM   07 120 46 00:   DEEP INDUCTION RESISTIVITY
 ILM .OHMM   07 120 44 00:   INDUCTION LOG MEDIUM RESISTIVITY
~PARAMETER INFORMATION
#MNEM.UNIT          VALUE    DESCRIPTION
#----------   ------------   ------------------------------
 EKB .F         5129.0000:   Kelly bushing
 EGL .F         5117.0000:   Ground level
 EDF .F            0.0000:   Drilling floor
 EPD .F            0.0000:   Permanent datum
 TD  .F         3170.0000:   Total depth
 DATE.        15-MAR-1977:   Date logged
 CLNT.            A2DTECH:   Client Code
 SL  . 2310' FEL & 330' FSL:   Surface Location
 PD  .                 GL:   Permanent Datum
 DAPD.F                12:   Feet Above Permanent Datum
 DD  .F              3170:   Depth driller
 DL  .F              3170:   Depth logger
 BLI .F              3169:   Bottom log interval
 TLI .F               508:   Top log interval
 CS1 .IN            8.625:   Casing size
 CBD1.      8.625" @ 524':   Casing driller 1
 CBL1.F               522:   Casing logger 1
 BS1 .IN            7.875:   Bit size
 BSD1.F              3170:   Depth drilled with bit1
 DFT .                KCL:   Type fluid in hole
 DFD .                9.2:   Density
 DFV .                 36:   Viscosity
 DFPH.                  9:   pH
 DFL .                  9:   Fluid loss
 MSS .                PIT:   Source of sample
 RMS .OHMM             .3:   Rm
 MST .F                58:   Rm Meas. temp.
 RMF .OHMM            .29:   Rmf
 MFST.F                58:   Rmf Meas. temp.
 MFSS.               MEAS:   Source Rmf.
 RMB .OHMM            .15:   Rm. at BHT
 BHT .F               120:   BHT.
 TCS .HRS               6:   Time Circ. stopped
 MRT .F               120:   Maximum recorded temp.
 LUN .               7711:   Logging unit number
 LUL .               CSPR:   Logging unit location
 ENGI.             SAYLER:   Recorded By
 WITN.               JAPP:   Witnessed by
 ORIG.           5" PRINT:   Origin of data
 UWI .     49025103180000:   Unique Well ID
 DICO. A2D TECHNOLOGIES, INC.:   Digitizing Company
~OTHER INFORMATION
~A   DEPT       CALD       GRD      RHOB        CORR       SPR        LL8        ILD        ILM   
# ...
 2452.0000     8.4620   163.1107     2.5576     0.0043   -51.0742     7.4364     5.5099     5.6642
 2452.5000     8.4426   165.4958     2.5526     0.0003   -51.5286     7.1000     5.2593     5.5581
 2453.0000     8.4430   168.0786     2.5516     0.0053   -51.9829     6.7751     5.2567     5.5043
 2453.5000     8.4434   168.6779     2.5526     0.0134   -51.9950     6.1777     5.2059     5.4012
 2454.0000     8.4438   166.6977     2.5516     0.0134   -52.2282     5.9519     5.2032     5.3490
 2454.5000     8.4442   164.9159     2.5657     0.0174   -52.4614     6.0038     5.0115     5.2973
 2455.0000     8.4643   164.9199     2.5747     0.0174   -52.6970     7.0798     5.0569     5.2461
 2455.5000     8.4450   166.1145     2.5677     0.0144   -52.9302     7.4087     4.9616     5.1953
 2456.0000     8.4453   169.6902     2.5627     0.0084   -52.7212     7.0727     4.9591     5.1451
 2456.5000     8.4656   171.8769     2.5657     0.0064   -52.5121     6.5678     4.9566     5.0954
 2457.0000     8.4660   173.4676     2.5667     0.0094   -52.0820     6.0439     4.8637     5.0928
 2457.5000     8.4664   173.4716     2.5677     0.0124   -51.8729     5.5617     4.8612     5.0902
 2458.0000     8.4668   172.0866     2.5707     0.0104   -51.4404     5.5589     4.9037     5.2302
 2458.5000     8.4473   164.5513     2.5707     0.0024   -51.2314     6.1466     5.0385     5.4738
 2459.0000     8.4477   158.9994     2.5718     0.0034   -50.8013     7.1163     5.2732     5.7818
 2459.5000     8.4680   154.2420     2.5708     0.0075   -50.1502     7.9412     5.5699     5.9957
 2460.0000     8.4684   153.6507     2.5668     0.0075   -49.7202     8.6209     5.8833     6.2175
 2460.5000     8.4489   153.4563     2.5698     0.0125   -49.5112     8.4598     6.1574     6.3884
 2461.0000     8.4493   153.8564     2.5678     0.0075   -49.5233     8.3017     6.3266     6.5038
 2461.5000     8.4498   153.8604     2.5718     0.0075   -49.5355     8.0721     6.3819     6.5607
 2462.0000     8.4502   154.6582     2.5758     0.0085   -49.3265     7.7771     6.3787     6.6180
 2462.5000     8.4505   155.4559     2.5808     0.0165   -49.1176     7.7021     6.3170     6.6146
 2463.0000     8.4509   156.0552     2.5788     0.0226   -48.9087     7.6982     6.2560     6.6113
 2463.5000     8.4511   157.4482     2.5768     0.0286   -48.9208     7.8369     6.3106     6.5474
 2464.0000     8.4517   158.8412     2.5749     0.0286   -49.3751     8.0517     6.2496     6.5441
 2464.5000     8.4521   159.4397     2.5629     0.0166   -49.6082     8.1968     6.3043     6.4808
 2465.0000     8.4525   160.4359     2.5559     0.0166   -49.8414     8.2682     6.3011     6.4775
 2465.5000     8.4529   162.6226     2.5649     0.0186   -50.0769     8.3403     6.2979     6.4743
 2466.0000     8.4533   165.8023     2.5739     0.0176   -50.5311     8.3361     6.2947     6.4710
 2466.5000     8.4735   167.7889     2.5809     0.0086   -50.9852     8.3319     6.3497     6.4677
 2467.0000     8.4736   167.1977     2.5579     0.0056   -51.6603     8.3277     6.2883     6.4645
 2467.5000     8.4743   163.0356     2.5569     0.0076   -52.1144     8.1720     6.2275     6.4612
 2468.0000     8.4747   161.2538     2.5509     0.0096   -52.1264     8.0933     6.1673     6.4579
 2468.5000     8.4948   159.2719     2.5479     0.0056   -52.1385     7.9420     6.1077     6.3955
 2469.0000     8.4756   163.2453     2.5469     0.0046   -51.7086     7.8654     6.1046     6.3337
 2469.5000     8.4957   164.6383     2.5499     0.0036   -51.7207     7.6479     6.1015     6.2724
 2470.0000     8.4961   161.4675     2.5499     0.0047   -51.0698     7.5742     6.0985     6.2693
 2470.5000     8.4965   157.7023     2.5399     0.0107   -51.0819     7.5704     6.1518     6.2661
 2471.0000     8.4969   158.1024     2.5450     0.0177   -50.8730     7.7778     6.1487     6.3209
 2471.5000     8.4973   160.2891     2.5650     0.0288   -50.6641     7.9910     6.3177     6.4351
 2472.0000     8.5374   162.4758     2.5740     0.0398   -50.0134     8.3622     6.6120     6.6120
 2472.5000     8.5180   165.2577     2.5780     0.0448   -49.8045     8.7506     6.4880     6.9200
 2473.0000     8.5184   166.2539     2.5900     0.0489   -49.8166     8.9083     6.4848     6.9165
 2473.5000     8.5188   167.0508     2.5700     0.0509   -49.8287     8.9859     6.4815     6.8496
 2474.0000     8.4993   167.6493     2.5660     0.0268   -49.8409     8.5784     6.4782     6.7834
 2474.5000     8.5196   162.8928     2.5811     0.0178   -49.4111     8.2649     6.4749     6.7800
 2475.0000     8.5200   161.1110     2.5981     0.0218   -49.2023     7.9629     6.4717     6.7766
 2475.5000     8.5204   158.7339     2.5931     0.0228   -48.9935     7.6017     6.4684     6.8358
 2476.0000     8.5207   156.3568     2.5861     0.0228   -49.4475     7.3232     6.4651     6.8955
 2476.5000     8.5410   154.9719     2.5831     0.0218   -49.6805     7.6641     6.4026     6.8920
 2477.0000     8.5414   154.5791     2.5811     0.0198   -49.6926     8.3969     6.4586     6.8886
 2477.5000     8.5418   154.5831     2.5761     0.0138   -49.7047     8.7066     6.3961     6.8220
 2478.0000     8.5422   154.7856     2.5781     0.0078   -49.7169     8.8634     6.3929     6.7560
 2478.5000     8.5425   155.9802     2.5501     0.0048   -49.9499     8.6969     6.3916     6.6294
 2479.0000     8.5628   157.3724     2.5661     0.0129   -50.1829     8.6934     6.3279     6.5051
 2479.5000     8.5632   159.1622     2.5692     0.0139   -50.1950     8.2233     6.2093     6.3832
 2480.0000     8.5438   160.9520     2.5692     0.0139   -50.4279     7.4974     6.0929     6.2636
 2480.5000     8.5442   161.3529     2.5662     0.0089   -50.4400     7.1574     5.9787     6.2030
 2481.0000     8.5446   161.5554     2.5632     0.0059   -50.4521     7.0884     5.8667     6.0868
 2481.5000     8.5450   160.7657     2.5562     0.0049   -50.2434     7.2827     5.7567     6.0279
 2482.0000     8.5454   160.9682     2.5482     0.0059   -50.2554     7.5513     5.7010     6.0249
 2482.5000     8.5458   162.9556     2.5392     0.0069   -50.4884     7.4102     5.6982     6.0224
 2483.0000     8.5461   164.3486     2.5482     0.0099   -50.5005     7.0741     5.6953     6.0188
 2483.5000     8.5465   163.5590     2.5522     0.0069   -50.2917     7.0059     5.6391     6.0157
 2484.0000     8.5469   156.6190     2.5482     0.0039   -50.7455     7.1979     5.6374     5.9576
 2484.5000     8.5473   150.4719     2.5472     0.0040   -50.5368     7.3276     5.6345     5.9546
 2485.0000     8.5676   152.2617     2.5512     0.0070   -50.5489     7.5285     5.6317     5.8430
 2485.5000     8.5676   156.0350     2.5623     0.0130   -50.5610     7.5941     5.6288     5.7865
 2486.0000     8.5684   157.4280     2.5683     0.0160   -51.0147     7.4521     5.5727     5.6780
 2486.5000     8.5688   160.2099     2.5653     0.0200   -50.8060     7.1142     5.4699     5.6231
 2487.0000     8.5692   161.6029     2.5633     0.0200   -50.5972     6.7916     5.3669     5.5688
 2487.5000     8.5696   161.4085     2.5583     0.0271   -50.3885     6.5434     5.2663     5.5149
 2488.0000     8.5700   162.0078     2.5503     0.0261   -50.1798     6.3042     5.2636     5.3614
 2488.5000     8.5901   165.7811     2.5373     0.0121   -50.4127     6.1299     5.0242     5.2127
 2489.0000     8.5708   167.5710     2.5513     0.0131   -50.8664     6.1268     4.9757     5.0681
 2489.5000     8.5711   165.7892     2.5614     0.0141   -51.0992     6.1237     4.8824     4.9276
 2490.0000     8.5715   165.5948     2.5694     0.0171   -51.1113     6.0092     4.8352     4.8352
 2490.5000     8.5521   166.1925     2.5624     0.0161   -51.3442     5.9513     4.5311     4.7011
 2491.0000     8.5723   160.8431     2.5474     0.0141   -51.5770     5.8939     4.4462     4.6130
 2491.5000     8.5727   163.0274     2.5414     0.0151   -51.8123     5.7309     4.2440     4.5265
 2492.0000     8.5731   166.0077     2.5334     0.0101   -52.2658     5.4705     4.0510     4.4010
