~VERSION INFORMATION
 VERS.                2.0:   CWLS LOG ASCII STANDARD - VERSION 2.0
 WRAP.                 NO:   ONE LINE PER DEPTH STEP
~WELL INFORMATION
#MNEM.UNIT      DATA TYPE    INFORMATION
#----------   ------------   ------------------------------
 STRT.F          190.0000:   START DEPTH
 STOP.F         3215.0000:   STOP DEPTH
 STEP.F            0.5000:   STEP LENGTH
 NULL.          -999.2500:   NO VALUE
 COMP.    FENIX & SCISSON:   COMPANY
 WELL.  FENIX "AX" #78-34:   WELL
 FLD . NAVAL PET. RES. NO. 3:   FIELD
 LOC .      S34 T39N R78W:   LOCATION
 CNTY.            NATRONA:   COUNTY
 STAT.            WYOMING:   STATE
 CTRY. UNITED STATES OF AMERICA:   COUNTRY
 SRVC.       SCHLUMBERGER:   SERVICE COMPANY
 DATE.        16-DEC-1980:   LOGDATE
 API .     49025108670000:   API NUMBER
~CURVE INFORMATION
#MNEM.UNIT       API CODE    CURVE DESCRIPTION
#----------   ------------   ------------------------------
 DEPT.F                  :   
 TEND.LBS    45 635 01 00:   TENSION FORM DENSITY LOG
 GRD .GAPI   45 310 01 00:   GAMMA RAY FROM DENSITY LOG
 CALD.IN     45 280 60 00:   CALIPER FROM DENSITY LOG
 CORR.G/C3   45 356 01 00:   DENSITY CORRECTION
 RHOB.G/C3   45 350 01 00:   BULK DENSITY
 SPR .MV     07 010 01 00:   SPONTANEOUS POTENTIAL
 TENR.LBS    07 635 01 00:   TENSION FROM RESISTIVITY
 ILD .OHMM   07 120 46 00:   DEEP INDUCTION RESISTIVITY
 ILM .OHMM   07 120 44 00:   INDUCTION LOG MEDIUM RESISTIVITY
 SFL .OHMM   07 220 01 00:   SHALLOW FOCUSED LOG RESISTIVITY
~PARAMETER INFORMATION
#MNEM.UNIT          VALUE    DESCRIPTION
#----------   ------------   ------------------------------
 EKB .F         5068.0000:   Kelly bushing
 EGL .F         5058.0000:   Ground level
 EDF .F            0.0000:   Drilling floor
 EPD .F            0.0000:   Permanent datum
 TD  .F         3202.0000:   Total depth
 CLNT.            A2DTECH:   Client Code
 SL  . 542' FSL & 693' FEL:   Surface Location
 PD  .                 GL:   Permanent Datum
 DAPD.F                10:   Feet Above Permanent Datum
 DATE.        16-DEC-1980:   Date Logged [DD-MMM-YYYY]
 DD  .F              3200:   Depth driller
 DL  .F              3202:   Depth logger
 BLI .F              3199:   Bottom log interval
 TLI .F               193:   Top log interval
 CS1 .IN            8.625:   Casing size
 CBD1.      8.625" @ 215':   Casing driller 1
 CBL1.F               193:   Casing logger 1
 BS1 .IN            7.875:   Bit size
 BSD1.F              3200:   Depth drilled with bit1
 DFT .               LSND:   Type fluid in hole
 DFD .                9.1:   Density
 DFV .                 35:   Viscosity
 DFPH.                  8:   pH
 DFL .                 16:   Fluid loss
 MSS .            MUD PIT:   Source of sample
 RMS .OHMM            2.9:   Rm
 MST .F                56:   Rm Meas. temp.
 RMF .OHMM            2.4:   Rmf
 MFST.F                56:   Rmf Meas. temp.
 MFSS.               MEAS:   Source Rmf.
 RMC .OHMM            2.7:   Rmc
 MCST.F                56:   Rmc Meas. temp.
 MCSS.               CALC:   Source Rmc.
 RMB .OHMM           1.35:   Rm. at BHT
 BHT .F               120:   BHT.
 TCS .HRS            2100:   Time Circ. stopped
 MRT .F               120:   Maximum recorded temp.
 LUN .               8161:   Logging unit number
 ENGI.             SITTON:   Recorded By
 WITN.              FIVAS:   Witnessed by
 ORIG.           5" PRINT:   Origin of data
 UWI .     49025108670000:   Unique Well ID
 DICO. A2D TECHNOLOGIES, INC.:   Digitizing Company
~OTHER INFORMATION
~A   DEPT     TEND         GRD      CALD       CORR       RHOB        SPR       TENR        ILD        ILM        SFL   
# ...
 1597.0000   512.0482    95.9085     9.2188     0.0326     2.5606   -45.1842   370.8796     6.2491     6.2471     7.1095
 1597.5000   512.0482    96.2214     9.2346     0.0244     2.5599   -44.9968   369.8565     6.3392     6.3810     7.2617
 1598.0000   512.0482    95.3526     9.2356     0.0176     2.5509   -44.8199   368.8335     6.4306     6.4728     7.2762
 1598.5000   511.5642    93.8929     9.2071     0.0131     2.5420   -44.5683   367.8105     6.5687     6.6573     7.2785
 1599.0000   510.6355    92.7287     9.1783     0.0116     2.5367   -44.4414   366.7878     6.6634     6.7531     7.1245
 1599.5000   509.7067    93.0416     9.1795     0.0154     2.5375   -44.1675   365.7647     6.6661     6.8503     7.4367
 1600.0000   508.7780    93.3545     9.1510     0.0238     2.5511   -44.0301   379.9392     6.6688     6.8063     7.7016
 1600.5000   507.8493    93.3719     9.1520     0.0290     2.5631   -43.8928   379.1247     6.6716     6.8096     7.9760
 1601.0000   506.9205    94.2757     9.1678     0.0337     2.5671   -43.8251   393.5078     6.6280     6.7200     7.9227
 1601.5000   505.9918    98.7244     9.1836     0.0393     2.5799   -43.8559   392.4896     6.5398     6.4949     7.7624
 1602.0000   505.0630   100.8099     9.1846     0.0465     2.5857   -43.9665   391.6753     6.3190     6.2773     7.2945
 1602.5000   504.1343    99.9411     9.1857     0.0457     2.5692   -44.1518   390.8608     6.1911     6.1940     6.8954
 1603.0000   503.2056    96.9886     9.1719     0.0262     2.5362   -44.4094   390.0463     6.1936     6.1970     6.9528
 1603.5000   502.2769    96.4309     9.1581     0.0169     2.5325   -44.6671   389.2318     6.1526     6.1999     6.9550
 1604.0000   501.3481    97.3786     9.1728    -0.0018     2.5393   -44.9269   388.4173     6.1130     6.2175     6.7988
 1604.5000   500.4194   101.6075     9.1729     0.0827     2.5708   -45.1423   387.6028     6.1447     6.2359     6.2282
 1605.0000   499.4906   101.4616     9.1730     0.1202     2.5919   -45.1688   386.7782     6.1694     6.2544     6.2735
 1605.5000   498.5619   100.5305     9.1721     0.1297     2.6032   -45.5411   385.9423     6.1300     6.2728     6.5423
 1606.0000   497.6331    97.6347     9.1598     0.1048     2.5752   -45.8079   400.1534     6.1762     6.2960     6.9179
 1606.5000   496.7044    96.6268     9.1316     0.0626     2.5529   -45.9701   399.3389     6.2227     6.3809     7.1148
 1607.0000   495.7757    95.5437     9.1334     0.0353     2.5567   -46.0751   398.5244     6.2703     6.3831     7.3173
 1607.5000   494.8470    93.9898     9.1338     0.0235     2.5598   -45.7929   397.7964     6.3174     6.4741     7.4219
 1608.0000   493.9182    92.1211     9.1341     0.0175     2.5530   -45.5848   412.2965     6.3650     6.5212     7.4241
 1608.5000   492.9895    90.4909     9.1299     0.0223     2.5591   -45.1478   411.3222     6.4576     6.5234     7.3750
 1609.0000   491.9679    89.9586     9.1253     0.0333     2.5636   -44.8950   410.4863     6.4611     6.4801     7.3263
 1609.5000   491.9679    90.7642     9.1336     0.0287     2.5569   -44.6151   409.6505     6.4646     6.3933     7.2778
 1610.0000   491.9679    93.4279     9.1338     0.0131     2.5449   -44.3405   408.8147     6.4233     6.3083     7.2297
 1610.5000   491.9679    96.4790     9.1459     0.0148     2.5382   -44.0937   407.8169     6.3822     6.2669     7.1322
 1611.0000   491.9679    96.4988     9.1570     0.0211     2.5564   -43.8324   407.0024     6.2976     6.2259     6.9879
 1611.5000   491.9679    95.2742     9.1720     0.0282     2.5663   -43.8107   406.1879     6.2140     6.1851     6.9411
 1612.0000   491.9679    94.6150     9.1724     0.0345     2.5751   -43.9895   405.3734     6.1676     6.2306     6.9437
 1612.5000   491.9679    95.9861     9.1591     0.0473     2.5773   -44.0171   404.5589     6.1349     6.2327     6.8978
 1613.0000   491.9679    98.1708     9.1331     0.0427     2.5714   -44.0923   403.7444     6.1391     6.1914     6.7577
 1613.5000   491.9679   100.0103     9.1338     0.0253     2.5534   -44.2055   402.9635     6.0990     6.1940     6.6149
 1614.0000   491.9679   100.0237     9.1337     0.0137     2.5354   -44.3174   402.1154     6.0609     6.1961     6.3966
 1614.5000   532.1285    99.3851     9.1390     0.0083     2.5204   -44.3977   401.2919     6.0642     6.1982     6.6712
 1615.0000   532.1285    97.9549     9.1514     0.0091     2.5204   -44.5897   400.4559     6.0675     6.2003     6.8611
 1615.5000   532.1285    97.0117     9.1531     0.0100     2.5265   -44.7860   399.4684     6.0708     6.2024     6.9591
 1616.0000   532.1380    95.3323     9.1603     0.0108     2.5295   -45.0647   398.6539     6.0741     6.2045     6.8647
 1616.5000   532.1285    94.5654     9.1711     0.0148     2.5341   -45.1591   397.8394     6.0774     6.2496     6.7258
 1617.0000   532.1285    94.0955     9.1729     0.0196     2.5397   -44.9893   397.0249     6.0808     6.2518     6.4984
 1617.5000   532.1285    92.9730     9.1729     0.0244     2.5596   -44.9935   396.2104     6.1266     6.2543     6.4041
 1618.0000   532.1285    91.2768     9.1729     0.0285     2.5634   -44.8409   395.3958     6.0873     6.2134     6.6854
 1618.5000   532.1285    90.6337     9.1729     0.0331     2.5687   -44.6682   394.5815     6.0074     6.0879     6.7341
 1619.0000   532.1285    91.7445     9.1729     0.0246     2.5622   -44.3416   408.9666     5.8866     5.9651     6.7366
 1619.5000   532.1285    92.1581     9.1729     0.0176     2.5462   -44.0208   408.1307     5.6886     5.8447     6.6452
 1620.0000   532.1285    91.3628     9.1726     0.0098     2.5267   -43.5655   407.1320     5.2362     5.5322     6.4657
 1620.5000   523.9138    89.5047     9.1646     0.0185     2.5260   -43.3809   406.3174     5.0601     5.2365     6.2906
 1621.0000   514.7864    90.5250     9.1563     0.0560     2.5396   -43.2387   405.5029     4.9240     5.0604     5.6311
 1621.5000   512.0482    93.1206     9.1533     0.0848     2.5614   -43.1040   404.6884     4.8925     5.0272     5.1469
 1622.0000   512.0482    94.9521     9.1532     0.0726     2.5539   -42.5998   403.8739     4.9637     5.1027     4.9001
 1622.5000   512.0482    96.8201     9.1532     0.0321     2.5149   -42.2612   403.0596     5.1065     5.2440     5.1859
 1623.0000   512.0482    99.3399     9.1532     0.0079     2.5096   -41.6058   402.2451     5.2221     5.3557     5.7344
 1623.5000   512.0482   101.1928     9.1533     0.0166     2.5329   -40.7564   401.4306     5.3677     5.4697     6.3465
 1624.0000   512.0482   101.2724     9.1533     0.0237     2.5480   -40.1650   400.6079     5.5220     5.5861     6.6184
 1624.5000   512.0482   100.0557     9.1532     0.0277     2.5495   -41.3320   399.7720     5.6808     5.7844     6.8068
 1625.0000   512.0482    96.8259     9.1479     0.0293     2.5526   -42.4998   398.7834     5.9259     5.9485     6.8563
 1625.5000   512.0482    94.5503     9.1193     0.0309     2.5623   -44.4596   397.9689     6.1817     6.0752     6.8104
 1626.0000   512.0482    94.1263     9.1140     0.0341     2.5751   -45.2056   397.2644     6.3154     6.2045     6.8604
 1626.5000   512.0482    93.3269     9.1139     0.0317     2.5760   -45.7796   396.3401     6.4073     6.2930     7.0069
 1627.0000   512.0482    92.4490     9.1139     0.0233     2.5593   -46.1106   395.5927     6.5005     6.3827     7.1565
 1627.5000   512.0482    93.3981     9.1139     0.0140     2.5520   -46.5248   394.7111     6.5040     6.4738     7.2086
 1628.0000   512.0482    95.4523     9.1139     0.0243     2.5625   -46.6351   393.8965     6.5530     6.5213     7.2108
 1628.5000   512.0482    97.9814     9.1139     0.0368     2.5768   -46.5548   393.0820     6.5567     6.5688     7.1636
 1629.0000   512.0482    99.8844     9.1140     0.0408     2.5843   -46.0241   392.2492     6.5610     6.5710     7.1157
 1629.5000   512.0482    98.2463     9.1140     0.0409     2.5829   -45.6279   391.2494     6.5182     6.5732     7.0686
 1630.0000   512.0482    96.4371     9.1136     0.0472     2.5814   -45.3966   390.5775     6.5226     6.6208     7.1206
