~VERSION INFORMATION
 VERS.                2.0:   CWLS LOG ASCII STANDARD - VERSION 2.0
 WRAP.                 NO:   ONE LINE PER DEPTH STEP
~WELL INFORMATION
#MNEM.UNIT      DATA TYPE    INFORMATION
#----------   ------------   ------------------------------
 STRT.F          206.0000:   START DEPTH
 STOP.F         2974.0000:   STOP DEPTH
 STEP.F            0.5000:   STEP LENGTH
 NULL.          -999.2500:   NO VALUE
 COMP.    FENIX & SCISSON:   COMPANY
 WELL.    FENIX AX #32-21:   WELL
 FLD .                NPR:   FIELD
 LOC .      S21 T39N R78W:   LOCATION
 CNTY.            NATRONA:   COUNTY
 STAT.            WYOMING:   STATE
 CTRY. UNITED STATES OF AMERICA:   COUNTRY
 SRVC.              WELEX:   SERVICE COMPANY
 DATE.        29-JUL-1977:   LOGDATE
 API .     49025104050000:   API NUMBER
~CURVE INFORMATION
#MNEM.UNIT       API CODE    CURVE DESCRIPTION
#----------   ------------   ------------------------------
 DEPT.F                  :   
 SPR .MV     07 010 01 00:   SPONTANEOUS POTENTIAL
 RILM.OHMM   07 120 44 00:   INDUCTION LOG MEDIUM RESISTIVITY
 RILD.OHMM   07 120 46 00:   INDUCTION LOG DEEP RESISTIVITY
 SGRD.OHMM   07 220 05 00:   SHALLOW GUARD LOG RESISTIVITY
 CALD.IN     45 280 60 00:   CALIPER FROM DENSITY LOG
 RHOB.G/C3   45 350 01 00:   BULK DENSITY
 DCOR.G/C3   45 356 01 00:   DENSITY CORRECTION
 GRD .GAPI   45 310 01 00:   GAMMA RAY FROM DENSITY LOG
~PARAMETER INFORMATION
#MNEM.UNIT          VALUE    DESCRIPTION
#----------   ------------   ------------------------------
 EKB .F         4995.0000:   Kelly bushing
 EGL .F         4985.0000:   Ground level
 EDF .F            0.0000:   Drilling floor
 EPD .F         4985.0000:   Permanent datum
 TD  .F         2978.0000:   Total depth
 DATE.        29-JUL-1977:   Date logged
 CLNT.            A2DTECH:   Client Code
 SL  . 1040' FNL & 1500' FWL:   Surface Location
 PD  .                 GL:   Permanent Datum
 LMF .                 KB:   Log Measured From
 DMF .                 KB:   Drilling Measured From
 DAPD.F                10:   Feet Above Permanent Datum
 DD  .F              2972:   Depth driller
 DL  .F              2978:   Depth logger
 BLI .F              2976:   Bottom log interval
 TLI .F               120:   Top log interval
 CS1 .IN            8.625:   Casing size
 CBD1.      8.625" @ 205':   Casing driller 1
 CBL1.F               220:   Casing logger 1
 BS1 .IN            7.875:   Bit size
 BSD1.F              2972:   Depth drilled with bit1
 DFT .                KCL:   Type fluid in hole
 DFD .                9.2:   Density
 DFV .                 43:   Viscosity
 DFPH.                 10:   pH
 DFL .                  8:   Fluid loss
 MSS .            MUD PIT:   Source of sample
 RMS .OHMM            .21:   Rm
 MST .F                91:   Rm Meas. temp.
 RMF .OHMM            .18:   Rmf
 MFST.F                91:   Rmf Meas. temp.
 RMC .OHMM            .23:   Rmc
 MCST.F                91:   Rmc Meas. temp.
 MFSS.               MEAS:   Source Rmf.
 MCSS.               MEAS:   Source Rmc.
 RMB .OHMM            .17:   Rm. at BHT
 BHT .F               110:   BHT.
 TCS .HRS               3:   Time Circ. stopped
 MRT .F               110:   Maximum recorded temp.
 LUN .               9685:   Logging unit number
 LUL .             CASPER:   Logging unit location
 ENGI.   T JOYNER/ E HOCH:   Recorded By
 WITN.         PETTINGILL:   Witnessed by
 ORIG.     2.5", 5" PRINT:   Origin of data
 UWI .     49025104050000:   Unique Well ID
 DICO. A2D TECHNOLOGIES, INC.:   Digitizing Company
~OTHER INFORMATION
~A   DEPT      SPR       RILM       RILD       SGRD       CALD       RHOB       DCOR         GRD  
# ...
  570.5000   -79.8600     5.7010     6.1480     8.0960     8.9760     2.4780     0.0430   119.8470
  571.0000   -79.5550     5.7010     6.1930     8.0960     8.9730     2.4770     0.0430   120.5540
  571.5000   -79.1960     5.7190     6.2370     8.0960     8.9690     2.4770     0.0400   121.1830
  572.0000   -79.2300     5.7590     6.2570     8.0960     8.9660     2.4810     0.0380   121.7050
  572.5000   -79.5380     5.8000     6.2650     8.0960     8.9630     2.4850     0.0350   120.9400
  573.0000   -79.8540     5.8400     6.2730     8.0960     8.9590     2.4800     0.0320   120.2770
  573.5000   -79.9090     5.8800     6.2810     8.0960     8.9560     2.4740     0.0300   120.5960
  574.0000   -79.9610     5.9200     6.2890     8.0950     8.9530     2.4720     0.0270   120.9440
  574.5000   -79.9930     5.9600     6.2970     8.0950     8.9490     2.4740     0.0240   121.3850
  575.0000   -80.0390     6.0000     6.3050     8.0950     8.9460     2.4640     0.0220   121.8800
  575.5000   -80.0800     6.0400     6.3130     8.0950     8.9430     2.4570     0.0190   122.5060
  576.0000   -80.1200     6.0800     6.3210     8.0940     8.9390     2.4480     0.0160   123.1080
  576.5000   -80.1650     6.1380     6.3290     8.1250     8.9360     2.4360     0.0130   123.7090
  577.0000   -80.2020     6.0950     6.3380     8.2080     8.9330     2.4440     0.0120   124.3400
  577.5000   -80.2450     6.0200     6.3450     8.2910     8.9290     2.4390     0.0140   124.6310
  578.0000   -80.2980     5.9460     6.3540     8.3710     8.9260     2.4460     0.0150   124.4480
  578.5000   -80.4760     5.8710     6.3610     8.4530     8.9230     2.4520     0.0160   123.9060
  579.0000   -80.6550     5.7970     6.3670     8.5350     8.9190     2.4470     0.0190   123.3910
  579.5000   -80.5650     5.7220     6.3540     8.4650     8.9160     2.4430     0.0190   120.9510
  580.0000   -80.4230     5.5970     6.3420     8.3400     8.9130     2.4380     0.0180   120.8320
  580.5000   -80.2760     5.6200     6.3290     8.2150     8.9090     2.4390     0.0170   122.0790
  581.0000   -80.1380     5.6960     6.3160     8.0910     8.9060     2.4480     0.0270   123.2470
  581.5000   -79.9930     5.7720     6.3040     7.9660     8.9020     2.4620     0.0350   124.0330
  582.0000   -79.8520     5.8480     6.2910     7.8020     8.9010     2.4760     0.0440   124.5710
  582.5000   -79.7120     5.9240     6.2790     7.8120     8.9070     2.4870     0.0440   125.0780
  583.0000   -79.5580     6.0000     6.2670     7.8260     8.9120     2.4860     0.0430   125.7380
  583.5000   -79.4940     6.0510     6.2530     7.8410     8.9180     2.4840     0.0410   125.7100
  584.0000   -79.5550     6.0890     6.2430     7.8550     8.9230     2.4820     0.0400   124.4440
  584.5000   -79.6010     6.1270     6.2330     7.8700     8.9290     2.4810     0.0380   123.0620
  585.0000   -79.6510     6.1650     6.2230     7.8840     8.9340     2.4790     0.0370   121.7070
  585.5000   -79.7020     6.2040     6.2130     7.8990     8.9400     2.4810     0.0360   120.3610
  586.0000   -79.7500     6.2420     6.2020     7.9130     8.9450     2.4860     0.0410   118.8200
  586.5000   -79.7990     6.2800     6.1920     7.9290     8.9510     2.4910     0.0460   118.8660
  587.0000   -79.8570     6.3180     6.1820     7.9450     8.9560     2.4950     0.0500   119.6480
  587.5000   -79.8230     6.3560     6.1720     7.8950     8.9620     2.5000     0.0550   118.9270
  588.0000   -79.6410     6.3940     6.1610     7.8040     8.9670     2.4970     0.0550   118.3290
  588.5000   -79.4710     6.4330     6.1510     7.6630     8.9730     2.4900     0.0520   118.6400
  589.0000   -79.0500     6.4710     6.1410     7.6670     8.9780     2.4850     0.0490   119.4080
  589.5000   -78.6280     6.5060     6.1310     7.6960     8.9840     2.4790     0.0460   120.1370
  590.0000   -78.3090     6.5400     6.1210     7.7230     8.9890     2.4800     0.0430   120.8540
  590.5000   -78.4970     6.5740     6.1100     7.7510     8.9950     2.4800     0.0410   121.3300
  591.0000   -78.6460     6.6070     6.1000     7.7790     9.0000     2.4800     0.0440   121.0580
  591.5000   -78.8190     6.6410     6.0900     7.8030     9.0060     2.4840     0.0480   120.8010
  592.0000   -78.9950     6.6740     6.0800     7.8400     9.0110     2.4910     0.0520   120.5350
  592.5000   -79.0820     6.7080     6.0700     7.8730     9.0170     2.4970     0.0550   120.2690
  593.0000   -79.0430     6.7310     6.0590     7.9070     9.0160     2.5040     0.0590   120.5210
  593.5000   -79.0190     6.7300     6.0490     7.9460     9.0050     2.5110     0.0630   120.9550
  594.0000   -78.9920     6.7310     6.0390     7.8940     8.9940     2.5100     0.0600   121.3710
  594.5000   -78.9650     6.7310     6.0270     7.8140     8.9830     2.5060     0.0510   121.8070
  595.0000   -78.9380     6.7310     6.0330     7.7350     8.9720     2.5050     0.0490   122.2210
  595.5000   -78.9110     6.7310     6.0480     7.6610     8.9610     2.5040     0.0510   122.5290
  596.0000   -78.8840     6.7310     6.0610     7.6980     8.9500     2.5020     0.0520   121.8520
  596.5000   -78.8570     6.7310     6.0740     7.7330     8.9390     2.5010     0.0490   121.2380
  597.0000   -78.8320     6.7310     6.0870     7.7680     8.9280     2.4930     0.0450   120.4900
  597.5000   -78.7990     6.7310     6.1000     7.8010     8.9170     2.4850     0.0410   120.4490
  598.0000   -78.7820     6.7310     6.1130     7.8020     8.9050     2.4800     0.0370   121.1220
  598.5000   -78.7480     6.8020     6.1260     7.8020     8.9030     2.4840     0.0410   121.7770
  599.0000   -78.7070     6.8870     6.1390     7.8030     8.9110     2.4880     0.0470   122.3500
  599.5000   -78.7570     6.9720     6.1520     7.8010     8.9190     2.4920     0.0470   122.8760
  600.0000   -78.0940     7.0580     6.1660     7.8040     8.9260     2.4970     0.0440   121.7970
  600.5000   -77.3390     7.1430     6.1790     7.8510     8.9340     2.4980     0.0420   122.3140
  601.0000   -77.1760     7.2280     6.1920     7.8890     8.9420     2.4960     0.0410   122.7880
  601.5000   -76.9350     7.3140     6.2050     7.9280     8.9500     2.4950     0.0470   123.2870
  602.0000   -76.6910     7.3820     6.2180     7.9670     8.9570     2.4980     0.0530   121.8610
  602.5000   -76.4670     7.3820     6.2310     8.0070     8.9650     2.5040     0.0560   120.3770
  603.0000   -76.2370     7.3820     6.2440     8.0460     8.9730     2.5100     0.0530   118.8650
  603.5000   -75.9770     7.3820     6.2620     8.0850     8.9800     2.5130     0.0520   117.4760
  604.0000   -76.0450     7.3820     6.2880     8.1250     8.9880     2.5110     0.0500   117.4200
  604.5000   -76.3830     7.3820     6.3130     8.1640     8.9960     2.5070     0.0490   117.3860
  605.0000   -76.6810     7.4330     6.3390     8.2030     9.0040     2.5040     0.0470   117.3870
  605.5000   -76.9810     7.5180     6.3640     8.2430     9.0110     2.4960     0.0460   117.4700
  606.0000   -77.3120     7.6020     6.3900     8.2820     9.0190     2.4890     0.0450   116.6060
  606.5000   -77.5370     7.6870     6.4160     8.3210     9.0150     2.4930     0.0480   115.1220
  607.0000   -77.6050     7.7720     6.4410     8.3610     9.0100     2.4970     0.0530   113.6910
  607.5000   -77.7050     7.8570     6.4670     8.4000     9.0040     2.5010     0.0580   113.0110
  608.0000   -77.7890     7.9420     6.4870     8.5070     8.9980     2.5040     0.0630   113.3510
  608.5000   -77.8720     8.0270     6.6220     8.6140     8.9920     2.5080     0.0620   111.3690
  609.0000   -77.7020     8.1110     6.7350     8.7210     8.9860     2.5110     0.0580   110.4510
  609.5000   -77.5070     8.1960     6.8480     8.8270     8.9810     2.5080     0.0540   110.3510
  610.0000   -77.3050     8.2810     6.9610     8.9340     8.9750     2.5030     0.0510   109.6990
  610.5000   -77.1090     8.3660     7.0740     9.0410     8.9690     2.4990     0.0470   107.8610
