~VERSION INFORMATION
 VERS.                2.0:   CWLS LOG ASCII STANDARD - VERSION 2.0
 WRAP.                 NO:   ONE LINE PER DEPTH STEP
~WELL INFORMATION
#MNEM.UNIT      DATA TYPE    INFORMATION
#----------   ------------   ------------------------------
 STRT.F          470.0000:   START DEPTH
 STOP.F         3791.5000:   STOP DEPTH
 STEP.F            0.5000:   STEP LENGTH
 NULL.          -999.2500:   NO VALUE
 COMP.    FENIX & SCISSON:   COMPANY
 WELL.   FENIX MDX #44-10:   WELL
 FLD .                NPR:   FIELD
 LOC .      S10 T38N R78W:   LOCATION
 CNTY.            NATRONA:   COUNTY
 STAT.            WYOMING:   STATE
 CTRY. UNITED STATES OF AMERICA:   COUNTRY
 SRVC.       SCHLUMBERGER:   SERVICE COMPANY
 DATE.        25-OCT-1977:   LOGDATE
 API .     49025104310000:   API NUMBER
~CURVE INFORMATION
#MNEM.UNIT       API CODE    CURVE DESCRIPTION
#----------   ------------   ------------------------------
 DEPT.F                  :   
 DT  .US/F   60 520 00 00:   DELTA TIME
 SPR .MV     11 010 01 00:   SPONTANEOUS POTENTIAL FROM RES.
 LLS .OHMM   11 220 09 00:   LATEROLOG LOG SHALLOW
 LLD .OHMM   11 220 10 00:   LATEROLOG LOG DEEP
 MSFL.OHMM   11 270 04 00:   MICRO SPHERICALLY FOCUSED
 NPOR.DEC    42 890 03 00:   ALPHA PROCESSED NEUTRON POROSITY
 RHOB.G/C3   45 350 01 00:   BULK DENSITY
 CORR.G/C3   45 356 01 00:   DENSITY CORRECTION
 GRD .GAPI   45 310 01 00:   GAMMA RAY FROM DENSITY LOG
 CALD.IN     45 280 60 00:   CALIPER FROM DENSITY LOG
~PARAMETER INFORMATION
#MNEM.UNIT          VALUE    DESCRIPTION
#----------   ------------   ------------------------------
 EKB .F         5239.0000:   Kelly bushing
 EGL .F         5229.0000:   Ground level
 EDF .F            0.0000:   Drilling floor
 EPD .F           10.0000:   Permanent datum
 TD  .F         3802.0000:   Total depth
 DATE.        25-OCT-1977:   Date logged
 CLNT.            A2DTECH:   Client Code
 SL  . 2640' FNL & 2640' FEL:   Surface Location
 PD  .                 GL:   Permanent Datum
 DD  .F              3802:   Depth driller
 DL  .F              3791:   Depth logger
 BLI .F              3789:   Bottom log interval
 TLI .F               505:   Top log interval
 CS1 .IN            8.625:   Casing size
 CBD1.       8.625 @ 505':   Casing driller 1
 CBL1.F               505:   Casing logger 1
 BS1 .IN            7.875:   Bit size
 DFT .            KCL MUD:   Type fluid in hole
 DFD .                9.1:   Density
 DFV .                 45:   Viscosity
 DFPH.               10.5:   pH
 DFL .                  8:   Fluid loss
 MSS .             MUDPIT:   Source of sample
 RMS .OHMM           .209:   Rm
 MST .F                72:   Rm Meas. temp.
 RMF .OHMM           .179:   Rmf
 MFST.F                72:   Rmf Meas. temp.
 RMC .OHMM           .314:   Rmc
 MCST.F                72:   Rmc Meas. temp.
 MFSS.               MEAS:   Source Rmf.
 RMB .OHMM           .122:   Rm. at BHT
 BHT .F               123:   BHT.
 TCS .HRS            1400:   Time Circ. stopped
 MRT .F               123:   Maximum recorded temp.
 LUN .               5642:   Logging unit number
 LUL .               CSPR:   Logging unit location
 ENGI.             SAYLER:   Recorded By
 WITN.         PETTINGILL:   Witnessed by
 ORIG.           5" PRINT:   Origin of data
 UWI .     49025104310000:   Unique Well ID
 DICO. A2D TECHNOLOGIES, INC.:   Digitizing Company
 DAPD.                 10:   Feet Above Permanent Datum
 BSD1.               3802:   Depth drilled with bit1
 MCSS.               CALC:   Source Rmc.
~OTHER INFORMATION
~A   DEPT        DT       SPR        LLS        LLD       MSFL       NPOR       RHOB       CORR        GRD       CALD   
# ...
 1575.5000   103.1860   -43.1880     7.8920     7.5470     8.8390     0.3500     2.4330     0.0400    98.7600    13.1940
 1576.0000   104.0500   -43.2200     8.0640     7.9990     8.7130     0.3440     2.4770     0.0200    99.0380    13.0230
 1576.5000   101.5380   -43.2520     8.2230     7.9670     8.5870     0.3380     2.4950     0.0170    99.3420    12.7660
 1577.0000   100.1500   -43.2840     8.1760     7.9050     8.4620     0.3330     2.4980     0.0470    98.8970    12.7200
 1577.5000   113.0500   -43.3160     8.1250     7.8420     8.3760     0.3270     2.5090     0.0760    98.2010    13.3050
 1578.0000   112.0780   -43.3480     8.0730     7.7800     8.2990     0.3210     2.5260     0.1150    97.4940    12.9650
 1578.5000   110.0450   -43.3800     8.0220     7.7180     8.4670     0.3150     2.4960     0.1320    97.0390    12.6210
 1579.0000   108.1500   -43.4120     7.9700     7.6390     9.0160     0.3130     2.4770     0.1040    98.5150    12.9270
 1579.5000   106.6500   -43.4440     7.9260     7.6480     8.9750     0.3180     2.4550     0.0590   100.1320    12.5300
 1580.0000   105.3500   -43.4760     7.9620     7.6660     8.9190     0.3140     2.4350     0.0320   100.0450    12.0700
 1580.5000   110.5500   -43.5080     8.0010     7.6840     8.8630     0.3070     2.4690     0.0630    98.8710    11.4520
 1581.0000   109.7030   -43.5400     8.0400     7.7010     8.8070     0.3010     2.4890     0.0910    97.6890    11.8180
 1581.5000   106.0500   -43.5720     8.0730     7.7190     8.5250     0.3010     2.4600     0.1250    96.4820    12.1750
 1582.0000   101.5220   -43.6040     7.9710     7.7360     6.1950     0.3180     2.3940     0.1670    96.2380    12.2750
 1582.5000    99.5700   -43.6370     7.8820     7.7540     2.3720     0.3360     2.4070     0.2090    95.3310    12.3820
 1583.0000    98.5500   -43.6690     7.7930     7.7720     1.1560     0.3550     2.3920     0.2240    95.2550    12.6440
 1583.5000    99.0580   -43.7010     7.7040     7.7890     1.0540     0.3720     2.3320     0.1990    95.1220    12.9100
 1584.0000    99.6500   -43.7330     7.6160     7.8070     1.8140     0.3660     2.3030     0.1680    94.9730    13.1250
 1584.5000    97.6720   -43.7650     7.5270     7.8240     4.0420     0.3530     2.3030     0.1400    94.8220    12.9630
 1585.0000    98.1700   -43.7970     7.4380     7.8420     7.2280     0.3410     2.3190     0.1190    94.6490    13.4700
 1585.5000    99.2430   -43.8290     7.3500     7.8530     6.2210     0.3330     2.4100     0.1160    95.4470    13.5470
 1586.0000   100.5950   -43.8600     7.2950     7.5640     5.7420     0.3270     2.4410     0.1600    96.4600    12.9810
 1586.5000   103.3500   -43.8550     7.2280     7.3550     6.1830     0.3200     2.4010     0.1350    97.4830    13.3050
 1587.0000   101.1570   -43.8480     7.3050     7.2280     6.8410     0.3120     2.3700     0.0860    98.5050    13.5080
 1587.5000    99.3250   -43.8410     7.4990     7.2530     7.4990     0.3030     2.3700     0.0400    99.5270    12.6060
 1588.0000    98.6210   -43.8340     7.6940     7.3790     8.8920     0.2980     2.4610     0.0160   100.5500    12.4020
 1588.5000    99.1620   -43.8270     7.8880     7.5060     9.4410     0.2910     2.5200     0.0310   101.5740    12.4500
 1589.0000   101.5730   -43.8210     7.9990     7.6320     8.1150     0.2960     2.5410     0.0460   102.5480    12.1780
 1589.5000   102.5500   -43.8140     8.0730     7.7810     6.6370     0.2960     2.5430     0.0450   102.6110    12.2520
 1590.0000   101.4780   -43.8070     7.8540     7.5760     5.1880     0.2860     2.5110     0.0140   100.4770    12.3820
 1590.5000   100.2620   -43.8000     7.6740     7.3250     5.1880     0.2760     2.5030     0.0070    97.0660    12.5930
 1591.0000    99.7870   -43.7930     7.4990     7.0740     6.4380     0.2730     2.5150     0.0170    96.2970    12.8570
 1591.5000    98.8400   -43.7870     7.4990     7.0310     7.6580     0.2710     2.5220     0.0080    96.9840    12.4070
 1592.0000    97.7500   -43.7800     7.7340     7.1930     8.8790     0.2680     2.5180     0.0180    97.6610    12.3730
 1592.5000    99.3500   -43.7730     7.9960     7.5670    10.0990     0.2670     2.5280     0.0290    97.7840    12.8030
 1593.0000    97.7370   -43.7660     8.2570     7.9400    11.3200     0.2720     2.5530     0.0550    95.7680    11.8950
 1593.5000    96.1500   -43.7590     8.4530     8.1480    11.9960     0.2800     2.5880     0.0960    94.5670    12.4050
 1594.0000    98.1140   -43.7530     8.4530     8.0360    11.4660     0.2870     2.5720     0.1110    96.2180    12.6140
 1594.5000   101.7400   -43.7460     8.2370     7.8650    10.2890     0.2940     2.5290     0.0440    97.1990    12.3270
 1595.0000   104.5410   -43.7390     8.0870     7.6940     8.7350     0.3010     2.5390     0.0650    96.0420    13.1690
 1595.5000    98.4500   -43.7320     7.9380     7.5230     6.9830     0.3100     2.5630     0.1220    95.1240    13.7530
 1596.0000    94.8500   -43.7250     7.7890     7.3520     5.2310     0.3230     2.5830     0.1390    96.8690    13.6420
 1596.5000   101.2500   -43.7190     7.7100     7.2950     4.9550     0.3150     2.5300     0.1020    98.6250    13.7700
 1597.0000    98.0500   -43.7120     7.7100     7.3380     6.0140     0.3060     2.4970     0.0260   100.5170    12.7720
 1597.5000   103.2500   -43.7050     7.8460     7.4940     8.0550     0.2980     2.5040     0.0370   100.9340    13.0500
 1598.0000    99.3500   -43.6980     8.0020     7.6500     8.2990     0.2970     2.5150     0.0240    99.2640    12.9420
 1598.5000   100.0670   -43.6910     8.1580     7.8070     5.9570     0.2980     2.5150     0.0380    97.6150    12.7020
 1599.0000   102.1720   -43.6840     8.2990     7.9630     7.7640     0.2990     2.5140     0.0260    97.4310    12.6560
 1599.5000   106.3500   -43.6780     8.2800     8.0730     9.3230     0.2950     2.5110     0.0320    97.6980    12.8070
 1600.0000   104.4440   -43.6710     8.2590     8.0510     9.8120     0.3020     2.5050     0.0170    97.9610    13.0000
 1600.5000   100.6470   -43.6640     8.2380     7.9790     9.8860     0.3100     2.5000     0.0500    98.2200    12.5650
 1601.0000    98.1500   -43.6630     8.2170     7.9070     9.6190     0.3130     2.4940     0.0380    98.4790    12.5550
 1601.5000   102.9500   -43.6630     8.1960     7.8350     9.2690     0.3090     2.4900     0.0370    98.7380    12.3750
 1602.0000   101.8700   -43.6630     8.1750     7.7630     8.3910     0.3040     2.5030     0.0210    98.9960    12.0870
 1602.5000    99.6480   -43.6640     8.1540     7.6910     7.5850     0.2970     2.5200     0.0310    99.2550    11.9860
 1603.0000    97.4270   -43.6650     8.1230     7.6390     6.8400     0.2900     2.5450     0.0210    99.5120    12.0050
 1603.5000    96.0500   -43.6250     8.0860     7.7100     6.8400     0.2890     2.5330     0.0260    99.7760    12.2420
 1604.0000    94.6500   -43.5820     8.0490     7.6560     9.0870     0.2950     2.5170     0.0130   100.3450    12.4160
 1604.5000    95.6110   -43.5390     8.0120     7.6200    11.1830     0.3110     2.5210     0.0580   100.9270    12.7090
 1605.0000    97.5500   -43.4950     7.9750     7.5840    13.1530     0.3260     2.5290     0.1080   100.9050    12.4310
 1605.5000    98.1500   -43.4520     7.9260     7.5480    13.0330     0.3420     2.5330     0.1190   100.5930    12.8700
 1606.0000    99.6530   -43.4090     7.9480     7.4990    11.9000     0.3580     2.4850     0.0900   100.5890    13.2110
 1606.5000    99.8800   -43.3660     7.9820     7.5220    10.8270     0.3690     2.4640     0.0610   100.5950    12.7980
 1607.0000    99.3010   -43.3230     8.0160     7.5560     8.8520     0.3720     2.4620     0.0470   100.5940    12.6480
 1607.5000    98.5500   -43.2800     8.0490     7.5910     4.3000     0.3680     2.4930     0.0660   100.6450    12.5890
 1608.0000    94.1500   -43.2370     8.0830     7.6250     2.3000     0.3620     2.4880     0.0300   100.7180    12.3960
 1608.5000    91.3240   -43.1940     8.1170     7.6600     1.1370     0.3500     2.5150     0.0330   100.7900    12.2060
