~VERSION INFORMATION
 VERS.                2.0:   CWLS LOG ASCII STANDARD - VERSION 2.0
 WRAP.                 NO:   ONE LINE PER DEPTH STEP
~WELL INFORMATION
#MNEM.UNIT      DATA TYPE    INFORMATION
#----------   ------------   ------------------------------
 STRT.F          450.0000:   START DEPTH
 STOP.F         3070.0000:   STOP DEPTH
 STEP.F            0.5000:   STEP LENGTH
 NULL.          -999.2500:   NO VALUE
 COMP. LAWRENCE ALLISON & ASSOCIATES:   COMPANY
 WELL. LAWRENCE "X" #86-28:   WELL
 FLD .             NPR #3:   FIELD
 LOC .      S28 T39N R78W:   LOCATION
 CNTY.            NATRONA:   COUNTY
 STAT.            WYOMING:   STATE
 CTRY. UNITED STATES OF AMERICA:   COUNTRY
 SRVC.      WESTERN ATLAS:   SERVICE COMPANY
 DATE.        03-JAN-1988:   LOGDATE
 API .     49025111920000:   API NUMBER
~CURVE INFORMATION
#MNEM.UNIT       API CODE    CURVE DESCRIPTION
#----------   ------------   ------------------------------
 DEPT.F                  :   
 TEND.LBS    45 635 01 00:   TENSION FROM DENSITY LOG
 CALD.IN     45 280 60 00:   CALIPER FROM DENSITY LOG
 NPHI.DEC    42 890 03 00:   NEUTRON POROSITY SANDSTONE
 DEN .G/C3   45 350 01 00:   BULK DENSITY
 CORR.G/C3   45 356 01 00:   DENSITY CORRECTION
 TENR.LBS    07 635 01 00:   TENSION FROM RESISTIVITY
 RFOC.OHMM   07 220 04 00:   RESISTIVITY FOCUSED LOG RES.
 RILD.OHMM   07 120 46 00:   DEEP INDUCTION RESISTIVITY
 RILM.OHMM   07 120 44 00:   INDUCTION LOG MEDIUM RESISTIVITY
 SPR .MV     07 010 01 00:   SPONTANEOUS POTENTIAL
 GRR .GAPI   07 310 01 00:   GAMMA RAY FROM RESISTIVITY
~PARAMETER INFORMATION
#MNEM.UNIT          VALUE    DESCRIPTION
#----------   ------------   ------------------------------
 EKB .F         5072.0000:   Kelly bushing
 EGL .F         5061.0000:   Ground level
 EDF .F         5071.0000:   Drilling floor
 TD  .F         3062.0000:   Total depth
 DATE.        03-JAN-1988:   Date logged
 CLNT.            A2DTECH:   Client Code
 SL  . 1721' FSL & 556' FEL:   Surface Location
 PD  .                 GL:   Permanent Datum
 DD  .F              3060:   Depth driller
 DL  .F              3062:   Depth logger
 BLI .F              3060:   Bottom log interval
 CS1 .IN            8.625:   Casing size
 CBD1.      8.625" @ 480':   Casing driller 1
 CBL1.F               480:   Casing logger 1
 BS1 .IN            7.875:   Bit size
 DFT .        KCL-POLYMER:   Type fluid in hole
 DFD .                8.9:   Density
 DFV .                 36:   Viscosity
 DFPH.                9.5:   pH
 DFL .                8.4:   Fluid loss
 MSS .               TANK:   Source of sample
 RMS .OHMM           0.45:   Rm
 MST .F                80:   Rm Meas. temp.
 RMF .OHMM           0.41:   Rmf
 MFST.F                60:   Rmf Meas. temp.
 RMC .OHMM           0.65:   Rmc
 MCST.F                60:   Rmc Meas. temp.
 MFSS.               MEAS:   Source Rmf.
 RMB .OHMM           0.31:   Rm. at BHT
 BHT .F               110:   BHT.
 TCS .HRS               4:   Time Circ. stopped
 MRT .F               110:   Maximum recorded temp.
 LUN .            HL 6343:   Logging unit number
 LUL .               CODY:   Logging unit location
 ENGI.               RALL:   Recorded By
 WITN.              FIVRS:   Witnessed by
 ORIG.     2.5", 5" PRINT:   Origin of data
 UWI .     49025111920000:   Unique Well ID
 DICO. A2D TECHNOLOGIES, INC.:   Digitizing Company
 DAPD.                 11:   Feet Above Permanent Datum
 BSD1.               3060:   Depth drilled with bit1
 MCSS.               CALC:   Source Rmc.
 EPD .               5061:   Elevation Permanent Datum
 LMF .                 KB:   Log Measured From
 DMF .                 KB:   Drilling Measured From
 TLI .                480:   Top log interval
~OTHER INFORMATION
~A   DEPT     TEND       CALD       NPHI        DEN       CORR       TENR       RFOC       RILD       RILM        SPR         GRR  
# ...
 2005.5000  -999.2500  -999.2500  -999.2500  -999.2500  -999.2500   -75.4320    13.1100     8.8170     9.5180   -23.9430   141.5780
 2006.0000  -999.2500  -999.2500  -999.2500  -999.2500  -999.2500   -76.4620    13.1790     8.9400     9.5920   -23.8190   139.2830
 2006.5000  -999.2500  -999.2500  -999.2500  -999.2500  -999.2500   -77.4930    11.8970     9.1930     9.5920   -23.6940   137.6020
 2007.0000  -999.2500  -999.2500  -999.2500  -999.2500  -999.2500   -78.5230    11.9280     9.4140     9.5030   -23.5690   137.4110
 2007.5000  -999.2500  -999.2500  -999.2500  -999.2500  -999.2500   -79.5540    11.9710     9.4140     9.5880   -23.4900   134.4960
 2008.0000  -999.2500  -999.2500  -999.2500  -999.2500  -999.2500   -80.5840    12.0080     9.4140     9.6640   -23.7130   128.7320
 2008.5000  -999.2500  -999.2500  -999.2500  -999.2500  -999.2500   -81.6150    11.8190     9.4140     9.7400   -23.9440   117.3520
 2009.0000  -999.2500  -999.2500  -999.2500  -999.2500  -999.2500   -82.6450    11.6550     9.4140     9.8160   -24.3210   113.8360
 2009.5000  -999.2500  -999.2500  -999.2500  -999.2500  -999.2500   -83.6750    11.4590     9.4550     9.8920   -24.4820   114.1530
 2010.0000  -999.2500  -999.2500  -999.2500  -999.2500  -999.2500   -84.7060    11.7700     9.5560     9.9680   -24.6700   115.4270
 2010.5000  -999.2500  -999.2500  -999.2500  -999.2500  -999.2500   -85.7360    12.2800     9.6570    10.0440   -24.8620   116.6690
 2011.0000  -999.2500  -999.2500  -999.2500  -999.2500  -999.2500   -86.7670    12.7890     9.7580    10.1460   -25.0480   119.5710
 2011.5000  -999.2500  -999.2500  -999.2500  -999.2500  -999.2500   -87.7970    13.0930     9.8590    10.1240   -25.2280   122.2890
 2012.0000  -999.2500  -999.2500  -999.2500  -999.2500  -999.2500   -88.8280    13.1870     9.9610    10.0900   -25.5550   121.4910
 2012.5000  -999.2500  -999.2500  -999.2500  -999.2500  -999.2500   -89.8580    12.9980    10.0520    10.0520   -25.7630   120.8160
 2013.0000  -999.2500  -999.2500  -999.2500  -999.2500  -999.2500   -90.8880    12.6140     9.9580     9.9440   -25.8750   123.9050
 2013.5000  -999.2500  -999.2500  -999.2500  -999.2500  -999.2500   -91.9190    12.2300     9.8540     9.8250   -25.5660   125.4230
 2014.0000  -999.2500  -999.2500  -999.2500  -999.2500  -999.2500   -92.7240    11.6760     9.7490     9.7050   -25.2570   126.4420
 2014.5000  -999.2500  -999.2500  -999.2500  -999.2500  -999.2500   -92.2090    11.9240     9.6830     9.5860   -24.9520   129.7510
 2015.0000  -999.2500  -999.2500  -999.2500  -999.2500  -999.2500   -91.6940    12.3700     9.5360     9.4670   -24.6730   131.6150
 2015.5000  -999.2500  -999.2500  -999.2500  -999.2500  -999.2500   -91.1780    12.4670     9.3850     9.3470   -24.5910   131.2040
 2016.0000  -999.2500  -999.2500  -999.2500  -999.2500  -999.2500   -90.6630    12.4670     9.2330     9.2280   -24.5010   128.9500
 2016.5000  -999.2500  -999.2500  -999.2500  -999.2500  -999.2500   -90.1480    12.4670     9.0820     9.1090   -24.4100   127.1930
 2017.0000  -999.2500  -999.2500  -999.2500  -999.2500  -999.2500   -89.6330    12.4670     8.9300     8.9890   -24.3200   126.9990
 2017.5000  -999.2500  -999.2500  -999.2500  -999.2500  -999.2500   -89.1180    12.1190     8.7820     8.9000   -24.2300   127.2580
 2018.0000  -999.2500  -999.2500  -999.2500  -999.2500  -999.2500   -88.6020    11.2160     8.6450     8.8600   -24.1400   127.5630
 2018.5000  -999.2500  -999.2500  -999.2500  -999.2500  -999.2500   -88.0870    10.3120     8.5000     8.8170   -24.1470   126.5660
 2019.0000  -999.2500  -999.2500  -999.2500  -999.2500  -999.2500   -87.5720     9.6830     8.5320     8.8170   -24.2570   125.0470
 2019.5000  -999.2500  -999.2500  -999.2500  -999.2500  -999.2500   -87.0570    10.1570     8.5750     9.0560   -24.3680   123.8720
 2020.0000  -999.2500  -999.2500  -999.2500  -999.2500  -999.2500   -86.5420    10.9000     8.6180     9.2390   -24.4780   123.5070
 2020.5000  -999.2500  -999.2500  -999.2500  -999.2500  -999.2500   -86.0260    11.6760     8.6770     9.4220   -24.5890   122.6780
 2021.0000  -999.2500  -999.2500  -999.2500  -999.2500  -999.2500   -85.5110    11.7640     8.8250     9.6050   -24.7000   119.1150
 2021.5000  -999.2500  -999.2500  -999.2500  -999.2500  -999.2500   -84.9960    11.9190     8.9740     9.6830   -24.8100   112.6490
 2022.0000  -999.2500  -999.2500  -999.2500  -999.2500  -999.2500   -84.4810    12.0750     9.1220     9.6070   -24.9180   106.2490
 2022.5000  -999.2500  -999.2500  -999.2500  -999.2500  -999.2500   -83.9660    12.2310     9.2710     9.5310   -25.0020    98.3970
 2023.0000  -999.2500  -999.2500  -999.2500  -999.2500  -999.2500   -83.4500    12.3500     9.4140     9.4140   -25.0870    94.7290
 2023.5000  -999.2500  -999.2500  -999.2500  -999.2500  -999.2500   -82.9350    11.9400     9.2530     9.3230   -25.1710    95.9420
 2024.0000  -999.2500  -999.2500  -999.2500  -999.2500  -999.2500   -82.4170    11.6060     9.0970     9.2360   -25.2550   106.0950
 2024.5000  -999.2500  -999.2500  -999.2500  -999.2500  -999.2500   -81.8970    11.2730     8.9840     9.1480   -25.0950   120.5790
 2025.0000  -999.2500  -999.2500  -999.2500  -999.2500  -999.2500   -81.3770    11.0380     8.9940     9.0680   -24.6800   131.4810
 2025.5000  -999.2500  -999.2500  -999.2500  -999.2500  -999.2500   -80.8560    11.2120     9.0050     9.0680   -24.2080   132.4010
 2026.0000  -999.2500  -999.2500  -999.2500  -999.2500  -999.2500   -80.3360    11.3470     9.0160     9.0680   -23.7530   131.1740
 2026.5000  -999.2500  -999.2500  -999.2500  -999.2500  -999.2500   -79.8150    11.4810     9.0270     9.0680   -23.3020   127.8010
 2027.0000  -999.2500  -999.2500  -999.2500  -999.2500  -999.2500   -79.2950    11.5630     9.0380     9.0560   -23.3220   127.1590
 2027.5000  -999.2500  -999.2500  -999.2500  -999.2500  -999.2500   -78.7750    11.5100     9.0490     8.9810   -23.4400   128.3370
 2028.0000  -999.2500  -999.2500  -999.2500  -999.2500  -999.2500   -78.2540    11.4680     9.0600     8.9060   -23.5550   128.8520
 2028.5000  -999.2500  -999.2500  -999.2500  -999.2500  -999.2500   -77.7340    11.3940     9.0680     8.8170   -23.6690   127.8410
 2029.0000  -999.2500  -999.2500  -999.2500  -999.2500  -999.2500   -77.2130    11.2860     8.7440     8.8710   -23.6930   127.0300
 2029.5000  -999.2500  -999.2500  -999.2500  -999.2500  -999.2500   -76.6930    11.0630     8.4240     8.5010   -23.8130   125.7690
 2030.0000  -999.2500  -999.2500  -999.2500  -999.2500  -999.2500   -76.1720    10.7730     8.1040     8.2540   -23.9330   122.7760
 2030.5000  -999.2500  -999.2500  -999.2500  -999.2500  -999.2500   -75.6520    10.6330     7.8070     8.0070   -24.0570   114.3860
 2031.0000  -999.2500  -999.2500  -999.2500  -999.2500  -999.2500   -75.1320     9.9350     7.7340     7.7340   -24.1020   105.3010
 2031.5000  -999.2500  -999.2500  -999.2500  -999.2500  -999.2500   -74.6110     9.2530     7.7540     7.9390   -24.3310   105.2440
 2032.0000  -999.2500  -999.2500  -999.2500  -999.2500  -999.2500   -74.0910     8.5730     7.9360     8.2340   -24.5510   114.7410
 2032.5000  -999.2500  -999.2500  -999.2500  -999.2500  -999.2500   -73.5700     9.2110     8.1180     8.5280   -24.6620   126.1880
 2033.0000  -999.2500  -999.2500  -999.2500  -999.2500  -999.2500   -73.0500    10.8740     8.3000     8.8220   -24.3780   132.9010
 2033.5000  -999.2500  -999.2500  -999.2500  -999.2500  -999.2500   -72.5150    12.5840     8.4820     9.1160   -24.1040   131.5910
 2034.0000  -999.2500  -999.2500  -999.2500  -999.2500  -999.2500   -72.0040    12.4190     8.6640     9.3270   -24.1930   127.3690
 2034.5000  -999.2500  -999.2500  -999.2500  -999.2500  -999.2500   -71.4780    12.1630     8.8460     9.3140   -24.3010   121.6600
 2035.0000  -999.2500  -999.2500  -999.2500  -999.2500  -999.2500   -70.9530    11.9070     9.0280     9.2930   -24.4080   119.8130
 2035.5000  -999.2500  -999.2500  -999.2500  -999.2500  -999.2500   -70.4270    11.6500     9.2400     9.2720   -24.5150   118.1030
