~VERSION INFORMATION
 VERS.                2.0:   CWLS LOG ASCII STANDARD - VERSION 2.0
 WRAP.                 NO:   ONE LINE PER DEPTH STEP
~WELL INFORMATION
#MNEM.UNIT      DATA TYPE    INFORMATION
#----------   ------------   ------------------------------
 STRT.F           32.0000:   START DEPTH
 STOP.F         5116.0000:   STOP DEPTH
 STEP.F            0.5000:   STEP LENGTH
 NULL.          -999.2500:   NO VALUE
 COMP. LAWRENCE ALLISON AND ASSOCIATES:   COMPANY
 WELL. LAWRENCE "X" #11-26:   WELL
 FLD .       N.P.R. NO. 3:   FIELD
 LOC .      S26 T38N R78W:   LOCATION
 CNTY.            NATRONA:   COUNTY
 STAT.            WYOMING:   STATE
 CTRY. UNITED STATES OF AMERICA:   COUNTRY
 SRVC.      DRESSER ATLAS:   SERVICE COMPANY
 DATE.        03-DEC-1984:   LOGDATE
 API .     49025110120000:   API NUMBER
~CURVE INFORMATION
#MNEM.UNIT       API CODE    CURVE DESCRIPTION
#----------   ------------   ------------------------------
 DEPT.F                  :   
 CALD.IN     45 280 60 00:   CALIPER FROM DENSITY LOG
 TEND.LBS    45 635 01 00:   TENSION FORM DENSITY LOG
 CORR.G/C3   45 356 01 00:   DENSITY CORRECTION
 DEN .G/C3   45 350 01 00:   BULK DENSITY
 NPHI.DEC    42 890 03 00:   NEUTRON POROSITY SANDSTONE
 GRR .GAPI   07 310 01 00:   GAMMA RAY FROM RESISTIVITY
 SPR .MV     07 010 01 00:   SPONTANEOUS POTENTIAL
 CALR.IN     07 280 01 00:   CALIPER FROM RESISTIVITY
 TENR.LBS    07 635 01 00:   TENSION FROM RESISTIVITY
 RILD.OHMM   07 120 46 00:   INDUCTION LOG DEEP RESISTIVITY
 RILM.OHMM   07 120 44 00:   INDUCTION LOG MEDIUM RESISTIVITY
 RFOC.OHMM   07 220 04 00:   RESISTIVITY FOCUSED LOG RES.
 TENS.LBS    60 635 01 00:   TENSION FROM SONIC
 DT  .US/F   60 520 00 00:   DELTA TIME
~PARAMETER INFORMATION
#MNEM.UNIT          VALUE    DESCRIPTION
#----------   ------------   ------------------------------
 EKB .F         5321.0000:   Kelly bushing
 EGL .F         5309.0000:   Ground level
 EDF .F         5320.0000:   Drilling floor
 TD  .F         5104.0000:   Total depth
 CLNT.            A2DTECH:   Client Code
 SL  . 509' FWL & 22' FNL:   Surface Location
 PD  .                 GL:   Permanent Datum
 EPD .F              5309:   Elevation Permanent Datum
 LMF .                 KB:   Log Measured From
 DMF .                 KB:   Drilling Measured From
 DAPD.F                12:   Feet Above Permanent Datum
 DATE.        03-DEC-1984:   Date Logged [DD-MMM-YYYY]
 DD  .F              5100:   Depth driller
 DL  .F              5104:   Depth logger
 BLI .F              5102:   Bottom log interval
 TLI .F              1400:   Top log interval
 CS1 .IN            9.625:   Casing size
 CBD1.     9.625' @ 1657':   Casing driller 1
 CBL1.F              1652:   Casing logger 1
 BS1 .IN            7.875:   Bit size
 DFT .            KCL GEL:   Type fluid in hole
 DFD .                90.:   Density
 DFV .                 41:   Viscosity
 DFPH.                8.9:   pH
 DFL .               12.6:   Fluid loss
 MSS .           FLOWLINE:   Source of sample
 RMS .OHMM           .327:   Rm
 MST .F                84:   Rm Meas. temp.
 RMF .OHMM            .29:   Rmf
 MFST.F                84:   Rmf Meas. temp.
 MFSS.               CALC:   Source Rmf.
 RMC .OHMM            .42:   Rmc
 MCST.F                84:   Rmc Meas. temp.
 MCSS.               CALC:   Source Rmc.
 RMB .OHMM            .23:   Rm. at BHT
 BHT .F               142:   BHT.
 TCS .HRS               4:   Time Circ. stopped
 MRT .F               142:   Maximum recorded temp.
 LUN .               6307:   Logging unit number
 LUL .               CLTE:   Logging unit location
 WITN.             STRONG:   Witnessed by
 ORIG.           5" PRINT:   Origin of data
 UWI .     49025110120000:   Unique Well ID
 DICO. A2D TECHNOLOGIES, INC.:   Digitizing Company
~OTHER INFORMATION
~A  DEPTH     CALD       TEND       CORR        DEN       NPHI        GRR        SPR       CALR       TENR       RILD       RILM       RFOC       TENS         DT
# ...
  693.5000    12.1255   -47.1743     0.0654     2.4397     0.2788    74.3525   -79.5181  -999.2500   -66.4594     6.1248     4.9839     5.3273   -65.4708    99.8688
  694.0000    12.1202   -48.3453     0.0596     2.4346     0.2521    75.8751   -79.2169  -999.2500   -66.4444     6.0364     4.9839     5.1824   -58.9180    99.8560
  694.5000    12.1221   -49.5164     0.0357     2.4316     0.2485    78.2998   -79.2169  -999.2500   -66.4293     5.9985     4.9153     5.1477   -60.1048    99.8457
  695.0000    12.1244   -50.6875     0.0133     2.4278     0.2497    80.4229   -78.9157  -999.2500   -66.4142     5.9571     4.8476     5.1489   -61.0542    99.8353
  695.5000    12.1260   -51.8587     0.0062     2.4252     0.2604    79.5234   -78.7651  -999.2500   -66.3992     5.9159     4.8346     5.1500   -62.0036    99.8128
  696.0000    12.1282   -53.0297    -0.0027     2.4261     0.2748    77.4320   -78.6145  -999.2500   -66.3841     5.9164     4.7809     5.1870   -62.9531    99.5879
  696.5000    12.1301   -46.7016    -0.0100     2.4307     0.2778    76.8373   -78.6145  -999.2500   -66.3690     5.9985     4.7151     5.1881   -63.9026    99.2034
  697.0000    12.1320   -47.9011     0.0037     2.4338     0.2726    78.9632   -78.9157  -999.2500   -66.3540     5.9985     4.7151     5.2615   -64.8520    99.1183
  697.5000    12.1339   -41.5505     0.0144     2.4332     0.2735    81.3879   -79.2169  -999.2500   -66.3389     5.9985     4.7151     5.2626   -50.8222    99.1855
  698.0000    12.1358   -43.0144     0.0206     2.4326     0.2770    81.7014   -79.5181  -999.2500   -66.3239     5.9985     4.7151     5.2220   -51.8032    99.3972
  698.5000    12.1377   -44.1855     0.0163     2.4297     0.2743    80.8103   -80.1205  -999.2500   -66.3088     5.9571     4.7151     5.1563   -52.7653    99.7613
  699.0000    12.1396   -45.3566     0.0120     2.4268     0.2628    80.2156   -80.2711  -999.2500   -66.2937     5.9159     4.7151     5.1220   -53.7369   100.0504
  699.5000    12.1419   -46.5276     0.0105     2.4239     0.2520    79.3249   -80.4217  -999.2500   -66.2787     5.8343     4.6751     5.0876   -69.8366   100.2647
  700.0000    12.1438   -47.6988     0.0109     2.4211     0.2438    77.5264   -80.4217  -999.2500   -66.2636     5.8343     4.6502     5.1240   -70.5487   100.1796
  700.5000    12.1457   -48.8699     0.0096     2.4167     0.2483    75.7226   -80.4217  -999.2500   -66.2486     5.7539     4.5862     5.1595   -63.8958   100.4679
  701.0000    12.1476   -50.0409     0.0050     2.4191     0.2564    75.4266   -80.4217  -999.2500   -66.2335     5.7539     4.5862     5.1977   -57.2313   100.4584
  701.5000    12.1495   -51.2122    -0.0005     2.4169     0.2716    76.9419   -80.4217  -999.2500   -66.2184     5.7939     4.5862     5.2713   -58.2430   100.3740
  702.0000    12.1364   -52.3987     0.0102     2.4186     0.2695    78.7576   -80.2711  -999.2500   -66.2034     5.7746     4.5862     5.1641   -74.0000   100.2147
  702.5000    12.1383   -53.5982     0.0314     2.4300     0.2664    80.8748   -80.1205  -999.2500   -66.1883     5.7539     4.6502     5.0937   -67.3354    99.9058
  703.0000    12.1543   -47.2291     0.0481     2.4459     0.2628    82.0885   -80.1205  -999.2500   -66.1732     5.7539     4.7151     5.1661   -75.6185    99.5220
  703.5000    12.1563   -48.6930     0.0573     2.4588     0.2585    81.4909   -79.9699  -999.2500   -66.1582     5.7539     4.7151     5.3126   -68.9540   100.0364
  704.0000    12.1580   -49.8640     0.0440     2.4627     0.2579    81.1935   -79.8193  -999.2500   -66.1431     5.7939     4.7809     5.2769   -62.2571   100.3262
  704.5000    12.1598   -50.8995     0.0381     2.4636     0.2615    82.4182   -79.5181  -999.2500   -66.1281     5.8343     4.7809     5.1691   -63.0988   100.5412
  705.0000    12.1465   -44.7100     0.0368     2.4644     0.2707    83.6209   -79.5181  -999.2500   -66.1130     5.8749     4.8142     5.0992   -63.9080   100.5239
  705.5000    12.1483   -45.8811     0.0400     2.4623     0.2875    83.9268   -79.3675  -999.2500   -66.0979     5.9159     4.8142     5.1359   -64.7235   100.4469
  706.0000    12.1501   -62.1335     0.0417     2.4519     0.2932    83.3306   -79.2169  -999.2500   -66.0829     5.9985     4.8560     5.2086   -65.5456   100.2108
  706.5000    12.1672   -61.9413     0.0452     2.4490     0.2787    80.8688   -79.2169  -999.2500   -66.0678     5.9985     4.8856     5.3561   -73.8416    99.8270
  707.0000    12.1689   -61.7238     0.0497     2.4529     0.2606    76.7068   -79.2169  -999.2500   -66.0528     6.0824     4.9152     5.4697   -74.8215    99.3683
  707.5000    12.1706   -61.5064     0.0610     2.4561     0.2482    73.6959   -79.2169  -999.2500   -66.0377     6.1447     4.9448     5.5090   -75.6308    98.7600
  708.0000    12.1724   -61.2890     0.0612     2.4577     0.2458    73.0619   -79.0731  -999.2500   -66.0226     6.2536     4.9744     5.5870   -68.7639    99.1247
  708.5000    12.1741   -61.0715     0.0705     2.4631     0.2515    75.9053   -79.0982  -999.2500   -66.0076     6.2972     5.0041     5.5881   -47.3540    99.4894
  709.0000    12.1759   -60.8541     0.0752     2.4677     0.2601    79.1441   -79.1232  -999.2500   -65.9925     6.4297     5.0337     5.5501   -40.4872    99.4050
  709.5000    12.1626   -60.6366     0.0710     2.4678     0.2586    81.8647   -79.1483  -999.2500   -65.9774     6.5196     5.0633     5.4377   -41.4989    98.8715
  710.0000    12.1644   -60.4192     0.0487     2.4537     0.2574    84.5853   -79.1570  -999.2500   -65.9624     6.6169     5.0929     5.3639   -42.3081    98.1134
  710.5000    12.1666   -60.2017     0.0069     2.4395     0.2600    85.1943   -79.1535  -999.2500   -65.9473     6.7968     5.1166     5.4777   -43.1174    97.3554
  711.0000    12.1683   -59.9843    -0.0048     2.4404     0.2663    82.7881   -79.1506  -999.2500   -65.9323     6.8918     5.1910     5.7532   -51.4006    96.5943
  711.5000    12.1701   -60.4138    -0.0078     2.4413     0.2635    80.9838   -79.1712  -999.2500   -65.9172     6.9881     5.2597     5.9553   -52.2099    95.9067
  712.0000    12.1718   -46.2933    -0.0028     2.4339     0.2518    79.7828   -79.4462  -999.2500   -65.9021     7.1849     5.2958     5.9979   -53.0192    95.8293
  712.5000    12.1432   -47.7465     0.0139     2.4273     0.2520    79.1852   -79.7439  -999.2500   -65.8871     7.3360     5.3324     5.9991   -53.8286    95.8178
  713.0000    12.1304   -48.9091     0.0187     2.4244     0.2574    79.1922   -80.0422  -999.2500   -65.8720     7.4904     5.3349     5.9588   -62.1116    95.6586
  713.5000    12.1322   -42.2848     0.0204     2.4245     0.2564    79.8012   -80.3399  -999.2500   -65.8570     7.5951     5.4060     5.8782   -62.9297    95.4993
  714.0000    12.1339   -43.7381     0.0281     2.4329     0.2531    81.0257   -80.3371  -999.2500   -65.8419     7.6510     5.5575     5.8385   -63.7519    94.8910
  714.5000    12.1357   -44.9025     0.0344     2.4466     0.2443    82.8306   -80.5507  -999.2500   -65.8268     7.7549     5.7133     5.8805   -64.5739    92.4862
  715.0000    12.1375   -38.5669     0.0391     2.4602     0.2338    84.9478   -80.6326  -999.2500   -65.8118     7.8089     5.9171     6.1429   -65.5513    88.6593
  715.5000    12.1396   -40.0202     0.0393     2.4769     0.2295    79.5236   -80.4493  -999.2500   -65.7967     7.8633     5.9966     6.6647   -66.3605    86.4791
  716.0000    12.1413   -41.1827     0.0321     2.4958     0.2391    73.4119   -80.2925  -999.2500   -65.7816     7.8633     5.8727     7.0950   -52.0198    86.6192
  716.5000    12.1431   -42.3454     0.0068     2.4929     0.2592    72.8984   -80.0210  -999.2500   -65.7666     7.8633     5.7118     7.0964   -60.5053    88.6307
  717.0000    12.1448   -43.5080    -0.0139     2.4765     0.2681    73.5088   -79.7163  -999.2500   -65.7515     7.8089     5.5552     6.3093   -68.7885    92.4385
  717.5000    12.1465   -44.6705    -0.0077     2.4574     0.2639    77.7377   -79.4123  -999.2500   -65.7365     7.8089     5.4029     5.7668   -69.5978    95.3531
