~VERSION INFORMATION
 VERS.                2.0:   CWLS LOG ASCII STANDARD - VERSION 2.0
 WRAP.                 NO:   ONE LINE PER DEPTH STEP
~WELL INFORMATION
#MNEM.UNIT      DATA TYPE    INFORMATION
#----------   ------------   ------------------------------
 STRT.F            0.5000:   START DEPTH
 STOP.F         5663.0000:   STOP DEPTH
 STEP.F            0.5000:   STEP LENGTH
 NULL.          -999.2500:   NO VALUE
 COMP.         U. S. NAVY:   COMPANY
 WELL.         US TP #1-3:   WELL
 FLD . TEAPOT NAVAL RESERVE:   FIELD
 LOC .       S3 T38N R78W:   LOCATION
 CNTY.            NATRONA:   COUNTY
 STAT.            WYOMING:   STATE
 CTRY. UNITED STATES OF AMERICA:   COUNTRY
 SRVC.       SCHLUMBERGER:   SERVICE COMPANY
 DATE.        27-FEB-1953:   LOGDATE
 API .     49025064250000:   API NUMBER
~CURVE INFORMATION
#MNEM.UNIT       API CODE    CURVE DESCRIPTION
#----------   ------------   ------------------------------
 DEPT.F                  :   
 SPR .MV     01 010 01 00:   SPONTANEOUS POTENTIAL FROM RES.
 ASN .OHMM   01 041 16 00:   AMPLIFIED SHORT NORMAL 16"
 LAT .OHMM   01 070 00 00:   LATERAL
 LN  .OHMM   01 060 64 00:   LONG NORMAL 64"
 GRN .CPS    35 310 01 00:   GAMMA RAY
 NEUT.NAPI   35 330 01 00:   NEUTRON
~PARAMETER INFORMATION
#MNEM.UNIT          VALUE    DESCRIPTION
#----------   ------------   ------------------------------
 EKB .F            0.0000:   Kelly bushing
 EGL .F            0.0000:   Ground level
 EDF .F            0.0000:   Drilling floor
 EPD .F            0.0000:   Permanent datum
 TD  .F         5653.0000:   Total depth
 DATE.        27-FEB-1953:   Date logged
 CLNT.            A2DTECH:   Client Code
 DD  .F              5653:   Depth driller
 DL  .F              5653:   Depth logger
 BLI .F              5652:   Bottom log interval
 TLI .F               446:   Top log interval
 CBD1.F               445:   Casing driller 1
 CBL1.F               446:   Casing logger 1
 BS1 .IN                9:   Bit size
 BSD1.F              5653:   Depth drilled with bit1
 DFT .          LIMA/BASE:   Type fluid in hole
 DFD .                9.9:   Density
 DFV .                 43:   Viscosity
 RMS .OHMM            1.1:   Rm
 MST .F                55:   Rm Meas. temp.
 RMB .OHMM            .34:   Rm. at BHT
 BHT .F               166:   BHT.
 TCS .HRS               1:   Time Circ. stopped
 MRT .F               166:   Maximum recorded temp.
 LUN .                728:   Logging unit number
 LUL .               CSPR:   Logging unit location
 ENGI.            EVENSON:   Recorded By
 WITN.              MILLS:   Witnessed by
 ORIG.      1" 2.5" PRINT:   Origin of data
 UWI .     49025064250000:   Unique Well ID
 DICO. A2D TECHNOLOGIES, INC.:   Digitizing Company
~OTHER INFORMATION
~A  DEPTH      SPR        ASN        LAT         LN        GRN       NEUT
# ...
 2496.5000   -38.4652     7.9835     8.7460     8.7652    73.3168   159.0909
 2497.0000   -38.3152     7.9299     8.7480     8.7679    71.3108   148.8025
 2497.5000   -38.3152     7.8988     8.7500     8.7973    71.0591   137.7854
 2498.0000   -38.3152     7.8499     8.7520     8.9083    74.3157   138.8889
 2498.5000   -38.3152     7.7693     8.6194     8.9108    77.6324   150.3165
 2499.0000   -38.3152     7.6886     8.6213     8.9136    81.0800   169.1919
 2499.5000   -38.3152     7.5809     8.4883     8.9167    82.1229   190.0542
 2500.0000   -38.3152     7.5272     8.2888     8.8412    79.9998   196.9697
 2500.5000   -38.3152     7.3646     8.0896     8.6060    79.2485   207.0854
 2501.0000   -38.3152     7.2453     8.2884     8.3797    79.4973   214.6738
 2501.5000   -38.3152     7.1751     8.5032     8.3804    81.4960   212.0850
 2502.0000   -38.3152     7.3386     8.6792     8.2459    83.7758   191.9717
 2502.5000   -38.3152     7.4477     8.7807     8.2466    86.4936   169.2570
 2503.0000   -38.3152     7.4753     8.9191     8.2473    87.4923   154.1160
 2503.5000   -38.2422     7.5572     8.9232     8.1130    86.7411   144.0297
 2504.0000   -38.0435     7.5577     8.9280     8.1135    83.2398   146.5676
 2504.5000   -38.0435     7.5309     8.9320     8.1142    79.4886   164.2570
 2505.0000   -38.0435     7.5041     8.9353     8.0631    77.2373   159.0911
 2505.5000   -38.0435     7.5024     8.9399     7.9804    78.1006   154.1793
 2506.0000   -38.0435     7.4777     8.9434     7.9811    79.7798   154.4955
 2506.5000   -38.0435     7.4510     8.9474     7.9818    80.9836   166.8326
 2507.0000   -38.0435     7.4514     8.9515     7.9824    81.7854   174.4210
 2507.5000   -38.0435     7.4246     8.9555     7.8992    83.9811   169.3831
 2508.0000   -38.0435     7.3917     8.9596     7.8486    86.7298   149.1937
 2508.5000   -38.0435     7.3438     8.9479     7.8493    88.7286   121.4285
 2509.0000   -38.0435     7.3171     8.8324     7.8500    88.9776   103.7644
 2509.5000   -38.0435     7.2361     8.8377     7.8444    89.2263   103.7753
 2510.0000   -38.0164     7.2351     8.8410     7.7162    92.2249   111.3653
 2510.5000   -37.7717     7.1825     8.9804     7.7170    93.2238   124.8023
 2511.0000   -37.7717     7.1285     9.0579     7.5824    92.7224   147.5755
 2511.5000   -37.7717     7.1097     9.2574     7.5831    87.4711   162.0993
 2512.0000   -37.7717     7.0136     9.2615     7.5838    85.2199   169.4966
 2512.5000   -37.7717     6.9282     9.2658     7.4494    85.8983   174.5597
 2513.0000   -37.7717     6.6954     9.0003     7.4501    87.2660   179.6228
 2513.5000   -37.7717     6.2883     8.7548     7.4507    88.2163   167.0091
 2514.0000   -37.7717     6.2071     8.2532     7.4514    87.7414   154.3934
 2514.5000   -37.7717     6.1802     7.7993     7.4520    85.1413   165.4861
 2515.0000   -37.7717     6.2371     7.3996     7.4527    84.2124   184.7237
 2515.5000   -37.7717     6.3714     7.4036     7.4534    84.4613   197.7542
 2516.0000   -37.7717     6.5077     7.2722     7.4541    86.2099   210.0014
 2516.5000   -38.0435     6.6711     7.3538     7.4549    88.0821   215.8999
 2517.0000   -38.3152     6.7064     7.4151     7.4554    90.1792   227.7034
 2517.5000   -38.3152     6.7534     7.4191     7.4561    91.9562   239.7425
 2518.0000   -38.3152     6.7266     7.4234     7.4568    92.4551   235.3044
 2518.5000   -38.3152     6.7270     7.4274     7.4575    90.4537   205.0139
 2519.0000   -38.3152     6.7139     7.4313     7.5932    87.9524   184.8224
 2519.5000   -38.3152     6.7006     7.4353     7.7692    87.4514   182.3098
 2520.0000   -38.2064     6.7011     7.4394     7.8649    89.1999   187.3750
 2520.5000   -38.0435     6.6625     7.3086     7.8655    91.1793   197.4886
 2521.0000   -38.0435     6.6204     7.3127     7.9956    93.4474   192.4507
 2521.5000   -37.7717     6.5936     7.3167     8.1372    94.8570   169.7361
 2522.0000   -37.7717     6.5940     7.3208     8.2747    95.9449   154.5950
 2522.5000   -37.7717     6.5673     7.1900     8.4088    95.6937   167.0668
 2523.0000   -37.7717     6.5677     7.1943     8.4173    94.7704   189.9759
 2523.5000   -37.7717     6.5681     7.1981     8.5724    87.1912   174.8370
 2524.0000   -37.5000     6.5957     7.3369     8.6911    83.1899   157.1728
 2524.5000   -37.5000     6.7320     7.3410     8.8169    82.9387   163.4716
 2525.0000   -37.5000     6.8750     7.4798     8.9527    82.6874   177.4000
 2525.5000   -37.5000     7.0685     7.4844     8.9534    82.1862   192.5642
 2526.0000   -37.5000     7.2933     7.5418     8.9541    79.4350   190.0515
 2526.5000   -37.5000     7.5760     7.6267     9.0244    78.9339   174.9126
 2527.0000   -37.5000     7.9296     7.7659     9.0906    80.9325   164.8221
 2527.5000   -37.5000     8.2018     7.7699     9.0913    83.9310   174.9378
 2528.0000   -37.5000     8.3381     7.8679     9.0919    87.9298   195.8598
 2528.5000   -37.5000     8.2980     7.9124     9.0926    88.1789   202.7408
 2529.0000   -37.7717     8.2031     7.9164     9.0933    87.9273   199.7385
 2529.5000   -37.8256     8.1490     7.9212     9.0939    86.9260   210.3418
 2530.0000   -38.0435     8.1223     7.9245     9.0946    83.1748   235.6069
 2530.5000   -38.0442     8.0955     7.9286     9.0678    80.6735   245.7205
 2531.0000   -38.3152     8.0959     8.0674     8.9608    81.6723   239.1193
 2531.5000   -38.3152     8.0692     8.0714     8.9615    83.1710   233.1195
 2532.0000   -38.3152     8.0696     8.0755     8.9622    83.9200   228.0808
 2532.5000   -38.3152     8.0700     8.1084     8.9628    84.1688   223.0437
 2533.0000   -38.3152     8.0704     8.2183     8.9636    84.1675   216.6076
 2533.5000   -38.3152     8.0709     8.2224     8.8641    84.4160   207.0724
 2534.0000   -38.3152     8.0712     8.3613     8.6947    85.1648   197.8269
 2534.5000   -38.3152     8.0716     8.3652     8.6795    87.4255   195.3142
 2535.0000   -38.3152     8.0448     8.5040     8.5609    89.1623   187.7532
 2535.5000   -38.3152     8.0181     8.5081     8.4263    89.6613   175.1395
 2536.0000   -38.3152     7.9753     8.5121     8.4270    88.4098   192.8289
 2536.5000   -38.3152     7.9102     8.5162     8.4277    87.6353   195.3646
 2537.0000   -38.3152     7.8291     8.5202     8.4284    85.9073   173.3079
 2537.5000   -38.3152     7.6936     8.5580     8.4291    84.6561   157.5132
 2538.0000   -38.3152     7.5853     8.6633     8.4297    85.1552   165.5388
 2538.5000   -38.3152     7.6130     8.8019     8.4305    85.1536   175.2151
 2539.0000   -38.3152     7.6486     8.8814     8.4312    83.8386   175.2277
 2539.5000   -38.3152     7.6780     9.0796     8.4318    81.4011   172.7151
 2540.0000   -38.3152     7.6957     9.0836     8.4325    76.8998   147.4773
 2540.5000   -38.3152     7.6961     9.0876     8.4331    76.1488   114.6616
 2541.0000   -38.3152     7.6988     9.1006     8.4338    77.3973   104.5690
 2541.5000   -38.3152     7.7241     9.2309     8.5696    78.7072   134.8888
 2542.0000   -38.3152     7.7245     9.2349     8.5703    80.6448   180.3560
 2542.5000   -38.3152     7.7249     9.2389     8.6309    81.1438   183.0802
 2543.0000   -38.3152     7.7253     9.2429     8.7068    80.1423   180.3770
 2543.5000   -38.3152     7.7257     9.2466     8.8427    82.1411   190.4948
 2544.0000   -38.3152     7.7261     9.1154     8.9785    83.3250   215.7599
 2544.5000   -38.3152     7.7265     9.1199     8.9791    83.8888   225.8736
 2545.0000   -38.3152     7.7269     9.1240     8.9797    81.5064   235.9830
 2545.5000   -38.3152     7.7273     9.1286     8.9804    79.3861   220.8441
 2546.0000   -38.3152     7.7277     8.9972     8.9811    78.6349   238.5355
 2546.5000   -38.3152     7.7281     8.8664     8.9818    78.8838   218.3482
 2547.0000   -38.3152     7.7129     8.8710     8.9825    80.2346   188.0578
 2547.5000   -38.3152     7.7017     8.7399     8.9181    82.8811   185.5409
 2548.0000   -38.3152     7.7022     8.7442     8.8486    87.6299   177.9820
