~VERSION INFORMATION
 VERS.                2.0:   CWLS LOG ASCII STANDARD - VERSION 2.0
 WRAP.                 NO:   ONE LINE PER DEPTH STEP
~WELL INFORMATION
#MNEM.UNIT      DATA TYPE    INFORMATION
#----------   ------------   ------------------------------
 STRT.F          200.5000:   START DEPTH
 STOP.F         3118.5000:   STOP DEPTH
 STEP.F            0.5000:   STEP LENGTH
 NULL.          -999.2500:   NO VALUE
 COMP.    FENIX & SCISSON:   COMPANY
 WELL. FENIX SCISSON "A" #16-27:   WELL
 FLD .                NPR:   FIELD
 LOC .      S27 T39N R78W:   LOCATION
 CNTY.            NATRONA:   COUNTY
 STAT.            WYOMING:   STATE
 CTRY. UNITED STATES OF AMERICA:   COUNTRY
 SRVC.       SCHLUMBERGER:   SERVICE COMPANY
 DATE.        31-AUG-1977:   LOGDATE
 API .     49025104180000:   API NUMBER
~CURVE INFORMATION
#MNEM.UNIT       API CODE    CURVE DESCRIPTION
#----------   ------------   ------------------------------
 DEPT.F                  :   
 CALD.IN     45 280 60 00:   CALIPER FROM DENSITY LOG
 GRD .GAPI   45 310 01 00:   GAMMA RAY FROM DENSITY LOG
 DPHI.DEC    42 890 03 00:   DENSITY POROSITY SANDSTONE
 RHOB.G/C3   45 350 01 00:   BULK DENSITY
 CORR.G/C3   45 356 01 00:   DENSITY CORRECTION
 SPR .MV     07 010 01 00:   SPONTANEOUS POTENTIAL
 GURD.OHMM   07 220 05 00:   GUARD LOG RESISTIVITY
 ILD .OHMM   07 120 46 00:   DEEP INDUCTION RESISTIVITY
 ILM .OHMM   07 120 44 00:   INDUCTION LOG MEDIUM RESISTIVITY
~PARAMETER INFORMATION
#MNEM.UNIT          VALUE    DESCRIPTION
#----------   ------------   ------------------------------
 EKB .F         5095.0000:   Kelly bushing
 EGL .F         5085.0000:   Ground level
 EDF .F            0.0000:   Drilling floor
 TD  .F         3121.0000:   Total depth
 DATE.        31-AUG-1977:   Date logged
 CLNT.            A2DTECH:   Client Code
 SL  . 1430' FSL & 330' FNL:   Surface Location
 PD  .                 GL:   Permanent Datum
 EPD .F              5085:   Elevation Permanent Datum
 LMF .                 KB:   Log Measured From
 DMF .                 KB:   Drilling Measured From
 DAPD.F                10:   Feet Above Permanent Datum
 DD  .F              3120:   Depth driller
 DL  .F              3121:   Depth logger
 BLI .F              3119:   Bottom log interval
 TLI .F               200:   Top log interval
 CS1 .IN            8.625:   Casing size
 CBD1.      8.625" @ 206':   Casing driller 1
 CBL1.F               215:   Casing logger 1
 BS1 .IN            7.875:   Bit size
 BSD1.F              3120:   Depth drilled with bit1
 DFT .            KCL/MUD:   Type fluid in hole
 DFD .                  9:   Density
 DFV .                 36:   Viscosity
 DFPH.                 11:   pH
 DFL .                8.4:   Fluid loss
 MSS .           FLOWLINE:   Source of sample
 RMS .OHMM            2.5:   Rm
 MST .F                89:   Rm Meas. temp.
 RMF .OHMM           2.45:   Rmf
 MFST.F                89:   Rmf Meas. temp.
 RMC .OHMM           3.30:   Rmc
 MCST.F                89:   Rmc Meas. temp.
 MFSS.               FANN:   Source Rmf.
 MCSS.                KIT:   Source Rmc.
 RMB .OHMM           1.91:   Rm. at BHT
 BHT .F               116:   BHT.
 TCS .HRS              12:   Time Circ. stopped
 MRT .F               116:   Maximum recorded temp.
 LUN .               9585:   Logging unit number
 LUL .             CASPEN:   Logging unit location
 ENGI.         G. BENTSEN:   Recorded By
 WITN.      W. PETTINGILL:   Witnessed by
 ORIG.           5" PRINT:   Origin of data
 UWI .     49025104180000:   Unique Well ID
 DICO. A2D TECHNOLOGIES, INC.:   Digitizing Company
~OTHER INFORMATION
~A   DEPT     CALD         GRD      DPHI       RHOB        CORR       SPR       GURD        ILD        ILM   
# ...
 2317.5000     8.0433   100.3133     0.1591     2.3882     0.0255   -63.7674     7.9583     5.6623     6.4437
 2318.0000     8.0426   102.2677     0.1603     2.3812     0.0214   -63.7674     8.5522     5.6624     6.4439
 2318.5000     8.0222   104.2222     0.1643     2.3772     0.0174   -63.7674     9.7231     5.6153     6.6240
 2319.0000     8.0412   106.1766     0.1651     2.3752     0.0073   -63.3726    11.5726     5.7194     6.7469
 2319.5000     8.0405   105.3756     0.1647     2.3751     0.0073   -63.3726     9.1196     5.8793     7.0837
 2320.0000     8.0002   108.1173     0.1647     2.3771     0.0052   -63.3726    12.1160     6.0381     7.3487
 2320.5000     8.0196   108.4972     0.1635     2.3771     0.0051   -63.3726    14.6874     6.0938     8.5661
 2321.0000     8.0384   109.2707     0.1635     2.3780     0.0071   -63.3726    19.3356     6.2066     8.5663
 2321.5000     8.0379   110.4379     0.1616     2.3780     0.0070   -63.3726    17.9696     6.4386     8.5664
 2322.0000     8.0369   112.7859     0.1616     2.3790     0.0069   -63.5700    14.9607     6.7406     8.5667
 2322.5000     8.0362   113.9558     0.1604     2.3808     0.0068   -63.5700    13.7768     6.9287     8.5669
 2323.0000     8.0357   115.9103     0.1596     2.3827     0.0068   -63.9647    12.1185     7.0570     8.4889
 2323.5000     8.0350   116.6838     0.1588     2.3846     0.0087   -64.3595    15.5624     7.1221     8.1084
 2324.0000     8.0536   117.8510     0.1580     2.3865     0.0066   -64.7542    18.6440     7.0010     7.9611
 2324.5000     8.0138   118.6245     0.1561     2.3887     0.0066   -64.9516    16.1017     6.8738     7.4658
 2325.0000     8.0131   119.0044     0.1557     2.3907     0.0085   -65.1489     7.8783     6.6262     7.3978
 2325.5000     8.0321   118.5970     0.1528     2.3927     0.0064   -65.5437    10.1834     6.2712     8.0351
 2326.0000     8.0117   118.1896     0.1497     2.3976     0.0083   -65.7411    14.8638     6.2653     8.0354
 2326.5000     8.0111   117.7821     0.1474     2.4055     0.0083   -65.7411    14.4602     5.8225     7.8173
 2327.0000     8.0300   117.3747     0.1386     2.4095     0.0082   -65.9384    12.8067     5.3616     6.7496
 2327.5000     8.0097   116.9673     0.1370     2.4227     0.0121   -65.9384     7.9627     5.0748     6.0457
 2328.0000     8.0090   116.5599     0.1274     2.4363     0.0160   -65.9384     7.3989     4.8034     5.3166
 2328.5000     8.0280   113.7879     0.1163     2.4462     0.0279   -65.9384     7.0672     4.6306     4.7622
 2329.0000     8.0470   109.0505     0.1140     2.4562     0.0318   -65.9384     7.0028     4.4640     4.5905
 2329.5000     8.0463   107.4621     0.1108     2.4681     0.0357   -66.3332     5.2648     4.3034     4.4251
 2330.0000     8.0653   105.0802     0.1088     2.4700     0.0397   -65.9384     4.4252     4.1106     5.0322
 2330.5000     8.0843   103.4918     0.1064     2.4720     0.0436   -65.9384     6.8056     4.0360     4.9407
 2331.0000     8.1231   103.4781     0.1052     2.4710     0.0435   -65.9384     7.8914     3.9993     4.8066
 2331.5000     8.1421   104.6452     0.1029     2.4779     0.0434   -65.9384     7.7378     3.9994     4.6761
 2332.0000     8.1020   104.2378     0.1005     2.4809     0.0394   -65.9384     6.6215     4.0363     4.6762
 2332.5000     8.1604   102.2559     0.1001     2.4838     0.0393   -65.9384     6.2673     4.0363     5.0017
 2333.0000     8.1597   100.6675     0.0989     2.4828     0.0373   -65.7411     6.3252     4.0736     5.0018
 2333.5000     8.0998    98.6856     0.0981     2.4847     0.0372   -65.7411     6.8693     4.1112     5.1735
 2334.0000     8.0991    97.0972     0.0982     2.4857     0.0371   -65.7411     7.1917     4.1491     5.2213
 2334.5000     8.1578    95.8998     0.0982     2.4857     0.0271   -65.5437     7.1919     4.1873     5.3182
 2335.0000     8.1569    95.4924     0.0986     2.4856     0.0270   -65.5437     7.1921     4.2650     5.7237
 2335.5000     8.0971    95.0850     0.0994     2.4856     0.0269   -65.3463     7.2585     4.3440     5.9380
 2336.0000     8.1554    95.0712     0.0978     2.4845     0.0269   -65.5437     7.1924     4.3441     6.0482
 2336.5000     8.1547    95.0575     0.0998     2.4825     0.0248   -65.7411     7.0619     4.3841     5.8302
 2337.0000     8.0950    95.0437     0.1018     2.4805     0.0247   -65.7411     6.8705     4.4246     5.7770
 2337.5000     8.1534    94.2463     0.1050     2.4755     0.0247   -65.9384     7.1273     4.4247     5.6720
 2338.0000     8.1527    94.6316     0.1086     2.4695     0.0226   -65.9384     7.1932     4.4248     5.6722
 2338.5000     8.0929    95.7960     0.1102     2.4635     0.0205   -66.1358     7.0627     4.4248     5.5691
 2339.0000     8.1513    97.3532     0.1154     2.4564     0.0205   -66.1358     6.9345     4.5068     5.3193
 2339.5000     8.1506    98.5204     0.1170     2.4534     0.0204   -66.1358     6.5635     4.5069     5.1748
 2340.0000     7.9925    98.9003     0.1174     2.4504     0.0223   -66.1358     6.9349     4.5485     5.1749
 2340.5000     8.0902    99.2802     0.1175     2.4504     0.0243   -65.9384     7.3273     4.5486     5.1750
 2341.0000     8.0698    98.8728     0.1175     2.4523     0.0282   -65.9384     7.2606     4.5487     5.1279
 2341.5000     8.0691    98.0690     0.1167     2.4533     0.0281   -65.9384     7.1288     4.5488     5.3198
 2342.0000     8.0881    97.2679     0.1159     2.4562     0.0320   -66.3332     7.0639     4.5908     5.5699
 2342.5000     8.0874    96.4669     0.1155     2.4582     0.0300   -66.1358     8.1803     4.6759     5.8318
 2343.0000     8.0671    96.0595     0.1163     2.4582     0.0299   -66.3332     8.8979     4.7625     5.6735
 2343.5000     8.0664    96.0457     0.1191     2.4541     0.0298   -66.5305     7.6022     4.8954     5.5703
 2344.0000     8.0854    96.4256     0.1219     2.4491     0.0297   -66.7279     7.2617     4.8955     5.5704
 2344.5000     8.0654    96.8173     0.1235     2.4461     0.0297   -66.7279     7.2619     4.8509     5.6220
 2345.0000     8.0840    97.9817     0.1244     2.4441     0.0296   -66.7279     7.5335     4.7194     5.5198
 2345.5000     8.1227    99.1516     0.1248     2.4431     0.0295   -66.9253     7.4762     4.6337     5.3208
 2346.0000     8.1614   100.3215     0.1252     2.4420     0.0295   -66.7279     7.3294     4.4262     5.0356
 2346.5000     8.1410   101.4860     0.1260     2.4380     0.0294   -66.5305     5.8817     4.3062     4.8541
 2347.0000     8.1797   102.2567     0.1272     2.4360     0.0293   -66.5305     5.3664     4.1132     4.6791
 2347.5000     8.1593   103.0330     0.1288     2.4329     0.0253   -66.5305     5.3665     3.9290     4.6364
 2348.0000     8.0996   103.4129     0.1308     2.4329     0.0212   -66.5305     5.6702     3.8577     4.5520
 2348.5000     8.0989   103.7900     0.1332     2.4289     0.0152   -66.5305     6.0462     3.6848     4.4693
 2349.0000     8.0982   104.1726     0.1356     2.4259     0.0052   -66.5305     5.2693     3.5197     4.0029
 2349.5000     8.0778   104.1589     0.1396     2.4209     0.0011   -66.7279     5.2249     3.3620     3.7194
 2350.0000     8.0968   104.5415     0.1428     2.4138    -0.0010   -66.7279     4.3083     3.2708     3.4878
 2350.5000     8.1945   104.1313     0.1448     2.4088    -0.0030   -66.7279     3.6181     3.1822     3.4244
 2351.0000     8.1940   101.7530     0.1456     2.4058    -0.0051   -66.9253     4.1900     3.1244     3.6185
 2351.5000     8.1931    99.7627     0.1445     2.4108    -0.0051   -66.9253     4.8971     3.0959     4.0775
 2352.0000     8.1927    98.9672     0.1397     2.4177    -0.0052   -66.9253     5.4170     3.1244     4.0776
 2352.5000     8.1920    98.9534     0.1337     2.4216    -0.0033   -66.7279     4.9879     3.1245     4.0404
 2353.0000     8.1715    98.5460     0.1302     2.4266     0.0046   -66.7279     5.0804     3.1533     3.9306
 2353.5000     8.1707    98.5323     0.1270     2.4325     0.0105   -66.7279     4.8975     3.2414     4.0036
