~VERSION INFORMATION
 VERS.                2.0:   CWLS LOG ASCII STANDARD - VERSION 2.0
 WRAP.                 NO:   ONE LINE PER DEPTH STEP
~WELL INFORMATION
#MNEM.UNIT      DATA TYPE    INFORMATION
#----------   ------------   ------------------------------
 STRT.F          629.0000:   START DEPTH
 STOP.F         4090.0000:   STOP DEPTH
 STEP.F            0.5000:   STEP LENGTH
 NULL.          -999.2500:   NO VALUE
 COMP. LAWRENCE ALLISON & ASSOCIATES:   COMPANY
 WELL. LAWRENCE NPR 3 "SHX" #36-10:   WELL
 FLD .      NPR - WILDCAT:   FIELD
 LOC .      S10 T38N R78W:   LOCATION
 CNTY.            NATRONA:   COUNTY
 STAT.            WYOMING:   STATE
 CTRY. UNITED STATES OF AMERICA:   COUNTRY
 SRVC.      DRESSER ATLAS:   SERVICE COMPANY
 DATE.        24-DEC-1981:   LOGDATE
 API .     49025108310000:   API NUMBER
~CURVE INFORMATION
#MNEM.UNIT       API CODE    CURVE DESCRIPTION
#----------   ------------   ------------------------------
 DEPT.F                  :   
 DT  .US/F   60 520 00 00:   DELTA TIME
 TENS.LBS    60 635 01 00:   TENSION FROM SONIC
 GRR .GAPI   07 310 01 00:   GAMMA RAY FROM RESISTIVITY
 SPR .MV     07 010 01 00:   SPONTANEOUS POTENTIAL
 RFOC.OHMM   07 220 04 00:   RESISTIVITY FOCUSED LOG RES.
 RILM.OHMM   07 120 44 00:   INDUCTION LOG MEDIUM RESISTIVITY
 RILD.OHMM   07 120 46 00:   DEEP INDUCTION RESISTIVITY
 TENR.LBS    07 635 01 00:   TENSION FROM RESISTIVITY
 NPHI.DEC    42 890 03 00:   NEUTRON POROSITY SANDSTONE
 RHOB.G/C3   45 350 01 00:   BULK DENSITY
 CORR.G/C3   45 356 01 00:   DENSITY CORRECTION
 TEND.LBS    45 635 01 00:   TENSION FROM DENSITY LOG
 CALD.IN     45 280 60 00:   CALIPER FROM DENSITY LOG
~PARAMETER INFORMATION
#MNEM.UNIT          VALUE    DESCRIPTION
#----------   ------------   ------------------------------
 EKB .F         5234.0000:   Kelly bushing
 EGL .F         5224.0000:   Ground level
 EDF .F         5233.0000:   Drilling floor
 EPD .F            0.0000:   Permanent datum
 TD  .F         4100.0000:   Total depth
 DATE.        24-DEC-1981:   Date logged
 CLNT.            A2DTECH:   Client Code
 SL  . 1798' FSL & 1455' FWL:   Surface Location
 PD  .                 GL:   Permanent Datum
 DAPD.F                10:   Feet Above Permanent Datum
 DD  .F              4100:   Depth driller
 DL  .F              4082:   Depth logger
 BLI .F              4074:   Bottom log interval
 TLI .F              2300:   Top log interval
 CS1 .IN            9.625:   Casing size
 CBD1.      9.625" @ 650':   Casing driller 1
 BS1 .IN            7.875:   Bit size
 BSD1.F              4100:   Depth drilled with bit1
 DFT .            KCL/GEL:   Type fluid in hole
 DFD .                9.1:   Density
 DFV .                 60:   Viscosity
 DFPH.                  8:   pH
 DFL .                 12:   Fluid loss
 MSS .           FLOWLINE:   Source of sample
 RMS .OHMM           .536:   Rm
 RMF .OHMM           .402:   Rmf
 RMC .OHMM            067:   Rmc
 MFSS.               CALC:   Source Rmf.
 MCSS.               CALC:   Source Rmc.
 RMB .OHMM            .35:   Rm. at BHT
 BHT .F               135:   BHT.
 TCS .HRS               6:   Time Circ. stopped
 MRT .F               141:   Maximum recorded temp.
 LUL .               GLT1:   Logging unit location
 UWI .     49025108310000:   Unique Well ID
 DICO. A2D TECHNOLOGIES, INC.:   Digitizing Company
~OTHER INFORMATION
~A   DEPT       DT       TENS         GRR       SPR       RFOC       RILM       RILD       TENR       NPHI       RHOB       CORR       TEND       CALD   
# ...
 3593.0000    91.3670   -87.8690   142.6960   -31.8510    14.6190     9.1500     5.6560  -110.1810     0.2680     2.4210     0.0670   -57.7420     8.0580
 3593.5000    87.1300   -88.2150   125.4570   -32.8940    19.0990    10.2980     6.8640  -110.1270     0.2810     2.4280     0.0730   -59.4890     8.0600
 3594.0000    83.9450   -88.5610   123.0870   -33.9380    19.0990    10.5870     8.1890  -110.0730     0.2940     2.4150     0.0670   -61.2360     8.0610
 3594.5000    84.9080   -88.9070   137.3080   -35.0130    18.2390    10.8700     9.5130  -110.0190     0.3050     2.3990     0.0480   -62.9840     8.0620
 3595.0000    86.8340   -89.2530   148.5780   -35.5530    15.9650    11.1450    10.8380  -109.9650     0.3000     2.3850     0.0060   -64.7310     8.0620
 3595.5000    88.7610   -89.6000   156.6300   -35.9250    13.8560    11.3970    12.1630  -109.9110     0.3000     2.3780    -0.0040   -66.4780     8.0620
 3596.0000    90.6870   -89.9460   154.1020   -36.2880    11.5020    11.3970    13.0870  -109.8570     0.3010     2.3820     0.0160   -68.2260     8.0620
 3596.5000    92.5030   -90.2920   149.4340   -36.6510    12.6580    11.2200    13.2080  -109.8030     0.3010     2.3870     0.0280   -69.9730     8.0620
 3597.0000    91.9140   -90.6380   144.7800   -37.0150    14.6000    10.9840    12.8860  -109.7490     0.2970     2.3930     0.0200   -71.7200     8.0620
 3597.5000    91.3570   -90.9840   140.2860   -37.3780    15.5930    11.1460    12.5220  -109.6950     0.2950     2.3900    -0.0030   -73.4680     8.0620
 3598.0000    90.8010   -91.3300   139.5500   -37.7410    14.6590    11.2950    12.1580  -109.6410     0.2960     2.3800     0.0090   -75.2150     8.0620
 3598.5000    90.6470   -91.6770   151.4590   -37.9260    13.7050    11.4440    11.7940  -109.5870     0.2950     2.3700     0.0280   -76.9620     8.0620
 3599.0000    91.5290   -92.0230   159.8540   -37.9270    13.6640    11.5940    11.4300  -109.5330     0.2850     2.3610     0.0200   -78.7100     8.0610
 3599.5000    91.8340   -92.3690   159.2090   -37.9280    13.6190    11.2660    11.0660  -109.4790     0.2880     2.3630     0.0120   -80.4570     8.0610
 3600.0000    91.9460   -92.7150   158.5070   -37.9280    13.5790    10.8840    10.6390  -109.4250     0.2930     2.3700     0.0210   -82.2040     8.0600
 3600.5000    92.0020   -93.0610   159.2720   -37.9280    13.2400    10.5020    10.1490  -109.3710     0.2970     2.3780     0.0220   -83.9520     8.0590
 3601.0000    92.0800   -93.4080   164.2470   -37.9280    12.7300    10.1190     9.6600  -109.3170     0.3020     2.3870     0.0140   -85.6990     8.0590
 3601.5000    92.5650   -93.7540   169.0350   -37.8840    12.2090     9.7370     9.1700  -109.2630     0.3060     2.3900     0.0060   -87.4460     8.0580
 3602.0000    93.2410   -94.1000   172.4350   -37.5250    11.6370     9.4780     8.6800  -109.2090     0.3010     2.3810     0.0080   -89.1940     8.0580
 3602.5000    93.9160   -94.4460   169.9910   -37.1620    11.0650     9.4780     8.3130  -109.1550     0.3010     2.3780     0.0200   -90.9410     8.0570
 3603.0000    93.8500   -94.7920   166.8390   -36.8000    10.6850     9.4780     8.3300  -109.1010     0.2890     2.3890     0.0330   -92.6880     8.0570
 3603.5000    93.6720   -95.1380   163.6590   -36.4400    11.2820     9.4780     8.4850  -109.0470     0.2740     2.4030     0.0430   -94.4360     8.0560
 3604.0000    93.5040   -95.4850   160.4400   -36.0800    11.9200     9.5660     8.5640  -108.9930     0.2780     2.4170     0.0480   -93.7500     8.0560
 3604.5000    92.2820   -95.8310   157.9640   -36.1120    12.5570     9.7050     8.8700  -108.9390     0.2840     2.4300     0.0490   -90.6310     8.0550
 3605.0000    91.1310   -96.1770   161.4780   -36.6880    13.0870     9.8900     9.1930  -108.8850     0.2890     2.4330     0.0290   -87.5120     8.0550
 3605.5000    90.0120   -96.5230   166.0630   -37.2520    13.0870    10.0760     9.5160  -108.8310     0.2930     2.4350     0.0050   -84.3940     8.0540
 3606.0000    89.5930   -96.8690   170.6090   -37.7430    12.5970    10.2620     9.8380  -108.7770     0.2930     2.4360     0.0170   -81.2750     8.0540
 3606.5000    89.6380   -97.2160   175.1860   -37.7120    11.7160    10.4470    10.1610  -108.7230     0.2860     2.4370     0.0370   -78.1560     8.0530
 3607.0000    89.8590   -97.5620   176.3090   -37.6220    11.5020    10.6330    10.4890  -108.6690     0.2780     2.4370     0.0520   -75.0370     8.0520
 3607.5000    90.0800   -97.9080   172.0390   -37.5350    12.7730    10.8830    10.3410  -108.6140     0.2700     2.4380     0.0570   -71.9190     8.0520
 3608.0000    90.3000   -98.2540   166.6540   -37.4470    14.3920    11.1890    10.0870  -108.5600     0.2620     2.4390     0.0550   -68.8000     8.0510
 3608.5000    89.2350   -98.6000   161.1910   -37.3560    16.0100    10.9030     9.8330  -108.5060     0.2610     2.4420     0.0530   -65.3690     8.0510
 3609.0000    88.1730   -98.9470   155.6940   -37.1360    16.3280    10.5440     9.5790  -108.4520     0.2690     2.4510     0.0500   -64.9380     8.0500
 3609.5000    87.0970   -99.2930   150.7030   -36.6630    14.9570    10.1850     9.3250  -108.3980     0.2750     2.4580     0.0450   -64.3220     8.0500
 3610.0000    86.9770   -99.6390   156.3000   -36.1940    13.2610     9.8340     9.0710  -108.3440     0.2780     2.4510     0.0390   -63.7060     8.0490
 3610.5000    88.0810   -99.9850   162.2820   -35.7240    11.5660     9.8340     8.8170  -108.2900     0.2780     2.4420     0.0510   -63.0900     8.0490
 3611.0000    89.6980  -100.3310   166.9370   -35.2530     9.9250     9.8340     8.6430  -108.2360     0.2760     2.4320     0.0680   -62.4740     8.0480
 3611.5000    91.3150  -100.6770   163.5490   -34.7820     9.9250     9.9040     8.6430  -108.1820     0.2710     2.4380     0.0680   -61.8580     8.0480
 3612.0000    91.5090  -101.0240   159.2010   -34.7090    11.8610    10.2020     9.0530  -108.1280     0.2650     2.4470     0.0600   -61.2420     8.0470
 3612.5000    90.2800  -101.3700   155.8110   -34.7070    14.2190    10.4990     9.5430  -108.0740     0.2610     2.4570     0.0610   -60.6260     8.0470
 3613.0000    89.0510  -101.7160   153.6020   -34.7080    13.8620    10.7970    10.0320  -108.0200     0.2640     2.4540     0.0630   -60.0100     8.0460
 3613.5000    87.8210  -102.0620   151.3880   -34.7080    12.9670    11.0950    10.5210  -107.9660     0.2700     2.4480     0.0580   -59.3940     8.0460
 3614.0000    87.5660  -102.4080   149.2370   -34.7080    13.5190    11.3920    11.0100  -107.9120     0.2750     2.4390     0.0370   -58.7780     8.0450
 3614.5000    87.6590  -102.7550   148.4770   -34.7080    14.6180    11.7400    11.4990  -107.8580     0.2780     2.4260     0.0260   -58.1610     8.0440
 3615.0000    87.7530  -103.1010   152.3110   -34.7070    14.4590    12.2190    11.9880  -107.8040     0.2650     2.4100     0.0450   -57.5450     8.0440
 3615.5000    87.6690  -103.4470   155.8700   -34.7100    14.1270    12.6980    12.4780  -107.7500     0.2500     2.4150     0.0560   -56.9290     8.0430
 3616.0000    87.4200  -103.7930   153.1620   -35.0200    14.0890    13.1770    12.9670  -107.6960     0.2390     2.4250     0.0480   -56.3130     8.0430
 3616.5000    86.7950  -104.1390   149.5350   -35.3720    15.1320    13.6570    13.4560  -107.6420     0.2310     2.4340     0.0400   -55.6970     8.0420
 3617.0000    85.8000  -104.4850   145.9000   -35.7250    16.1780    14.1360    14.0890  -107.5880     0.2280     2.4410     0.0380   -60.3790     8.0420
 3617.5000    84.8050  -104.8320   139.8920   -36.0750    17.0990    14.6150    13.9840  -107.5340     0.2290     2.4470     0.0420   -70.3590     8.0420
 3618.0000    83.8100  -105.1780   132.9280   -36.2710    17.5360    14.7540    13.8350  -107.4800     0.2310     2.4530     0.0340   -80.3390     8.0420
 3618.5000    82.8150  -105.5240   126.0010   -35.8360    19.9550    14.2950    13.5760  -107.4260     0.2310     2.4590     0.0230   -82.5570     8.0420
