~VERSION INFORMATION
 VERS.                2.0:   CWLS LOG ASCII STANDARD - VERSION 2.0
 WRAP.                 NO:   ONE LINE PER DEPTH STEP
~WELL INFORMATION
#MNEM.UNIT      DATA TYPE    INFORMATION
#----------   ------------   ------------------------------
 STRT.F          540.0000:   START DEPTH
 STOP.F         4100.0000:   STOP DEPTH
 STEP.F            0.5000:   STEP LENGTH
 NULL.          -999.2500:   NO VALUE
 COMP. LAWRENCE ALISON & ASSOC.,WEST:   COMPANY
 WELL. LAWRENCE "X" #15-11:   WELL
 FLD .              N P R:   FIELD
 LOC .      S11 T38N R78W:   LOCATION
 CNTY.            NATRONA:   COUNTY
 STAT.            WYOMING:   STATE
 CTRY. UNITED STATES OF AMERICA:   COUNTRY
 SRVC.      DRESSER ATLAS:   SERVICE COMPANY
 DATE.        18-MAY-1985:   LOGDATE
 API .     49025110220000:   API NUMBER
~CURVE INFORMATION
#MNEM.UNIT       API CODE    CURVE DESCRIPTION
#----------   ------------   ------------------------------
 DEPT.F                  :   
 NPHI.DEC    42 890 03 00:   NEUTRON POROSITY SANDSTONE
 RHOB.G/C3   45 350 01 00:   BULK DENSITY
 CORR.G/C3   45 356 01 00:   DENSITY CORRECTION
 TEND.LBS    45 635 01 00:   TENSION FROM DENSITY LOG
 GRD .GAPI   45 310 01 00:   GAMMA RAY FROM DENSITY LOG
 CALD.IN     45 280 60 00:   CALIPER FROM DENSITY LOG
 SPR .MV     07 010 01 00:   SPONTANEOUS POTENTIAL
 RILD.OHMM   07 120 46 00:   DEEP INDUCTION RESISTIVITY
 RILM.OHMM   07 120 44 00:   INDUCTION LOG MEDIUM RESISTIVITY
 RFOC.OHMM   07 220 04 00:   RESISTIVITY FOCUSED LOG RES.
 TENR.LBS    07 635 01 00:   TENSION FROM RESISTIVITY
~PARAMETER INFORMATION
#MNEM.UNIT          VALUE    DESCRIPTION
#----------   ------------   ------------------------------
 EKB .F         5201.0000:   Kelly bushing
 EGL .F         5189.0000:   Ground level
 EDF .F         5200.0000:   Drilling floor
 TD  .F         4095.0000:   Total depth
 DATE.        18-MAY-1985:   Date logged
 CLNT.            A2DTECH:   Client Code
 SL  . 2203' FSL & 377' FWL:   Surface Location
 PD  .                 GL:   Permanent Datum
 EPD .F              5189:   Elevation Permanent Datum
 LMF .                 KB:   Log Measured From
 DMF .                 KB:   Drilling Measured From
 DAPD.F                12:   Feet Above Permanent Datum
 DD  .F              4095:   Depth driller
 DL  .F              4093:   Depth logger
 BLI .F              4091:   Bottom log interval
 TLI .F                 0:   Top log interval
 CS1 .IN            8.625:   Casing size
 CBD1.      8.625" @ 565':   Casing driller 1
 CBL1.F               565:   Casing logger 1
 BS1 .IN            7.875:   Bit size
 BSD1.F              4095:   Depth drilled with bit1
 DFT .            GEL KCL:   Type fluid in hole
 DFD .                9.2:   Density
 DFV .                 40:   Viscosity
 DFPH.                8.0:   pH
 DFL .                9.0:   Fluid loss
 MSS .            MUDTANK:   Source of sample
 RMS .OHMM            .57:   Rm
 MST .F                69:   Rm Meas. temp.
 RMF .OHMM            .49:   Rmf
 MFST.F                69:   Rmf Meas. temp.
 RMC .OHMM            .71:   Rmc
 MCST.F                69:   Rmc Meas. temp.
 MFSS.               MEAS:   Source Rmf.
 MCSS.               CALC:   Source Rmc.
 RMB .OHMM            .30:   Rm. at BHT
 BHT .F               139:   BHT.
 TCS .HRS               4:   Time Circ. stopped
 MRT .F               139:   Maximum recorded temp.
 LUN .            HL 6302:   Logging unit number
 LUL .               CODY:   Logging unit location
 ENGI.              GETTY:   Recorded By
 WITN.              FIVAS:   Witnessed by
 ORIG.           5" PRINT:   Origin of data
 UWI .     49025110220000:   Unique Well ID
 DICO. A2D TECHNOLOGIES, INC.:   Digitizing Company
~OTHER INFORMATION
~A   DEPT     NPHI       RHOB       CORR        TEND        GRD      CALD        SPR       RILD       RILM       RFOC       TENR   
# ...
  570.5000     0.3380     2.2910     0.0300    -4.7550    75.2200    11.5370     6.8860    10.9490     5.4600     7.7070   -17.0960
  571.0000     0.3480     2.3160     0.0200    -4.3650    74.9390    11.6180     5.7070    10.4900     5.8610     7.5310   -17.0960
  571.5000     0.3580     2.3410     0.0100    -3.9750    74.3380    11.7000     4.5000    10.0220     6.2620     7.8270   -17.0960
  572.0000     0.3690     2.3600     0.0050    -3.5850    74.5660    11.7650     4.6200     9.5480     7.0430     8.0770   -17.0960
  572.5000     0.3740     2.3770     0.0060    -3.1950    74.9260    11.8450     5.0420    10.1000     8.4250     8.3270   -17.0960
  573.0000     0.3540     2.3940     0.0120    -2.8040    74.8570    11.9140     5.4760    10.6590     8.7150     8.4800   -17.0960
  573.5000     0.3340     2.4030     0.0170    -2.4140    74.1690    11.9840     5.9090    11.2180     8.7150     8.4800   -17.0960
  574.0000     0.3240     2.4040     0.0220    -2.0240    73.4730    12.0040     6.3410    11.7790     8.8700     8.3980   -17.0960
  574.5000     0.3740     2.4060     0.0280    -1.6340    74.0020    12.0060     6.7730    11.4100     9.2500     8.2950   -17.0960
  575.0000     0.4110     2.4150     0.0460    -1.2440    75.0430    11.9970     6.9670    10.9720     9.6300     8.1920   -17.0960
  575.5000     0.3900     2.4340     0.0710    -0.8540    76.0900    12.2960     7.1040    10.5330    10.0110     8.0890   -17.0960
  576.0000     0.3590     2.4620     0.0800    -0.4630    77.3010    12.0030     7.2380    10.2720    10.0860     8.0280   -17.0960
  576.5000     0.2910     2.4900     0.0670    -0.0730    79.1200    11.3690     7.3720    10.3970     9.7800     8.1950   -17.0960
  577.0000     0.2860     2.5060     0.0500     0.3170    80.9560    11.4030     7.3560    10.5020     9.5260     8.3260   -17.0960
  577.5000     0.3080     2.5160     0.0340     0.7070    82.8220    11.4180     7.1100    10.6060     9.2720     8.2700   -17.0960
  578.0000     0.3450     2.5180     0.0430     1.0970    82.9590    11.4300     6.8660    10.7510     9.1220     8.2010   -14.4570
  578.5000     0.4110     2.5190     0.0530     1.4870    82.5290    11.4440     6.6220    10.6280     8.9650     8.1310   -11.8430
  579.0000     0.3890     2.5200     0.0620     1.8780    83.3180    11.4570     6.3770    10.5070     8.7840     8.0620    -9.2300
  579.5000     0.3570     2.5180     0.0460     2.2680    85.0510    11.4680     6.1320    10.2590     8.7150     7.9920    -7.1850
  580.0000     0.3590     2.5130     0.0250     2.6580    86.2240    11.4680     5.8880     9.9330     8.5250     7.9230    -7.1850
  580.5000     0.3480     2.5070     0.0050     3.0480    85.9870    11.4750     5.6430     9.6060     8.3770     7.8650    -7.1850
  581.0000     0.2860     2.5020    -0.0140     3.4380    84.3840    11.4830     5.3990     9.4690     8.2280     7.7880    -7.1850
  581.5000     0.2620     2.5040    -0.0100     2.4660    82.7070    11.4920     5.1540     9.3750     8.0800     7.7110    -7.1850
  582.0000     0.2800     2.5060     0.0100    -2.6160    83.1740    11.5000     4.9080     9.3210     7.9320     7.6340    -7.6770
  582.5000     0.3050     2.5070     0.0300    -7.6990    84.3150    11.5080     4.6760     9.2550     7.7840     7.5560    -9.8350
  583.0000     0.3200     2.5050     0.0410   -12.7810    85.4840    11.5130     4.6310     9.1890     7.6700     7.4790   -11.9940
  583.5000     0.3500     2.5050     0.0360   -17.8630    86.6560    11.5180     4.5930     9.1230     7.6700     7.4020   -14.1530
  584.0000     0.3890     2.5100     0.0250   -22.9460    87.6400    11.5230     4.5540     9.0580     7.6700     7.3270   -16.3120
  584.5000     0.4110     2.5190     0.0160   -28.0280    86.5310    11.5270     4.5150     8.9920     7.6700     7.3560   -18.4710
  585.0000     0.3510     2.5270     0.0220   -33.1100    85.4480    11.5320     4.4750     8.9260     7.6700     7.4020   -20.6300
  585.5000     0.2990     2.5350     0.0270   -36.0700    85.6240    11.5370     4.4360     8.8600     7.6700     7.4470   -22.7880
  586.0000     0.2750     2.5370     0.0320   -36.0700    85.7150    11.5420     4.3970     8.7940     7.6700     7.4930   -24.9470
  586.5000     0.2820     2.5380     0.0370   -36.0700    85.0830    11.5470     4.3580     8.7280     7.6700     7.5380   -27.0070
  587.0000     0.2990     2.5390     0.0470   -36.0700    86.6740    11.5660     4.3190     8.6620     7.4620     7.6000   -27.0070
  587.5000     0.3120     2.5430     0.0610   -36.0700    88.2840    11.6070     4.2800     8.5970     7.3430     7.4940   -27.0070
  588.0000     0.3270     2.5380     0.0870   -36.0700    89.8140    11.6480     4.2740     8.5310     7.2290     7.4130   -27.0070
  588.5000     0.2960     2.5320     0.1090   -36.0700    88.3550    11.6870     4.2740     8.4650     7.1150     7.3310   -27.0070
  589.0000     0.3030     2.5210     0.1020   -36.0700    86.6530    11.6830     4.2740     8.4030     7.0010     7.2500   -27.0070
  589.5000     0.3220     2.5110     0.0860   -36.0700    85.0920    11.6800     4.2740     8.2640     6.8870     7.1680   -27.0070
  590.0000     0.3870     2.5040     0.0510   -36.0700    86.3470    11.6930     4.2740     8.1330     6.7720     7.0870   -27.0070
  590.5000     0.4070     2.4980     0.0160   -36.0700    87.6770    11.7070     4.2740     8.0020     6.6880     7.0050   -27.0070
  591.0000     0.3870     2.4910     0.0010   -36.0700    88.9880    11.7210     4.2740     7.8710     6.6270     6.9230   -27.0070
  591.5000     0.3390     2.4850     0.0100   -36.0700    89.9200    11.7350     4.2740     7.6700     6.5670     6.8420   -27.0070
  592.0000     0.2820     2.4790     0.0370   -36.0700    90.2670    11.7510     4.2740     7.7010     6.5230     6.7600   -27.0070
  592.5000     0.2920     2.4790     0.0530   -36.0700    90.6550    11.7890     4.2740     7.7670     6.4720     6.6890   -27.0070
  593.0000     0.3060     2.4830     0.0260   -36.0700    89.3660    11.8270     4.2740     7.8340     6.4200     6.5990   -27.0070
  593.5000     0.3170     2.4870    -0.0100   -35.7800    87.9550    11.8650     4.2740     7.8830     6.3690     6.5090   -27.0070
  594.0000     0.3410     2.4920    -0.0200   -35.2580    88.2830    11.9020     4.2740     7.4080     6.1930     6.3900   -27.0070
  594.5000     0.3970     2.5010     0.0100   -34.7360    90.0550    11.9350     4.2740     7.0330     5.6900     6.5330   -27.0070
  595.0000     0.4200     2.5120     0.0480   -34.2130    89.0460    11.9900     4.2740     6.6880     5.2270     6.7440   -27.0070
  595.5000     0.4090     2.5130     0.0720   -33.6910    87.3560    12.0460     4.2740     6.5080     4.7350     6.8110   -27.0070
  596.0000     0.3880     2.4890     0.0960   -33.1690    86.4660    12.1000     4.2750     6.1490     4.2760     5.8240   -27.0070
  596.5000     0.3670     2.4580     0.1320   -32.6470    87.3440    12.3470     4.2750     5.6490     4.2370     4.7060   -27.0070
  597.0000     0.3470     2.4270     0.1340   -32.1240    85.9090    12.2030     4.2690     4.9940     5.0190     4.1550   -27.0070
  597.5000     0.3370     2.4120     0.0950   -31.6020    84.2920    11.9900     4.5090     5.2070     5.5720     4.1230   -27.0070
  598.0000     0.3450     2.4590     0.0450   -31.0800    84.5190    11.9170     4.8460     5.7820     6.0110     5.2790   -27.0070
  598.5000     0.3650     2.4940     0.0470   -30.5570    86.3620    11.8470     5.1850     6.3580     6.4140     6.1750   -27.0070
  599.0000     0.3790     2.5120     0.0630   -30.0350    87.9660    11.8310     5.5250     6.9340     6.8170     6.6180   -27.0070
  599.5000     0.3050     2.5130     0.0750   -29.5130    87.8110    11.8150     5.8640     7.5100     7.2200     6.8610   -27.0070
  600.0000     0.3100     2.5130     0.0670   -28.9910    87.6320    11.7980     6.2020     8.0860     7.3990     7.1300   -27.0070
  600.5000     0.3250     2.5140     0.0580   -28.4680    87.4580    11.7820     6.5410     8.6620     7.5520     7.1850   -27.0070
