~VERSION INFORMATION
 VERS.                2.0:   CWLS LOG ASCII STANDARD - VERSION 2.0
 WRAP.                 NO:   ONE LINE PER DEPTH STEP
~WELL INFORMATION
#MNEM.UNIT      DATA TYPE    INFORMATION
#----------   ------------   ------------------------------
 STRT.F          218.5000:   START DEPTH
 STOP.F         3291.0000:   STOP DEPTH
 STEP.F            0.5000:   STEP LENGTH
 NULL.          -999.2500:   NO VALUE
 COMP.    FENIX & SCISSON:   COMPANY
 WELL.   FENIX SHX #63-23:   WELL
 FLD .  TEAPOT DOME NPR-3:   FIELD
 LOC .      S23 T38N R78W:   LOCATION
 CNTY.            NATRONA:   COUNTY
 STAT.            WYOMING:   STATE
 CTRY. UNITED STATES OF AMERICA:   COUNTRY
 SRVC.           BIRDWELL:   SERVICE COMPANY
 DATE.        08-JUL-1978:   LOGDATE
 API .     49025106600000:   API NUMBER
~CURVE INFORMATION
#MNEM.UNIT       API CODE    CURVE DESCRIPTION
#----------   ------------   ------------------------------
 DEPT.F                  :   
 GRD .GAPI   45 310 01 00:   GAMMA RAY FROM DENSITY LOG
 CALD.IN     45 280 60 00:   CALIPER FROM DENSITY LOG
 CORR.G/C3   45 356 01 00:   DENSITY CORRECTION
 RHOB.G/C3   45 350 01 00:   BULK DENSITY
 GR  .GAPI   35 310 01 00:   GAMMA RAY
 NEUT.NAPI   35 330 01 00:   NEUTRON
~PARAMETER INFORMATION
#MNEM.UNIT          VALUE    DESCRIPTION
#----------   ------------   ------------------------------
 EKB .F         5368.0000:   Kelly bushing
 EGL .F         5358.0000:   Ground level
 TD  .F         3299.0000:   Total depth
 CLNT.            A2DTECH:   Client Code
 PD  .                 GL:   Permanent Datum
 EPD .F              5358:   Elevation Permanent Datum
 LMF .                 KB:   Log Measured From
 DMF .                 KB:   Drilling Measured From
 DAPD.F                10:   Feet Above Permanent Datum
 DATE.        08-JUL-1978:   Date Logged [DD-MMM-YYYY]
 DD  .F              3299:   Depth driller
 DL  .F              3291:   Depth logger
 BLI .F              3291:   Bottom log interval
 TLI .F              1430:   Top log interval
 CS1 .IN            9.625:   Casing size
 CBD1.     9.625" @ 1450':   Casing driller 1
 CBL1.F              1442:   Casing logger 1
 BS1 .IN            8.750:   Bit size
 BSD1.F              3299:   Depth drilled with bit1
 DFT .          KCL WATER:   Type fluid in hole
 BHT .F               118:   BHT.
 TCS .HRS               2:   Time Circ. stopped
 MRT .F               118:   Maximum recorded temp.
 LUN .               2958:   Logging unit number
 LUL .               CASP:   Logging unit location
 ENGI.             MILLER:   Recorded By
 WITN.           MCGINLEY:   Witnessed by
 ORIG.           5" PRINT:   Origin of data
 UWI .     49025106600000:   Unique Well ID
 DICO. A2D TECHNOLOGIES, INC.:   Digitizing Company
 SL  . 1800' FNL & 1825' FEL:   Surface Location
~OTHER INFORMATION
~A   DEPT      GRD       CALD       CORR       RHOB          GR      NEUT   
# ...
 2766.5000   106.1105     9.0730     0.0271     2.5288  -999.2500  -999.2500
 2767.0000   105.6503     9.0876     0.0241     2.5199  -999.2500  -999.2500
 2767.5000   105.7979     9.0876     0.0241     2.5140  -999.2500  -999.2500
 2768.0000   106.2485     9.0876     0.0241     2.5199  -999.2500  -999.2500
 2768.5000   106.5481     9.0730     0.0242     2.5111  -999.2500  -999.2500
 2769.0000   107.1517     9.0584     0.0227     2.5052  -999.2500  -999.2500
 2769.5000   107.7594     9.0292     0.0227     2.5096  -999.2500  -999.2500
 2770.0000   108.3579     9.0146     0.0227     2.5177  -999.2500  -999.2500
 2770.5000   108.5055     9.0146     0.0228     2.5192  -999.2500  -999.2500
 2771.0000   108.8063     9.0000     0.0228     2.5222  -999.2500  -999.2500
 2771.5000   109.4088     9.0000     0.0243     2.5273  -999.2500  -999.2500
 2772.0000   105.7560     9.0146     0.0244     2.5355  -999.2500  -999.2500
 2772.5000   104.8409     9.0146     0.0244     2.5324  -999.2500  -999.2500
 2773.0000   106.5073     9.0240     0.0260     2.5199  -999.2500  -999.2500
 2773.5000   106.9590     9.0292     0.0275     2.5103  -999.2500  -999.2500
 2774.0000   106.9535     9.0292     0.0275     2.5162  -999.2500  -999.2500
 2774.5000   106.9492     9.0292     0.0276     2.5170  -999.2500  -999.2500
 2775.0000   106.9449     9.0292     0.0276     2.5199  -999.2500  -999.2500
 2775.5000   107.0926     9.0292     0.0276     2.5251  -999.2500  -999.2500
 2776.0000   107.7407     9.0292     0.0277     2.5310  -999.2500  -999.2500
 2776.5000   108.6027     9.0258     0.0262     2.5190  -999.2500  -999.2500
 2777.0000   109.2074     9.0146     0.0231     2.5089  -999.2500  -999.2500
 2777.5000   107.0743     9.0146     0.0186     2.5081  -999.2500  -999.2500
 2778.0000   104.9259     9.0292     0.0187     2.5074  -999.2500  -999.2500
 2778.5000   106.9127     9.0292     0.0187     2.5081  -999.2500  -999.2500
 2779.0000   107.9722     9.0292     0.0187     2.5089  -999.2500  -999.2500
 2779.5000   108.7289     9.0146     0.0188     2.5103  -999.2500  -999.2500
 2780.0000   109.0274     9.0146     0.0188     2.5133  -999.2500  -999.2500
 2780.5000   107.8062     9.0146     0.0203     2.5118  -999.2500  -999.2500
 2781.0000   107.6500     9.0146     0.0219     2.5133  -999.2500  -999.2500
 2781.5000   106.2779     9.0146     0.0219     2.5155  -999.2500  -999.2500
 2782.0000   104.4417     9.0146     0.0219     2.5140  -999.2500  -999.2500
 2782.5000   103.9896     9.0146     0.0220     2.5089  -999.2500  -999.2500
 2783.0000   104.7441     9.0146     0.0220     2.5096  -999.2500  -999.2500
 2783.5000   105.1958     9.0146     0.0220     2.5118  -999.2500  -999.2500
 2784.0000   105.0395     9.0146     0.0221     2.5081  -999.2500  -999.2500
 2784.5000   104.5782     9.0146     0.0228     2.5059  -999.2500  -999.2500
 2785.0000   105.3338     9.0146     0.0252     2.5096  -999.2500  -999.2500
 2785.5000   106.2413     9.0292     0.0259     2.5118  -999.2500  -999.2500
 2786.0000   107.4528     9.0292     0.0283     2.5252  -999.2500  -999.2500
 2786.5000   108.0564     9.0146     0.0298     2.5310  -999.2500  -999.2500
 2787.0000   106.8353     9.0146     0.0329     2.5266  -999.2500  -999.2500
 2787.5000   106.6800     9.0146     0.0329     2.5236  -999.2500  -999.2500
 2788.0000   108.4984     9.0292     0.0345     2.5221  -999.2500  -999.2500
 2788.5000   111.1445     9.0292     0.0345     2.5214  -999.2500  -999.2500
 2789.0000   112.1361     9.0292     0.0345     2.5244  -999.2500  -999.2500
 2789.5000   112.4358     9.0292     0.0346     2.5303  -999.2500  -999.2500
 2790.0000   112.8874     9.0401     0.0346     2.5393  -999.2500  -999.2500
 2790.5000   113.5069     9.0438     0.0338     2.5325  -999.2500  -999.2500
 2791.0000   114.2455     9.0438     0.0331     2.5229  -999.2500  -999.2500
 2791.5000   114.2416     9.0438     0.0316     2.5251  -999.2500  -999.2500
 2792.0000   115.3000     9.0438     0.0301     2.5310  -999.2500  -999.2500
 2792.5000   115.4488     9.0438     0.0293     2.5162  -999.2500  -999.2500
 2793.0000   115.2914     9.0292     0.0287     2.5185  -999.2500  -999.2500
 2793.5000   110.2719     9.0292     0.0282     2.5295  -999.2500  -999.2500
 2794.0000   106.0911     9.0292     0.0272     2.5170  -999.2500  -999.2500
 2794.5000   106.6148     9.0295     0.0257     2.5162  -999.2500  -999.2500
 2795.0000   108.2822     9.0438     0.0235     2.5199  -999.2500  -999.2500
 2795.5000   107.9740     9.0438     0.0228     2.5236  -999.2500  -999.2500
 2796.0000   106.8812     9.0501     0.0228     2.5207  -999.2500  -999.2500
 2796.5000   106.5976     9.0584     0.0228     2.5177  -999.2500  -999.2500
 2797.0000   107.3532     9.0603     0.0229     2.5148  -999.2500  -999.2500
 2797.5000   109.1715     9.0730     0.0229     2.5118  -999.2500  -999.2500
 2798.0000   107.4715     9.0730     0.0214     2.5170  -999.2500  -999.2500
 2798.5000   106.4263     9.0876     0.0214     2.5207  -999.2500  -999.2500
 2799.0000   107.0299     9.0876     0.0215     2.5222  -999.2500  -999.2500
 2799.5000   108.0894     9.0876     0.0215     2.5206  -999.2500  -999.2500
 2800.0000   108.5410     9.0876     0.0215     2.5148  -999.2500  -999.2500
 2800.5000   108.0724     9.0730     0.0183     2.5007  -999.2500  -999.2500
 2801.0000   107.9129     9.0584     0.0182     2.4985  -999.2500  -999.2500
 2801.5000   108.5107     9.0569     0.0226     2.5088  -999.2500  -999.2500
 2802.0000   109.4099     9.0491     0.0256     2.5222  -999.2500  -999.2500
 2802.5000   109.3997     9.0412     0.0285     2.5236  -999.2500  -999.2500
 2803.0000   110.2989     9.0334     0.0299     2.5340  -999.2500  -999.2500
 2803.5000   113.0244     9.0255     0.0297     2.5185  -999.2500  -999.2500
 2804.0000   116.0538     9.0177     0.0296     2.5116  -999.2500  -999.2500
 2804.5000   120.2990     9.0098     0.0280     2.5146  -999.2500  -999.2500
 2805.0000   123.6534     9.0057     0.0278     2.5227  -999.2500  -999.2500
 2805.5000   126.0538     9.0197     0.0277     2.5034  -999.2500  -999.2500
 2806.0000   118.7463     9.0186     0.0215     2.4901  -999.2500  -999.2500
 2806.5000   114.1769     9.0178     0.0168     2.4975  -999.2500  -999.2500
 2807.0000   111.5832     9.0169     0.0184     2.5026  -999.2500  -999.2500
 2807.5000   111.1171     9.0013     0.0197     2.5056  -999.2500  -999.2500
 2808.0000   116.7276     9.0005     0.0210     2.5026  -999.2500  -999.2500
 2808.5000   116.8720     8.9851     0.0209     2.4996  -999.2500  -999.2500
 2809.0000   112.7560     8.9696     0.0238     2.4981  -999.2500  -999.2500
 2809.5000   104.8431     8.9668     0.0267     2.5018  -999.2500  -999.2500
 2810.0000   103.1611     8.9385     0.0296     2.5247  -999.2500  -999.2500
 2810.5000   103.3006     8.9378     0.0295     2.5379  -999.2500  -999.2500
 2811.0000   103.2905     8.9223     0.0294     2.5261  -999.2500  -999.2500
 2811.5000   102.8244     8.9214     0.0292     2.5150  -999.2500  -999.2500
 2812.0000   101.5985     8.9060     0.0291     2.5216  -999.2500  -999.2500
 2812.5000   100.8158     8.9050     0.0290     2.5231  -999.2500  -999.2500
 2813.0000   100.3599     8.9042     0.0289     2.5299  -999.2500  -999.2500
 2813.5000   101.5656     8.9034     0.0287     2.5363  -999.2500  -999.2500
 2814.0000   102.1659     8.9171     0.0286     2.5370  -999.2500  -999.2500
 2814.5000   102.4575     8.9308     0.0285     2.5333  -999.2500  -999.2500
 2815.0000   102.4468     8.9348     0.0283     2.5259  -999.2500  -999.2500
 2815.5000   102.4344     8.9582     0.0287     2.5267  -999.2500  -999.2500
 2816.0000   102.7282     8.9609     0.0296     2.5370  -999.2500  -999.2500
 2816.5000   103.9339     8.9711     0.0295     2.5281  -999.2500  -999.2500
 2817.0000   105.5955     8.9848     0.0294     2.5244  -999.2500  -999.2500
 2817.5000   105.2634     8.9692     0.0292     2.5162  -999.2500  -999.2500
 2818.0000   104.8129     8.9684     0.0291     2.5117  -999.2500  -999.2500
