~VERSION INFORMATION
 VERS.                2.0:   CWLS LOG ASCII STANDARD - VERSION 2.0
 WRAP.                 NO:   ONE LINE PER DEPTH STEP
~WELL INFORMATION
#MNEM.UNIT      DATA TYPE    INFORMATION
#----------   ------------   ------------------------------
 STRT.F           10.0000:   START DEPTH
 STOP.F         4008.0000:   STOP DEPTH
 STEP.F            0.5000:   STEP LENGTH
 NULL.          -999.2500:   NO VALUE
 COMP. LAWRENCE ALLISON & ASSOC.:   COMPANY
 WELL. LAWRENCE NPR 3 "AX" #75-28:   WELL
 FLD .                NPR:   FIELD
 LOC .      S28 T39N R78W:   LOCATION
 CNTY.            NATRONA:   COUNTY
 STAT.            WYOMING:   STATE
 CTRY. UNITED STATES OF AMERICA:   COUNTRY
 SRVC.      DRESSER ATLAS:   SERVICE COMPANY
 DATE.        28-APR-1983:   LOGDATE
 API .     49025109060000:   API NUMBER
~CURVE INFORMATION
#MNEM.UNIT       API CODE    CURVE DESCRIPTION
#----------   ------------   ------------------------------
 DEPT.F                  :   
 RHOB.G/C3   45 350 01 00:   BULK DENSITY
 CORR.G/C3   45 356 01 00:   DENSITY CORRECTION
 TEND.LBS    45 635 01 00:   TENSION FROM DENSITY LOG
 NPHI.DEC    42 890 03 00:   NEUTRON POROSITY SANDSTONE
 GRR .GAPI   07 310 01 00:   GAMMA RAY FROM RESISTIVITY
 CALR.IN     07 280 01 00:   CALIPER FROM RESISTIVITY
 RFOC.OHMM   07 220 01 00:   RESISTIVITY FOCUSED LOG RES.
 RILD.OHMM   07 120 46 00:   DEEP INDUCTION RESISTIVITY
 TENR.LBS    01 635 01 00:   TENSION FROM RES.
 RILM.OHMM   07 120 44 00:   INDUCTION LOG MEDIUM RESISTIVITY
 TENS.LBS    60 635 01 00:   TENSION FROM SONIC LOG
 DT  .US/F   60 520 00 00:   DELTA TIME
 SPR .MV     07 010 01 00:   SPONTANEOUS POTENTIAL
~PARAMETER INFORMATION
#MNEM.UNIT          VALUE    DESCRIPTION
#----------   ------------   ------------------------------
 EKB .F         5068.0000:   Kelly bushing
 EGL .F         5058.0000:   Ground level
 EDF .F            0.0000:   Drilling floor
 TD  .F         4003.0000:   Total depth
 DATE.        28-APR-1983:   Date logged
 CLNT.            A2DTECH:   Client Code
 SL  . 2100' FSL & 1050' FEL:   Surface Location
 PD  .                 GL:   Permanent Datum
 EPD .F              5058:   Elevation Permanent Datum
 LMF .                 KB:   Log Measured From
 DMF .                 KB:   Drilling Measured From
 DAPD.F                10:   Feet Above Permanent Datum
 DD  .F              4000:   Depth driller
 DL  .F              4003:   Depth logger
 BLI .F              4000:   Bottom log interval
 CS1 .IN            8.625:   Casing size
 CBD1.      8.625" @ 498':   Casing driller 1
 CBL1.F               497:   Casing logger 1
 BS1 .IN            7.875:   Bit size
 BSD1.F              4000:   Depth drilled with bit1
 DFT .            KCL/GEL:   Type fluid in hole
 DFD .                  9:   Density
 DFV .                 43:   Viscosity
 DFPH.                8.5:   pH
 DFL .               12.4:   Fluid loss
 MSS .           MUD/TANK:   Source of sample
 RMS .OHMM            .45:   Rm
 MST .F                43:   Rm Meas. temp.
 RMF .OHMM            .27:   Rmf
 MFST.F                51:   Rmf Meas. temp.
 RMC .OHMM            .56:   Rmc
 MCST.F                43:   Rmc Meas. temp.
 MFSS.               MEAS:   Source Rmf.
 MCSS.               CALC:   Source Rmc.
 RMB .OHMM            .16:   Rm. at BHT
 BHT .F               121:   BHT.
 TCS .HRS               7:   Time Circ. stopped
 MRT .F               121:   Maximum recorded temp.
 LUN .               6274:   Logging unit number
 LUL .               GLTE:   Logging unit location
 ENGI.            WACDELL:   Recorded By
 WITN.             STRONG:   Witnessed by
 ORIG.           5" PRINT:   Origin of data
 UWI .     49025109060000:   Unique Well ID
 DICO. A2D TECHNOLOGIES, INC.:   Digitizing Company
~OTHER INFORMATION
~A   DEPT     RHOB       CORR       TEND       NPHI         GRR      CALR       RFOC       RILD       TENR       RILM       TENS         DT        SPR   
# ...
 1440.0000  -999.2500  -999.2500  -999.2500  -999.2500    87.9170     8.9110     5.4940     6.0250   -79.6590     5.6280  -999.2500  -999.2500   -32.1350
 1440.5000  -999.2500  -999.2500  -999.2500  -999.2500    86.9840     8.9120     5.6400     6.0690   -79.6590     5.6700  -999.2500  -999.2500   -32.2680
 1441.0000  -999.2500  -999.2500  -999.2500  -999.2500    85.6520     8.9120     5.7930     6.1140   -79.6590     5.7110  -999.2500  -999.2500   -32.3390
 1441.5000  -999.2500  -999.2500  -999.2500  -999.2500    83.7590     8.9120     5.9150     6.1580   -79.6590     5.7530  -999.2500  -999.2500   -32.3510
 1442.0000  -999.2500  -999.2500  -999.2500  -999.2500    82.1650     8.9120     6.0250     6.2030   -79.6590     5.7950  -999.2500  -999.2500   -32.3350
 1442.5000  -999.2500  -999.2500  -999.2500  -999.2500    82.0990     8.9120     5.8070     6.2480   -79.6590     5.8370  -999.2500  -999.2500   -32.3220
 1443.0000  -999.2500  -999.2500  -999.2500  -999.2500    84.1040     8.9120     5.8070     6.2930   -79.6590     5.8780  -999.2500  -999.2500   -32.3240
 1443.5000  -999.2500  -999.2500  -999.2500  -999.2500    87.6170     8.9120     6.0060     6.3380   -79.6590     5.9200  -999.2500  -999.2500   -32.3310
 1444.0000  -999.2500  -999.2500  -999.2500  -999.2500    91.2750     8.9120     6.1380     6.3830   -79.6590     5.9620  -999.2500  -999.2500   -32.3350
 1444.5000  -999.2500  -999.2500  -999.2500  -999.2500    93.6730     8.9110     6.1380     6.4280   -79.6590     6.0250  -999.2500  -999.2500   -32.3320
 1445.0000  -999.2500  -999.2500  -999.2500  -999.2500    94.1240     8.9110     6.1540     6.4870   -79.6590     6.0250  -999.2500  -999.2500   -32.3290
 1445.5000  -999.2500  -999.2500  -999.2500  -999.2500    93.0520     8.9120     6.1640     6.4870   -79.6590     6.0250  -999.2500  -999.2500   -32.3290
 1446.0000  -999.2500  -999.2500  -999.2500  -999.2500    91.5400     8.9120     6.1740     6.4870   -79.6590     6.0250  -999.2500  -999.2500   -32.3300
 1446.5000  -999.2500  -999.2500  -999.2500  -999.2500    90.3760     8.9120     6.1840     6.4870   -79.6590     6.0250  -999.2500  -999.2500   -32.3300
 1447.0000  -999.2500  -999.2500  -999.2500  -999.2500    89.5840     8.9110     6.1940     6.4870   -79.6590     6.0250  -999.2500  -999.2500   -32.3280
 1447.5000  -999.2500  -999.2500  -999.2500  -999.2500    88.9770     8.9110     6.2040     6.4870   -79.6590     6.0250  -999.2500  -999.2500   -32.3290
 1448.0000  -999.2500  -999.2500  -999.2500  -999.2500    88.8600     8.9130     6.2140     6.4870   -79.6590     6.0250  -999.2500  -999.2500   -32.3310
 1448.5000  -999.2500  -999.2500  -999.2500  -999.2500    89.7130     8.9180     6.2240     6.4870   -79.6590     6.0250  -999.2500  -999.2500   -32.3330
 1449.0000  -999.2500  -999.2500  -999.2500  -999.2500    91.1700     8.9260     6.2340     6.4870   -79.6590     6.0250  -999.2500  -999.2500   -32.3290
 1449.5000  -999.2500  -999.2500  -999.2500  -999.2500    91.9190     8.9350     6.2440     6.6050   -79.6590     6.1780  -999.2500  -999.2500   -32.3230
 1450.0000  -999.2500  -999.2500  -999.2500  -999.2500    91.0850     8.9430     6.2520     6.7050   -79.6590     6.2750  -999.2500  -999.2500   -32.3250
 1450.5000  -999.2500  -999.2500  -999.2500  -999.2500    89.5200     8.9520     6.5420     6.8060   -79.6590     6.3720  -999.2500  -999.2500   -32.3490
 1451.0000  -999.2500  -999.2500  -999.2500  -999.2500    89.1360     8.9610     6.7310     6.9060   -79.6590     6.4690  -999.2500  -999.2500   -32.3970
 1451.5000  -999.2500  -999.2500  -999.2500  -999.2500    90.7920     8.9710     6.7550     7.0070   -79.6590     6.5660  -999.2500  -999.2500   -32.4610
 1452.0000  -999.2500  -999.2500  -999.2500  -999.2500    93.2400     8.9810     6.7750     7.1070   -79.6590     6.6630  -999.2500  -999.2500   -32.5310
 1452.5000  -999.2500  -999.2500  -999.2500  -999.2500    94.4800     8.9890     6.7950     7.2080   -79.6590     6.7600  -999.2500  -999.2500   -32.6020
 1453.0000  -999.2500  -999.2500  -999.2500  -999.2500    93.9330     8.9910     6.8150     7.3080   -79.6590     6.8570  -999.2500  -999.2500   -32.6730
 1453.5000  -999.2500  -999.2500  -999.2500  -999.2500    92.8830     8.9890     6.8350     7.4090   -79.6590     6.9840  -999.2500  -999.2500   -32.7340
 1454.0000  -999.2500  -999.2500  -999.2500  -999.2500    92.8250     8.9860     6.8560     7.5190   -79.6590     6.9840  -999.2500  -999.2500   -32.7550
 1454.5000  -999.2500  -999.2500  -999.2500  -999.2500    93.8060     8.9820     6.8850     7.5190   -79.6590     6.9100  -999.2500  -999.2500   -32.6990
 1455.0000  -999.2500  -999.2500  -999.2500  -999.2500    94.6410     8.9800     6.9180     7.4270   -79.6590     6.8530  -999.2500  -999.2500   -32.5540
 1455.5000  -999.2500  -999.2500  -999.2500  -999.2500    94.4080     8.9780     6.9500     7.3650   -79.6590     6.7960  -999.2500  -999.2500   -32.3390
 1456.0000  -999.2500  -999.2500  -999.2500  -999.2500    93.3760     8.9760     6.9840     7.3040   -79.6590     6.7390  -999.2500  -999.2500   -32.0940
 1456.5000  -999.2500  -999.2500  -999.2500  -999.2500    92.5490     8.9730     6.8620     7.2420   -79.6590     6.6820  -999.2500  -999.2500   -31.8430
 1457.0000  -999.2500  -999.2500  -999.2500  -999.2500    92.5730     8.9700     6.7320     7.1810   -79.6590     6.6240  -999.2500  -999.2500   -31.5920
 1457.5000  -999.2500  -999.2500  -999.2500  -999.2500    93.2100     8.9680     6.6020     7.1190   -79.6590     6.5670  -999.2500  -999.2500   -31.3500
 1458.0000  -999.2500  -999.2500  -999.2500  -999.2500    93.5690     8.9660     6.4720     7.0580   -79.6590     6.4870  -999.2500  -999.2500   -31.1550
 1458.5000  -999.2500  -999.2500  -999.2500  -999.2500    92.7800     8.9630     6.3680     6.9840   -79.6590     6.4870  -999.2500  -999.2500   -31.0760
 1459.0000  -999.2500  -999.2500  -999.2500  -999.2500    90.6250     8.9610     6.4740     6.9840   -79.6590     6.5090  -999.2500  -999.2500   -31.1590
 1459.5000  -999.2500  -999.2500  -999.2500  -999.2500    87.8240     8.9580     6.5630     7.0110   -79.6590     6.5270  -999.2500  -999.2500   -31.3820
 1460.0000  -999.2500  -999.2500  -999.2500  -999.2500    85.7210     8.9550     6.6510     7.0310   -79.6590     6.5450  -999.2500  -999.2500   -31.6520
 1460.5000  -999.2500  -999.2500  -999.2500  -999.2500    85.3940     8.9530     6.7390     7.0500   -79.6590     6.5630  -999.2500  -999.2500   -31.8600
 1461.0000  -999.2500  -999.2500  -999.2500  -999.2500    86.8810     8.9510     6.8560     7.0700   -79.6590     6.5810  -999.2500  -999.2500   -31.9540
 1461.5000  -999.2500  -999.2500  -999.2500  -999.2500    89.2720     8.9510     6.8560     7.0890   -79.6590     6.5990  -999.2500  -999.2500   -31.9550
 1462.0000  -999.2500  -999.2500  -999.2500  -999.2500    91.5080     8.9520     6.8560     7.1080   -79.6590     6.6170  -999.2500  -999.2500   -31.9250
 1462.5000  -999.2500  -999.2500  -999.2500  -999.2500    93.0540     8.9550     6.8560     7.1280   -79.6590     6.6350  -999.2500  -999.2500   -31.9110
 1463.0000  -999.2500  -999.2500  -999.2500  -999.2500    93.7510     8.9590     6.8560     7.1470   -79.6590     6.6520  -999.2500  -999.2500   -31.9180
 1463.5000  -999.2500  -999.2500  -999.2500  -999.2500    93.3290     8.9640     6.8560     7.1660   -79.6590     6.6700  -999.2500  -999.2500   -31.9310
 1464.0000  -999.2500  -999.2500  -999.2500  -999.2500    91.5390     8.9690     6.8560     7.1860   -79.6590     6.6880  -999.2500  -999.2500   -31.9360
 1464.5000  -999.2500  -999.2500  -999.2500  -999.2500    88.9320     8.9740     6.8910     7.2050   -79.6590     6.7060  -999.2500  -999.2500   -31.9320
 1465.0000  -999.2500  -999.2500  -999.2500  -999.2500    87.1890     8.9780     6.9370     7.2240   -79.6590     6.7240  -999.2500  -999.2500   -31.9250
 1465.5000  -999.2500  -999.2500  -999.2500  -999.2500    88.1250     8.9830     6.9840     7.2440   -79.6590     6.7420  -999.2500  -999.2500   -31.9200
