~VERSION INFORMATION
 VERS.                2.0:   CWLS LOG ASCII STANDARD - VERSION 2.0
 WRAP.                 NO:   ONE LINE PER DEPTH STEP
~WELL INFORMATION
#MNEM.UNIT      DATA TYPE    INFORMATION
#----------   ------------   ------------------------------
 STRT.F          213.5000:   START DEPTH
 STOP.F         3198.0000:   STOP DEPTH
 STEP.F            0.5000:   STEP LENGTH
 NULL.          -999.2500:   NO VALUE
 COMP.    FENIX & SCISSON:   COMPANY
 WELL.   FENIX "AX" #14-2:   WELL
 FLD .              NPR-3:   FIELD
 LOC .       S2 T38N R78W:   LOCATION
 CNTY.            NATRONA:   COUNTY
 STAT.            WYOMING:   STATE
 CTRY. UNITED STATES OF AMERICA:   COUNTRY
 SRVC.              WELEX:   SERVICE COMPANY
 DATE.        14-MAY-1977:   LOGDATE
 API .     49025103620000:   API NUMBER
~CURVE INFORMATION
#MNEM.UNIT       API CODE    CURVE DESCRIPTION
#----------   ------------   ------------------------------
 DEPT.F                  :   
 GRD .GAPI   45 310 01 00:   GAMMA RAY FROM DENSITY LOG
 CALD.IN     45 280 60 00:   CALIPER FROM DENSITY LOG
 CORR.G/C3   45 356 01 00:   DENSITY CORRECTION
 RHOB.G/C3   45 350 01 00:   BULK DENSITY
 SPR .MV     07 010 01 00:   SPONTANEOUS POTENTIAL FROM RES.
 ILD .OHMM   07 120 46 00:   DEEP INDUCTION RESISTIVITY
 ILM .OHMM   07 120 44 00:   INDUCTION LOG MEDIUM RESISTIVITY
 SGRD.OHMM   07 220 05 00:   SHALLOW SHORT GUARD RESISTIVITY
~PARAMETER INFORMATION
#MNEM.UNIT          VALUE    DESCRIPTION
#----------   ------------   ------------------------------
 EKB .F         5119.0000:   Kelly bushing
 EGL .F         5110.0000:   Ground level
 TD  .F         3200.0000:   Total depth
 CLNT.            A2DTECH:   Client Code
 SL  . 2400' FNL & 150' FWL:   Surface Location
 PD  .                 GL:   Permanent Datum
 EPD .F              5110:   Elevation Permanent Datum
 LMF .                 KB:   Log Measured From
 DMF .                 KB:   Drilling Measured From
 DAPD.F                 9:   Feet Above Permanent Datum
 DATE.        14-MAY-1977:   Date Logged [DD-MMM-YYYY]
 DD  .F              3200:   Depth driller
 DL  .F              3199:   Depth logger
 BLI .F              3197:   Bottom log interval
 TLI .F               217:   Top log interval
 CS1 .IN            8.625:   Casing size
 BS1 .IN            7.875:   Bit size
 BSD1.F              3200:   Depth drilled with bit1
 DFT .            KCL MUD:   Type fluid in hole
 DFD .                8.8:   Density
 TCS .HRS             2.5:   Time Circ. stopped
 MRT .F               130:   Maximum recorded temp.
 ENGI.          T. JOYNER:   Recorded By
 WITN.      W. PETTINGILL:   Witnessed by
 ORIG.           5" PRINT:   Origin of data
 UWI .     49025103620000:   Unique Well ID
 DICO. A2D TECHNOLOGIES, INC.:   Digitizing Company
 DFV .                 31:   Viscosity
 DFPH.                7.5:   pH
 DFL .                6.4:   Fluid loss
 MSS .          FLOW LINE:   Source of sample
 RMS .OHMM            .13:   Rm
 MST .F               62.:   Rm Meas. temp.
 RMF .OHMM            .12:   Rmf
 MFST.F                62:   Rmf Meas. temp.
 MFSS.           FANN KIT:   Source Rmf.
 RMC .OHMM            .28:   Rmc
 MCST.F                62:   Rmc Meas. temp.
 RMB .OHMM            .06:   Rm. at BHT
 BHT .F               130:   BHT.
~OTHER INFORMATION
~A   DEPT      GRD       CALD       CORR       RHOB        SPR        ILD        ILM       SGRD   
# ...
 1590.5000   114.9757     8.2179     0.0142     2.5080   -46.5360     5.9175     6.6639     9.0341
 1591.0000   117.1084     8.2201     0.0174     2.5133   -46.5158     5.8826     6.6688     9.0820
 1591.5000   119.8382     8.2065     0.0190     2.5201   -46.4956     5.9310     6.6737     9.0902
 1592.0000   121.0753     8.2087     0.0206     2.5254   -46.4748     5.9782     6.5868     9.0361
 1592.5000   118.0847     8.2107     0.0192     2.5240   -46.4502     6.0677     6.5021     8.8586
 1593.0000   116.9826     8.2124     0.0178     2.5202   -46.4300     6.1161     6.5069     8.4461
 1593.5000   119.7231     8.2141     0.0149     2.5151   -46.4099     6.1648     8.4151     8.2251
 1594.0000   123.6468     8.2307     0.0106     2.5100   -46.5401     6.1710    10.3675     7.8999
 1594.5000   126.3766     8.2472     0.0047     2.5085   -46.5179     6.1346    11.7536     7.3285
 1595.0000   127.3152     8.2489     0.0003     2.5071   -46.4977     6.0161    13.7949     7.0373
 1595.5000   126.7614     8.2517    -0.0026     2.4997   -46.4775     5.9791    11.2137     6.8990
 1596.0000   123.7766     8.2676    -0.0024     2.4885   -46.4570     6.0282     8.9075     6.7620
 1596.5000   122.4469     8.2693    -0.0039     2.4856   -46.5855     6.2469     7.7258     6.9589
 1597.0000   121.1171     8.2858    -0.0052     2.4865   -46.5603     6.3405     7.3640     7.1108
 1597.5000   119.7874     8.2876    -0.0081     2.4738   -46.3917     6.1735    10.2089     7.1664
 1598.0000   118.3467     8.2892    -0.0065     2.4701   -46.3715     6.0109    11.1775     6.9787
 1598.5000   117.4914     8.2761    -0.0018     2.4762   -46.3514     5.7322     9.6726     6.7945
 1599.0000   116.3375     8.2779    -0.0002     2.4830   -46.3312     5.8268    10.2316     6.6964
 1599.5000   114.5867     8.2801     0.0014     2.4851   -46.3110     6.1572    10.8229     6.6195
 1600.0000   113.1343     8.2818    -0.0015     2.4854   -46.2908     6.3366    11.0584     6.8595
 1600.5000   111.6360     8.2835    -0.0014     2.4847   -46.2706     6.4761    10.3727     7.2055
 1601.0000   111.4237     8.2852    -0.0013     2.4843   -46.3988     6.5277     9.4448     7.6213
 1601.5000   114.1604     8.2717    -0.0011     2.4834   -46.3736     6.5343     8.7867     8.1752
 1602.0000   117.1857     8.2738    -0.0010     2.4819   -46.3534     6.4958     7.8586     8.4102
 1602.5000   118.7084     8.2904    -0.0010     2.4812   -46.3332     6.5024     6.8418     8.7010
 1603.0000   113.9825     8.2773    -0.0011     2.4798   -46.3130     6.3043     6.7525     8.8786
 1603.5000   112.5301     8.2794    -0.0012     2.4784   -46.6021     6.0739     6.7605     9.0351
 1604.0000   113.4759     8.2811    -0.0013     2.4784   -46.5785     5.8692     6.7934     9.0432
 1604.5000   116.2026     8.2676    -0.0014     2.4785   -46.5596     5.7170     6.8679     9.0881
 1605.0000   115.0387     8.2545    -0.0015     2.4786   -46.5407     5.9249     6.9222     9.1278
 1605.5000   113.2979     8.2566    -0.0016     2.4764   -46.5218     6.3115     7.3237     9.1950
 1606.0000   111.5471     8.2435    -0.0018     2.4720   -46.6560     6.4945     7.5368     9.2668
 1606.5000   109.1521     8.2453    -0.0019     2.4780   -46.6324     6.4539     7.2787     9.2749
 1607.0000   106.2644     8.2622    -0.0020     2.4833   -46.7626     6.4150     6.9985     9.2831
 1607.5000   104.2150     8.2639     0.0026     2.4902   -46.7429     6.3764     6.9551     9.2673
 1608.0000   106.3447     8.2657     0.0027     2.4985   -46.7240     6.2942     6.9634     9.1454
 1608.5000   109.3700     8.2663     0.0028     2.5045   -46.5564     6.2575     6.9700     9.0540
 1609.0000   111.7982     8.2667     0.0045     2.4986   -46.5379     6.2631     6.9284     8.8754
 1609.5000   113.0450     8.2236     0.0104     2.4949   -46.6674     6.2687     6.9072     8.6420
 1610.0000   114.8737     8.1640     0.0150     2.4935   -46.6437     6.2744     6.8920     8.4667
 1610.5000   116.7049     8.1086     0.0151     2.4943   -46.6248     6.2800     6.8700     8.4213
 1611.0000   119.1332     8.1101     0.0152     2.4959   -46.6059     6.2857     6.8111     8.4306
 1611.5000   118.2778     8.0965     0.0137     2.4982   -46.7401     6.2917     6.8170     8.4380
 1612.0000   115.9300     8.0985     0.0093     2.4998   -46.8696     6.2977     6.7869     8.5031
 1612.5000   113.2836     8.1148     0.0064     2.4961   -46.8460     6.3033     6.7843     8.5113
 1613.0000   114.9132     8.1164     0.0034     2.4924   -46.8271     6.2639     6.7429     8.5183
 1613.5000   117.5531     8.1184     0.0020     2.4872   -46.8082     6.2705     6.7039     8.4673
 1614.0000   119.9813     8.1049    -0.0009     2.4813   -46.7893     6.2768     6.6632     8.4750
 1614.5000   113.4544     8.1067    -0.0023     2.4806   -46.6217     6.2819     6.6235     8.3661
 1615.0000   112.2905     8.1083    -0.0038     2.4874   -46.6032     6.3311     6.6309     8.3161
 1615.5000   114.1318     8.1098    -0.0052     2.4890   -46.7326     6.3368     6.6377     8.2809
 1616.0000   117.8274     8.1262    -0.0051     2.4823   -46.7090     6.3432     6.5986     8.2737
 1616.5000   121.3763     8.1282    -0.0050     2.4854   -46.8432     6.3483     6.6043     8.2822
 1617.0000   119.3370     8.1297    -0.0034     2.4899   -46.8196     6.3540     6.6111     8.2886
 1617.5000   116.9891     8.1461    -0.0004     2.4945   -46.9538     6.3597     6.6171     8.4060
 1618.0000   114.3427     8.1476     0.0072     2.4998   -46.9302     6.3654     6.6232     8.7152
 1618.5000   112.2933     8.1492     0.0133     2.5029   -46.9113     6.4154     6.5837     9.0293
 1619.0000   108.4462     8.1508     0.0166     2.5104   -47.0415     6.4212     6.5915     9.4405
 1619.5000   108.1970     8.1673     0.0195     2.5135   -47.0219     6.4495     6.5970     9.7588
 1620.0000   108.8558     8.1692     0.0165     2.5106   -47.0030     6.5226     6.6040     9.6959
 1620.5000   110.3779     8.1705     0.0106     2.5046   -46.9837     6.5401     6.6562     9.3642
 1621.0000   111.6121     8.1723     0.0062     2.4986   -46.9644     6.5814     6.7089     8.9837
 1621.5000   111.9508     8.1739     0.0002     2.4891   -46.9416     6.6325     6.9520     8.5910
 1622.0000   113.1850     8.1754    -0.0043     2.4816   -46.9227     6.6373     7.6147     8.3644
 1622.5000   115.3148     8.1770    -0.0086     2.4750   -46.9038     6.6442     8.1746     8.2001
 1623.0000   117.1460     8.1790    -0.0101     2.4713   -46.8872     6.6500     8.6600     8.0766
 1623.5000   114.5097     8.1805    -0.0100     2.4736   -46.8660     6.6559     9.1463     7.9890
 1624.0000   116.0424     8.1821    -0.0054     2.4782   -47.0002     6.6618     9.4123     7.9977
 1624.5000   117.8736     8.1837    -0.0023     2.4865   -47.1297     6.6212     9.6861     8.2289
 1625.0000   117.3168     8.1853     0.0008     2.4895   -47.2552     6.5438     9.9678     8.6439
 1625.5000   116.7499     8.1868     0.0023     2.4873   -47.2355     6.4075    10.0466     8.9794
 1626.0000   119.4867     8.1884     0.0024     2.4874   -47.2166     6.2813     8.9385     9.3444
 1626.5000   117.3514     8.2052     0.0010     2.4890   -47.1973     6.2435     7.3689     9.4906
 1627.0000   114.2040     8.2212     0.0056     2.4935   -47.1780     6.2492     6.7873     9.6896
 1627.5000   111.8561     8.2079     0.0176     2.5044   -47.3036     6.2559     6.5624     9.7653
 1628.0000   113.0903     8.2185     0.0237     2.5154   -47.2847     6.2605     6.4774     9.7045
 1628.5000   116.4141     8.2262     0.0268     2.5192   -47.4189     6.2661     6.4398     9.3391
 1629.0000   120.0364     8.2279     0.0299     2.5170   -47.5436     6.2291     6.4472     8.7067
 1629.5000   120.6736     8.2295     0.0300     2.5141   -47.5247     6.2341     6.4523     8.3351
 1630.0000   117.4402     8.2313     0.0300     2.5179   -47.6589     6.2401     6.4585     8.0840
 1630.5000   115.0923     8.2329     0.0301     2.5165   -47.6353     6.2456     6.4648     7.8701
