~VERSION INFORMATION
 VERS.                2.0:   CWLS LOG ASCII STANDARD - VERSION 2.0
 WRAP.                 NO:   ONE LINE PER DEPTH STEP
~WELL INFORMATION
#MNEM.UNIT      DATA TYPE    INFORMATION
#----------   ------------   ------------------------------
 STRT.F         1053.5000:   START DEPTH
 STOP.F         3062.0000:   STOP DEPTH
 STEP.F            0.5000:   STEP LENGTH
 NULL.          -999.2500:   NO VALUE
 COMP.    FENIX & SCISSON:   COMPANY
 WELL.  FENIX "A" #301-11:   WELL
 FLD .              NPR-3:   FIELD
 LOC .      S11 T38N R78W:   LOCATION
 CNTY.            NATRONA:   COUNTY
 STAT.            WYOMING:   STATE
 CTRY. UNITED STATES OF AMERICA:   COUNTRY
 SRVC.      NL MCCULLOUGH:   SERVICE COMPANY
 DATE.        13-OCT-1977:   LOGDATE
 API .     49025104410000:   API NUMBER
~CURVE INFORMATION
#MNEM.UNIT       API CODE    CURVE DESCRIPTION
#----------   ------------   ------------------------------
 DEPT.F                  :   
 GR  .GAPI   35 310 01 00:   GAMMA RAY
 NEUT.NAPI   35 330 01 00:   NEUTRON
~PARAMETER INFORMATION
#MNEM.UNIT          VALUE    DESCRIPTION
#----------   ------------   ------------------------------
 EDF .F         5165.0000:   Drilling floor
 TD  .F         3097.0000:   Total depth
 CLNT.            A2DTECH:   Client Code
 PD  .                 DF:   Permanent Datum
 EPD .F              5165:   Elevation Permanent Datum
 LMF .                 GL:   Log Measured From
 DMF .                 DF:   Drilling Measured From
 DATE.        13-OCT-1977:   Date Logged [DD-MMM-YYYY]
 DD  .F              3097:   Depth driller
 BLI .F              3060:   Bottom log interval
 TLI .F              1060:   Top log interval
 BSD1.F              3097:   Depth drilled with bit1
 DFT .              WATER:   Type fluid in hole
 ENGI.            MUNDELL:   Recorded By
 ORIG.           5" PRINT:   Origin of data
 UWI .     49025104410000:   Unique Well ID
 DICO. A2D TECHNOLOGIES, INC.:   Digitizing Company
~OTHER INFORMATION
~A  DEPT         GR      NEUT   
 1053.5000    46.1275  -999.2500
 1054.0000    46.5996  -999.2500
 1054.5000    46.9150  -999.2500
 1055.0000    47.2307  -999.2500
 1055.5000    47.3894  -999.2500
 1056.0000    47.7042  -999.2500
 1056.5000    44.7290  -999.2500
 1057.0000    43.3204  -999.2500
 1057.5000    42.2253  -999.2500
 1058.0000    41.1120  -999.2500
 1058.5000    41.6027   157.2069
 1059.0000    41.6046   156.6268
 1059.5000    40.9791   158.8508
 1060.0000    40.3546   161.6337
 1060.5000    40.0426   161.6283
 1061.0000    40.8286   162.1806
 1061.5000    42.2409   162.7328
 1062.0000    41.9294   169.9769
 1062.5000    42.7153   172.8063
 1063.0000    45.0680   173.8696
 1063.5000    45.5400   174.9782
 1064.0000    45.8553   178.8777
 1064.5000    46.0139   169.9486
 1065.0000    46.0158   168.8279
 1065.5000    46.0182   168.8767
 1066.0000    45.7062   169.9324
 1066.5000    45.3951   171.0423
 1067.0000    45.3970   168.8063
 1067.5000    45.5556   174.3760
 1068.0000    45.5575   181.0638
 1068.5000    45.8729   168.2311
 1069.0000    45.8748   165.4375
 1069.5000    45.7199   164.8745
 1070.0000    45.5651   167.1738
 1070.5000    45.4108   165.9776
 1071.0000    45.4126   166.5312
 1071.5000    45.4145   169.8704
 1072.0000    45.4164   180.4603
 1072.5000    45.2616   174.3208
 1073.0000    45.4207   167.6236
 1073.5000    48.2435   168.7335
 1074.0000    48.5588   169.8434
 1074.5000    48.2473   167.6061
 1075.0000    47.9357   166.4854
 1075.5000    47.9376   167.5953
 1076.0000    47.1246   178.7429
 1076.5000    45.4340   186.5446
 1077.0000    45.7498   185.3974
 1077.5000    47.3188   185.4185
 1078.0000    47.7909   188.7576
 1078.5000    47.4793   176.4840
 1079.0000    47.4642   173.6903
 1079.5000    47.9533   170.8967
 1080.0000    47.9552   168.6607
 1080.5000    47.4869   168.6463
 1081.0000    47.8027   161.8801
 1081.5000    47.9613   167.5279
 1082.0000    46.0826   170.8697
 1082.5000    45.6142   160.8253
 1083.0000    46.0864   160.8199
 1083.5000    46.5787   163.0465
 1084.0000    46.8742   164.7127
 1084.5000    47.3463   164.1495
 1085.0000    47.9750   164.1429
 1085.5000    48.6038   163.5799
 1086.0000    49.2325   161.9015
 1086.5000    49.7046   159.1079
 1087.0000    50.6753   157.9872
 1087.5000    51.2755   159.0971
 1088.0000    48.6137   161.3223
 1088.5000    47.9888   160.7579
 1089.0000    47.5205   159.6372
 1089.5000    46.4254   160.7471
 1090.0000    44.8601   161.8584
 1090.5000    44.8620   158.5057
 1091.0000    44.8644   157.8725
 1091.5000    44.8663   159.6159
 1092.0000    46.7488   161.9986
 1092.5000    48.4745   162.9454
 1093.0000    48.0063   160.7080
 1093.5000    47.6947   161.8193
 1094.0000    47.5399   164.0431
 1094.5000    48.0121   165.1533
 1095.0000    47.7009   167.3783
 1095.5000    47.5456   169.6035
 1096.0000    48.0181   180.1920
 1096.5000    45.5125   182.9762
 1097.0000    44.2606   177.3930
 1097.5000    43.3223   172.3688
 1098.0000    44.2829   167.3446
 1098.5000    44.8937   167.2964
 1099.0000    44.8956   157.7540
 1099.5000    43.1736   153.9435
 1100.0000    42.3915   161.1875
 1100.5000    42.0804   162.8551
 1101.0000    40.5151   163.4073
 1101.5000    40.3603   165.0749
 1102.0000    42.5562   172.3189
 1102.5000    42.0880   171.1712
 1103.0000    42.7172   169.5197
 1103.5000    43.3460   171.7437
 1104.0000    43.8180   175.0842
 1104.5000    44.2901   177.3108
 1105.0000    44.3196   177.8630
 1105.5000    43.6973   177.2988
 1106.0000    43.3883   165.0250
 1106.5000    44.1775   164.4608
 1107.0000    44.4955   137.1306
 1107.5000    44.9701   129.8759
 1108.0000    44.9746   119.2752
 1108.5000    42.4245   120.3852
 1109.0000    39.8131   120.0446
 1109.5000    40.1310   115.3556
 1110.0000    43.1131   119.8101
 1110.5000    43.7445   123.1507
 1111.0000    41.2415   115.8959
 1111.5000    39.2998   109.1988
 1112.0000    38.7431   115.8852
 1112.5000    40.1591   115.8785
 1113.0000    39.3801   110.8544
 1113.5000    38.8922   109.1774
 1114.0000    39.8655   115.3048
 1114.5000    41.2753   114.1694
 1115.0000    42.3768   119.1964
 1115.5000    42.2234   122.5369
 1116.0000    43.7962   137.5881
 1116.5000    45.8381   138.1417
 1117.0000    47.7795   136.4621
 1117.5000    48.9825   135.8991
 1118.0000    49.1437   142.5842
 1118.5000    48.9904   138.6753
 1119.0000    48.9709   140.3429
 1119.5000    49.4706   143.6848
 1120.0000    48.8483   144.7934
 1120.5000    50.1076   145.9034
 1121.0000    50.2689   142.5508
 1121.5000    50.7435   143.6608
 1122.0000    50.5440   147.0027
 1122.5000    49.1541   141.9771
 1123.0000    47.7805   140.2988
 1123.5000    47.9417   139.7356
 1124.0000    48.7298   140.2881
 1124.5000    48.8899   141.3968
 1125.0000    45.7612   146.9679
 1125.5000    41.8489   151.4238
 1126.0000    43.1071   152.5416
 1126.5000    45.9325   160.3341
 1127.0000    46.5628   164.7899
 1127.5000    45.6280   167.0165
 1128.0000    45.9460   164.7793
 1128.5000    43.9143   166.4470
 1129.0000    43.2920   166.4414
 1129.5000    43.4532   159.1854
 1130.0000    45.1816   151.3730
 1130.5000    44.0891   153.5996
 1131.0000    43.3100   153.5929
 1131.5000    43.0010   153.5875
 1132.0000    43.9470   153.4786
 1132.5000    44.7350   151.3449
 1133.0000    42.7022   153.5715
 1133.5000    41.2775   156.9107
 1134.0000    41.6153   164.7124
 1134.5000    41.4620   166.3801
 1135.0000    40.8407   155.4093
 1135.5000    40.8452   147.9656
 1136.0000    41.7900   153.5368
 1136.5000    43.9888   153.5314
 1137.0000    42.8972   152.4108
 1137.5000    42.1181   147.9442
 1138.0000    41.4946   149.0529
 1138.5000    44.7913   151.2781
 1139.0000    45.2659   142.3504
 1139.5000    45.1137   141.2297
 1140.0000    46.6865   140.6667
 1140.5000    47.6313   138.9884
 1141.0000    47.7925   140.0971
 1141.5000    45.7597   151.2447
 1142.0000    45.1373   161.2784
 1142.5000    46.0832   160.1564
 1143.0000    46.8713   157.3628
 1143.5000    47.1881   152.7616
 1144.0000    45.9398   147.8707
 1144.5000    48.9252   146.7501
 1145.0000    47.8307   147.8601
 1145.5000    46.1114   148.9713
 1146.0000    42.6681   149.5223
 1146.5000    40.9476   150.1415
 1147.0000    42.9905   151.1846
 1147.5000    43.6690   151.1779
 1148.0000    45.5081   152.2878
 1148.5000    46.6096   155.6284
 1149.0000    47.3977   165.1031
 1149.5000    44.7380   164.3614
 1150.0000    44.5858   160.6299
 1150.5000    46.0019   165.0857
 1151.0000    47.1034   176.7923
 1151.5000    48.5184   167.8633
 1152.0000    50.7043   171.2185
 1152.5000    51.6457   173.4290
 1153.0000    48.5133   172.3071
 1153.5000    47.8876   169.5135
 1154.0000    47.7327   168.3929
 1154.5000    48.2098   161.1381
 1155.0000    50.0085   156.6345
 1155.5000    51.9690   157.7801
 1156.0000    51.6571   160.0054
 1156.5000    51.1881   161.1154
 1157.0000    51.9731   159.9947
 1157.5000    51.3482   157.7588
 1158.0000    51.6631   161.5762
 1158.5000    51.8217   174.3813
 1159.0000    51.3531   177.7191
 1159.5000    49.3173   176.5904
 1160.0000    47.2815   176.5795
 1160.5000    47.2830   172.1051
 1161.0000    47.2845   169.8637
 1161.5000    46.0139   168.7377
 1162.0000    45.5640   168.7270
 1162.5000    44.1551   166.4856
 1163.0000    41.8055   165.3596
 1163.5000    41.9637   165.3484
 1164.0000    39.9282   170.9119
 1164.5000    40.3999   163.0941
 1165.0000    39.1217   158.6221
 1165.5000    38.5227   155.8232
 1166.0000    39.1511   157.5897
 1166.5000    40.4063   155.2439
 1167.0000    41.3481   155.2306
 1167.5000    41.6631   155.2198
 1168.0000    39.9304   167.4774
 1168.5000    39.1586   173.0458
 1169.0000    39.1605   160.7641
 1169.5000    39.7889   160.7534
 1170.0000    41.0442   170.4105
 1170.5000    42.2994   179.6920
 1171.0000    42.1442   170.7561
 1171.5000    41.8323   165.1689
 1172.0000    42.6177   165.1582
 1172.5000    41.6790   163.4745
 1173.0000    41.9939   147.7596
 1173.5000    42.9357   145.6056
 1174.0000    44.6611   152.8443
 1174.5000    45.4462   158.4100
