~VERSION INFORMATION
 VERS.                2.0:   CWLS LOG ASCII STANDARD - VERSION 2.0
 WRAP.                 NO:   ONE LINE PER DEPTH STEP
~WELL INFORMATION
#MNEM.UNIT      DATA TYPE    INFORMATION
#----------   ------------   ------------------------------
 STRT.F           22.5000:   START DEPTH
 STOP.F         4120.0000:   STOP DEPTH
 STEP.F            0.5000:   STEP LENGTH
 NULL.          -999.2500:   NO VALUE
 COMP. LAWRENCE ALLISON & ASSOCIATES:   COMPANY
 WELL. LAWRENCE-ALLISON SHX #37-10:   WELL
 FLD .              N P R:   FIELD
 LOC .      S10 T38N R78W:   LOCATION
 CNTY.            NATRONA:   COUNTY
 STAT.            WYOMING:   STATE
 CTRY. UNITED STATES OF AMERICA:   COUNTRY
 SRVC.      DRESSER ATLAS:   SERVICE COMPANY
 DATE.        29-JUN-1983:   LOGDATE
 API .     49025107370001:   API NUMBER
~CURVE INFORMATION
#MNEM.UNIT       API CODE    CURVE DESCRIPTION
#----------   ------------   ------------------------------
 DEPT.F                  :   
 TEND.LBS    45 635 01 00:   TENSION FROM DENSITY LOG
 CORR.G/C3   45 356 01 00:   DENSITY CORRECTION
 NPHI.DEC    42 890 03 00:   NEUTRON POROSITY SANDSTONE
 CALD.IN     45 280 60 00:   CALIPER FROM DENSITY LOG
 GRR .GAPI   07 310 01 00:   GAMMA RAY FROM RESISTIVITY
 SPR .MV     07 010 01 00:   SPONTANEOUS POTENTIAL
 TENR.LBS    07 635 01 00:   TENSION FROM RESISTIVITY
 RILD.OHMM   07 120 46 00:   DEEP INDUCTION RESISTIVITY
 RILM.OHMM   07 120 44 00:   INDUCTION LOG MEDIUM RESISTIVITY
 RFOC.OHMM   07 220 04 00:   RESISTIVITY FOCUSED LOG RES.
 RHOB.G/C3   45 350 01 00:   BULK DENSITY
~PARAMETER INFORMATION
#MNEM.UNIT          VALUE    DESCRIPTION
#----------   ------------   ------------------------------
 EKB .F         5228.0000:   Kelly bushing
 EGL .F         5218.0000:   Ground level
 EDF .F            0.0000:   Drilling floor
 EPD .F         5218.0000:   Permanent datum
 TD  .F         4125.0000:   Total depth
 DATE.        29-JUN-1983:   Date logged
 CLNT.            A2DTECH:   Client Code
 SL  . 984' FWL & 1620' FEL:   Surface Location
 PD  .                 GL:   Permanent Datum
 DD  .F              4125:   Depth driller
 DL  .F              4107:   Depth logger
 BLI .F              4105:   Bottom log interval
 CS1 .IN              4.5:   Casing size
 CBD1.       4.5" @ 2213':   Casing driller 1
 CBL1.F              2213:   Casing logger 1
 BS1 .IN             6.25:   Bit size
 DFT .                KCL:   Type fluid in hole
 DFD .                8.8:   Density
 DFV .                 45:   Viscosity
 DFPH.                  9:   pH
 DFL .               10.8:   Fluid loss
 MSS .            MUDTANK:   Source of sample
 RMS .OHMM            .44:   Rm
 MST .F               108:   Rm Meas. temp.
 RMF .OHMM            .37:   Rmf
 MFST.F               108:   Rmf Meas. temp.
 RMC .OHMM            .55:   Rmc
 MCST.F               108:   Rmc Meas. temp.
 MFSS.               MEAS:   Source Rmf.
 RMB .OHMM            .36:   Rm. at BHT
 BHT .F               126:   BHT.
 TCS .HRS               2:   Time Circ. stopped
 MRT .F               126:   Maximum recorded temp.
 LUN .               6343:   Logging unit number
 LUL .                 FM:   Logging unit location
 ENGI.          I. GOVETT:   Recorded By
 WITN.          G. STRONG:   Witnessed by
 ORIG.     2.5", 5" PRINT:   Origin of data
 UWI .     49025107370001:   Unique Well ID
 DICO. A2D TECHNOLOGIES, INC.:   Digitizing Company
 DAPD.                 10:   Feet Above Permanent Datum
 BSD1.               4125:   Depth drilled with bit1
 MCSS.               CALC:   Source Rmc.
 TLI .               2213:   Top log interval
~OTHER INFORMATION
~A   DEPT     TEND       CORR       NPHI       CALD         GRR       SPR       TENR       RILD       RILM       RFOC       RHOB   
# ...
 3225.0000     0.0000     0.1220     0.2030     7.2340   140.7030   -41.9440     4.9500     2.3710     3.1260     4.2230     2.5450
 3225.5000     0.0000     0.0970     0.1920     7.2410   121.8990   -41.9260     4.9500     2.6980     3.2770     5.3340     2.5450
 3226.0000     0.0000     0.0810     0.1780     7.2470   123.3130   -41.0370     4.9500     3.0990     3.4440     4.9450     2.5380
 3226.5000     0.0000     0.0800     0.1830     7.2540   125.1660   -39.4580     4.9500     3.5000     3.6460     4.3550     2.5310
 3227.0000     0.0000     0.0800     0.1940     7.2610   127.1790   -38.0950     4.9500     3.7760     3.8620     4.3670     2.5280
 3227.5000     0.0000     0.0800     0.2050     7.2640   129.1930   -37.8960     4.9500     3.9380     4.0770     4.3800     2.5290
 3228.0000     0.0110     0.0780     0.2040     7.2640   131.1980   -37.7050     4.9500     4.1000     4.2930     4.3930     2.5320
 3228.5000     0.1610     0.0760     0.1950     7.2640   133.1550   -37.5110     4.9500     4.2650     4.5080     4.7360     2.5340
 3229.0000     0.3120     0.0750     0.1840     7.2640   130.8330   -37.3170     4.9500     4.4500     4.7420     5.3530     2.5370
 3229.5000     0.4620     0.0730     0.1730     7.2640   123.9190   -37.1230     4.9500     4.6340     5.2360     6.2780     2.5320
 3230.0000     0.6130     0.0790     0.1640     7.2640   118.1800   -36.9290     4.9500     4.8190     5.1880     5.9990     2.5210
 3230.5000     0.7630     0.0830     0.1580     7.2640   119.2380   -36.7350     4.9500     5.0030     5.1880     5.0470     2.5160
 3231.0000     0.9140     0.0860     0.1570     7.2640   118.9560   -36.5840     4.9500     5.1880     5.1880     5.2570     2.5270
 3231.5000     1.0640     0.0540     0.1600     7.2640   114.2330   -36.4350     4.9500     5.1590     5.1780     5.7910     2.5380
 3232.0000     1.2150     0.0570     0.1620     7.2640   109.6050   -36.2840     4.9500     5.1300     5.1650     6.4820     2.5520
 3232.5000     1.3650     0.0590     0.1600     7.2640   105.9400   -36.1450     4.9500     5.1000     5.1510     6.2660     2.5650
 3233.0000     1.5160     0.0650     0.1610     7.2640   106.6010   -36.2300     4.9500     5.0710     5.1380     5.8350     2.5670
 3233.5000     1.6660     0.0720     0.1630     7.2640   107.1540   -36.3220     4.9500     5.0410     5.1250     5.4040     2.5680
 3234.0000     1.8170     0.0820     0.1660     7.2640   107.6940   -36.4130     4.9500     5.0120     5.1120     4.8640     2.5690
 3234.5000     1.9670     0.0930     0.1680     7.2640   108.2350   -36.5040     4.9500     4.9820     5.0990     5.0200     2.5710
 3235.0000     2.1180     0.1020     0.1710     7.2640   108.3080   -36.6980     4.9500     4.9530     5.0850     5.3300     2.5670
 3235.5000     2.2680     0.1110     0.1730     7.2640   108.3680   -36.9480     4.9500     4.9230     5.0720     5.7420     2.5590
 3236.0000     2.4190     0.0920     0.1750     7.2640   109.6150   -37.1970     4.9500     4.8940     5.0590     5.6010     2.5560
 3236.5000     2.5690     0.0730     0.1720     7.2640   110.8500   -37.4470     4.9500     4.8640     5.0470     5.3910     2.5580
 3237.0000     2.7200     0.0570     0.1680     7.2640   111.7110   -37.6940     4.9500     4.8350     4.9390     5.1820     2.5600
 3237.5000     2.8700     0.0650     0.1640     7.2640   112.1800   -37.7230     4.9500     4.7660     4.8400     4.9090     2.5680
 3238.0000     3.0210     0.0710     0.1630     7.2640   112.6530   -37.7260     4.9500     4.6560     4.7320     4.9470     2.5740
 3238.5000     3.1710     0.0780     0.1610     7.2640   113.2210   -37.7510     4.9500     4.5070     4.5490     5.0000     2.5810
 3239.0000     3.3220     0.0860     0.1660     7.2630   114.6640   -37.7770     5.2710     4.3200     4.3470     5.0400     2.5830
 3239.5000     3.4720     0.0960     0.1750     7.2610   119.4680   -37.8020     5.8870     4.1340     4.1460     4.8220     2.5690
 3240.0000     3.6230     0.1070     0.1830     7.2600   122.9820   -37.8280     6.5030     3.9360     3.9950     4.5450     2.5520
 3240.5000     3.7730     0.1070     0.1880     7.2590   122.7510   -37.8540     7.1190     3.9790     4.1790     4.1190     2.5340
 3241.0000     3.9240     0.0890     0.1810     7.2570   122.5970   -37.8790     7.7350     4.0260     4.3610     3.6930     2.5310
 3241.5000     4.0740     0.0810     0.1750     7.2560   121.4460   -37.9040     8.3510     4.1190     4.5420     3.5890     2.5380
 3242.0000     4.2250     0.0870     0.1670     7.2540   120.1780   -37.8640     8.9670     4.2480     4.7240     4.3550     2.5440
 3242.5000     4.3750     0.0890     0.1660     7.2530   120.2300   -37.7050     9.5830     4.3780     4.9090     5.1490     2.5460
 3243.0000     4.5260     0.0890     0.1640     7.2510   120.0690   -37.5480    10.1990     4.5080     4.9430     5.8330     2.5480
 3243.5000     4.6760     0.0540     0.1630     7.2500   115.0960   -37.3890    10.8150     4.6840     4.9850     5.9380     2.5490
 3244.0000     4.8270     0.0540     0.1630     7.2490   109.8560   -37.3280    11.4310     4.8940     5.0280     5.7670     2.5510
 3244.5000     4.9770     0.0520     0.1630     7.2470   104.7800   -37.3270    12.0470     5.1030     5.0710     5.6300     2.5530
 3245.0000     5.1280     0.0530     0.1640     7.2460   107.3600   -37.3270    12.6630     5.3120     5.1130     5.4940     2.5580
 3245.5000     5.2780     0.0550     0.1650     7.2440   110.5770   -37.3270    13.2800     5.4410     5.1560     5.3340     2.5660
 3246.0000     5.4290     0.0630     0.1660     7.2430   113.7790   -37.3270    13.8960     5.4610     5.2360     5.3860     2.5710
 3246.5000     5.5790     0.0710     0.1640     7.2420   116.2990   -37.3270    14.5120     5.4800     5.2860     5.4490     2.5690
 3247.0000     5.7300     0.0760     0.1600     7.2400   115.5800   -37.3270    14.7070     5.5000     5.3450     5.5120     2.5680
 3247.5000     5.8800     0.0710     0.1610     7.2390   114.0450   -37.3270    14.3850     5.5200     5.4040     5.5570     2.5720
 3248.0000     6.0310     0.0670     0.1640     7.2370   108.8490   -37.3270    14.0630     5.5950     5.4640     5.7470     2.5810
 3248.5000     6.1810     0.0620     0.1650     7.2360   103.8130   -37.3270    13.7420     5.8230     5.6480     6.0970     2.5940
 3249.0000     6.3320     0.0670     0.1610     7.2340   107.9690   -37.3260    13.4200     6.0520     5.8900     6.4470     2.6070
 3249.5000     6.4820     0.0790     0.1550     7.2330   112.3460   -37.3270    13.0980     6.2810     6.1330     6.7960     2.6200
 3250.0000     6.6330     0.0910     0.1490     7.2320   112.0480   -37.4110    12.7760     6.5090     6.3750     6.9030     2.6230
 3250.5000     6.7830     0.1020     0.1450     7.2300   110.3350   -37.5060    12.4540     6.7150     6.5920     6.9030     2.6180
 3251.0000     6.9340     0.1140     0.1490     7.2290   111.6930   -37.6010    12.1320     6.4160     6.6530     6.9030     2.6140
 3251.5000     7.0840     0.1250     0.1510     7.2270   114.4220   -37.6980    11.8110     6.1450     6.4770     6.7650     2.6100
 3252.0000     7.2350     0.1370     0.1550     7.2260   117.1450   -37.7320    11.4890     5.8460     6.1010     6.5690     2.6060
 3252.5000     7.3850     0.1440     0.1630     7.2250   119.8800   -37.7460    11.1670     5.4850     5.7250     6.3730     2.5970
 3253.0000     7.5360     0.1250     0.1720     7.2280   122.6580   -37.7590    10.8450     5.1240     5.3480     6.0930     2.5800
 3253.5000     7.6860     0.0960     0.1810     7.2320   124.4690   -37.7730    10.5230     4.7320     4.9720     5.6290     2.5630
 3254.0000     7.8370     0.0740     0.1910     7.2370   126.0070   -37.7860    10.2010     4.6160     4.7920     5.1650     2.5530
 3254.5000     7.9870     0.0870     0.1950     7.2410   127.1980   -37.8000     9.8800     4.4880     4.6910     4.4770     2.5480
 3255.0000     8.1380     0.0980     0.1890     7.2450   126.2780   -37.8130     9.5580     4.3610     4.5900     4.5690     2.5430
