~VERSION INFORMATION
 VERS.                2.0:   CWLS LOG ASCII STANDARD - VERSION 2.0
 WRAP.                 NO:   ONE LINE PER DEPTH STEP
~WELL INFORMATION
#MNEM.UNIT      DATA TYPE    INFORMATION
#----------   ------------   ------------------------------
 STRT.F          545.0000:   START DEPTH
 STOP.F         3193.0000:   STOP DEPTH
 STEP.F            0.5000:   STEP LENGTH
 NULL.          -999.2500:   NO VALUE
 COMP. FENIX & SCISSON-U.S. NAVY:   COMPANY
 WELL.   FENIX "A" #47-34:   WELL
 FLD .          N.P.R. #3:   FIELD
 LOC .      S34 T39N R78W:   LOCATION
 CNTY.            NATRONA:   COUNTY
 STAT.            WYOMING:   STATE
 CTRY. UNITED STATES OF AMERICA:   COUNTRY
 SRVC.       SCHLUMBERGER:   SERVICE COMPANY
 DATE.        26-MAR-1977:   LOGDATE
 API .     49025103260000:   API NUMBER
~CURVE INFORMATION
#MNEM.UNIT       API CODE    CURVE DESCRIPTION
#----------   ------------   ------------------------------
 DEPT.F                  :   
 SPR .MV     07 010 01 00:   SPONTANEOUS POTENTIAL FROM RES.
 ILM .OHMM   07 120 44 00:   INDUCTION LOG MEDIUM RESISTIVITY
 ILD .OHMM   07 120 46 00:   DEEP INDUCTION RESISTIVITY
 LL8 .OHMM   07 220 08 00:   LATEROLOG-8 RES.
 CALD.IN     45 280 60 00:   CALIPER FROM DENSITY LOG
 GRD .GAPI   45 310 01 00:   GAMMA RAY FROM DENSITY LOG
 RHOB.G/C3   45 350 01 00:   BULK DENSITY
 CORR.G/C3   45 356 01 00:   DENSITY CORRECTION
~PARAMETER INFORMATION
#MNEM.UNIT          VALUE    DESCRIPTION
#----------   ------------   ------------------------------
 EKB .F         5144.0000:   Kelly bushing
 EGL .F         5132.0000:   Ground level
 TD  .F         3194.0000:   Total depth
 CLNT.            A2DTECH:   Client Code
 SL  . 2310' FWL & 990' FSL:   Surface Location
 PD  .                 GL:   Permanent Datum
 EPD .F              5132:   Elevation Permanent Datum
 LMF .                 KB:   Log Measured From
 DMF .                 KB:   Drilling Measured From
 DAPD.F                12:   Feet Above Permanent Datum
 DATE.        26-MAR-1977:   Date Logged [DD-MMM-YYYY]
 DD  .F              3188:   Depth driller
 DL  .F              3194:   Depth logger
 BLI .F              3188:   Bottom log interval
 TLI .F               564:   Top log interval
 CS1 .IN            8.625:   Casing size
 CBD1.      8.625" @ 570':   Casing driller 1
 CBL1.F               564:   Casing logger 1
 BS1 .IN            7.875:   Bit size
 BSD1.F              3188:   Depth drilled with bit1
 DFT .                KCL:   Type fluid in hole
 DFD .                9.2:   Density
 DFV .                 30:   Viscosity
 DFL .                9.2:   Fluid loss
 MSS .                PIT:   Source of sample
 RMS .OHMM          0.354:   Rm
 MST .F                70:   Rm Meas. temp.
 RMF .OHMM          0.326:   Rmf
 MFST.F                70:   Rmf Meas. temp.
 MFSS.               MEAS:   Source Rmf.
 RMC .OHMM          0.531:   Rmc
 MCST.F                70:   Rmc Meas. temp.
 MCSS.               CALC:   Source Rmc.
 RMB .OHMM          0.205:   Rm. at BHT
 BHT .F               121:   BHT.
 TLAB.HRS            1900:   Time logger at bottom
 MRT .F               121:   Maximum recorded temp.
 LUN .               5642:   Logging unit number
 LUL .               CSPR:   Logging unit location
 ENGI.             MARTIN:   Recorded By
 WITN.         PETTINGILL:   Witnessed by
 ORIG.           5" PRINT:   Origin of data
 UWI .     49025103260000:   Unique Well ID
 DICO. A2D TECHNOLOGIES, INC.:   Digitizing Company
~OTHER INFORMATION
~A   DEPT      SPR        ILM        ILD        LL8       CALD         GRD      RHOB       CORR   
# ...
 2084.0000   -64.5825     9.4404     8.1946    14.8964     8.0652   184.0921     2.5180     0.0460
 2084.5000   -64.4083     9.4486     8.2119    16.6491     8.0652   181.7056     2.5091     0.0220
 2085.0000   -64.0903     9.4569     8.2644    20.4965     8.0652   169.0974     2.5092     0.0283
 2085.5000   -64.0695     9.5988     8.3010    21.6771     8.0652   160.5011     2.5048     0.0322
 2086.0000   -63.9001     9.6738     8.3944    20.5280     8.0652   156.8082     2.4997     0.0223
 2086.5000   -63.8793     9.7493     8.4160    21.1231     8.0652   159.2074     2.4960     0.0154
 2087.0000   -64.0071     9.8935     8.4660    21.4332     8.0652   162.6467     2.4946     0.0201
 2087.5000   -63.9859    10.0399     8.5048    21.4497     8.0652   163.7032     2.5000     0.0264
 2088.0000   -63.9603    10.0486     8.5379    21.6149     8.0652   157.7869     2.4881     0.0062
 2088.5000   -64.0881    10.2001     8.5451    22.3913     8.0652   154.5398     2.4965     0.0090
 2089.0000   -64.0673    10.3504     8.4912    23.3712     8.0652   151.7296     2.5026     0.0189
 2089.5000   -64.3437    10.4312     8.4419    24.8457     8.0652   147.3043     2.4989     0.0236
 2090.0000   -64.3229    10.2969     8.4489    21.2410     8.0652   144.6515     2.4968     0.0260
 2090.5000   -64.3024    10.0249     8.4566    20.5360     8.0652   143.6332     2.5074     0.0268
 2091.0000   -64.2808     9.8938     8.4639    20.4065     8.0652   143.5064     2.5128     0.0285
 2091.5000   -64.2553     9.9045     8.4454    20.0074     8.0652   145.5213     2.5038     0.0239
 2092.0000   -64.3831     9.9132     8.4181    19.6117     8.0652   148.1617     2.4978     0.0162
 2092.5000   -64.3623     9.9239     8.3685    21.9198     8.0652   150.1152     2.4856     0.0116
 2093.0000   -64.3415     9.8619     8.3746    22.8650     8.0652   154.8918     2.4892     0.0143
 2093.5000   -64.3207     9.8726     8.3939    21.3596     8.0652   159.2227     2.5013     0.0211
 2094.0000   -64.2999     9.7456     8.4472    19.4065     8.0652   157.7586     2.4991     0.0188
 2094.5000   -64.2791     9.8217     8.4535    19.6915     8.0652   153.9171     2.4925     0.0135
 2095.0000   -64.4069     9.8302     8.4607    21.7066     8.0652   151.5614     2.4866     0.0128
 2095.5000   -64.3809     9.8388     8.4675    22.3273     8.0652   152.1776     2.4889     0.0199
 2096.0000   -64.3601     9.8494     8.4576    21.7400     8.0652   155.4683     2.5078     0.0269
 2096.5000   -64.4930     9.8579     8.4232    21.3029     8.0652   157.4220     2.5184     0.0254
 2097.0000   -64.7642     9.7964     8.3715    19.9080     8.0644   157.2950     2.5063     0.0201
 2097.5000   -65.0406     9.6704     8.3206    19.7825     8.0635   157.3223     2.4980     0.0170
 2098.0000   -65.3170     9.6142     8.3295    21.0709     8.0627   157.4926     2.4880     0.0226
 2098.5000   -65.2910     9.4905     8.2781    20.7979     8.0618   159.2934     2.4791     0.0203
 2099.0000   -65.4240     9.4304     8.2416    20.2470     8.0609   163.1799     2.5039     0.0111
 2099.5000   -65.5466     9.1861     8.1779    19.7778     8.0600   166.0263     2.4913     0.0166
 2100.0000   -65.3772     9.1941     8.1287    20.0696     8.0591   162.6320     2.4802     0.0221
 2100.5000   -65.2078     9.2021     8.1354    20.9565     8.0582   159.8320     2.4907     0.0020
 2101.0000   -65.1870     9.2739     8.1427    21.7007     8.0573   159.5580     2.5088     0.0116
 2101.5000   -65.0171     9.4111     8.1489    20.3999     8.0565   158.8382     2.5160     0.0191
 2102.0000   -64.6944     9.4193     8.0995    17.3987     8.0556   155.1467     2.5018     0.0431
 2102.5000   -64.6736     9.4929     8.1063    17.9026     8.0547   156.4337     2.4922     0.0207
 2103.0000   -64.5042     9.5031     8.0585    19.8848     8.0538   158.3193     2.4898     0.0223
 2103.5000   -64.4834     9.5113     8.0639    20.6034     8.0529   158.7824     2.4998     0.0099
 2104.0000   -64.4626     9.5196     8.0142    20.7626     8.0520   156.2854     2.4953     0.0309
 2104.5000   -64.4401     9.5258     7.9671    20.7780     8.0511   154.0798     2.4918     0.0255
 2105.0000   -64.1395     9.4684     7.9731    20.5064     8.0503   154.9945     2.5016     0.0116
 2105.5000   -64.2686     9.3486     7.9249    19.5507     8.0494   158.4352     2.5047     0.0255
 2106.0000   -64.2443     9.2923     7.8743    17.7509     8.0485   160.8358     2.4943     0.0220
 2106.5000   -64.3783     9.2383     7.8227    16.4565     8.0476   159.5217     2.4801     0.0076
 2107.0000   -64.5026     9.1807     7.7812    16.4687     8.0467   156.9898     2.4690     0.0094
 2107.5000   -64.9294     9.0625     7.7339    17.5450     8.0458   155.0374     2.4713     0.0164
 2108.0000   -65.0581     9.0079     7.6869    18.4335     8.0450   154.8365     2.4908     0.0327
 2108.5000   -65.0379     8.8327     7.5891    18.4472     8.0441   156.6485     2.4992     0.0397
 2109.0000   -64.8657     8.8403     7.5952    18.3330     8.0432   158.0090     2.4835     0.0180
 2109.5000   -64.8463     8.7838     7.6014    17.8217     8.0423   156.2492     2.4876     0.0211
 2110.0000   -64.8269     8.6740     7.6406    16.2040     8.0414   153.7464     2.5060     0.0274
 2110.5000   -64.8074     8.6218     7.5938    15.6593     8.0405   155.9984     2.5257     0.0359
 2111.0000   -64.6394     8.6311     7.6541    16.9193     8.0396   158.6962     2.5033     0.0305
 2111.5000   -64.6199     8.7588     7.6091    18.1507     8.0388   160.3538     2.5011     0.0354
 2112.0000   -64.4517     8.8272     7.6187    18.8067     8.0379   159.0106     2.5184     0.0461
 2112.5000   -64.4317     8.8348     7.6264    18.9520     8.0370   157.5282     2.4998     0.0345
 2113.0000   -64.4082     8.8426     7.6341    19.2316     8.0361   156.1201     2.4924     0.0276
 2113.5000   -64.3887     8.8521     7.4854    19.6515     8.0352   154.2117     2.5082     0.0175
 2114.0000   -64.3693     8.6761     7.4931    18.9846     8.0343   151.8575     2.4993     0.0315
 2114.5000   -64.5033     8.6239     7.5023    14.0999     8.0334   154.2581     2.4942     0.0261
 2115.0000   -64.6324     8.4543     7.5087    13.7209     8.0326   160.5220     2.5051     0.0199
 2115.5000   -64.7567     8.4034     7.5175    15.8922     8.0317   163.9627     2.5317     0.0339
 2116.0000   -64.8858     8.3996     7.5257    17.6518     8.0308   170.0780     2.4944     0.0417
 2116.5000   -65.1587     8.5046     7.5320    18.5458     8.0299   173.5188     2.4900     0.0138
 2117.0000   -65.2927     8.5465     7.5398    18.6890     8.0290   176.1087     2.5073     0.0217
 2117.5000   -65.4219     8.5557     7.5479    18.1901     8.0281   179.2616     2.4872     0.0264
 2118.0000   -65.5510     8.5649     7.5562    17.7044     8.0273   185.1841     2.4648     0.0372
 2118.5000   -65.5267     8.5743     7.6338    17.5949     8.0264   186.5445     2.4806     0.0473
 2119.0000   -65.5073     8.6452     7.7298    17.7341     8.0255   184.7847     2.4672     0.0326
 2119.5000   -65.3392     8.7749     7.7925    18.2477     8.0246   178.8643     2.4493     0.0086
 2120.0000   -65.1709     8.8453     7.8004    18.7762     8.0237   173.3897     2.4674     0.0133
 2120.5000   -64.9983     9.0403     7.9274    18.7901     8.0228   170.2926     2.4719     0.0110
 2121.0000   -64.8303     9.1759     8.0339    18.6739     8.0219   166.1553     2.4511     0.0009
 2121.5000   -64.5136     9.3782     8.0986    19.7564     8.0211   162.6124     2.4654     0.0006
 2122.0000   -64.3456     9.5189     8.2194    22.0970     8.0202   158.7137     2.4864     0.0111
 2122.5000   -64.1776     9.8641     8.2277    23.8706     8.0193   156.3449     2.5045     0.0205
 2123.0000   -64.0096    10.0123     8.2361    25.0795     8.0184   153.9210     2.4933     0.0314
 2123.5000   -63.8415    10.1629     8.2444    23.2770     8.0175   156.2099     2.4747     0.0344
 2124.0000   -63.6735     9.9673     8.1960    20.8227     8.0166   166.5162     2.4905     0.0360
