~VERSION INFORMATION
 VERS.                2.0:   CWLS LOG ASCII STANDARD - VERSION 2.0
 WRAP.                 NO:   ONE LINE PER DEPTH STEP
~WELL INFORMATION
#MNEM.UNIT      DATA TYPE    INFORMATION
#----------   ------------   ------------------------------
 STRT.F          600.0000:   START DEPTH
 STOP.F         3201.0000:   STOP DEPTH
 STEP.F            0.5000:   STEP LENGTH
 NULL.          -999.2500:   NO VALUE
 COMP.    FENIX & SCISSON:   COMPANY
 WELL. FENIX & SCISSON 38 "AX" #3-34:   WELL
 FLD .              NPR 3:   FIELD
 LOC .      S34 T39N R78W:   LOCATION
 CNTY.            NATRONA:   COUNTY
 STAT.            WYOMING:   STATE
 CTRY. UNITED STATES OF AMERICA:   COUNTRY
 SRVC.              WELEX:   SERVICE COMPANY
 DATE.        16-SEP-1980:   LOGDATE
 API .     49025108560000:   API NUMBER
~CURVE INFORMATION
#MNEM.UNIT       API CODE    CURVE DESCRIPTION
#----------   ------------   ------------------------------
 DEPT.F                  :   
 CORR.G/C3   45 356 01 00:   DENSITY CORRECTION
 GRD .GAPI   45 310 01 00:   GAMMA RAY FROM DENSITY LOG
 RHOB.G/C3   45 350 01 00:   BULK DENSITY
 TEND.LBS    45 635 01 00:   TENSION FORM DENSITY LOG
 CALD.IN     45 280 60 00:   CALIPER FROM DENSITY LOG
 SPR .MV     07 010 01 00:   SPONTANEOUS POTENTIAL FROM RES.
 ILD .OHMM   07 120 46 00:   DEEP INDUCTION RESISTIVITY
 ILM .OHMM   07 120 44 00:   INDUCTION LOG MEDIUM RESISTIVITY
 GURD.OHMM   07 220 05 00:   GUARD LOG RESISTIVITY
~PARAMETER INFORMATION
#MNEM.UNIT          VALUE    DESCRIPTION
#----------   ------------   ------------------------------
 EKB .F         5205.0000:   Kelly bushing
 EGL .F         5195.0000:   Ground level
 TD  .F         3202.0000:   Total depth
 CLNT.            A2DTECH:   Client Code
 SL  . 582' FSL & 1600' FWL:   Surface Location
 PD  .                 GL:   Permanent Datum
 EPD .F              5195:   Elevation Permanent Datum
 LMF .                 KB:   Log Measured From
 DMF .                 KB:   Drilling Measured From
 DAPD.F                10:   Feet Above Permanent Datum
 DATE.        16-SEP-1980:   Date Logged [DD-MMM-YYYY]
 DD  .F              3200:   Depth driller
 DL  .F              3203:   Depth logger
 BLI .F              3201:   Bottom log interval
 TLI .F               600:   Top log interval
 CS1 .IN            8.625:   Casing size
 CBD1.      8.625" @ 580':   Casing driller 1
 CBL1.F               600:   Casing logger 1
 BS1 .IN            7.875:   Bit size
 BSD1.F              3200:   Depth drilled with bit1
 DFT .          DISPERSED:   Type fluid in hole
 DFD .                8.8:   Density
 DFV .                 40:   Viscosity
 DFPH.                 11:   pH
 DFL .                  8:   Fluid loss
 MSS .           FLOWLINE:   Source of sample
 RMS .OHMM           1.33:   Rm
 MST .F                65:   Rm Meas. temp.
 RMF .OHMM           1.15:   Rmf
 MFST.F                65:   Rmf Meas. temp.
 MFSS.               MEAS:   Source Rmf.
 RMC .OHMM           1.50:   Rmc
 MCST.F                65:   Rmc Meas. temp.
 MCSS.               MEAS:   Source Rmc.
 RMB .OHMM            .75:   Rm. at BHT
 BHT .F               115:   BHT.
 TCS .HRS               8:   Time Circ. stopped
 MRT .F               115:   Maximum recorded temp.
 LUN .               1892:   Logging unit number
 LUL .             CASPER:   Logging unit location
 ENGI.    PERIMMER / REIN:   Recorded By
 WITN.              FIVAS:   Witnessed by
 ORIG.         2.5" PRINT:   Origin of data
 UWI .     49025108560000:   Unique Well ID
 DICO. A2D TECHNOLOGIES, INC.:   Digitizing Company
~OTHER INFORMATION
~A   DEPT       CORR       GRD        RHOB      TEND       CALD       SPR          ILD        ILM       GURD 
# ...
 2315.5000     0.0986   114.1345     2.4532   481.9277     8.5057   -24.2170     4.8299     5.9329     7.5188
 2316.0000     0.1049   110.0720     2.4414   481.9277     8.4156   -23.9277     4.9633     5.9291     7.8775
 2316.5000     0.1079   111.9747     2.4278   481.9277     8.3853   -23.9413     5.1004     5.8445     7.3958
 2317.0000     0.1049   113.8888     2.4218   481.9277     8.3850   -23.9548     5.0981     5.7612     7.1900
 2317.5000     0.1019   115.8027     2.4110   481.9277     8.3847   -23.9684     5.0956     5.5963     7.2865
 2318.0000     0.0949   116.7928     2.3646   481.9277     8.4301   -23.9819     5.0931     5.4447     7.8079
 2318.5000     0.0841   116.3319     2.3535   481.9277     8.5338   -24.2967     5.0907     5.3669     8.0200
 2319.0000     0.0633   115.8730     2.3525   481.9277     8.4137   -24.3102     5.0502     5.2901     7.0689
 2319.5000     0.0386   115.4141     2.3675   481.9277     8.3236   -24.3251     4.8784     5.2139     6.4720
 2320.0000     0.0265   114.9550     2.4051   481.9277     8.3234   -24.3378     4.8091     5.1395     6.5044
 2320.5000     0.0175   115.0366     2.4246   477.6743     8.3231   -24.6521     4.8069     5.1369     6.7761
 2321.0000     0.0174   115.3888     2.4224   464.6890     8.3228   -24.6657     4.8046     5.1342     7.4620
 2321.5000     0.0174   114.7154     2.4004   481.9277     8.3225   -24.6792     4.8023     5.1314     6.7690
 2322.0000     0.0126   114.2914     2.3768   481.9277     8.3820   -24.8313     4.8000     5.1481     5.5729
 2322.5000    -0.0138   115.3593     2.3689   481.9277     8.5015   -25.0101     4.7977     5.1977     5.6766
 2323.0000    -0.0218   115.4068     2.3809   481.9277     8.3215   -25.0228     4.7953     5.2667     6.3290
 2323.5000    -0.0248   112.6293     2.3944   481.9277     8.3213   -25.0356     4.7927     5.2634     7.3286
 2324.0000    -0.0278   111.6640     2.3884   481.9277     8.4151   -25.0483     4.8573     5.2606     7.1774
 2324.5000    -0.0309   111.9741     2.3885   481.9277     8.4405   -25.0617     4.8551     5.2579     6.9356
 2325.0000    -0.0304   114.5276     2.3984   481.9277     8.3977   -24.6986     4.8528     5.3285     6.7427
 2325.5000    -0.0010   116.0054     2.4058   481.9277     8.3799   -23.7690     4.8504     5.4000     6.7391
 2326.0000     0.0200   115.2960     2.4152   481.9277     8.4095   -23.2952     4.9161     5.4989     7.2770
 2326.5000     0.0233   110.3326     2.4063   481.9277     8.4392   -23.3110     4.9454     5.5829     8.0602
 2327.0000     0.0203   108.0719     2.4093   481.9277     8.5001   -23.6249     5.0489     5.6978     7.4760
 2327.5000     0.0172   107.6130     2.4243   481.9277     8.4059   -23.9388     5.0461     5.6943     7.0601
 2328.0000     0.0234   109.5074     2.4408   481.9277     8.3417   -23.9518     5.1143     5.6913     7.1034
 2328.5000     0.0328   110.2988     2.4470   481.9277     8.2775   -24.2666     5.1118     5.6883     7.8217
 2329.0000     0.0432   109.6140     2.4483   481.9277     8.3475   -24.5813     5.1808     5.6852     7.7101
 2329.5000     0.0533   108.9264     2.4516   481.9277     8.5083   -24.7259     5.1781     5.7617     6.8026
 2330.0000     0.0533   108.4675     2.4558   481.9277     8.4371   -24.9096     5.2746     5.7929     7.4736
 2330.5000     0.0533   107.1077     2.4377   481.9277     8.4368   -25.2263     5.3551     5.9635     8.3651
 2331.0000     0.0503   105.6985     2.4181   481.9277     8.4376   -25.5402     5.4647     6.0789     7.6757
 2331.5000     0.0503   103.7819     2.4151   481.9277     8.5621   -25.5530     5.5384     6.2464     7.1229
 2332.0000     0.0559   106.5251     2.4166   481.9277     8.6156   -25.5663     5.6130     6.3303     8.2351
 2332.5000     0.0703   111.9749     2.4123   481.9277     8.4224   -25.5798     5.5333     6.2304     8.8210
 2333.0000     0.0521   109.3135     2.3994   481.9277     8.4053   -25.5934     5.4546     6.0256     9.1904
 2333.5000     0.0490   106.1519     2.3917   481.9277     8.4050   -25.3057     5.4519     5.6475     8.7810
 2334.0000     0.0592   105.2426     2.4030   481.9277     8.4347   -25.0205     5.3452     5.3854     7.6496
 2334.5000     0.0773   110.1891     2.4466   481.9277     8.4644   -24.7320     5.1875     5.1996     7.5587
 2335.0000     0.0833   113.4385     2.4977   481.9277     8.4341   -24.1423     4.9406     5.0549     8.2085
 2335.5000     0.0833   115.9210     2.5022   481.9277     8.3664   -23.8495     4.8704     4.9828     7.4050
 2336.0000     0.0823   117.8214     2.4808   458.8332     8.2838   -23.5653     4.7352     4.8441     5.0492
 2336.5000     0.0802   117.3604     2.4646   451.8072     8.3304   -23.5798     4.6037     4.7748     4.7746
 2337.0000     0.0742   117.3499     2.4600   451.8072     8.5227   -23.5934     4.5382     4.7722     5.4056
 2337.5000     0.0734   117.3415     2.4615   451.8072     8.4925   -23.9081     4.5360     4.7695     6.3613
 2338.0000     0.0802   117.7838     2.4660   451.8072     8.4024   -23.9238     4.5974     4.7664     7.9195
 2338.5000     0.0952   118.2255     2.4584   451.8072     8.3404   -24.2377     4.5316     4.7639     8.1774
 2339.0000     0.0785   114.7967     2.4238   463.3387     8.3061   -24.5516     4.3447     4.7614     8.1190
 2339.5000     0.0711   111.1517     2.4102   481.9277     8.2817   -24.5648     4.2830     4.6935     7.7267
 2340.0000     0.0711   110.5405     2.4281   481.9277     8.2814   -24.6386     4.1641     4.6179     7.2060
 2340.5000     0.0741   110.5299     2.4574   481.9277     8.4308   -24.8931     4.1014     4.5434     6.6279
 2341.0000     0.0741   108.2692     2.4635   481.9277     8.4006   -24.9066     4.0465     4.4086     6.2674
 2341.5000     0.0710   107.3598     2.4553   481.9277     8.3703   -24.9228     4.0445     4.3374     5.5521
 2342.0000     0.0710   106.9009     2.4417   481.9277     8.4000   -24.9355     3.9869     4.2477     4.7129
 2342.5000     0.0710   108.9492     2.4221   481.9277     8.3655   -24.9482     3.9298     4.1295     4.2457
 2343.0000     0.0730   112.7862     2.3964   481.9277     8.2714   -24.9609     3.8207     4.1273     4.3358
 2343.5000     0.0798   115.9885     2.3826   472.0083     8.2495   -24.9744     3.7664     4.0684     5.2198
 2344.0000     0.0830   119.3150     2.3308   451.8072     8.3880   -24.9880     3.6619     4.0661     6.0756
 2344.5000     0.0770   119.7553     2.3206   451.8072     8.4679   -25.0015     3.6098     4.0836     5.9066
 2345.0000     0.0800   118.5578     2.3213   451.8072     8.3982   -25.0151     3.6080     4.1460     5.2092
 2345.5000     0.0830   118.9998     2.3423   451.8072     8.3680   -24.7296     3.5567     4.0031     5.1373
 2346.0000     0.0865   120.3813     2.3874   451.8072     8.3677   -24.1399     3.5550     3.8918     6.0630
 2346.5000     0.0920   121.6856     2.4163   451.8072     8.3674   -23.5762     3.5040     3.8897     5.5547
 2347.0000     0.0847   117.7508     2.4219   451.8072     8.4077   -23.2618     3.5024     3.8877     4.5788
 2347.5000     0.0618   116.9409     2.3941   451.8072     8.4266   -23.2756     3.5009     3.8855     4.1638
 2348.0000     0.0407   117.1532     2.3512   451.8072     8.3365   -23.3814     3.5481     3.8834     4.1044
 2348.5000     0.0287   116.6927     2.3316   451.8072     8.2464   -23.7360     3.5464     3.9044     4.5199
 2349.0000    -0.0046   114.8824     2.3331   451.8072     8.1862   -23.9187     3.5943     3.9641     4.3810
 2349.5000    -0.0075   113.0580     2.3511   451.8072     8.4255   -24.2353     3.6427     3.9858     4.2719
 2350.0000     0.0266   112.0120     2.4865   451.8072     8.3902   -24.5493     3.6660     3.9834     7.0687
 2350.5000     0.0628   110.5303     2.5015   451.8072     8.1911   -24.5620     3.6896     3.9814     6.9131
 2351.0000     0.0888   108.8524     2.4822   451.8072     8.2372   -24.5753     3.7393     3.9849     5.2487
 2351.5000     0.0918   105.9569     2.4789   451.8072     8.4585   -24.5889     3.7374     4.0327     4.0884
