~VERSION INFORMATION
 VERS.                2.0:   CWLS LOG ASCII STANDARD - VERSION 2.0
 WRAP.                 NO:   ONE LINE PER DEPTH STEP
~WELL INFORMATION
#MNEM.UNIT      DATA TYPE    INFORMATION
#----------   ------------   ------------------------------
 STRT.F          170.5000:   START DEPTH
 STOP.F         3160.0000:   STOP DEPTH
 STEP.F            0.5000:   STEP LENGTH
 NULL.          -999.2500:   NO VALUE
 COMP.  FENIX AND SCISSON:   COMPANY
 WELL.    FENIX "A" #85-3:   WELL
 FLD .       TEA POT DOME:   FIELD
 LOC .       S3 T38N R78W:   LOCATION
 CNTY.            NATRONA:   COUNTY
 STAT.            WYOMING:   STATE
 CTRY. UNITED STATES OF AMERICA:   COUNTRY
 SRVC.           BIRDWELL:   SERVICE COMPANY
 DATE.        20-DEC-1977:   LOGDATE
 API .     49025104450000:   API NUMBER
~CURVE INFORMATION
#MNEM.UNIT       API CODE    CURVE DESCRIPTION
#----------   ------------   ------------------------------
 DEPT.F                  :   
 CALD.IN     45 280 60 00:   CALIPER FROM DENSITY LOG
 GRD .GAPI   45 310 01 00:   GAMMA RAY FROM DENSITY LOG
 RHOB.G/C3   45 350 01 00:   BULK DENSITY
 CORR.G/C3   45 356 01 00:   DENSITY CORRECTION
 SPR .MV     05 010 01 00:   SPONTANEOUS POTENTIAL
 SN  .OHMM   05 040 00 00:   SHORT NORMAL
 ILD .OHMM   05 120 46 00:   DEEP INDUCTION RESISTIVITY
~PARAMETER INFORMATION
#MNEM.UNIT          VALUE    DESCRIPTION
#----------   ------------   ------------------------------
 EKB .F         5165.0000:   Kelly bushing
 EGL .F         5155.0000:   Ground level
 TD  .F         3151.0000:   Total depth
 DATE.        20-DEC-1977:   Date logged
 CLNT.            A2DTECH:   Client Code
 SL  . 2000' FSL & 100'FEL:   Surface Location
 PD  .                 GL:   Permanent Datum
 EPD .F              5155:   Elevation Permanent Datum
 LMF .                 KB:   Log Measured From
 DMF .                 KB:   Drilling Measured From
 DAPD.F                10:   Feet Above Permanent Datum
 DD  .F              3150:   Depth driller
 DL  .F              3151:   Depth logger
 BLI .F              3146:   Bottom log interval
 TLI .F               200:   Top log interval
 CS1 .IN            8.625:   Casing size
 CBD1.      8.625" @ 223':   Casing driller 1
 BS1 .IN            7.875:   Bit size
 BSD1.F              3150:   Depth drilled with bit1
 DFT .                KCL:   Type fluid in hole
 DFD .                8.9:   Density
 DFV .                 40:   Viscosity
 DFPH.                 11:   pH
 DFL .                7.2:   Fluid loss
 MSS .           FLOWLINE:   Source of sample
 RMS .OHMM            0.4:   Rm
 MST .F                62:   Rm Meas. temp.
 RMF .OHMM           0.48:   Rmf
 MFST.F                63:   Rmf Meas. temp.
 RMC .OHMM           0.52:   Rmc
 MCST.F                63:   Rmc Meas. temp.
 MFSS.               MEAS:   Source Rmf.
 MCSS.               MEAS:   Source Rmc.
 TCS .HRS             3.5:   Time Circ. stopped
 MRT .F               118:   Maximum recorded temp.
 LUN .               2958:   Logging unit number
 LUL .             CASPER:   Logging unit location
 ENGI.             MILLER:   Recorded By
 WITN.         HERRINGTON:   Witnessed by
 ORIG.           5" PRINT:   Origin of data
 UWI .     49025104450000:   Unique Well ID
 DICO. A2D TECHNOLOGIES, INC.:   Digitizing Company
~OTHER INFORMATION
~A   DEPT     CALD        GRD       RHOB        CORR       SPR         SN        ILD   
# ...
  989.5000    12.8699    70.8014     2.5471     0.0288   -58.1015     9.4923     8.2668
  990.0000    12.8891    71.3906     2.5351     0.0197   -58.6916     9.4951     8.4222
  990.5000    12.8684    72.9730     2.5310     0.0187   -58.0877     9.5862     9.0716
  991.0000    12.8681    73.1654     2.5310     0.0167   -58.0801     9.6781     9.1586
  991.5000    12.8676    72.9610     2.5250     0.0136   -58.0724     9.6804     9.2465
  992.0000    12.8672    73.3517     2.5249     0.0146   -58.0648     9.5946     9.2486
  992.5000    12.8664    73.9409     2.5259     0.0176   -58.0571     9.5080     9.2519
  993.0000    12.8658    74.7285     2.5279     0.0257   -58.2482     9.5249     9.2563
  993.5000    12.8653    74.9209     2.5329     0.0377   -58.2405     9.5418     9.2574
  994.0000    12.8645    74.1213     2.5540     0.0317   -58.8290     9.5588     9.2595
  994.5000    12.8639    73.9169     2.5490     0.0266   -58.2252     9.5758     9.1770
  995.0000    12.8633    73.7125     2.5228     0.0125   -58.2176     9.5928     9.1792
  995.5000    12.8631    73.9048     2.5178     0.0135   -58.2099     9.6098     9.1829
  996.0000    12.8623    74.0972     2.5218     0.0145   -58.2023     9.6269     9.1005
  996.5000    12.8616    74.2896     2.5388     0.0215   -58.1946     9.6440     9.1884
  997.0000    12.8611    73.8868     2.5499     0.0296   -58.1870     9.6611     9.4141
  997.5000    12.8605    73.0872     2.5589     0.0326   -58.1793     9.6783     9.3867
  998.0000    12.8598    72.6844     2.5559     0.0335   -58.3704     9.6955     9.3593
  998.5000    12.8592    73.4720     2.5578     0.0345   -58.3627     9.7127     9.3320
  999.0000    12.8586    74.4591     2.5588     0.0325   -58.3550     9.7239     9.3049
  999.5000    12.8580    75.4451     2.5538     0.0285   -58.3474     9.6360     9.2902
 1000.0000    12.8188    76.4311     2.5447     0.0264   -58.5384     9.6369     9.1225
 1000.5000    12.8171    77.3499     2.5371     0.0181   -58.7038     9.6397     9.0160
 1001.0000    12.7968    77.2136     2.5326     0.0163   -58.7268     9.5535     8.8901
 1001.5000    12.8161    77.2080     2.5326     0.0173   -58.9205     9.4686     8.7660
 1002.0000    12.8156    77.2025     2.5376     0.0193   -59.1151     9.2980     8.6436
 1002.5000    12.8151    76.9986     2.5406     0.0223   -58.5140     9.2153     8.5230
 1003.0000    12.8344    76.5963     2.5476     0.0263   -58.5090     8.9688     8.4040
 1003.5000    12.8339    75.9955     2.5496     0.0263   -58.5039     8.8879     8.2867
 1004.0000    12.8333    74.2042     2.5476     0.0283   -58.8962     8.9263     8.1710
 1004.5000    12.8527    74.0003     2.5516     0.0313   -58.2951     8.9784     8.1114
 1005.0000    12.8323    73.9947     2.5606     0.0363   -58.2901     8.8155     8.1139
 1005.5000    12.8516    73.7908     2.5646     0.0383   -58.2850     8.9002     8.0418
 1006.0000    12.9106    73.3884     2.5626     0.0363   -58.2800     8.8211     8.0443
 1006.5000    12.9101    73.7797     2.5615     0.0333   -58.0762     8.8233     7.9723
 1007.0000    12.9294    73.9725     2.5605     0.0323   -58.0712     8.9081     8.0489
 1007.5000    12.9289    73.9670     2.5585     0.0292   -58.0661     8.9937     7.9773
 1008.0000    12.9285    73.9614     2.5534     0.0262   -58.0621     8.9965     8.0540
 1008.5000    12.9280    74.1543     2.5504     0.0262   -58.0570     8.9999     8.0565
 1009.0000    12.9275    73.9503     2.5484     0.0282   -58.0520     9.0022     7.9848
 1009.5000    12.9468    73.7463     2.5473     0.0271   -58.0469     9.0050     8.0616
 1010.0000    12.9463    73.3439     2.5463     0.0241   -58.0419     9.0078     8.0641
 1010.5000    12.9457    72.7430     2.5423     0.0190   -58.2355     9.0107     7.9924
 1011.0000    12.9254    71.5468     2.5322     0.0150   -58.2304     9.0135     7.9949
 1011.5000    12.9249    71.7397     2.5342     0.0140   -58.2254     9.0163     7.9974
 1012.0000    12.9243    72.3294     2.5352     0.0140   -58.2203     8.9356     8.0000
 1012.5000    12.9238    68.3516     2.5341     0.0150   -58.4140     8.9384     8.0020
 1013.0000    12.9233    68.7462     2.5371     0.0169   -58.4089     8.9412     8.0045
 1013.5000    12.9426    71.5189     2.5431     0.0179   -58.6025     8.9440     8.0070
 1014.0000    12.9421    74.2917     2.5401     0.0159   -58.7972     8.8645     7.9358
 1014.5000    12.9416    77.4625     2.5371     0.0149   -59.1895     8.8673     7.8652
 1015.0000    12.9411    80.0369     2.5370     0.0139   -59.1844     8.8701     7.7953
 1015.5000    12.9405    79.4361     2.5340     0.0128   -59.1794     8.8728     7.7977
 1016.0000    12.9400    77.4460     2.5340     0.0148   -59.3730     8.7939     7.8002
 1016.5000    12.9395    73.8681     2.5370     0.0158   -59.3679     8.8784     7.8027
 1017.0000    12.9588    73.4657     2.5431     0.0138   -59.5616     8.8812     7.8051
 1017.5000    12.9583    74.0555     2.5330     0.0158   -59.5565     8.9665     7.8076
 1018.0000    12.9776    74.6453     2.5460     0.0158   -59.5515     8.9688     7.8096
 1018.5000    12.9771    74.6398     2.5339     0.0148   -59.5464     9.0550     7.8120
 1019.0000    12.9766    74.0388     2.5318     0.0147   -59.5414     9.0578     7.8871
 1019.5000    12.9761    73.2394     2.5368     0.0188   -59.5363     9.0607     7.8896
 1020.0000    12.9756    72.6384     2.5459     0.0228   -59.7309     9.0635     8.0394
 1020.5000    12.9750    72.8313     2.5469     0.0218   -59.7259     9.1506     7.9669
 1021.0000    12.9944    73.0242     2.5408     0.0187   -59.9195     9.1535     8.1197
 1021.5000    12.9939    72.8202     2.5388     0.0177   -59.9145     9.1563     8.2734
 1022.0000    13.0132    72.8146     2.5397     0.0177   -59.9094     9.1592     8.3529
 1022.5000    13.0127    73.2060     2.5387     0.0166   -59.9044     9.1627     8.3544
 1023.0000    12.9923    73.3989     2.5387     0.0146   -59.8993     9.1650     8.5142
 1023.5000    12.9719    73.9889     2.5377     0.0136   -60.0929     9.1667     8.5954
 1024.0000    12.9715    74.7773     2.5316     0.0136   -60.0879     9.1684     8.6780
 1024.5000    12.9710    75.3672     2.5276     0.0166   -60.2815     9.1713     8.7559
 1025.0000    12.9705    77.5429     2.5457     0.0226   -60.4731     9.3448     8.8400
 1025.5000    12.9501    77.3433     2.5517     0.0266   -60.2714     9.3489     8.9249
 1026.0000    12.9297    73.1649     2.5567     0.0317   -60.2674     9.3628     8.9277
 1026.5000    12.9292    70.7795     2.5607     0.0306   -60.2623     9.3767     8.9361
 1027.0000    12.9088    70.3769     2.5506     0.0266   -60.2573     9.3906     8.9384
 1027.5000    12.8488    70.1728     2.5415     0.0225   -60.2522     9.4045     8.9418
 1028.0000    12.8284    70.1672     2.5334     0.0185   -60.2471     9.4185     8.9446
 1028.5000    12.8279    70.1616     2.5284     0.0175   -60.0434     9.4324     8.9463
 1029.0000    12.7877    70.3546     2.5314     0.0195   -60.0384     9.4464     9.0334
 1029.5000    12.7673    70.5475     2.5364     0.0225   -60.0333     9.4607     9.0356
 1030.0000    12.7668    70.3434     2.5454     0.0245   -59.8296     9.4631     9.0385
 1030.5000    12.7662    69.9408     2.5454     0.0224   -59.8245     9.4630     9.0413
 1031.0000    12.7459    69.5381     2.5414     0.0234   -59.6208     9.5538     9.0441
 1031.5000    12.7255    69.7310     2.5444     0.0264   -59.6167     9.5568     8.9637
 1032.0000    12.7051    69.7254     2.5474     0.0234   -59.6117     9.5598     8.9603
 1032.5000    12.6847    69.7198     2.5443     0.0194   -59.6066     9.4749     8.8812
 1033.0000    12.6644    69.9128     2.5403     0.0203   -59.6016     9.3042     8.8023
 1033.5000    12.6440    69.7087     2.5473     0.0223   -59.5965     9.1396     8.6437
 1034.0000    12.6435    69.9016     2.5553     0.0193   -59.5915     9.1425     8.5669
 1034.5000    12.6231    70.6901     2.5503     0.0193   -59.5864     9.0612     8.4126
