~VERSION INFORMATION
 VERS.                2.0:   CWLS LOG ASCII STANDARD - VERSION 2.0
 WRAP.                 NO:   ONE LINE PER DEPTH STEP
~WELL INFORMATION
#MNEM.UNIT      DATA TYPE    INFORMATION
#----------   ------------   ------------------------------
 STRT.F            8.0000:   START DEPTH
 STOP.F         3021.0000:   STOP DEPTH
 STEP.F            0.5000:   STEP LENGTH
 NULL.          -999.2500:   NO VALUE
 COMP. LAWRENCE ALLISON & ASSOCIATES W:   COMPANY
 WELL. LAWRENCE ALLISON #68-28:   WELL
 FLD .              NPR 3:   FIELD
 LOC .      S28 T39N R78W:   LOCATION
 CNTY.            NATRONA:   COUNTY
 STAT.            WYOMING:   STATE
 CTRY. UNITED STATES OF AMERICA:   COUNTRY
 SRVC.      DRESSER ATLAS:   SERVICE COMPANY
 DATE.        19-DEC-1986:   LOGDATE
 API .     49025111580000:   API NUMBER
~CURVE INFORMATION
#MNEM.UNIT       API CODE    CURVE DESCRIPTION
#----------   ------------   ------------------------------
 DEPT.F                  :   
 SPR .MV     07 010 01 00:   SPONTANEOUS POTENTIAL
 TENR.LBS    07 635 01 00:   TENSION FROM RESISTIVITY
 RILD.OHMM   07 120 46 00:   DEEP INDUCTION RESISTIVITY
 RILM.OHMM   07 120 44 00:   INDUCTION LOG MEDIUM RESISTIVITY
 RFOC.OHMM   07 220 04 00:   RESISTIVITY FOCUSED LOG RES.
 CALD.IN     45 280 60 00:   CALIPER FROM DENSITY LOG
 CORR.G/C3   45 356 01 00:   DENSITY CORRECTION
 RHOB.G/C3   45 350 01 00:   BULK DENSITY
 CNC .DEC    42 890 03 00:   NEUTRON POROSITY SANDSTONE
 GRR .GAPI   07 310 01 00:   GAMMA RAY FROM RESISTIVITY
~PARAMETER INFORMATION
#MNEM.UNIT          VALUE    DESCRIPTION
#----------   ------------   ------------------------------
 EKB .F         5106.0000:   Kelly bushing
 EGL .F         5094.0000:   Ground level
 EDF .F            0.0000:   Drilling floor
 EPD .F         5094.0000:   Permanent datum
 TD  .F         3010.0000:   Total depth
 CLNT.            A2DTECH:   Client Code
 SL  . 1559'EL & 533' FSL:   Surface Location
 DATE.        19-DEC-1986:   Date Logged [DD-MMM-YYYY]
 DD  .F              3003:   Depth driller
 DL  .F              3010:   Depth logger
 BLI .F              3007:   Bottom log interval
 TLI .F                 0:   Top log interval
 CS1 .              8.625:   Casing size
 CBD1.      8.625" @ 389':   Casing driller 1
 CBL1.IN              405:   Casing logger 1
 BS1 .IN            7.875:   Bit size
 BSD1.F              3003:   Depth drilled with bit1
 DFT .        KCL POLYMER:   Type fluid in hole
 DFD .                9.0:   Density
 DFV .                 42:   Viscosity
 DFPH.                9.3:   pH
 DFL .                8.8:   Fluid loss
 MSS .           FLOWLINE:   Source of sample
 RMS .OHMM          0.484:   Rm
 MST .F                68:   Rm Meas. temp.
 RMF .OHMM          0.392:   Rmf
 MFST.F                68:   Rmf Meas. temp.
 MFSS.               MEAS:   Source Rmf.
 RMC .OHMM          0.605:   Rmc
 MCST.F                68:   Rmc Meas. temp.
 MCSS.               CALC:   Source Rmc.
 RMB .OHMM          0.269:   Rm. at BHT
 BHT .F               122:   BHT.
 TCS .HRS             3.5:   Time Circ. stopped
 MRT .F               122:   Maximum recorded temp.
 LUN .            HL-6274:   Logging unit number
 LUL .           GILLETTE:   Logging unit location
 ENGI.             RAUTIO:   Recorded By
 WITN.             STRONG:   Witnessed by
 ORIG.        2" 5" PRINT:   Origin of data
 UWI .     49025111580000:   Unique Well ID
 DICO. A2D TECHNOLOGIES, INC.:   Digitizing Company
~OTHER INFORMATION
~A    DEPT     SPR       TENR       RILD       RILM       RFOC       CALD       CORR       RHOB        CNC        GRR   
# ...
 2118.5000   -42.0375   -79.2693     5.0995     5.2936     6.6640  -999.2500  -999.2500  -999.2500  -999.2500   117.1101
 2119.0000   -41.9065   -78.8858     5.0310     5.1496     6.7121  -999.2500  -999.2500  -999.2500  -999.2500   114.1152
 2119.5000   -42.2166   -78.5022     4.9974     5.0802     6.8079  -999.2500  -999.2500  -999.2500  -999.2500   112.3186
 2120.0000   -42.6831   -78.1187     4.9995     5.0466     5.4457  -999.2500  -999.2500  -999.2500  -999.2500   112.6425
 2120.5000   -43.1496   -77.7343     5.0362     5.0483     5.2234  -999.2500  -999.2500  -999.2500  -999.2500   112.9619
 2121.0000   -43.6164   -77.3438     5.0731     5.0549     5.7484  -999.2500  -999.2500  -999.2500  -999.2500   112.9797
 2121.5000   -43.6145   -76.9531     5.1461     5.1951     6.9096  -999.2500  -999.2500  -999.2500  -999.2500   113.6009
 2122.0000   -43.3010   -68.6758     5.1478     5.3813     7.4628  -999.2500  -999.2500  -999.2500  -999.2500   116.3336
 2122.5000   -42.9874   -68.2922     5.1496     5.5741     7.2083  -999.2500  -999.2500  -999.2500  -999.2500   125.4012
 2123.0000   -42.6739   -67.9087     5.0796     5.6938     6.7706  -999.2500  -999.2500  -999.2500  -999.2500   130.8488
 2123.5000   -42.5164   -67.5251     4.8675     5.3711     6.4941  -999.2500  -999.2500  -999.2500  -999.2500   126.9451
 2124.0000   -42.2028   -67.1414     4.5628     4.8381     6.3165  -999.2500  -999.2500  -999.2500  -999.2500   118.8181
 2124.5000   -42.0453   -66.7578     4.1265     4.2528     6.0587  -999.2500  -999.2500  -999.2500  -999.2500   112.8027
 2125.0000   -42.1998   -66.3743     3.9314     4.0516     5.4956  -999.2500  -999.2500  -999.2500  -999.2500   109.8039
 2125.5000   -42.3542   -65.9908     3.9328     3.9691     4.7140  -999.2500  -999.2500  -999.2500  -999.2500   112.3165
 2126.0000   -42.6643   -65.6070     3.9893     3.9705     4.3058  -999.2500  -999.2500  -999.2500  -999.2500   114.9677
 2126.5000   -42.6628   -65.2235     4.0467     4.0276     4.3978  -999.2500  -999.2500  -999.2500  -999.2500   109.5601
 2127.0000   -42.6613   -64.8399     4.1335     4.1719     4.9187  -999.2500  -999.2500  -999.2500  -999.2500   107.1646
 2127.5000   -42.6597   -64.4531     4.1930     4.3214     6.0662  -999.2500  -999.2500  -999.2500  -999.2500   105.6742
 2128.0000   -42.8142   -56.2500     4.2237     4.5097     6.9768  -999.2500  -999.2500  -999.2500  -999.2500   105.3858
 2128.5000   -42.8127   -55.8594     4.2547     4.6366     7.2769  -999.2500  -999.2500  -999.2500  -999.2500   107.8214
 2129.0000   -42.8111   -55.3972     3.9698     4.1201     7.0779  -999.2500  -999.2500  -999.2500  -999.2500   111.4591
 2129.5000   -42.8096   -55.0135     3.6022     3.5602     6.2869  -999.2500  -999.2500  -999.2500  -999.2500   116.3034
 2130.0000   -42.6521   -54.6299     3.3375     3.2078     4.9940  -999.2500  -999.2500  -999.2500  -999.2500   122.6561
 2130.5000   -42.4929   -54.2464     3.0924     3.0450     3.8744  -999.2500  -999.2500  -999.2500  -999.2500   127.1988
 2131.0000   -42.1810   -53.8628     2.9054     2.9728     3.5139  -999.2500  -999.2500  -999.2500  -999.2500   126.9105
 2131.5000   -41.8420   -61.3876     2.7859     2.9326     3.3331  -999.2500  -999.2500  -999.2500  -999.2500   125.1228
 2132.0000   -41.3975   -60.9080     2.6720     2.9751     3.5501  -999.2500  -999.2500  -999.2500  -999.2500   116.6941
 2132.5000   -41.0840   -60.5245     2.6016     2.9969     4.1694  -999.2500  -999.2500  -999.2500  -999.2500   110.0754
 2133.0000   -40.9264   -60.1409     2.6027     2.9769     4.4408  -999.2500  -999.2500  -999.2500  -999.2500   105.2059
 2133.5000   -40.7689   -67.5781     2.6036     2.9165     4.2594  -999.2500  -999.2500  -999.2500  -999.2500   102.2679
 2134.0000   -40.7674   -59.3737     2.6045     2.8373     4.0286  -999.2500  -999.2500  -999.2500  -999.2500   104.7034
 2134.5000   -40.7658   -58.9844     2.6236     2.7602     4.0579  -999.2500  -999.2500  -999.2500  -999.2500   108.6428
 2135.0000   -41.0763   -58.5938     2.6061     2.7417     3.7587  -999.2500  -999.2500  -999.2500  -999.2500   110.4705
 2135.5000   -41.3868   -58.1270     2.6072     2.7429     3.4333  -999.2500  -999.2500  -999.2500  -999.2500   109.8850
 2136.0000   -41.8533   -57.7434     2.6263     2.7824     3.1579  -999.2500  -999.2500  -999.2500  -999.2500   109.2951
 2136.5000   -42.3198   -57.3599     2.6272     2.8620     3.2030  -999.2500  -999.2500  -999.2500  -999.2500   112.0322
 2137.0000   -42.9435   -56.9763     2.6281     2.9853     3.6075  -999.2500  -999.2500  -999.2500  -999.2500   114.1617
 2137.5000   -43.4088   -56.5926     2.6474     3.1139     4.3265  -999.2500  -999.2500  -999.2500  -999.2500   115.6878
 2138.0000   -43.2512   -56.2091     2.8064     3.2270     4.4500  -999.2500  -999.2500  -999.2500  -999.2500   118.7221
 2138.5000   -42.9373   -63.7338     3.1898     3.3041     4.0932  -999.2500  -999.2500  -999.2500  -999.2500   122.0582
 2139.0000   -42.6238   -63.2545     3.6010     3.5590     3.9666  -999.2500  -999.2500  -999.2500  -999.2500   122.0760
 2139.5000   -42.3102   -62.8707     3.8354     3.7383     4.8419  -999.2500  -999.2500  -999.2500  -999.2500   120.5855
 2140.0000   -42.3087   -62.4872     4.0566     3.8993     5.4916  -999.2500  -999.2500  -999.2500  -999.2500   117.2851
 2140.5000   -42.1511   -62.1036     4.2906     4.0957     5.8083  -999.2500  -999.2500  -999.2500  -999.2500   113.9846
 2141.0000   -42.6180   -53.9063     4.5066     4.3625     5.5946  -999.2500  -999.2500  -999.2500  -999.2500   116.0135
 2141.5000   -42.9285   -61.3363     4.7998     4.6143     5.1602  -999.2500  -999.2500  -999.2500  -999.2500   121.5662
 2142.0000   -43.2390   -62.1826     5.0064     4.8468     5.6917  -999.2500  -999.2500  -999.2500  -999.2500   120.0757
 2142.5000   -43.2371   -68.3818     5.1497     5.0555     6.1904  -999.2500  -999.2500  -999.2500  -999.2500   116.1719
 2143.0000   -43.5476   -67.9022     5.2602     5.2003     6.5933  -999.2500  -999.2500  -999.2500  -999.2500   107.4416
 2143.5000   -43.8580   -67.5186     5.3359     5.3120     7.0224  -999.2500  -999.2500  -999.2500  -999.2500   100.8229
 2144.0000   -44.0125   -59.3226     5.4141     5.3885     7.2734  -999.2500  -999.2500  -999.2500  -999.2500   102.9523
 2144.5000   -43.8549   -58.9390     5.4905     5.3903     6.9764  -999.2500  -999.2500  -999.2500  -999.2500   111.7182
 2145.0000   -43.6971   -58.5555     5.4927     5.3922     6.4619  -999.2500  -999.2500  -999.2500  -999.2500   119.5792
 2145.5000   -43.3835   -58.1717     5.4946     5.3940     6.2415  -999.2500  -999.2500  -999.2500  -999.2500   123.2169
 2146.0000   -43.2260   -57.7882     5.4965     5.3960     6.0286  -999.2500  -999.2500  -999.2500  -999.2500   121.4203
 2146.5000   -42.9124   -49.5922     5.4984     5.4360     5.8637  -999.2500  -999.2500  -999.2500  -999.2500   122.6492
 2147.0000   -42.5989   -49.2086     5.6164     5.5142     5.8241  -999.2500  -999.2500  -999.2500  -999.2500   123.5719
 2147.5000   -42.2853   -41.0124     5.8175     5.7514     5.8662  -999.2500  -999.2500  -999.2500  -999.2500   123.5897
 2148.0000   -42.2838   -40.6250     6.0679     6.0467     6.2160  -999.2500  -999.2500  -999.2500  -999.2500   116.2097
 2148.5000   -42.2823   -48.0578     6.4179     6.9009     6.9722  -999.2500  -999.2500  -999.2500  -999.2500   109.0659
 2149.0000   -42.5928   -47.5782     6.8355     7.4530     7.8159  -999.2500  -999.2500  -999.2500  -999.2500   107.9569
 2149.5000   -42.9032   -55.1030     7.3313     7.8279     8.2092  -999.2500  -999.2500  -999.2500  -999.2500   114.9173
 2150.0000   -43.2137   -54.6236     7.7003     7.9955     8.4857  -999.2500  -999.2500  -999.2500  -999.2500   121.5716
 2150.5000   -43.5360   -54.2401     7.7820     7.8810     8.9307  -999.2500  -999.2500  -999.2500  -999.2500   123.0977
 2151.0000   -43.8347   -61.6688     7.8663     7.8343     8.9337  -999.2500  -999.2500  -999.2500  -999.2500   123.1155
 2151.5000   -43.8328   -61.2853     7.9783     8.1150     8.8122  -999.2500  -999.2500  -999.2500  -999.2500   121.3233
