~VERSION INFORMATION
 VERS.                2.0:   CWLS LOG ASCII STANDARD - VERSION 2.0
 WRAP.                 NO:   ONE LINE PER DEPTH STEP
~WELL INFORMATION
#MNEM.UNIT      DATA TYPE    INFORMATION
#----------   ------------   ------------------------------
 STRT.F           50.0000:   START DEPTH
 STOP.F         2832.5000:   STOP DEPTH
 STEP.F            0.5000:   STEP LENGTH
 NULL.          -999.2500:   NO VALUE
 COMP.    FENIX & SCISSON:   COMPANY
 WELL. FENIX NPR 3 "AX" #87-20:   WELL
 FLD .              N P R:   FIELD
 LOC .      S20 T39N R78W:   LOCATION
 CNTY.            NATRONA:   COUNTY
 STAT.            WYOMING:   STATE
 CTRY. UNITED STATES OF AMERICA:   COUNTRY
 SRVC.           BIRDWELL:   SERVICE COMPANY
 DATE.        01-AUG-1978:   LOGDATE
 API .     49025106780000:   API NUMBER
~CURVE INFORMATION
#MNEM.UNIT       API CODE    CURVE DESCRIPTION
#----------   ------------   ------------------------------
 DEPT.F                  :   
 CALD.IN     45 280 60 00:   CALIPER FROM DENSITY LOG
 CORR.G/C3   45 356 01 00:   DENSITY CORRECTION
 GRD .GAPI   45 310 01 00:   GAMMA RAY FROM DENSITY LOG
 RHOB.G/C3   45 350 01 00:   BULK DENSITY
 SPR .MV     05 010 01 00:   SPONTANEOUS POTENTIAL
 ILD .OHMM   05 120 46 00:   DEEP INDUCTION RESISTIVITY
 SN  .OHMM   05 040 00 00:   SHORT NORMAL
~PARAMETER INFORMATION
#MNEM.UNIT          VALUE    DESCRIPTION
#----------   ------------   ------------------------------
 EKB .F         5007.0000:   Kelly bushing
 EGL .F         4997.0000:   Ground level
 EDF .F            0.0000:   Drilling floor
 EPD .F            0.0000:   Permanent datum
 TD  .F         2832.0000:   Total depth
 DATE.        01-AUG-1978:   Date logged
 CLNT.            A2DTECH:   Client Code
 SL  . 940' FSL & 200' FEL:   Surface Location
 PD  .                 GL:   Permanent Datum
 DD  .F              2825:   Depth driller
 DL  .F              2832:   Depth logger
 BLI .F              2826:   Bottom log interval
 CS1 .IN            8.625:   Casing size
 CBD1.      8.625" @ 140':   Casing driller 1
 CBL1.F               240:   Casing logger 1
 BS1 .IN            7.875:   Bit size
 DFT .            KCL/GEL:   Type fluid in hole
 DFD .                  9:   Density
 DFV .                 34:   Viscosity
 DFL .                  8:   Fluid loss
 MSS .           FLOWLINE:   Source of sample
 RMS .OHMM            1.5:   Rm
 MST .F                70:   Rm Meas. temp.
 RMF .OHMM            .70:   Rmf
 MFST.F                72:   Rmf Meas. temp.
 RMC .OHMM            2.2:   Rmc
 MCST.F                75:   Rmc Meas. temp.
 MFSS.               MEAS:   Source Rmf.
 TCS .HRS               6:   Time Circ. stopped
 LUN .               3007:   Logging unit number
 LUL .               CASP:   Logging unit location
 ENGI.            POINTER:   Recorded By
 WITN.              AMEND:   Witnessed by
 ORIG.           5" PRINT:   Origin of data
 UWI .     49025106780000:   Unique Well ID
 DICO. A2D TECHNOLOGIES, INC.:   Digitizing Company
 DAPD.                 10:   Feet Above Permanent Datum
 BSD1.F              2825:   Depth drilled with bit1
 LMF .                 KB:   Log Measured From
 DMF .                 KB:   Drilling Measured From
 TLI .F               140:   Top log interval
~OTHER INFORMATION
~A   DEPT     CALD       CORR         GRD      RHOB        SPR        ILD         SN   
# ...
 2780.0000     8.1100     0.2700   107.0860     2.4020   -31.3890     5.4810     4.9860
 2780.5000     8.1400     0.2910   109.9190     2.4460   -30.9640     5.4270     4.9560
 2781.0000     8.1640     0.2810   110.1100     2.5020   -30.3060     5.3730     4.9260
 2781.5000     8.1580     0.2460   107.3370     2.5300   -30.0370     5.3180     4.8960
 2782.0000     8.1530     0.2310   105.7880     2.4680   -30.1220     5.2640     4.8360
 2782.5000     8.1470     0.2360   107.9060     2.4420   -30.1690     5.2100     4.7430
 2783.0000     8.1460     0.2420   103.9750     2.4410   -29.2820     5.1560     4.6710
 2783.5000     8.1510     0.2430   100.4210     2.4640   -28.3800     5.1020     4.5740
 2784.0000     8.1550     0.2430   100.2370     2.4720   -27.9080     5.0480     4.5080
 2784.5000     8.1590     0.2430   105.2130     2.4740   -27.6590     4.9930     4.4420
 2785.0000     8.1640     0.2550   104.5920     2.4810   -27.5740     4.9390     4.3760
 2785.5000     8.1710     0.2740   100.9080     2.5090   -27.5020     4.8900     4.3100
 2786.0000     8.1780     0.2650    94.4420     2.6420   -27.4340     4.8370     4.2240
 2786.5000     8.1930     0.2320    95.8500     2.6300   -27.2270     4.7890     4.2510
 2787.0000     8.2310     0.1870    96.3780     2.6100   -27.2270     4.7410     4.2880
 2787.5000     8.2620     0.1420    95.2400     2.5780   -27.2290     4.6930     4.3420
 2788.0000     8.2660     0.0990    95.0150     2.5370   -27.2240     4.6450     4.3020
 2788.5000     8.2720     0.0880    98.9690     2.5350   -27.0350     4.5970     4.2290
 2789.0000     8.2770     0.0780    99.6570     2.5320   -26.8330     4.5480     4.1570
 2789.5000     8.2830     0.0680   100.5530     2.5290   -26.6320     4.5000     4.0840
 2790.0000     8.2890     0.0590   103.1730     2.5270   -26.4450     4.4610     4.0120
 2790.5000     8.2950     0.0560   109.5830     2.5190   -26.2790     4.4560     3.9990
 2791.0000     8.3000     0.0530   116.3460     2.5100   -26.0930     4.4500     3.9990
 2791.5000     8.3220     0.0540   120.6260     2.5040   -25.8970     4.4450     3.9990
 2792.0000     8.3280     0.0560   120.3770     2.5040   -25.8430     4.4390     3.9990
 2792.5000     8.3330     0.0580   120.2040     2.5030   -25.8420     4.4340     3.9990
 2793.0000     8.3380     0.0610   116.3570     2.5030   -25.8370     4.4280     3.9990
 2793.5000     8.3430     0.0690   109.4300     2.5030   -25.7000     4.4220     4.0010
 2794.0000     8.3480     0.0750   107.6770     2.5050   -25.2470     4.3400     4.0060
 2794.5000     8.3530     0.0810   108.8350     2.5080   -25.2450     4.2630     4.0110
 2795.0000     8.3580     0.0860   110.6040     2.5110   -25.2480     4.2690     4.0160
 2795.5000     8.3620     0.0910   112.0870     2.5140   -25.2470     4.2780     4.0210
 2796.0000     8.3620     0.0930   106.6640     2.5170   -25.2480     4.2860     4.0260
 2796.5000     8.3620     0.0950   110.5990     2.5200   -25.2480     4.2940     4.0310
 2797.0000     8.3620     0.0960   114.6630     2.5230   -25.2480     4.3030     4.0350
 2797.5000     8.3620     0.0970   116.9440     2.5240   -25.2480     4.3110     4.0660
 2798.0000     8.3620     0.0990   113.5880     2.5220   -25.2470     4.3190     4.1040
 2798.5000     8.3620     0.1030   117.5020     2.5190   -25.2470     4.3280     4.1410
 2799.0000     8.3620     0.1160   119.5510     2.5160   -25.2490     4.3360     4.1790
 2799.5000     8.3610     0.1180   113.8420     2.5140   -25.2840     4.3510     4.2170
 2800.0000     8.3620     0.1210   110.4230     2.5140   -25.3190     4.3840     4.2540
 2800.5000     8.4120     0.1240   117.7000     2.5160   -25.3540     4.4180     4.2920
 2801.0000     8.4610     0.1270   113.4540     2.5200   -25.3880     4.4510     4.3030
 2801.5000     8.3680     0.1300   108.0580     2.5250   -25.4230     4.4840     4.3130
 2802.0000     8.2610     0.1380   104.5900     2.5290   -25.4410     4.5170     4.3230
 2802.5000     8.2880     0.1370   102.4830     2.5350   -25.4250     4.5450     4.3320
 2803.0000     8.3160     0.1350   103.7810     2.5380   -25.4100     4.5310     4.3420
 2803.5000     8.3450     0.1330   104.0740     2.5420   -25.3950     4.5180     4.3480
 2804.0000     8.3620     0.1240   102.3350     2.5430   -25.3800     4.5060     4.3570
 2804.5000     8.3620     0.1130   103.7360     2.5400   -25.3650     4.4940     4.3650
 2805.0000     8.3570     0.1000   105.3490     2.5350   -25.3500     4.4820     4.3740
 2805.5000     8.3350     0.0920   109.7760     2.5220   -25.3360     4.4690     4.3820
 2806.0000     8.3130     0.1020   112.5990     2.5070   -25.3210     4.4630     4.3820
 2806.5000     8.3020     0.1110   114.0580     2.5050   -25.3060     4.5420     4.3820
 2807.0000     8.3020     0.1200   115.0140     2.5200   -25.2910     4.5870     4.3820
 2807.5000     8.3020     0.1190   114.4630     2.5380   -25.2760     4.5870     4.3820
 2808.0000     8.3020     0.1130   116.7020     2.5520   -25.2610     4.5870     4.3820
 2808.5000     8.3030     0.1050   120.8350     2.5520   -25.2480     4.5870     4.3820
 2809.0000     8.3530     0.1070   123.9830     2.5460   -25.2470     4.5870     4.4820
 2809.5000     8.3600     0.1140   125.9550     2.5380   -25.2480     4.6490     4.5910
 2810.0000     8.3410     0.1210   117.4560     2.5330   -25.2480     4.8260     4.6990
 2810.5000     8.3140     0.1280   109.9850     2.5330   -25.2480     5.0040     4.8070
 2811.0000     8.2830     0.1320   108.6610     2.5340   -25.2390     5.1820     4.9150
 2811.5000     8.2820     0.1350   107.8270     2.5350   -25.2280     5.3580     5.1060
 2812.0000     8.2810     0.1420   110.3060     2.5340   -25.2170     5.6720     5.4210
 2812.5000     8.2100     0.1500   109.6890     2.5340   -25.2060     5.9840     5.7350
 2813.0000     8.1060     0.1550   109.6400     2.5340   -25.1950     6.0350     6.0350
 2813.5000     8.1390     0.1590   109.0990     2.5310   -25.1840     6.0350     5.9390
 2814.0000     8.1700     0.1690   107.5640     2.5270   -25.1730     6.0350     5.7920
 2814.5000     8.1770     0.1780   102.7520     2.5230   -25.1620     5.9080     5.6450
 2815.0000     8.1640     0.1790   101.4130     2.5230   -25.1510     5.7220     5.4980
 2815.5000     8.1520     0.1800   100.1980     2.5230   -25.1400     5.5350     5.3510
 2816.0000     8.1280     0.1810    99.1790     2.5130   -25.1290     5.3480     5.2910
 2816.5000     8.0870     0.1930   100.2830     2.4970   -25.1180     5.2490     5.2340
 2817.0000     8.0510     0.2060   100.9900     2.4910   -25.1070     5.2260     5.1760
 2817.5000     8.0400     0.2100    99.9930     2.5200   -25.0960     5.2040     5.1180
 2818.0000     8.0320     0.2090    96.6760     2.5300   -25.0850     5.1810     5.0610
 2818.5000     8.0410     0.2080    98.9740     2.5470   -25.0730     5.1580     5.0030
 2819.0000     8.1090     0.2080    99.5440     2.5500   -25.0630     5.1350     4.9610
 2819.5000     8.1150     0.2190   101.4420     2.5500   -25.0530     5.1120     4.9130
 2820.0000     8.0830     0.2080   103.1670     2.6150   -25.0110     5.0900     4.8660
 2820.5000     8.0520     0.1610   107.9940     2.5940   -24.9650     5.0470     4.8180
 2821.0000     8.0210     0.1460   107.3770     2.5340   -24.9180     4.9420     4.7500
 2821.5000     7.9850     0.1460   106.6530     2.4950   -24.8710     4.8460     4.6710
 2822.0000     7.9560     0.1600   107.1250     2.4640   -24.8240     4.7620     4.5930
 2822.5000     7.9290     0.1880   108.3610     2.4750   -24.7770     4.6830     4.5140
 2823.0000     7.9090     0.1960   111.3380     2.5030   -24.7290     4.6050     4.4350
 2823.5000     7.9190     0.1960   118.5840     2.5300   -24.6880     4.5270     4.3020
 2824.0000     7.8860     0.1870   125.6840     2.5510   -24.8030     4.4480     4.1410
 2824.5000     7.7450     0.1620   122.7370     2.5580   -25.3310     4.3820     3.9660
 2825.0000     7.7420     0.1470   129.1000     2.5520   -25.8570     4.3030     3.8600
