~VERSION INFORMATION
 VERS.                2.0:   CWLS LOG ASCII STANDARD - VERSION 2.0
 WRAP.                 NO:   ONE LINE PER DEPTH STEP
~WELL INFORMATION
#MNEM.UNIT      DATA TYPE    INFORMATION
#----------   ------------   ------------------------------
 STRT.F          211.0000:   START DEPTH
 STOP.F         3244.0000:   STOP DEPTH
 STEP.F            0.5000:   STEP LENGTH
 NULL.          -999.2500:   NO VALUE
 COMP.    FENIX & SCISSON:   COMPANY
 WELL.  FENIX "AX" #84-15:   WELL
 FLD .  TEAPOT DOME NPR-3:   FIELD
 LOC .      S15 T38N R78W:   LOCATION
 CNTY.            NATRONA:   COUNTY
 STAT.            WYOMING:   STATE
 CTRY. UNITED STATES OF AMERICA:   COUNTRY
 SRVC.           BIRDWELL:   SERVICE COMPANY
 DATE.        17-MAR-1978:   LOGDATE
 API .     49025106050000:   API NUMBER
~CURVE INFORMATION
#MNEM.UNIT       API CODE    CURVE DESCRIPTION
#----------   ------------   ------------------------------
 DEPT.F                  :   
 SPR .MV     05 010 01 00:   SPONTANEOUS POTENTIAL
 SN  .OHMM   05 040 16 00:   SHORT NORMAL
 ILD .OHMM   05 120 46 00:   INDUCTION LOG DEEP
 CALD.IN     45 280 60 00:   CALIPER FROM DENSITY LOG
 GRD .GAPI   45 310 01 00:   GAMMA RAY FROM DENSITY LOG
 RHOB.G/C3   45 350 01 00:   BULK DENSITY
 CORR.G/C3   45 356 01 00:   DENSITY CORRECTION
~PARAMETER INFORMATION
#MNEM.UNIT          VALUE    DESCRIPTION
#----------   ------------   ------------------------------
 EKB .F         5251.0000:   Kelly bushing
 EGL .F         5241.0000:   Ground level
 TD  .F         3250.0000:   Total depth
 CLNT.            A2DTECH:   Client Code
 SL  . 359' FEL & 2310' FNL:   Surface Location
 PD  .                 GL:   Permanent Datum
 LMF .                 KB:   Log Measured From
 DMF .                 KB:   Drilling Measured From
 DATE.        17-MAR-1978:   Date Logged [DD-MMM-YYYY]
 DD  .F              3250:   Depth driller
 DL  .F              3250:   Depth logger
 BLI .F              3244:   Bottom log interval
 TLI .F               224:   Top log interval
 CS1 .IN            8.625:   Casing size
 CBD1.             8.625":   Casing driller 1
 CBL1.F               224:   Casing logger 1
 BS1 .IN            7.875:   Bit size
 BSD1.F              3250:   Depth drilled with bit1
 MSS .           FLOWLINE:   Source of sample
 RMS .OHMM            1.3:   Rm
 MST .F                70:   Rm Meas. temp.
 RMF .OHMM            1.1:   Rmf
 MFST.F                70:   Rmf Meas. temp.
 MFSS.               MEAS:   Source Rmf.
 RMC .OHMM            1.4:   Rmc
 MCST.F                70:   Rmc Meas. temp.
 RMB .OHMM           0.77:   Rm. at BHT
 BHT .F               118:   BHT.
 TCS .HRS               6:   Time Circ. stopped
 MRT .F               118:   Maximum recorded temp.
 LUN .               2958:   Logging unit number
 LUL .               CASP:   Logging unit location
 ENGI.             MILLER:   Recorded By
 WITN.           MCGINLEY:   Witnessed by
 ORIG.           5" PRINT:   Origin of data
 UWI .     49025106050000:   Unique Well ID
 DICO. A2D TECHNOLOGIES, INC.:   Digitizing Company
~OTHER INFORMATION
~A   DEPT      SPR         SN        ILD       CALD         GRD      RHOB       CORR   
# ...
 3214.0000   -30.5834     4.2122     3.9381     7.2484   112.0862     2.4885     0.0649
 3214.5000   -31.1929     4.1752     3.9029     7.2494   115.1055     2.4930     0.0665
 3215.0000   -32.1026     4.1566     3.8851     7.2352   115.5681     2.4877     0.0680
 3215.5000   -32.5619     4.1296     3.8415     7.2365   112.2852     2.4945     0.0698
 3216.0000   -32.7348     4.1023     3.8354     7.2376   111.8470     2.5029     0.0714
 3216.5000   -32.2793     4.0898     3.8367     7.2386   111.5670     2.5082     0.0727
 3217.0000   -31.2304     4.0756     3.8113     7.2396   110.8326     2.5059     0.0652
 3217.5000   -30.6454     4.0499     3.8130     7.2407   110.3984     2.5044     0.0592
 3218.0000   -31.5574     4.0513     3.7878     7.2417   110.5649     2.5022     0.0562
 3218.5000   -33.0677     4.0246     3.7891     7.2427   110.4309     2.4938     0.0532
 3219.0000   -33.8273     3.9704     3.7904     7.2438   110.4474     2.4810     0.0502
 3219.5000   -33.2356     3.8898     3.7390     7.2298   111.1166     2.4840     0.0503
 3220.0000   -32.3435     3.7844     3.6886     7.2309   113.7832     2.4886     0.0503
 3220.5000   -31.4493     3.6822     3.6140     7.2319   110.8740     2.4878     0.0534
 3221.0000   -32.9618     3.6074     3.5405     7.2180   109.6116     2.4863     0.0534
 3221.5000   -33.4211     3.5589     3.4926     7.2040   109.7781     2.4844     0.0550
 3222.0000   -31.7761     3.5351     3.4457     7.1900   108.4430     2.4825     0.0490
 3222.5000   -33.1385     3.5366     3.4469     7.1761   109.5145     2.4818     0.0414
 3223.0000   -32.9972     3.5874     3.4484     7.1774   110.8821     2.4810     0.0445
 3223.5000   -30.7538     3.6136     3.4493     7.1934   112.5501     2.5007     0.0537
 3224.0000   -31.8222     3.6655     3.4748     7.2394   113.4673     2.5023     0.0613
 3224.5000   -32.9031     3.7180     3.4906     7.2555   112.5827     2.5030     0.0628
 3225.0000   -33.1828     3.7977     3.5505     7.2415   108.6951     2.5023     0.0598
 3225.5000   -31.8403     3.9061     3.6015     7.2273   106.3089     2.5008     0.0537
 3226.0000   -31.8514     4.0177     3.6787     7.2286   105.5745     2.4970     0.0416
 3226.5000   -31.7101     4.0805     3.7576     7.2296   105.4399     2.4962     0.0388
 3227.0000   -31.4186     4.1920     3.8115     7.2457   106.2077     2.5046     0.0373
 3227.5000   -31.8779     4.2818     3.8662     7.2617   108.6264     2.5069     0.0374
 3228.0000   -31.8868     4.3735     3.9491     7.2777   109.6937     2.5008     0.0374
 3228.5000   -31.8957     4.3750     4.0338     7.2788   109.7102     2.4947     0.0359
 3229.0000   -31.4518     4.3765     4.1490     7.2798   109.5347     2.4887     0.0360
 3229.5000   -31.7632     4.3780     4.1795     7.2658   106.0736     2.4826     0.0360
 3230.0000   -32.2225     4.3190     4.1519     7.2519   105.5547     2.4720     0.0376
 3230.5000   -32.5317     4.2608     4.0116     7.2379   106.7763     2.4743     0.0407
 3231.0000   -32.8420     4.1743     3.9029     7.2390   110.9968     2.4789     0.0407
 3231.5000   -32.6656     4.0328     3.7971     7.2250   114.3164     2.4857     0.0332
 3232.0000   -31.1631     3.8967     3.7459     7.2261   113.4318     2.4872     0.0287
 3232.5000   -31.0656     3.8175     3.6698     7.2121   112.0927     2.4842     0.0257
 3233.0000   -31.0767     3.7924     3.6453     7.2134   113.6146     2.4865     0.0242
 3233.5000   -30.7830     3.7943     3.5962     7.2144   114.2274     2.4872     0.0212
 3234.0000   -30.4938     3.8493     3.5480     7.2155   113.0466     2.4848     0.0213
 3234.5000   -30.2001     3.9345     3.5245     7.2165   107.9578     2.4766     0.0213
 3235.0000   -30.0588     4.0177     3.5752     7.2176   107.0732     2.4698     0.0229
 3235.5000   -30.9708     4.0727     3.6518     7.2186   104.2366     2.4789     0.0275
 3236.0000   -31.8783     4.1312     3.7053     7.2196   103.8018     2.4850     0.0351
 3236.5000   -30.9863     4.1614     3.7575     7.2207   103.8187     2.4820     0.0398
 3237.0000   -30.6967     4.1628     3.7850     7.2217   106.9882     2.4903     0.0428
 3237.5000   -30.8809     4.1068     3.7603     7.2227   107.0045     2.4941     0.0428
 3238.0000   -30.1141     4.1082     3.7616     7.2238   107.1792     2.4805     0.0429
 3238.5000   -30.1231     4.0808     3.7109     7.2248   108.7213     2.4782     0.0429
 3239.0000   -30.2823     4.0539     3.6861     7.2259   109.6304     2.4767     0.0429
 3239.5000   -30.7435     4.0556     3.6368     7.2269   108.5753     2.4828     0.0445
 3240.0000   -31.0527     4.0570     3.6125     7.2279   107.0901     2.4881     0.0461
 3240.5000   -31.6621     4.0303     3.5887     7.2290   106.2055     2.4813     0.0537
 3241.0000   -31.6710     4.0037     3.5653     7.2150   107.1227     2.4881     0.0613
 3241.5000   -31.6798     3.9498     3.5172     7.2161   109.5414     2.4919     0.0629
 3242.0000   -31.5363     3.8685     3.4940     7.2171   110.0081     2.4912     0.0493
 3242.5000   -31.2471     3.7911     3.4469     7.2029   108.8232     2.4874     0.0448
 3243.0000   -31.1036     3.7101     3.4005     7.1742   104.9356  -999.2500     0.0433
 3243.5000   -30.9623     3.6138     3.3760  -999.2500  -999.2500  -999.2500  -999.2500
 3244.0000   -31.1235     3.5651     3.3289  -999.2500  -999.2500  -999.2500  -999.2500
