~VERSION INFORMATION
 VERS.                2.0:   CWLS LOG ASCII STANDARD - VERSION 2.0
 WRAP.                 NO:   ONE LINE PER DEPTH STEP
~WELL INFORMATION
#MNEM.UNIT      DATA TYPE    INFORMATION
#----------   ------------   ------------------------------
 STRT.F            2.0000:   START DEPTH
 STOP.F         3008.0000:   STOP DEPTH
 STEP.F            0.5000:   STEP LENGTH
 NULL.          -999.2500:   NO VALUE
 COMP.       FLUOR DANIEL:   COMPANY
 WELL.   FLUOR "X" #25-23:   WELL
 FLD .          N.P.R. #3:   FIELD
 LOC .      S23 T38N R78W:   LOCATION
 CNTY.            NATRONA:   COUNTY
 STAT.            WYOMING:   STATE
 CTRY. UNITED STATES OF AMERICA:   COUNTRY
 SRVC.      WESTERN ATLAS:   SERVICE COMPANY
 DATE.        21-APR-1995:   LOGDATE
 API .     49025227090000:   API NUMBER
~CURVE INFORMATION
#MNEM.UNIT       API CODE    CURVE DESCRIPTION
#----------   ------------   ------------------------------
 DEPT.F                  :   
 GRR .GAPI   07 310 01 00:   GAMMA RAY FROM RESISTIVITY
 TENR.LBS    07 635 01 00:   TENSION FROM RESISTIVITY
 RILD.OHMM   07 120 46 00:   RESISTIVITY INDUCTION LOG DEEP
 RILM.OHMM   07 120 44 00:   RESISTIVITY INDUCTION LOG MEDIUM
~PARAMETER INFORMATION
#MNEM.UNIT          VALUE    DESCRIPTION
#----------   ------------   ------------------------------
 EKB .F         5285.0000:   Kelly bushing
 EGL .F         5275.0000:   Ground level
 EDF .F         5284.0000:   Drilling floor
 TD  .F         3000.0000:   Total depth
 CLNT.            A2DTECH:   Client Code
 SL  . 2343' FSL & 1264' FWL:   Surface Location
 PD  .                 GL:   Permanent Datum
 EPD .F              5275:   Elevation Permanent Datum
 DMF .                 KB:   Drilling Measured From
 DAPD.                 10:   Feet Above Permanent Datum
 DATE.        21-APR-1995:   Date Logged [DD-MMM-YYYY]
 DD  .F              3000:   Depth driller
 DL  .F              3000:   Depth logger
 BLI .F              2999:   Bottom log interval
 TLI .F                 0:   Top log interval
 CS1 .IN            9.625:   Casing size
 CBD1.       9.625" @ 53':   Casing driller 1
 CBL1.F                53:   Casing logger 1
 BS1 .IN             6.25:   Bit size
 BSD1.F              3000:   Depth drilled with bit1
 DFT .                OIL:   Type fluid in hole
 MRT .F               114:   Maximum recorded temp.
 LUN .            HL 6530:   Logging unit number
 LUL .             CASPER:   Logging unit location
 ENGI.        VERN RAUTIO:   Recorded By
 WITN.        GARY STRONG:   Witnessed by
 ORIG.         2.5" PRINT:   Origin of data
 UWI .     49025227090000:   Unique Well ID
 DICO. A2D TECHNOLOGIES,INC.:   Digitizing Company
 LMF .                 KB:   Log Measured From
~OTHER INFORMATION
~A    DEPT      GRR      TENR       RILD       RILM   
# ...
  440.0000   109.9607    -2.9228     5.9102     6.0726
  440.5000   105.7726    -2.7853     5.9083     5.9890
  441.0000   104.2244    -2.6471     5.9064     5.9970
  441.5000   106.6638    -2.5000     5.9044     6.0668
  442.0000   113.7491    -2.3529     5.8230     6.0645
  442.5000   115.5735    -2.2059     5.7969     6.0624
  443.0000   112.4347    -2.0588     5.7408     6.0604
  443.5000   111.2527    -1.8912     5.7388     6.0579
  444.0000   111.2471    -1.7537     5.7365     6.0560
  444.5000   111.9246    -1.6162     5.7347     6.0540
  445.0000   112.5784    -1.4706     5.7328     6.0521
  445.5000   114.0589    -1.3235     5.8884     5.9687
  446.0000   115.0628    -1.1765     5.8865     5.8865
  446.5000   115.9235    -1.0294     5.8942     5.8845
  447.0000   113.5641    -0.8597     5.9629     5.8825
  447.5000   112.3821    -0.7221     5.9346     6.0423
  448.0000   114.7451    -0.5846     5.8785     6.0399
  448.5000   117.1559    -0.4412     5.8765     5.9127
  449.0000   118.5490    -0.2941     5.8742     5.8742
  449.5000   119.8627    -0.1471     5.7933     5.8723
  450.0000   117.6471     0.0000     5.7135     5.7914
  450.5000   114.1107     0.1719     5.6348     5.7116
  451.0000   112.3405     0.3095     5.5572     5.7098
  451.5000   108.2173     0.4470     5.5553     5.5553
  452.0000   107.6235     0.5882     5.5534     5.5534
  452.5000   109.1766     0.7353     5.5515     5.5515
  453.0000   113.7647     0.8824     5.5496     5.5802
  453.5000   114.6657     1.0294     5.7001     5.7781
  454.0000   111.4707     1.2035     5.6979     5.9200
  454.5000   107.5930     1.3411     5.5438     5.8524
  455.0000   105.2345     1.4786     5.5420     5.6941
  455.5000   102.8760     1.6176     5.5402     5.5401
  456.0000   100.5175     1.7647     5.5344     5.5384
  456.5000   100.7037     1.9118     5.3885     5.3885
  457.0000   105.4510    -4.3632     5.3867     5.3867
  457.5000   106.3833   -12.5000     5.2868     5.4586
  458.0000   106.3765   -12.3332     5.2392     5.4565
  458.5000   106.7049   -12.1957     5.2374     5.4217
  459.0000   108.1286   -12.0581     5.2354     5.3794
  459.5000   109.8877   -11.9118     5.2337     5.2336
  460.0000   111.0586   -11.7647     5.2320     5.2319
  460.5000   111.0206   -11.6176     5.0905     5.0904
  461.0000   109.8706   -11.4706     5.0888     5.0888
  461.5000   109.8647     3.4042     5.0871     5.0871
  462.0000   111.4354     3.5418     5.1236     5.2251
  462.5000   114.8775     3.6793     5.2236     5.3669
  463.0000   114.5520     3.8235     5.3649     5.5125
  463.5000   112.1935     3.9706     5.4482     5.6158
  464.0000   105.1292     4.1177     5.5085     5.7755
  464.5000   102.7707     4.2647     5.6576     5.8132
  465.0000   104.6177     4.4358     5.6558     5.8109
  465.5000   107.4655     4.5734     5.7311     5.8090
  466.0000   106.4079   -10.0000     5.8073     5.8071
  466.5000   105.1000    -9.8529     5.8053     5.8053
  467.0000   106.2696     5.0000     5.8033     5.8825
  467.5000   107.4405     5.1471     5.8014     5.8805
  468.0000   107.4350     5.2941     5.7609     5.7994
  468.5000   108.0177     5.4674     5.6421     5.7974
  469.0000   108.0843     5.6050     5.4896     5.6834
  469.5000   108.8824     5.7425     5.4878     5.5225
  470.0000   111.3725     5.8824     5.3394     5.3392
  470.5000   112.1118     6.0294     5.2658     5.1948
  471.0000   112.1048     6.1765     5.1933     5.1233
  471.5000   111.5110     6.3235     5.1772     5.0527
  472.0000   112.0941     6.4990     5.0511     4.9161
  472.5000   114.4411     6.6366     4.9541     4.9144
  473.0000   117.0155     6.7741     4.9127     4.9402
  473.5000   119.9804     6.9118     5.1842     5.1356
  474.0000   121.4833     7.0588     5.4710     5.4857
  474.5000   120.0734     7.2059     5.6194     5.7360
  475.0000   104.9988     7.3529     5.4675     5.6173
  475.5000    93.2286     0.9551     5.3196     5.4654
  476.0000    86.1642     7.6682     5.2378     5.4637
  476.5000    89.6881     7.8057     5.1740     5.4619
  477.0000   103.6643     7.9432     5.1722     5.4601
  477.5000   112.9559     8.0882     5.1705     5.4583
  478.0000   116.7303     8.2353     5.1687     5.4452
  478.5000   115.9559     8.3824     5.1667     5.3812
  479.0000   112.5333     8.5294     5.1650     5.3794
  479.5000   110.8285     8.6997     5.1633     5.3776
  480.0000   111.9994     8.8373     5.2321     5.4149
  480.5000   111.9939     8.9748     5.3017     5.4472
  481.0000   111.9882     9.1176     5.4455     5.5194
  481.5000   112.8619     9.2647     5.4612     5.5930
  482.0000   115.8432     9.4118     5.5914     5.6673
  482.5000   116.6776     9.5588     5.7427     5.7427
  483.0000   113.6941    -4.9746     5.8622     5.7489
  483.5000   110.7814    -4.8370     6.0580     5.8966
  484.0000   111.4195    -4.6995     6.0560     5.9987
  484.5000   116.6526    10.1471     6.2203     6.0546
  485.0000   120.7745    10.2941     6.2183     6.1752
  485.5000   120.0079    10.4412     6.2163     6.2163
  486.0000   117.0706    10.5882     6.2142     6.2989
  486.5000   118.2549    10.7629     6.2121     6.2965
  487.0000   118.9765    10.9005     6.2100     6.2098
  487.5000   118.3813    11.0380     6.1318     6.0419
  488.0000   117.7875    11.1765     6.0399     6.0356
  488.5000   117.7820    11.3235     5.8762     5.8765
  489.0000   117.7764    11.4706     5.8743     5.8745
  489.5000   119.0127    11.6176     5.8724     5.8725
  490.0000   120.1183    11.7647     5.9505     5.8705
  490.5000   120.9088    11.9320     6.0298     5.8685
  491.0000   123.2999    -2.6471     6.1240     6.0276
  491.5000   118.9224    -2.4987     6.1913     6.1911
  492.0000   115.9757    -2.3529     6.3593     6.3589
  492.5000   115.3819     1.5925     6.3979     6.5313
  493.0000   116.5528    12.6471     6.5291     6.7090
  493.5000   119.0999    12.7941     6.7061     6.8904
  494.0000   125.2627    12.9636     6.8877     7.1146
  494.5000   129.4678    13.1012     6.9794     7.2975
  495.0000   132.0883    13.2387     7.0723     7.4665
  495.5000   132.9941    13.3824     7.0864     7.4635
  496.0000   131.8109    13.5294     7.2618     7.5627
  496.5000   130.0407    13.6765     7.2591     7.5597
  497.0000   126.5057    13.8235     7.2566     7.4527
  497.5000   124.6667    13.9952     7.2542     7.3506
  498.0000   122.1647    14.1328     7.2513     7.3486
  498.5000   119.8401    14.2703     7.2489     7.3466
  499.0000   118.8353    14.4118     7.2466     7.2072
  499.5000   120.1118    14.5588     7.2443     7.0953
  500.0000   124.1167    13.2821     7.2419     6.9533
  500.5000   123.5229     4.2958     6.9097     6.6747
  501.0000   123.5174    -4.6906     6.7622     6.5832
  501.5000   126.2271   -13.3961     6.5784     6.4929
  502.0000   131.0639   -12.9412     6.5758     6.5095
  502.5000   132.1101    -7.5980     6.5733     6.5782
  503.0000   127.7895    17.3529     6.5708     6.5761
  503.5000   127.5545    17.8768     6.7611     6.7546
  504.0000   128.5428     3.5846     6.9474     6.9383
  504.5000   123.8127   -10.7077     7.1188     6.9365
  505.0000   119.0846   -10.2941     6.8544     6.7494
  505.5000   115.5364    -9.8529     6.6496     6.5672
  506.0000   112.5781    -9.4118     6.2933     6.5152
  506.5000   111.9794    -8.9706     6.0404     6.3163
  507.0000   113.6382     6.1765     5.9568     6.1234
  507.5000   119.9754     6.6866     5.8744     5.8862
  508.0000   125.6008    -7.6471     5.7152     5.6504
  508.5000   130.2763    -7.1921     5.5602     5.5730
  509.0000   130.8142    -6.7647     5.5412     5.4155
  509.5000   127.8544    -6.3235     5.4072     5.3315
  510.0000   126.0761    -5.8824     5.4050     5.2748
  510.5000   127.2477    -5.4412     5.4028     5.2734
  511.0000   129.5992    -5.0000     5.3276     5.2717
  511.5000   128.8839    -4.5588     5.2539     5.2704
  512.0000   128.4025    -4.1177     5.2518     5.2690
  512.5000   129.8181    -3.6765     5.2498     5.2677
