~VERSION INFORMATION
 VERS.                2.0:   CWLS LOG ASCII STANDARD - VERSION 2.0
 WRAP.                 NO:   ONE LINE PER DEPTH STEP
~WELL INFORMATION
#MNEM.UNIT      DATA TYPE    INFORMATION
#----------   ------------   ------------------------------
 STRT.F          712.0000:   START DEPTH
 STOP.F         3352.0000:   STOP DEPTH
 STEP.F            0.5000:   STEP LENGTH
 NULL.          -999.2500:   NO VALUE
 COMP.    FENIX & SCISSON:   COMPANY
 WELL. FENIX & SCISSON "AX" #24-14:   WELL
 FLD .              NPR 3:   FIELD
 LOC .      S14 T38N R78W:   LOCATION
 CNTY.            NATRONA:   COUNTY
 STAT.            WYOMING:   STATE
 CTRY. UNITED STATES OF AMERICA:   COUNTRY
 SRVC.       SCHLUMBERGER:   SERVICE COMPANY
 DATE.        19-JUN-1981:   LOGDATE
 API .     49025108750000:   API NUMBER
~CURVE INFORMATION
#MNEM.UNIT       API CODE    CURVE DESCRIPTION
#----------   ------------   ------------------------------
 DEPT.F                  :   
 TENR.LBS    07 635 01 00:   TENSION
 ILD .OHMM   07 120 46 00:   DEEP INDUCTION RESISTIVITY
 SFL .OHMM   07 220 01 00:   SHALLOW FOCUSED LOG RESISTIVITY
 ILM .OHMM   07 120 44 00:   INDUCTION LOG MEDIUM RESISTIVITY
 SPR .MV     07 010 01 00:   SPONTANEOUS POTENTIAL
 TEND.LBS    45 635 01 00:   TENSION FROM DENSITY LOG
 DRHO.G/C3   45 356 01 00:   DENSITY CORRECTION
 CALD.IN     45 280 60 00:   CALIPER FROM DENSITY LOG
 GRD .GAPI   45 310 01 00:   GAMMA RAY FROM DENSITY LOG
 RHOB.G/C3   45 350 01 00:   BULK DENSITY
~PARAMETER INFORMATION
#MNEM.UNIT          VALUE    DESCRIPTION
#----------   ------------   ------------------------------
 EKB .F         5216.0000:   Kelly bushing
 EGL .F         5206.0000:   Ground level
 EDF .F         5215.0000:   Drilling floor
 EPD .F            0.0000:   Permanent datum
 TD  .F         3360.0000:   Total depth
 DATE.        19-JUN-1981:   Date logged
 CLNT.            A2DTECH:   Client Code
 SL  . 2413' FNL & 827' FWL:   Surface Location
 PD  .                 GL:   Permanent Datum
 DAPD.F                10:   Feet Above Permanent Datum
 DD  .F              3360:   Depth driller
 DL  .F              3348:   Depth logger
 BLI .F              3342:   Bottom log interval
 TLI .F               728:   Top log interval
 CS1 .IN            8.625:   Casing size
 CBD1.      8.625" @ 728':   Casing driller 1
 CBL1.F               728:   Casing logger 1
 BS1 .IN            7.875:   Bit size
 BSD1.F              3360:   Depth drilled with bit1
 DFT .                FGM:   Type fluid in hole
 DFD .                  9:   Density
 DFV .                 45:   Viscosity
 DFPH.                9.5:   pH
 DFL .                 10:   Fluid loss
 MSS .               TANK:   Source of sample
 RMS .OHMM           5.71:   Rm
 MST .F                68:   Rm Meas. temp.
 RMF .OHMM           1.27:   Rmf
 MFST.F                68:   Rmf Meas. temp.
 MFSS.               MEAS:   Source Rmf.
 RMB .OHMM           3.29:   Rm. at BHT
 BHT .F               118:   BHT.
 TCS .HRS            0800:   Time Circ. stopped
 TLAB.HRS            1130:   Time logger at bottom
 MRT .F               118:   Maximum recorded temp.
 LUN .               8039:   Logging unit number
 LUL .               CSPR:   Logging unit location
 ENGI.           G. PFARR:   Recorded By
 WITN.           R. SCOTT:   Witnessed by
 ORIG.           5" PRINT:   Origin of data
 UWI .     49025108750000:   Unique Well ID
 DICO. A2D TECHNOLOGIES, INC.:   Digitizing Company
~OTHER INFORMATION
~A   DEPT     TENR        ILD        SFL        ILM        SPR       TEND       DRHO       CALD         GRD      RHOB   
# ...
 1047.0000   836.5270     8.2970     8.3720     7.2380   -62.6560   885.2550     0.0120     8.7360   107.0700     2.5150
 1047.5000   832.5340     8.3910     8.6360     7.3220   -62.4560   882.9370     0.0140     8.7390   105.4400     2.5150
 1048.0000   828.5420     8.5770     8.9010     7.4060   -62.2600   882.9370     0.0170     8.7420   103.8960     2.5200
 1048.5000   824.5500     8.7790     9.1650     7.4910   -62.0650   882.9370     0.0210     8.7450   103.0100     2.5310
 1049.0000   820.5580     8.9810     9.4300     7.5650   -61.8610   882.9370     0.0260     8.7490   103.0550     2.5420
 1049.5000   816.5660     9.1860     9.6980     7.6320   -61.6770   882.9370     0.0240     8.7530   102.3210     2.5430
 1050.0000   812.5740     9.1860     9.6440     7.6980   -61.4550   882.9370     0.0230     8.7580   100.0490     2.5360
 1050.5000   808.5820     9.1860     9.5890     7.7650   -61.6060   882.9370     0.0210     8.7620    99.7370     2.5320
 1051.0000   805.5010     9.1860     9.5240     7.8320   -61.8160   882.9370     0.0220     8.7660    99.4840     2.5330
 1051.5000   805.5010     9.1860     9.6170     7.8980   -62.0370   882.9370     0.0240     8.7710    99.2180     2.5260
 1052.0000   805.5010     9.1860     9.7290     7.9480   -62.2480   882.9370     0.0250     8.7750    99.5480     2.5200
 1052.5000   805.5010     9.1860     9.8750     7.9480   -62.4640   882.9370     0.0290     8.7790   100.5160     2.5270
 1053.0000   805.5010     9.1710     9.8070     7.9480   -62.6790   882.9370     0.0500     8.7840   102.3720     2.5470
 1053.5000   805.5010     9.1490     9.7080     7.9480   -62.8930   882.9370     0.0590     8.7880   105.3110     2.5630
 1054.0000   805.5010     9.1270     9.6090     7.9340   -63.1090   882.9370     0.0610     8.7920   108.6490     2.5650
 1054.5000   805.5010     9.1050     9.5240     7.8910   -63.3250   882.9370     0.0430     8.7960   107.4760     2.5410
 1055.0000   805.5010     9.0830     9.4610     7.8490   -63.5340   882.9370     0.0290     8.8010   105.4060     2.5170
 1055.5000   805.5010     9.0610     9.4060     7.8060   -63.7580   882.9370     0.0160     8.8040   104.5530     2.5120
 1056.0000   805.5010     9.0390     9.3500     7.7630   -63.9650   882.9370     0.0140     8.8040   106.0380     2.5170
 1056.5000   805.5010     9.0130     9.2950     7.7200   -64.1170   882.9370     0.0180     8.8040   107.7890     2.5210
 1057.0000   805.5010     8.9750     9.2400     7.6780   -63.8750   882.9370     0.0200     8.8040   107.4230     2.5250
 1057.5000   805.5010     8.9380     9.1850     7.6350   -63.5030   882.9370     0.0230     8.8040   106.0600     2.5280
 1058.0000   805.5010     8.9000     9.1290     7.5920   -62.9790   882.9370     0.0260     8.8040   105.2960     2.5360
 1058.5000   805.5010     8.8620     9.0740     7.5500   -62.6020   882.9370     0.0290     8.8040   105.0290     2.5390
 1059.0000   805.5010     8.8240     9.0190     7.5070   -62.6070   882.9370     0.0320     8.8040   104.4560     2.5350
 1059.5000   805.5010     8.7860     8.9630     7.4630   -62.5910   882.9370     0.0310     8.8040   103.4530     2.5290
 1060.0000   805.5010     8.7490     8.9080     7.4200   -62.5890   882.9370     0.0290     8.8040   103.2270     2.5270
 1060.5000   805.5010     8.7110     8.8530     7.3850   -62.6310   882.9370     0.0270     8.8040   103.0150     2.5280
 1061.0000   805.5010     8.6730     8.7970     7.3640   -62.2410   882.9370     0.0250     8.8040   102.2900     2.5270
 1061.5000   805.5010     8.6350     8.7420     7.3440   -61.8140   883.0800     0.0240     8.8040   101.7910     2.5220
 1062.0000   805.5010     8.5970     8.6870     7.3230   -61.8230   883.3070     0.0220     8.8040   102.8210     2.5180
 1062.5000   805.5010     8.5460     8.6310     7.3030   -61.8430   883.5340     0.0200     8.8040   103.8930     2.5140
 1063.0000   805.5010     8.5590     8.5440     7.2810   -62.2920   883.7610     0.0190     8.8040   104.0720     2.5120
 1063.5000   800.1960     8.5840     8.7160     7.2600   -62.6160   883.9880     0.0210     8.8040   104.4190     2.5150
 1064.0000   787.7210     8.6090     9.0660     7.3190   -62.6740   884.2150     0.0240     8.8040   106.3070     2.5260
 1064.5000   775.2460     8.6340     9.2480     7.3760   -63.0250   884.4420     0.0270     8.8040   108.7310     2.5360
 1065.0000   767.1410     8.6580     9.4310     7.4340   -62.8890   884.6690     0.0260     8.8040   109.3910     2.5380
 1065.5000   770.5240     8.6830     9.5240     7.4910   -62.6050   884.8960     0.0250     8.8040   108.2410     2.5370
 1066.0000   773.9070     8.7080     9.3970     7.5480   -62.7610   885.1230     0.0240     8.8040   107.7030     2.5350
 1066.5000   777.2900     8.7320     9.2810     7.6050   -62.8340   885.3500     0.0220     8.8040   107.3350     2.5270
 1067.0000   780.6730     8.7570     9.1650     7.6640   -63.0730   885.5770     0.0210     8.8040   106.2690     2.5180
 1067.5000   784.0560     8.7820     9.0480     7.6740   -63.3800   885.8040     0.0220     8.8040   104.5190     2.5110
 1068.0000   787.4400     8.8060     9.1640     7.6840   -63.5780   886.0310     0.0240     8.8040   102.8660     2.5140
 1068.5000   790.8230     8.8310     9.3520     7.6950   -63.5270   886.2580     0.0270     8.8040   103.2710     2.5310
 1069.0000   794.2060     8.8560     9.5400     7.7050   -63.8450   886.4850     0.0320     8.8040   105.1740     2.5450
 1069.5000   797.5890     8.8800     9.7270     7.7150   -63.4240   886.7120     0.0370     8.8040   106.6780     2.5440
 1070.0000   800.9720     8.9050    10.0090     7.7260   -63.2610   886.9390     0.0390     8.8040   107.6930     2.5330
 1070.5000   804.3550     8.9300     9.9630     7.7360   -63.1560   887.1660     0.0420     8.8040   108.7480     2.5250
 1071.0000   807.7390     8.9550     9.5950     7.7460   -63.0590   887.3930     0.0570     8.8040   109.0020     2.5310
 1071.5000   811.1220     8.9800     9.1860     7.7560   -62.9510   887.6200     0.0770     8.8000   107.7920     2.5410
 1072.0000   814.5050     9.0200     9.0210     7.7660   -62.8490   887.8470     0.0910     8.7830   105.3560     2.5440
 1072.5000   817.8880     9.0150     9.1390     7.7760   -62.7430   888.0740     0.0650     8.7660   101.7840     2.5280
 1073.0000   821.2710     8.9960     9.2470     7.7870   -62.6490   888.3010     0.0370     8.7500   100.9230     2.5000
 1073.5000   824.6550     8.9760     9.3540     7.7960   -62.4920   888.5280     0.0220     8.7330   102.0950     2.4840
 1074.0000   828.0380     8.9560     9.4620     7.8040   -62.2870   888.7550     0.0170     8.7270   103.9110     2.4840
 1074.5000   831.4210     8.9370     9.5690     7.7820   -62.2210   888.9820     0.0130     8.7300   105.0890     2.4830
 1075.0000   834.8040     8.9180     9.6980     7.7650   -62.4760   889.2090     0.0080     8.7340   104.8570     2.4790
 1075.5000   838.1870     8.8980     9.6100     7.7460   -62.6800   889.4360     0.0030     8.7380   103.1760     2.4770
 1076.0000   841.5700     8.8790     9.5010     7.7270   -62.9010   889.6630     0.0080     8.7420   100.5000     2.4820
 1076.5000   844.7940     8.8600     9.3910     7.7080   -63.0560   889.8900     0.0140     8.7440    99.7700     2.4910
 1077.0000   844.4370     8.8400     9.3140     7.6900   -63.1720   890.1170     0.0170     8.7440    99.9930     2.5000
 1077.5000   844.0970     8.8210     9.2530     7.6730   -63.2860   890.3440     0.0200     8.7430   101.5360     2.5100
 1078.0000   843.7570     8.8020     9.1860     7.6430   -63.4090   890.5710     0.0220     8.7430   104.0450     2.5200
 1078.5000   843.4170     8.7820     9.2560     7.6050   -63.5120   890.7980     0.0250     8.7420   106.3270     2.5280
 1079.0000   843.0770     8.7630     9.3340     7.5700   -63.6360   891.0250     0.0270     8.7420   105.4390     2.5280
 1079.5000   842.7360     8.7430     9.4120     7.5350   -63.8170   891.2510     0.0300     8.7410   102.8630     2.5250
 1080.0000   842.3960     8.7240     9.5240     7.4990   -64.1990   891.4780     0.0320     8.7410   100.8760     2.5260
