~VERSION INFORMATION
 VERS.                2.0:   CWLS LOG ASCII STANDARD - VERSION 2.0
 WRAP.                 NO:   ONE LINE PER DEPTH STEP
~WELL INFORMATION
#MNEM.UNIT      DATA TYPE    INFORMATION
#----------   ------------   ------------------------------
 STRT.F            0.5000:   START DEPTH
 STOP.F         5663.0000:   STOP DEPTH
 STEP.F            0.5000:   STEP LENGTH
 NULL.          -999.2500:   NO VALUE
 COMP.         U. S. NAVY:   COMPANY
 WELL.         US TP #1-3:   WELL
 FLD . TEAPOT NAVAL RESERVE:   FIELD
 LOC .       S3 T38N R78W:   LOCATION
 CNTY.            NATRONA:   COUNTY
 STAT.            WYOMING:   STATE
 CTRY. UNITED STATES OF AMERICA:   COUNTRY
 SRVC.       SCHLUMBERGER:   SERVICE COMPANY
 DATE.        27-FEB-1953:   LOGDATE
 API .     49025064250000:   API NUMBER
~CURVE INFORMATION
#MNEM.UNIT       API CODE    CURVE DESCRIPTION
#----------   ------------   ------------------------------
 DEPT.F                  :   
 SPR .MV     01 010 01 00:   SPONTANEOUS POTENTIAL FROM RES.
 ASN .OHMM   01 041 16 00:   AMPLIFIED SHORT NORMAL 16"
 LAT .OHMM   01 070 00 00:   LATERAL
 LN  .OHMM   01 060 64 00:   LONG NORMAL 64"
 GRN .CPS    35 310 01 00:   GAMMA RAY
 NEUT.NAPI   35 330 01 00:   NEUTRON
~PARAMETER INFORMATION
#MNEM.UNIT          VALUE    DESCRIPTION
#----------   ------------   ------------------------------
 EKB .F            0.0000:   Kelly bushing
 EGL .F            0.0000:   Ground level
 EDF .F            0.0000:   Drilling floor
 EPD .F            0.0000:   Permanent datum
 TD  .F         5653.0000:   Total depth
 DATE.        27-FEB-1953:   Date logged
 CLNT.            A2DTECH:   Client Code
 DD  .F              5653:   Depth driller
 DL  .F              5653:   Depth logger
 BLI .F              5652:   Bottom log interval
 TLI .F               446:   Top log interval
 CBD1.F               445:   Casing driller 1
 CBL1.F               446:   Casing logger 1
 BS1 .IN                9:   Bit size
 BSD1.F              5653:   Depth drilled with bit1
 DFT .          LIMA/BASE:   Type fluid in hole
 DFD .                9.9:   Density
 DFV .                 43:   Viscosity
 RMS .OHMM            1.1:   Rm
 MST .F                55:   Rm Meas. temp.
 RMB .OHMM            .34:   Rm. at BHT
 BHT .F               166:   BHT.
 TCS .HRS               1:   Time Circ. stopped
 MRT .F               166:   Maximum recorded temp.
 LUN .                728:   Logging unit number
 LUL .               CSPR:   Logging unit location
 ENGI.            EVENSON:   Recorded By
 WITN.              MILLS:   Witnessed by
 ORIG.      1" 2.5" PRINT:   Origin of data
 UWI .     49025064250000:   Unique Well ID
 DICO. A2D TECHNOLOGIES, INC.:   Digitizing Company
~OTHER INFORMATION
~A  DEPTH      SPR        ASN        LAT         LN        GRN       NEUT
# ...
  780.5000   -36.8111     5.4112     8.7103     7.4475    59.0713    93.6806
  781.0000   -36.8123     5.4114     8.8455     7.4485    59.8559    98.7237
  781.5000   -36.8137     5.4116     8.9854     7.4495    61.0737   103.8075
  782.0000   -36.8150     5.4251     9.1157     7.4507    61.5664   112.3989
  782.5000   -36.8164     5.4388     9.1163     7.4515    61.9972   121.4326
  783.0000   -36.8177     5.4390     9.1991     7.4525    62.3233   132.6888
  783.5000   -36.8192     5.4392     9.2520     7.4535    62.5728   146.6720
  784.0000   -36.8204     5.4394     9.2527     7.4545    62.3206   154.3433
  784.5000   -36.8219     5.4395     9.2534     7.4556    62.0689   156.7625
  785.0000   -36.8231     5.4667     9.1684     7.5214    62.0677   146.6536
  785.5000   -36.8244     5.4668     9.1203     7.5913    62.0664   129.5650
  786.0000   -36.8257     5.4774     9.1210     7.5922    62.7219   108.7617
  786.5000   -36.8271     5.4941     9.1217     7.5933    63.8182   101.1806
  787.0000   -36.8894     5.4943     9.1223     7.5943    65.1065   107.2605
  787.5000   -37.0560     5.4675     9.1231     7.6275    65.5389   126.4201
  788.0000   -37.0992     5.4677     8.9883     7.6753    64.8170   142.2730
  788.5000   -37.1005     5.4678     8.8789     7.7311    63.5144   156.7100
  789.0000   -37.1019     5.4680     8.7218     7.7320    62.3082   167.2594
  789.5000   -37.1032     5.4682     8.5879     7.7551    61.4969   169.3245
  790.0000   -37.1047     5.4683     8.5888     7.8677    60.8018   164.2674
  790.5000   -37.2994     5.4685     8.4549     7.8686    60.2826   157.6702
  791.0000   -37.3755     5.4687     8.5901     7.8697    60.0476   146.5775
  791.5000   -37.3767     5.4558     8.6455     7.8707    59.2944   138.1263
  792.0000   -37.3783     5.4420     8.7259     7.8717    58.9624   116.2614
  792.5000   -37.3794     5.4153     8.8609     8.0064    58.7906   111.2056
  793.0000   -37.3807     5.4102     8.9961     8.1412    61.5675   122.1339
  793.5000   -37.4869     5.3886     8.9966     8.2757    64.8030   134.0425
  794.0000   -37.6204     5.4247     8.8630     8.4104    67.3083   142.1972
  794.5000   -37.6528     5.5507     8.8636     8.4114    70.3703   156.6339
  795.0000   -37.6542     5.7079     8.7297     8.4442    70.0626   166.7297
  795.5000   -37.6555     6.1171     8.5961     8.6091    67.7524   173.5667
  796.0000   -37.6568     6.3178     8.1478     8.7433    64.0449   186.9186
  796.5000   -37.6582     6.4948     7.7910     8.8166    61.4987   192.3799
  797.0000   -37.6595     6.6386     7.5228     8.9512    60.7845   193.0429
  797.5000   -37.9291     6.8186     7.5236     8.9523    60.7832   186.9002
  798.0000   -37.9303     6.9295     7.3897     9.1123    60.8233   172.3489
  798.5000   -37.9316     7.0885     7.5250     9.3554    61.0313   161.6345
  799.0000   -37.9330     7.1979     7.5255     9.4900    61.5727   161.6288
  799.5000   -37.9346     7.3314     7.6538     9.6249    62.3638   159.0962
  800.0000   -38.4719     7.8013     8.2326     9.6257    63.7422   159.0909
  800.5000   -38.8019     8.2602     8.4688     9.8941    65.1207   148.9773
  801.0000   -39.1320     8.3291     8.5005    10.0288    65.8308   151.4889
  801.5000   -39.4621     8.4219     8.5841    10.3310    64.8666   151.4773
  802.0000   -39.6669     8.5046     8.6063    10.5656    63.2702   159.0384
  802.5000   -39.8091     8.5856     8.6937    10.7403    62.5093   171.9061
  803.0000   -40.0764     8.7070     8.8208    11.0024    62.6203   197.2727
  803.5000   -40.0757     8.7651     8.9588    11.1180    63.2611   232.2340
  804.0000   -40.0751     8.8421     9.1478    11.2381    63.2581   254.8494
  804.5000   -40.0744     8.8705     9.1568    11.5251    63.5865   272.6118
  805.0000   -40.0285     8.9277     9.3229    11.6412    63.7656   285.6054
  805.5000   -39.8624     8.9503     9.5122    11.7757    64.0012   295.3181
  806.0000   -39.8043     9.0151     9.7224    11.7767    63.4961   290.2518
  806.5000   -39.8036     9.0660     9.9098    11.7777    63.2425   278.1310
  807.0000   -39.8029     9.0895    10.1220    11.7493    61.2339   262.4478
  807.5000   -39.8023     9.1395    10.2302    11.6461    57.4341   251.5769
  808.0000   -39.7449     9.1693    10.4086    11.6471    55.9749   234.7473
  808.5000   -39.6498     9.2024    10.7699    11.6481    54.9591   216.9565
  809.0000   -39.5546     9.2477    11.3717    11.6491    54.1316   199.5954
  809.5000   -39.5315     9.2748    11.8472    11.6501    53.6995   184.1019
  810.0000   -39.5308     9.2749    12.1572    11.6444    53.6967   181.3129
  810.5000   -39.5301     9.2090    12.5213    11.5632    54.3214   175.2269
  811.0000   -39.5295     9.1773    12.5222    11.5194    55.9460   171.4389
  811.5000   -39.5288     9.1493    12.5583    11.5206    57.6836   177.1342
  812.0000   -39.5281     9.0868    12.6586    11.5214    59.1976   206.7662
  812.5000   -39.5275     9.0667    12.6596    11.4667    59.7275   237.6896
  813.0000   -39.5268     9.0062    12.7007    11.4129    60.1942   262.2955
  813.5000   -39.5260     8.9524    12.7960    11.3905    60.1910   282.4870
  814.0000   -39.5255     8.8987    12.7971    11.3918    60.4390   285.0018
  814.5000   -39.5247     8.8573    12.8160    11.3927    60.4355   252.1578
  815.0000   -39.5241     8.8046    12.9335    11.4739    60.4323   219.9491
  815.5000   -39.5235     8.7373    12.9345    11.5284    60.4286   181.4244
  816.0000   -39.5228     8.6458    12.9356    11.5294    60.5898   168.7877
  816.5000   -39.5221     8.4681    13.0493    11.5304    60.8446   156.8311
  817.0000   -39.5214     8.3792    13.2065    11.5314    61.1714   146.0341
  817.5000   -39.5208     8.3336    13.2073    11.5324    61.5320   140.0885
  818.0000   -39.5201     8.3067    13.2399    11.5334    61.9167   130.8564
  818.5000   -39.5194     8.3069    13.3438    11.5344    62.1648   143.4721
  819.0000   -39.5188     8.2800    13.4378    11.5354    62.5101   156.5144
  819.5000   -39.5181     8.2802    13.4802    11.5364    62.9101   181.3247
  820.0000   -39.5174     8.2534    13.4812    11.5374    63.1582   188.8899
  820.5000   -39.5168     8.2535    13.4823    11.5384    62.4024   176.2479
  821.0000   -39.5160     8.2806    13.4832    11.5394    61.6404   168.6364
  821.5000   -39.7033     8.2807    13.5591    11.5404    59.2237   166.1237
  822.0000   -39.7828     8.3078    13.6196    11.5414    57.1301   166.1102
  822.5000   -39.7822     8.3080    13.6208    11.5424    55.0094   171.1502
  823.0000   -39.7815     8.3081    13.7560    11.5434    53.8654   177.7777
  823.5000   -39.8677     8.3082    13.7571    11.4723    53.1021   183.7502
  824.0000   -40.0484     8.3353    13.8226    11.4118    52.3859   183.7374
  824.5000   -40.0476     8.3361    13.8935    11.3767    52.1019   181.1995
  825.0000   -40.0469     8.3625    13.8945    11.2355    54.1668   178.6616
  825.5000   -40.0462     8.3896    13.8955    11.1472    57.3586   176.1219
  826.0000   -40.0871     8.3898    13.8965    11.1484    59.1404   176.4136
  826.5000   -40.4172     8.3629    13.8975    11.1494    60.4592   189.7227
  827.0000   -40.6133     8.3361    13.8986    11.1505    61.6101   203.8630
  827.5000   -40.8479     8.3205    13.8995    11.0176    62.4280   198.1058
  828.0000   -41.0054     8.3094    13.9005    11.0188    63.1074   188.6852
  828.5000   -41.1146     8.2826    13.9015    11.1186    62.8115   196.6787
  829.0000   -41.1139     8.2828    13.9026    11.1545    61.2293   210.1007
  829.5000   -41.1133     8.2559    13.9036    11.1554    59.0882   224.0020
  830.0000   -41.1126     8.2291    13.9046    11.1566    56.8546   240.6569
  830.5000   -41.1118     8.2023    13.9056    11.1574    55.0717   250.1199
  831.0000   -41.1113     8.2024    13.8902    11.2923    54.0388   250.8081
  831.5000   -41.1106     8.1574    13.7733    11.2931    53.5620   248.5543
  832.0000   -41.1099     8.1218    13.7742    11.2941    54.3107   245.8922
