~VERSION INFORMATION
 VERS.                2.0:   CWLS LOG ASCII STANDARD - VERSION 2.0
 WRAP.                 NO:   ONE LINE PER DEPTH STEP
~WELL INFORMATION
#MNEM.UNIT      DATA TYPE    INFORMATION
#----------   ------------   ------------------------------
 STRT.F          148.0000:   START DEPTH
 STOP.F         3394.0000:   STOP DEPTH
 STEP.F            0.5000:   STEP LENGTH
 NULL.          -999.2500:   NO VALUE
 COMP.    FENIX & SCISSON:   COMPANY
 WELL.  FENIX "AX" #28-10:   WELL
 FLD .        TEAPOT DOME:   FIELD
 LOC .      S10 T38N R78W:   LOCATION
 CNTY.            NATRONA:   COUNTY
 STAT.            WYOMING:   STATE
 CTRY. UNITED STATES OF AMERICA:   COUNTRY
 SRVC.       SCHLUMBERGER:   SERVICE COMPANY
 DATE.        03-MAR-1981:   LOGDATE
 API .     49025108680000:   API NUMBER
~CURVE INFORMATION
#MNEM.UNIT       API CODE    CURVE DESCRIPTION
#----------   ------------   ------------------------------
 DEPT.F                  :   
 SFL .OHMM   07 220 01 00:   SHALLOW FOCUSED LOG RESISTIVITY
 ILD .OHMM   07 120 46 00:   INDUCTION LOG DEEP RESISTIVITY
 ILM .OHMM   07 120 44 00:   INDUCTION LOG MEDIUM RESISTIVITY
 TENR.LBS    07 635 01 00:   TENSION
 SPR .MV     07 010 01 00:   SPONTANEOUS POTENTIAL
 CALD.IN     45 280 60 00:   CALIPER FROM DENSITY LOG
 GRD .GAPI   45 310 01 00:   GAMMA RAY FROM DENSITY LOG
 TEND.LBS    45 635 01 00:   TENSION FROM DENSITY LOG
 CORR.G/C3   45 356 01 00:   DENSITY CORRECTION
 RHOB.G/C3   45 350 01 00:   BULK DENSITY
~PARAMETER INFORMATION
#MNEM.UNIT          VALUE    DESCRIPTION
#----------   ------------   ------------------------------
 EKB .F         5241.0000:   Kelly bushing
 EGL .F         5231.0000:   Ground level
 EDF .F            0.0000:   Drilling floor
 TD  .F         3381.0000:   Total depth
 DATE.        03-MAR-1981:   Date logged
 CLNT.            A2DTECH:   Client Code
 SL  . 640' FSL & 720' FWL:   Surface Location
 PD  .                 GL:   Permanent Datum
 EPD .F              5231:   Elevation Permanent Datum
 LMF .                 KB:   Log Measured From
 DMF .                 KB:   Drilling Measured From
 DAPD.F                10:   Feet Above Permanent Datum
 DD  .F              3361:   Depth driller
 DL  .F              3381:   Depth logger
 BLI .F              3375:   Bottom log interval
 TLI .F               233:   Top log interval
 CS1 .IN            8.625:   Casing size
 CBD1.      8.625" @ 224':   Casing driller 1
 CBL1.F               233:   Casing logger 1
 BS1 .IN            7.875:   Bit size
 BSD1.F              3361:   Depth drilled with bit1
 DFT .           CHEM/GEL:   Type fluid in hole
 DFD .                  9:   Density
 DFV .                 40:   Viscosity
 DFPH.                8.5:   pH
 DFL .                 11:   Fluid loss
 MSS .           MUD/TANK:   Source of sample
 RMS .OHMM           2.52:   Rm
 MST .F                66:   Rm Meas. temp.
 RMF .OHMM            1.8:   Rmf
 MFST.F                67:   Rmf Meas. temp.
 MFSS.               MEAS:   Source Rmf.
 RMB .OHMM           1.47:   Rm. at BHT
 BHT .F               118:   BHT.
 TCS .HRS            0500:   Time Circ. stopped
 TLAB.HRS            0830:   Time logger at bottom
 MRT .F               118:   Maximum recorded temp.
 LUN .               8035:   Logging unit number
 LUL .               CSPR:   Logging unit location
 ENGI.            BEATTLE:   Recorded By
 WITN.              FIVAS:   Witnessed by
 ORIG.           5" PRINT:   Origin of data
 UWI .     49025108680000:   Unique Well ID
 DICO. A2D TECHNOLOGIES, INC.:   Digitizing Company
~OTHER INFORMATION
~A   DEPT      SFL        ILD        ILM       TENR        SPR         CALD       GRD      TEND       CORR       RHOB   
# ...
 2292.0000    12.4080     9.4280     9.3300   538.6180   -35.8140     8.3490   149.9620   610.2520    -0.0010     2.4830
 2292.5000    12.4080     9.5240     9.4200   538.6180   -35.6570     8.3490   149.4140   610.3240     0.0020     2.4890
 2293.0000    12.4080     9.6200     9.5090   538.6180   -35.5310     8.3490   149.1790   610.3950     0.0030     2.4890
 2293.5000    12.4080     9.7160     9.5980   538.6180   -35.3860     8.3500   146.0050   610.4670     0.0050     2.4890
 2294.0000    12.4080     9.8120     9.6880   538.6180   -35.2510     8.3480   140.6540   610.5380     0.0100     2.4930
 2294.5000    12.4080     9.9070     9.7770   538.6180   -35.1110     8.3540   136.1660   610.6090     0.0170     2.4990
 2295.0000    12.9160    10.0030     9.8670   538.6180   -34.9740     8.3170   135.9950   610.6810     0.0110     2.4960
 2295.5000    13.6260    10.0990     9.9560   538.6180   -34.8390     8.3150   136.4850   610.7520     0.0050     2.4930
 2296.0000    13.3730    10.0990    10.0450   538.6180   -34.6840     8.3220   138.3870   610.8240     0.0030     2.4970
 2296.5000    12.9960     9.9530    10.0990   538.6180   -34.6800     8.3300   137.2410   610.8950     0.0100     2.5040
 2297.0000    12.5250     9.7710    10.0990   538.6180   -34.8850     8.3360   134.7530   610.9660     0.0150     2.5120
 2297.5000    12.0540     9.5890    10.0200   538.6180   -35.0710     8.3440   132.5600   611.0380     0.0150     2.5160
 2298.0000    11.3000     9.3700     9.9530   538.6180   -35.2590     8.3510   133.5780   611.1090     0.0150     2.5150
 2298.5000    11.4910     9.3700     9.8870   538.6180   -35.4540     8.3580   135.8030   611.1810     0.0150     2.5040
 2299.0000    11.9710     9.3700     9.8210   538.6180   -35.6380     8.3640   138.6050   611.2520     0.0150     2.5030
 2299.5000    12.4510     9.3700     9.7540   538.6180   -35.8180     8.3760   141.2760   611.3230     0.0160     2.5070
 2300.0000    12.6430     9.3700     9.7280   538.6180   -35.7940     8.3740   142.4830   611.3950     0.0170     2.5110
 2300.5000    11.7310     9.3700     9.7280   538.6180   -35.7650     8.3920   143.5960   611.4660     0.0180     2.5120
 2301.0000    11.8960     9.3700     9.7280   538.6180   -35.7280     8.3860   142.2600   611.5380     0.0190     2.5070
 2301.5000    12.1760     9.3700     9.7280   538.6180   -35.6960     8.6670   142.0180   611.6090     0.0210     2.5000
 2302.0000    12.4080     9.3700     9.7280   538.6180   -35.6630     8.9300   143.3580   611.6800     0.0180     2.4940
 2302.5000    12.3320     9.3700     9.7280   538.6180   -35.6290     9.2120   144.7940   611.7520     0.0160     2.4910
 2303.0000    12.1220     9.3700     9.7280   538.6180   -35.5960     9.3680   144.7890   611.8230     0.0130     2.4910
 2303.5000    11.9120     9.3700     9.7280   538.6180   -35.5620     9.3680   143.8000   611.8950     0.0110     2.4910
 2304.0000    11.7310     9.3700     9.7280   538.6180   -35.5300     9.4240   142.6460   611.9660     0.0050     2.4880
 2304.5000    11.7640     9.3700     9.7270   538.6180   -35.4930     9.1220   146.7520   612.0370    -0.0020     2.4690
 2305.0000    11.8100     9.3700     9.7250   538.6180   -35.4620     8.8470   151.0630   612.1090    -0.0070     2.4600
 2305.5000    11.8560     9.3700     9.7320   538.6180   -35.4370     8.5730   156.1750   612.1800    -0.0060     2.4590
 2306.0000    11.9020     9.3700     9.7190   538.6180   -35.5510     8.3210   156.2260   612.2520    -0.0010     2.4610
 2306.5000    11.9520     9.3700     9.7470   538.6180   -35.6980     8.3130   155.2590   612.3230     0.0030     2.4580
 2307.0000    12.1140     9.3700     9.5430   538.6180   -35.8800     8.3070   150.5720   612.3940     0.0060     2.4540
 2307.5000    12.4440     9.3700     9.5760   538.6180   -36.4860     8.3110   146.7210   612.4500     0.0080     2.4530
 2308.0000    12.8820     9.3700     9.5980   538.6180   -36.9960     8.3090   142.1740   612.8030     0.0340     2.4720
 2308.5000    12.7310     9.3700     9.6260   538.6180   -36.6480     8.3090   138.8210   613.2340     0.0710     2.4970
 2309.0000    12.1650     9.3700     9.6550   538.6180   -36.4860     8.3100   136.2980   613.6650     0.0960     2.5240
 2309.5000    11.5130     9.3700     9.6820   538.6180   -36.2490     8.3090   134.8600   614.0960     0.1050     2.5160
 2310.0000    11.5130     9.3710     9.7090   538.6180   -36.3560     8.3190   134.2380   614.5280     0.1210     2.5010
 2310.5000    12.0320     9.3700     9.7280   538.6180   -36.5010     8.3570   133.8760   614.9590     0.1090     2.4700
 2311.0000    12.3750     9.3710     9.7120   538.6180   -36.6650     8.3940   137.7650   615.3900     0.0760     2.3990
 2311.5000    12.6430     9.3700     9.6710   538.6180   -37.2080     8.5790   140.8370   615.8220     0.0470     2.4050
 2312.0000    12.6430     9.3700     9.6300   538.6180   -37.7440     8.7710   144.6000   616.2530     0.0160     2.4210
 2312.5000    12.6430     9.3720     9.5890   538.6180   -38.2870     8.9330   146.3120   616.6840     0.0110     2.4670
 2313.0000    12.6430     9.3510     9.5480   538.6180   -38.8780     8.7670   146.8860   617.1150     0.0190     2.5030
 2313.5000    12.4250     9.2960     9.4350   538.6180   -38.8210     8.6140   147.3580   617.5470     0.0340     2.5100
 2314.0000    12.0550     9.2440     9.3210   538.6180   -38.2680     8.4480   146.8830   617.9780     0.0480     2.5190
 2314.5000    11.6850     9.1910     9.2070   538.6180   -37.7340     8.2850   151.0340   618.4090     0.0640     2.5300
 2315.0000    11.3000     9.1380     9.0930   538.6180   -37.4260     8.2180   154.2670   618.8410     0.0790     2.5360
 2315.5000    11.5220     9.0850     8.9790   538.6180   -37.4550     8.2000   158.4280   619.2720     0.0710     2.5240
 2316.0000    11.7530     9.0320     8.8590   538.6180   -37.4500     8.1900   156.5200   619.7030     0.0610     2.5110
 2316.5000    11.9520     8.9790     8.8800   538.6180   -37.4470     8.2810   149.9810   620.1340     0.0450     2.4990
 2317.0000    11.8850     8.9270     8.9180   538.6180   -37.4510     8.3940   146.5210   620.5660     0.0510     2.4870
 2317.5000    11.7930     8.8740     8.9560   538.6180   -37.4490     8.5020   143.1970   620.9970     0.0650     2.4690
 2318.0000    11.5430     8.8590     8.9950   538.6180   -37.4460     8.5170   141.8240   621.4280     0.0770     2.4470
 2318.5000    10.9480     8.9010     9.0330   538.6180   -37.4560     8.5400   141.9990   621.8600     0.0580     2.4280
 2319.0000    10.2900     8.9850     9.0720   538.6180   -37.4450     8.5480   141.3880   622.2910     0.0310     2.4380
 2319.5000    10.5460     9.0290     9.1100   538.6180   -37.4410     8.7010   140.2160   622.7220     0.0120     2.4540
 2320.0000    11.0660     9.0240     9.1490   538.6180   -37.5330     8.7940   139.0090   623.1530     0.0110     2.4680
 2320.5000    11.5870     9.0260     9.1880   538.6180   -37.9330     8.7260   138.5090   623.5850     0.0070     2.4660
 2321.0000    12.1780     9.0260     9.2270   538.6180   -38.3760     8.6780   139.3550   624.0160     0.0050     2.4640
 2321.5000    12.1780     9.0270     9.2660   538.6180   -38.9070     8.6050   140.0130   624.4470     0.0050     2.4560
 2322.0000    12.1780     9.0260     9.3050   538.6180   -39.3890     8.7320   140.7910   624.8790     0.0130     2.4470
 2322.5000    12.1780     9.0260     9.3440   538.6180   -39.8030     8.9790   139.8680   625.3100     0.0210     2.4490
 2323.0000    12.1780     9.0240     9.3740   558.9430   -38.9310     8.9990   138.2430   625.7410     0.0280     2.4620
 2323.5000    11.6920     9.0280     9.2400   558.9430   -38.1280     8.9030   136.8290   626.1730     0.0370     2.4740
 2324.0000    11.1070     8.9780     8.9180   558.9430   -37.1160     8.7320   135.3830   626.6040     0.0370     2.4830
 2324.5000    10.5210     8.8950     8.6010   558.9430   -37.0550     8.5750   136.6180   627.0350     0.0260     2.4830
 2325.0000    10.0990     8.8110     8.2200   558.9430   -37.0320     8.4220   139.4810   627.4660     0.0160     2.4770
