~VERSION INFORMATION
 VERS.                2.0:   CWLS LOG ASCII STANDARD - VERSION 2.0
 WRAP.                 NO:   ONE LINE PER DEPTH STEP
~WELL INFORMATION
#MNEM.UNIT      DATA TYPE    INFORMATION
#----------   ------------   ------------------------------
 STRT.F          298.0000:   START DEPTH
 STOP.F         3084.0000:   STOP DEPTH
 STEP.F            0.5000:   STEP LENGTH
 NULL.          -999.2500:   NO VALUE
 COMP. LAWERNCE ALLISON AND ASSOCIATED:   COMPANY
 WELL. LAWERNCE "TX" #77-20:   WELL
 FLD .        TEAPOT DOME:   FIELD
 LOC .      S20 T39N R78W:   LOCATION
 CNTY.            NATRONA:   COUNTY
 STAT.            WYOMING:   STATE
 CTRY. UNITED STATES OF AMERICA:   COUNTRY
 SRVC.       SCHLUMBERGER:   SERVICE COMPANY
 DATE.        22-JAN-1982:   LOGDATE
 API .     49025108840000:   API NUMBER
~CURVE INFORMATION
#MNEM.UNIT       API CODE    CURVE DESCRIPTION
#----------   ------------   ------------------------------
 DEPT.F                  :   
 CALD.IN     45 280 60 00:   CALIPER FROM DENSITY LOG
 GRD .GAPI   45 310 01 00:   GAMMA RAY FROM DENSITY LOG
 TEND.LBS    45 635 01 00:   TENSION FROM DENSITY LOG
 RHOB.G/C3   45 350 01 00:   BULK DENSITY
 NPHI.DEC    42 890 03 00:   NEUTRON POROSITY SANDSTONE
 CORR.G/C3   45 356 01 00:   DENSITY CORRECTION
 SFLU.OHMM   07 220 01 00:   SPHERICALLY FOCUSED LOG UNAVERAGED RESISTIVITY
 ILD .OHMM   07 120 46 00:   INDUCTION LOG DEEP RESISTIVITY
 ILM .OHMM   07 120 44 00:   INDUCTION LOG MEDIUM RESISTIVITY
 TENR.LBS    07 635 01 00:   TENSION
 SPR .MV     07 010 01 00:   SPONTANEOUS POTENTIAL
~PARAMETER INFORMATION
#MNEM.UNIT          VALUE    DESCRIPTION
#----------   ------------   ------------------------------
 EKB .F         5022.0000:   Kelly bushing
 EGL .F         5012.0000:   Ground level
 EDF .F         5021.0000:   Drilling floor
 TD  .F         3079.0000:   Total depth
 DATE.        22-JAN-1982:   Date logged
 CLNT.            A2DTECH:   Client Code
 SL  . 986' FSL & 779' FEL:   Surface Location
 PD  .                 GL:   Permanent Datum
 EPD .F              5012:   Elevation Permanent Datum
 LMF .                 KB:   Log Measured From
 DMF .                 KB:   Drilling Measured From
 DAPD.F                10:   Feet Above Permanent Datum
 DD  .F              3079:   Depth driller
 DL  .F              3070:   Depth logger
 BLI .F              3064:   Bottom log interval
 TLI .F               328:   Top log interval
 CS1 .IN            9.625:   Casing size
 CBD1.      9.625" @ 300':   Casing driller 1
 CBL1.F               328:   Casing logger 1
 BS1 .IN            7.875:   Bit size
 BSD1.F              3079:   Depth drilled with bit1
 DFT .           CHEM/GEL:   Type fluid in hole
 DFD .                8.9:   Density
 DFV .                 50:   Viscosity
 DFPH.               10.5:   pH
 DFL .                  8:   Fluid loss
 MSS .           FLOWLINE:   Source of sample
 RMS .OHMM           2.53:   Rm
 MST .F                49:   Rm Meas. temp.
 RMF .OHMM           2.04:   Rmf
 MFST.F                49:   Rmf Meas. temp.
 RMC .OHMM           3.80:   Rmc
 MCST.F                49:   Rmc Meas. temp.
 MFSS.               MEAS:   Source Rmf.
 MCSS.               CALC:   Source Rmc.
 RMB .OHMM           1.04:   Rm. at BHT
 BHT .F               119:   BHT.
 TCS .HRS            0330:   Time Circ. stopped
 TLAB.HRS            0800:   Time logger at bottom
 MRT .F               119:   Maximum recorded temp.
 LUN .               8043:   Logging unit number
 LUL .               CSPR:   Logging unit location
 ENGI.            PERAKIS:   Recorded By
 WITN.              SCOTT:   Witnessed by
 ORIG.           5" PRINT:   Origin of data
 UWI .     49025108840000:   Unique Well ID
 DICO. A2D TECHNOLOGIES, INC.:   Digitizing Company
~OTHER INFORMATION
~A   DEPT       CALD       GRD      TEND         RHOB       NPHI     CORR       SFLU        ILD        ILM       TENR        SPR   
# ...
 1060.5000    10.8960    93.1690   744.8480     2.5180     0.3160     0.0360     8.9990     8.6930     8.4920   740.6120   -16.3570
 1061.0000    10.9020    91.1430   743.0310     2.5290     0.3210     0.0400     8.9990     8.7500     8.5800   736.7850   -16.1920
 1061.5000    10.9080    86.2180   741.1170     2.5360     0.3180     0.0420     9.3140     8.5440     8.4890   731.5480   -15.9220
 1062.0000    10.9140    81.4500   742.0720     2.5350     0.3140     0.0360     9.6070     8.3510     8.3340   726.3100   -15.5940
 1062.5000    10.9200    79.8230   744.8210     2.5220     0.3120     0.0290     9.3410     8.4290     8.1780   721.0720   -15.2600
 1063.0000    10.9260    82.4380   747.5700     2.5060     0.3170     0.0190     8.9380     8.3800     8.0230   715.8350   -15.0020
 1063.5000    10.9440    88.0620   750.3200     2.4980     0.3210     0.0190     8.5540     8.3220     7.9500   710.5970   -15.0160
 1064.0000    10.9730    90.9760   753.0690     2.4980     0.3210     0.0280     8.1700     8.2650     7.9070   705.3600   -15.1700
 1064.5000    11.0020    90.1470   755.8180     2.5190     0.3230     0.0410     8.1200     8.2070     7.8650   700.5080   -15.3210
 1065.0000    11.0320    88.0260   758.5680     2.5430     0.3340     0.0540     8.2300     8.1500     7.8220   710.4750   -15.4440
 1065.5000    11.0610    87.0240   761.3170     2.5530     0.3300     0.0570     8.6240     8.0780     7.7800   719.7600   -15.5310
 1066.0000    11.0900    88.2010   764.0660     2.5450     0.3240     0.0570     8.6690     7.9910     7.7210   729.0450   -15.4050
 1066.5000    11.1200    89.7270   766.8160     2.5270     0.3100     0.0480     8.1960     7.8950     7.6240   738.3290   -15.2690
 1067.0000    11.1300    89.9430   769.5650     2.5150     0.2940     0.0380     8.1200     7.5350     7.5280   741.1170   -15.1220
 1067.5000    11.1260    89.1870   772.3140     2.5220     0.2940     0.0370     8.1200     7.6440     7.4310   741.1170   -14.8500
 1068.0000    11.1220    88.4190   775.0640     2.5430     0.2960     0.0390     8.2200     7.7490     7.3340   741.1170   -14.8310
 1068.5000    11.1180    88.1630   777.8130     2.5650     0.2990     0.0410     8.2730     7.6730     7.2370   741.1170   -15.0440
 1069.0000    11.1150    88.0310   780.5620     2.5740     0.3030     0.0430     8.1580     7.5910     7.1880   741.1170   -15.2570
 1069.5000    11.1210    87.5700   780.4470     2.5470     0.3070     0.0360     8.0420     7.5260     7.1620   741.1170   -15.4660
 1070.0000    11.1670    86.5610   777.0560     2.5210     0.3100     0.0290     7.9260     7.4990     7.1370   741.1170   -15.6100
 1070.5000    11.2130    87.3730   773.6650     2.5030     0.3140     0.0230     7.8950     7.4720     7.1110   741.1170   -15.6910
 1071.0000    11.2590    90.1160   770.2740     2.5050     0.3180     0.0340     7.8950     7.4450     7.0860   741.1170   -15.7830
 1071.5000    11.3050    93.0350   766.8830     2.5140     0.3290     0.0460     7.8950     7.4180     7.0600   741.1170   -15.8740
 1072.0000    11.3510    95.3730   763.4920     2.5090     0.3400     0.0460     7.8700     7.3730     7.0340   741.1170   -15.9640
 1072.5000    11.3960    95.4860   760.1020     2.5000     0.3510     0.0400     7.7130     7.2370     7.0090   741.1170   -15.9610
 1073.0000    11.4440    95.3990   756.7110     2.4990     0.3450     0.0490     7.6770     7.1240     6.9910   741.1170   -15.6960
 1073.5000    11.4250    95.0120   753.3200     2.5090     0.3390     0.0610     7.6770     7.2740     6.9850   741.1170   -15.4330
 1074.0000    11.3590    94.0350   749.9290     2.5120     0.3400     0.0640     7.6770     7.3270     6.9790   741.1170   -15.1800
 1074.5000    11.2920    92.9820   746.5380     2.5030     0.3390     0.0560     7.6770     7.2770     6.9740   741.1170   -15.1610
 1075.0000    11.2250    92.3260   743.1470     2.4930     0.3300     0.0470     7.6770     7.2260     6.9680   741.1170   -15.4660
 1075.5000    11.1560    92.7970   741.6760     2.4890     0.3290     0.0420     7.6770     7.1750     6.9620   741.1170   -15.7770
 1076.0000    11.1520    93.2390   743.0690     2.4840     0.3370     0.0370     7.6770     7.1240     6.9570   741.1170   -16.0930
 1076.5000    11.1440    93.6740   744.4630     2.4840     0.3420     0.0360     7.6800     7.1730     6.9510   741.1170   -16.3970
 1077.0000    11.0800    93.8650   745.8560     2.4930     0.3430     0.0440     7.5360     7.2220     6.9450   741.1170   -16.3120
 1077.5000    11.0150    92.4520   747.2500     2.5140     0.3430     0.0540     7.3970     7.2590     6.9400   741.1170   -16.2000
 1078.0000    10.9510    91.0320   748.6430     2.5380     0.3390     0.0520     7.2580     7.2590     6.9340   743.1290   -16.0880
 1078.5000    10.8860    90.0760   750.0370     2.5630     0.3320     0.0470     7.1240     7.2590     6.9280   747.7710   -15.9780
 1079.0000    10.9100    90.9030   751.4300     2.5770     0.3250     0.0470     7.1240     7.2590     6.9450   752.4130   -15.8670
 1079.5000    10.9740    93.2630   752.8240     2.5710     0.3180     0.0480     7.3820     7.2590     6.9660   757.0560   -15.8060
 1080.0000    11.0360    94.0380   754.2170     2.5450     0.3110     0.0400     7.5350     7.2590     6.9860   761.6980   -15.8060
 1080.5000    11.0990    94.2600   755.6110     2.5110     0.3090     0.0270     8.2440     7.2590     7.0070   766.3410   -15.8050
 1081.0000    11.1230    93.6000   757.0040     2.4970     0.3110     0.0220     8.9130     7.2590     7.0280   770.9830   -15.8060
 1081.5000    11.1380    92.9420   758.3980     2.5130     0.3210     0.0360     8.9990     7.2590     7.0480   775.6250   -15.8070
 1082.0000    11.1530    92.8880   759.7910     2.5250     0.3310     0.0460     8.5690     7.2590     7.0690   780.2680   -15.7930
 1082.5000    11.1670    94.4060   761.1850     2.5270     0.3390     0.0500     8.1200     7.2590     7.0890   756.2530   -15.5050
 1083.0000    11.1820    94.5860   754.9240     2.5170     0.3400     0.0370     8.0170     7.2590     7.1100   719.1140   -15.2220
 1083.5000    11.1970    92.1410   747.0990     2.5060     0.3320     0.0260     7.9230     7.2590     7.1240   705.8720   -14.9410
 1084.0000    11.2110    90.2190   741.5330     2.5040     0.3240     0.0180     7.8610     7.1940     6.9980   716.6230   -14.6610
 1084.5000    11.2260    89.0800   743.3030     2.5020     0.3180     0.0150     7.5360     7.1010     6.9000   727.3740   -14.4130
 1085.0000    11.2340    87.9370   745.0720     2.5000     0.3200     0.0180     7.2120     7.0090     6.8020   738.1240   -14.4170
 1085.5000    11.2340    86.7340   746.8410     2.4960     0.3220     0.0210     6.9930     6.9280     6.7330   741.1170   -14.8000
 1086.0000    11.2340    86.8570   748.6100     2.4930     0.3240     0.0270     7.0790     6.9280     6.7240   741.1170   -15.2210
 1086.5000    11.2340    89.0290   750.3790     2.4980     0.3260     0.0330     7.1990     6.9280     6.7150   741.1170   -15.6390
 1087.0000    11.2340    90.9950   752.1480     2.5110     0.3190     0.0390     7.3180     6.9280     6.7060   741.1170   -16.0420
 1087.5000    11.2340    91.0250   753.9170     2.5240     0.3160     0.0440     7.3960     6.9280     6.6970   741.1170   -16.1790
 1088.0000    11.2340    89.8990   755.6870     2.5230     0.3180     0.0370     7.3270     6.9280     6.6880   740.7590   -16.0760
 1088.5000    11.2340    88.9260   757.4560     2.5060     0.3220     0.0280     7.4480     6.9280     6.6750   739.7480   -15.9630
 1089.0000    11.2340    91.0670   759.2250     2.5040     0.3260     0.0260     7.6770     6.9270     6.6950   738.7360   -15.8480
 1089.5000    11.2340    93.7270   760.9940     2.5030     0.3290     0.0310     7.5780     6.9540     6.7530   737.7250   -15.8390
 1090.0000    11.2340    94.2400   762.7630     2.5020     0.3260     0.0410     7.4040     6.9990     6.8110   736.7140   -16.1690
 1090.5000    11.2340    92.7200   764.5320     2.5000     0.3160     0.0430     7.1440     7.0440     6.8690   735.7030   -16.4000
