~VERSION INFORMATION
 VERS.                2.0:   CWLS LOG ASCII STANDARD - VERSION 2.0
 WRAP.                 NO:   ONE LINE PER DEPTH STEP
~WELL INFORMATION
#MNEM.UNIT      DATA TYPE    INFORMATION
#----------   ------------   ------------------------------
 STRT.F           31.0000:   START DEPTH
 STOP.F         2926.0000:   STOP DEPTH
 STEP.F            0.5000:   STEP LENGTH
 NULL.          -999.2500:   NO VALUE
 COMP. LAWERNCE ALLISON AND ASSOCIATES:   COMPANY
 WELL.   FENIX "X" #17-21:   WELL
 FLD .             NPR #3:   FIELD
 LOC .      S21 T39N R78W:   LOCATION
 CNTY.            NATRONA:   COUNTY
 STAT.            WYOMING:   STATE
 CTRY. UNITED STATES OF AMERICA:   COUNTRY
 SRVC.      WESTERN ATLAS:   SERVICE COMPANY
 DATE.        02-NOV-1987:   LOGDATE
 API .     49025111960000:   API NUMBER
~CURVE INFORMATION
#MNEM.UNIT       API CODE    CURVE DESCRIPTION
#----------   ------------   ------------------------------
 DEPT.F                  :   
 CALD.IN     45 280 60 00:   CALIPER FROM DENSITY LOG
 TEND.LBS    45 635 01 00:   TENSION FROM DENSITY LOG
 CORR.G/C3   45 356 01 00:   DENSITY CORRECTION
 RHOB.G/C3   45 350 01 00:   BULK DENSITY
 CNC .DEC    42 890 03 00:   NEUTRON POROSITY SANDSTONE
 SPR .MV     07 010 01 00:   SPONTANEOUS POTENTIAL
 GRR .GAPI   07 310 01 00:   GAMMA RAY FROM RESISTIVITY
 TENR.LBS    07 635 01 00:   TENSION FROM RESISTIVITY
 RFOC.OHMM   07 220 04 00:   RESISTIVITY FOCUSED LOG RES.
 RILD.OHMM   07 120 46 00:   DEEP INDUCTION RESISTIVITY
 RILM.OHMM   07 120 44 00:   INDUCTION LOG MEDIUM RESISTIVITY
~PARAMETER INFORMATION
#MNEM.UNIT          VALUE    DESCRIPTION
#----------   ------------   ------------------------------
 EKB .F         5006.0000:   Kelly bushing
 EGL .F         4995.0000:   Ground level
 EDF .F            0.0000:   Drilling floor
 TD  .F         2915.0000:   Total depth
 DATE.        02-NOV-1987:   Date logged
 CLNT.            A2DTECH:   Client Code
 SL  . 1824' FSL & 399' FWL:   Surface Location
 PD  .                 GL:   Permanent Datum
 DD  .F              2911:   Depth driller
 DL  .F              2915:   Depth logger
 BLI .F              2913:   Bottom log interval
 CS1 .IN            8.625:   Casing size
 CBD1.      8.625" @ 350':   Casing driller 1
 CBL1.F               350:   Casing logger 1
 BS1 .IN            7.875:   Bit size
 DFT .        KCL-POLYMER:   Type fluid in hole
 DFD .                8.8:   Density
 DFV .                 42:   Viscosity
 DFPH.                9.5:   pH
 DFL .                 11:   Fluid loss
 MSS .           FLOWLINE:   Source of sample
 RMS .OHMM           0.41:   Rm
 MST .F                78:   Rm Meas. temp.
 RMF .OHMM           0.29:   Rmf
 MFST.F                78:   Rmf Meas. temp.
 RMC .OHMM           0.51:   Rmc
 MCST.F                78:   Rmc Meas. temp.
 MFSS.               MEAS:   Source Rmf.
 RMB .OHMM           0.29:   Rm. at BHT
 BHT .F               108:   BHT.
 TCS .HRS               5:   Time Circ. stopped
 MRT .F               108:   Maximum recorded temp.
 LUN .            HL-6274:   Logging unit number
 LUL .           GILLETTE:   Logging unit location
 WITN.             STRONG:   Witnessed by
 ORIG.           5" PRINT:   Origin of data
 UWI .     49025111960000:   Unique Well ID
 DICO. A2D TECHNOLOGIES, INC.:   Digitizing Company
 DAPD.                 11:   Feet Above Permanent Datum
 BSD1.               2911:   Depth drilled with bit1
 MCSS.               CALC:   Source Rmc.
 EPD .               4995:   Elevation Permanent Datum
 LMF .                 KB:   Log Measured From
 DMF .                 KB:   Drilling Measured From
 TLI .                 11:   Top log interval
~OTHER INFORMATION
~A   DEPT     CALD       TEND       CORR       RHOB        CNC        SPR         GRR      TENR       RFOC       RILD       RILM   
# ...
 2715.0000     8.3480   -75.5320     0.0230     2.5210     0.2310   -27.8180   111.4160   -46.1170     7.4890     7.0880     6.8530
 2715.5000     8.3470   -75.0180     0.0220     2.5280     0.2310   -27.8180   110.8380   -46.1170     7.6140     6.8990     6.5390
 2716.0000     8.3470   -74.5030     0.0220     2.5350     0.2310   -27.8240   112.0430   -46.1170     7.6140     6.5700     6.2250
 2716.5000     8.3460   -73.9890     0.0210     2.5400     0.2320   -27.8200   115.1640   -46.1170     6.8720     6.2410     5.9110
 2717.0000     8.3450   -73.4750     0.0210     2.5270     0.2390   -27.8210   116.7800   -46.1170     6.1470     5.9120     5.5970
 2717.5000     8.3450   -72.9610     0.0220     2.5200     0.2440   -27.8210   117.1750   -46.1170     5.9280     5.5820     5.2830
 2718.0000     8.3440   -72.4470     0.0220     2.5120     0.2470   -27.8220   118.3630   -46.1170     5.7300     5.2530     5.1370
 2718.5000     8.3440   -71.9330     0.0230     2.5050     0.2550   -27.8210   119.4930   -46.1170     5.3610     4.9570     4.9880
 2719.0000     8.3430   -71.4190     0.0230     2.4980     0.2610   -27.8240   121.7290   -46.1170     4.9920     4.8690     4.8780
 2719.5000     8.3420   -70.9050     0.0240     2.4980     0.2680   -27.8240   124.6350   -46.1170     4.7830     4.6980     4.5030
 2720.0000     8.3420   -70.3910     0.0240     2.4960     0.2750   -27.8140   127.5170   -46.1170     4.7430     4.1650     4.1280
 2720.5000     8.3410   -69.8770     0.0240     2.4930     0.2830   -27.8360   133.2660   -46.1170     4.6150     3.7290     3.7530
 2721.0000     8.3410   -69.3630     0.0190     2.4770     0.2910   -27.5670   143.8770   -46.1170     4.2280     3.2930     3.3770
 2721.5000     8.3400   -68.8490     0.0130     2.4400     0.2960   -27.3680   163.5510   -46.1170     3.5540     2.8570     3.0020
 2722.0000     8.3390   -68.3340     0.0060     2.4070     0.3290   -26.6670   195.5450   -46.1170     2.8790     2.4240     2.6270
 2722.5000     8.3390   -67.8200     0.0170     2.3690     0.3420   -26.0480   213.1420   -46.1170     2.1010     2.4680     2.2970
 2723.0000     8.3380   -67.3060     0.0510     2.3620     0.3450   -25.4180   226.7730   -46.1170     2.4160     2.4680     2.5290
 2723.5000     8.3380   -66.7920     0.0960     2.4060     0.3260   -24.7280   221.3040   -46.1170     3.1700     2.5580     3.0370
 2724.0000     8.3370   -66.2780     0.0750     2.4590     0.2810   -24.9510   210.4910   -46.1170    17.0270     2.6640     3.5440
 2724.5000     8.3360   -65.7640     0.0150     2.5000     0.2490   -25.4710   132.8040   -51.7860    15.9370     3.0950     4.0520
 2725.0000     8.3360   -65.2500     0.0140     2.5190     0.2220   -25.9610   111.2050   -56.7960    12.8810     3.9300     4.5590
 2725.5000     8.3350   -64.7360     0.0160     2.5310     0.2210   -26.4780   101.5240   -61.8060     9.8260     4.7650     5.0670
 2726.0000     8.3340   -64.2220     0.0200     2.5290     0.2220   -26.7420   101.9090   -65.4350     6.3670     5.6010     5.5740
 2726.5000     8.3340   -63.7080     0.0230     2.5210     0.2250   -27.0810   105.0780   -65.0460     6.3670     6.0350     6.0350
 2727.0000     8.3330   -63.1940     0.0250     2.5120     0.2280   -27.1390   105.6710   -64.6580     6.4820     5.8680     5.9610
 2727.5000     8.3330   -62.6790     0.0230     2.5030     0.2310   -27.3450   105.0230   -64.2700     6.2350     5.7150     5.7290
 2728.0000     8.3320   -62.1650     0.0200     2.4950     0.2340   -27.4430   105.9350   -63.8820     5.9910     5.5620     5.4970
 2728.5000     8.3310   -61.6510     0.0180     2.4930     0.2370   -27.4290   107.3530   -63.4930     5.7470     5.4100     5.2650
 2729.0000     8.3310   -61.1330     0.0170     2.4930     0.2390   -27.4400   108.6940   -63.1050     5.5020     5.2300     5.0460
 2729.5000     8.3300   -61.1330     0.0170     2.4940     0.2410   -27.5460   110.7710   -62.7170     5.2580     5.0460     5.0460
 2730.0000     8.3300   -61.1330     0.0170     2.4930     0.2420   -27.6480   113.2670   -62.3290     5.0460     4.8490     4.8880
 2730.5000     8.3290   -61.1330     0.0170     2.4920     0.2430   -27.7550   115.8290   -61.9400     4.9880     4.6290     4.7510
 2731.0000     8.3280   -61.1330     0.0140     2.4910     0.2430   -27.8640   118.1160   -61.5520     4.8180     4.5330     4.6140
 2731.5000     8.3280   -61.1330     0.0100     2.4810     0.2450   -27.9670   123.7190   -61.1640     4.6150     4.0680     4.5330
 2732.0000     8.3270   -61.1330     0.0070     2.4740     0.2470   -28.0690   131.6260   -60.7760     4.4520     3.5820     4.1070
 2732.5000     8.3270   -61.1330     0.0050     2.4590     0.2500   -28.1960   149.1300   -60.3870     3.9970     3.0970     3.6870
 2733.0000     8.3260   -61.1330     0.0060     2.4420     0.2960   -28.0520   166.1900   -59.9990     3.4640     2.6110     3.2680
 2733.5000     8.3250   -61.1330     0.0090     2.4100     0.3000   -27.8210   183.1530   -59.6110     2.9300     2.3390     2.8480
 2734.0000     8.3250   -61.1330     0.0120     2.3850     0.3160   -27.3790   200.5910   -59.2230     2.1770     2.3540     2.2570
 2734.5000     8.3240   -61.1330     0.0140     2.3740     0.3350   -26.7610   215.3030   -58.8350     2.2130     2.3960     2.3390
 2735.0000     8.3240   -61.1330     0.0170     2.3920     0.3300   -26.1620   192.7290   -58.4460     3.6940     2.4370     2.7190
 2735.5000     8.3230   -61.1330     0.0170     2.4290     0.3250   -25.5420   156.7510   -58.0580     6.6730     2.5120     3.1870
 2736.0000     8.3220   -61.1330     0.0170     2.4670     0.3000   -25.5490   133.2410   -57.6700    10.6950     2.6040     3.6550
 2736.5000     8.3220   -61.1330     0.0170     2.4860     0.2720   -26.4720   120.9610   -57.2820     9.5820     3.2480     4.1230
 2737.0000     8.3210   -61.1330     0.0160     2.4990     0.2490   -27.3110   120.0090   -56.8930     6.7180     3.8330     4.5900
 2737.5000     8.3210   -61.1330     0.0160     2.4960     0.2480   -28.1710   119.4280   -56.5050     6.4640     4.4180     5.0580
 2738.0000     8.3200   -61.1330     0.0150     2.4960     0.2490   -28.1690   120.3320   -56.1170     6.2890     5.0020     5.5180
 2738.5000     8.3190   -61.1330     0.0140     2.4970     0.2530   -28.1300   122.2430   -55.7290     6.1140     5.5530     5.9280
 2739.0000     8.3190   -61.1330     0.0140     2.4970     0.2610   -28.0620   124.8420   -55.3400     5.9400     5.7190     5.9280
 2739.5000     8.3180   -61.1330     0.0100     2.4980     0.2650   -28.0110   125.6630   -54.9520     5.7650     5.6770     5.8870
 2740.0000     8.3170   -61.1330     0.0100     2.4980     0.2710   -27.9560   125.6730   -54.5640     5.6180     5.6300     5.8070
 2740.5000     8.3170   -61.1330     0.0100     2.4960     0.2750   -27.8960   125.5840   -54.1760     5.6180     5.5830     5.7270
 2741.0000     8.3160   -61.1330     0.0110     2.4940     0.2750   -27.8430   127.0070   -53.7870     5.6690     5.5350     5.6470
 2741.5000     8.3160   -61.1330     0.0120     2.4940     0.2730   -27.8240   129.9300   -53.3990     5.7920     5.5180     5.6180
 2742.0000     8.3150   -61.1330     0.0130     2.4960     0.2730   -27.7100   131.2460   -53.0110     5.9150     5.6180     5.6180
 2742.5000     8.3140   -61.1330     0.0160     2.4970     0.2710   -27.4670   132.5590   -52.6230     6.0380     5.6180     5.6550
 2743.0000     8.3140   -61.1330     0.0210     2.4970     0.2700   -27.1420   132.4390   -52.2340     6.1430     5.6180     5.7740
 2743.5000     8.3130   -61.1330     0.0210     2.4970     0.2690   -27.3470   129.1750   -51.8460     6.2350     5.6180     5.8940
 2744.0000     8.3130   -61.1330     0.0200     2.5020     0.2680   -27.4320   126.9230   -51.4580     6.4820     5.6180     6.0350
 2744.5000     8.3120   -61.1330     0.0160     2.5150     0.2660   -27.4400   124.7600   -51.0700     6.7180     5.6180     6.0140
 2745.0000     8.3110   -61.1330     0.0120     2.5320     0.2660   -27.4530   123.3950   -50.6810     6.4130     5.6180     5.9890
