~VERSION INFORMATION
 VERS.                2.0:   CWLS LOG ASCII STANDARD - VERSION 2.0
 WRAP.                 NO:   ONE LINE PER DEPTH STEP
~WELL INFORMATION
#MNEM.UNIT      DATA TYPE    INFORMATION
#----------   ------------   ------------------------------
 STRT.F          218.5000:   START DEPTH
 STOP.F         3291.0000:   STOP DEPTH
 STEP.F            0.5000:   STEP LENGTH
 NULL.          -999.2500:   NO VALUE
 COMP.    FENIX & SCISSON:   COMPANY
 WELL.   FENIX SHX #63-23:   WELL
 FLD .  TEAPOT DOME NPR-3:   FIELD
 LOC .      S23 T38N R78W:   LOCATION
 CNTY.            NATRONA:   COUNTY
 STAT.            WYOMING:   STATE
 CTRY. UNITED STATES OF AMERICA:   COUNTRY
 SRVC.           BIRDWELL:   SERVICE COMPANY
 DATE.        08-JUL-1978:   LOGDATE
 API .     49025106600000:   API NUMBER
~CURVE INFORMATION
#MNEM.UNIT       API CODE    CURVE DESCRIPTION
#----------   ------------   ------------------------------
 DEPT.F                  :   
 GRD .GAPI   45 310 01 00:   GAMMA RAY FROM DENSITY LOG
 CALD.IN     45 280 60 00:   CALIPER FROM DENSITY LOG
 CORR.G/C3   45 356 01 00:   DENSITY CORRECTION
 RHOB.G/C3   45 350 01 00:   BULK DENSITY
 GR  .GAPI   35 310 01 00:   GAMMA RAY
 NEUT.NAPI   35 330 01 00:   NEUTRON
~PARAMETER INFORMATION
#MNEM.UNIT          VALUE    DESCRIPTION
#----------   ------------   ------------------------------
 EKB .F         5368.0000:   Kelly bushing
 EGL .F         5358.0000:   Ground level
 TD  .F         3299.0000:   Total depth
 CLNT.            A2DTECH:   Client Code
 PD  .                 GL:   Permanent Datum
 EPD .F              5358:   Elevation Permanent Datum
 LMF .                 KB:   Log Measured From
 DMF .                 KB:   Drilling Measured From
 DAPD.F                10:   Feet Above Permanent Datum
 DATE.        08-JUL-1978:   Date Logged [DD-MMM-YYYY]
 DD  .F              3299:   Depth driller
 DL  .F              3291:   Depth logger
 BLI .F              3291:   Bottom log interval
 TLI .F              1430:   Top log interval
 CS1 .IN            9.625:   Casing size
 CBD1.     9.625" @ 1450':   Casing driller 1
 CBL1.F              1442:   Casing logger 1
 BS1 .IN            8.750:   Bit size
 BSD1.F              3299:   Depth drilled with bit1
 DFT .          KCL WATER:   Type fluid in hole
 BHT .F               118:   BHT.
 TCS .HRS               2:   Time Circ. stopped
 MRT .F               118:   Maximum recorded temp.
 LUN .               2958:   Logging unit number
 LUL .               CASP:   Logging unit location
 ENGI.             MILLER:   Recorded By
 WITN.           MCGINLEY:   Witnessed by
 ORIG.           5" PRINT:   Origin of data
 UWI .     49025106600000:   Unique Well ID
 DICO. A2D TECHNOLOGIES, INC.:   Digitizing Company
 SL  . 1800' FNL & 1825' FEL:   Surface Location
~OTHER INFORMATION
~A   DEPT      GRD       CALD       CORR       RHOB          GR      NEUT   
# ...
 2610.5000    92.7590     9.3338     0.0596     2.5571  -999.2500  -999.2500
 2611.0000    92.4493     9.3329     0.0594     2.5617  -999.2500  -999.2500
 2611.5000    93.6592     9.3321     0.0593     2.5708  -999.2500  -999.2500
 2612.0000    95.6291     9.3312     0.0606     2.5761  -999.2500  -999.2500
 2612.5000    96.6870     9.3301     0.0604     2.5684  -999.2500  -999.2500
 2613.0000    97.1357     9.3225     0.0603     2.5722  -999.2500  -999.2500
 2613.5000    97.4352     9.3131     0.0601     2.5798  -999.2500  -999.2500
 2614.0000    96.2121     9.3069     0.0584     2.5767  -999.2500  -999.2500
 2614.5000    92.4069     9.2962     0.0583     2.5614  -999.2500  -999.2500
 2615.0000    91.1853     9.2801     0.0566     2.5529  -999.2500  -999.2500
 2615.5000    89.9540     9.2638     0.0534     2.5519  -999.2500  -999.2500
 2616.0000    90.1083     9.2478     0.0471     2.5584  -999.2500  -999.2500
 2616.5000    92.2301     9.2468     0.0576     2.5673  -999.2500  -999.2500
 2617.0000    94.2000     9.2155     0.0638     2.5665  -999.2500  -999.2500
 2617.5000    96.1698     9.1994     0.0482     2.5580  -999.2500  -999.2500
 2618.0000    96.4679     9.1833     0.0449     2.5519  -999.2500  -999.2500
 2618.5000    96.9244     9.1822     0.0448     2.5610  -999.2500  -999.2500
 2619.0000    97.3681     9.1509     0.0446     2.5701  -999.2500  -999.2500
 2619.5000    97.8167     9.1501     0.0475     2.5739  -999.2500  -999.2500
 2620.0000    97.9643     9.1492     0.0473     2.5700  -999.2500  -999.2500
 2620.5000    97.8050     9.1482     0.0477     2.5731  -999.2500  -999.2500
 2621.0000    97.6472     9.1472     0.0481     2.5761  -999.2500  -999.2500
 2621.5000    97.6413     9.1617     0.0485     2.5698  -999.2500  -999.2500
 2622.0000    97.7875     9.1652     0.0499     2.5668  -999.2500  -999.2500
 2622.5000    98.0856     9.1750     0.0498     2.5713  -999.2500  -999.2500
 2623.0000    97.3184     9.1741     0.0497     2.5766  -999.2500  -999.2500
 2623.5000    94.7290     9.1789     0.0496     2.5789  -999.2500  -999.2500
 2624.0000    93.6593     9.1875     0.0495     2.5743  -999.2500  -999.2500
 2624.5000    93.0456     9.2018     0.0494     2.5751  -999.2500  -999.2500
 2625.0000    92.8875     9.2161     0.0492     2.5772  -999.2500  -999.2500
 2625.5000    93.0325     9.2217     0.0491     2.5787  -999.2500  -999.2500
 2626.0000    93.6345     9.2295     0.0490     2.5802  -999.2500  -999.2500
 2626.5000    94.8445     9.2284     0.0489     2.5817  -999.2500  -999.2500
 2627.0000    96.6624     9.2430     0.0473     2.5816  -999.2500  -999.2500
 2627.5000   100.0000     9.2419     0.0456     2.5625  -999.2500  -999.2500
 2628.0000   102.0372     9.2410     0.0425     2.5525  -999.2500  -999.2500
 2628.5000   100.4428     9.2402     0.0424     2.5509  -999.2500  -999.2500
 2629.0000    98.0053     9.2393     0.0407     2.5600  -999.2500  -999.2500
 2629.5000    97.0876     9.2384     0.0391     2.5577  -999.2500  -999.2500
 2630.0000    99.2094     9.2410     0.0359     2.5517  -999.2500  -999.2500
 2630.5000   100.8753     9.2519     0.0328     2.5324  -999.2500  -999.2500
 2631.0000   102.2754     9.2358     0.0296     2.5216  -999.2500  -999.2500
 2631.5000   101.6221     9.2651     0.0265     2.5277  -999.2500  -999.2500
 2632.0000    99.6405     9.2641     0.0264     2.5322  -999.2500  -999.2500
 2632.5000    98.5709     9.2632     0.0293     2.5345  -999.2500  -999.2500
 2633.0000    98.2611     9.2623     0.0322     2.5306  -999.2500  -999.2500
 2633.5000    99.7750     9.2614     0.0352     2.5321  -999.2500  -999.2500
 2634.0000    99.7369     9.2606     0.0396     2.5389  -999.2500  -999.2500
 2634.5000    98.6980     9.2140     0.0455     2.5435  -999.2500  -999.2500
 2635.0000    98.2363     9.5782     0.0500     2.5457  -999.2500  -999.2500
 2635.5000    98.9903     9.3338     0.0590     2.5473  -999.2500  -999.2500
 2636.0000   102.4799     9.3482     0.0650     2.5517  -999.2500  -999.2500
 2636.5000   106.1215     9.4995     0.0694     2.5532  -999.2500  -999.2500
 2637.0000   107.9525     9.3921     0.0723     2.5486  -999.2500  -999.2500
 2637.5000   108.3894     9.3453     0.0783     2.5623  -999.2500  -999.2500
 2638.0000   104.4308     9.9989     0.0891     2.5838  -999.2500  -999.2500
 2638.5000   101.8413     9.3284     0.0796     2.5561  -999.2500  -999.2500
 2639.0000   100.7717     9.2666     0.0673     2.5446  -999.2500  -999.2500
 2639.5000   100.1579     9.2657     0.0611     2.5377  -999.2500  -999.2500
 2640.0000   100.3141     9.2648     0.0565     2.5307  -999.2500  -999.2500
 2640.5000   100.6022     9.2638     0.0548     2.5253  -999.2500  -999.2500
 2641.0000   100.7777     9.2629     0.0547     2.5187  -999.2500  -999.2500
 2641.5000   100.8944     9.2620     0.0591     2.5283  -999.2500  -999.2500
 2642.0000   100.2792     9.2611     0.0681     2.5481  -999.2500  -999.2500
 2642.5000    99.2096     9.2450     0.0536     2.5160  -999.2500  -999.2500
 2643.0000    98.5886     9.2441     0.0360     2.5144  -999.2500  -999.2500
 2643.5000    98.2846     9.2431     0.0405     2.5159  -999.2500  -999.2500
 2644.0000    98.7361     9.2422     0.0419     2.5250  -999.2500  -999.2500
 2644.5000    98.4249     9.2413     0.0418     2.5303  -999.2500  -999.2500
 2645.0000    97.5072     9.2405     0.0447     2.5349  -999.2500  -999.2500
 2645.5000    97.0454     9.2396     0.0446     2.5402  -999.2500  -999.2500
 2646.0000    97.5041     9.2369     0.0444     2.5432  -999.2500  -999.2500
 2646.5000    99.9198     9.2224     0.0443     2.5399  -999.2500  -999.2500
 2647.0000   100.0674     9.2367     0.0442     2.5339  -999.2500  -999.2500
 2647.5000    98.9963     9.2359     0.0441     2.5331  -999.2500  -999.2500
 2648.0000    93.9752     9.2350     0.0440     2.5369  -999.2500  -999.2500
 2648.5000    94.5773     9.2341     0.0439     2.5399  -999.2500  -999.2500
 2649.0000    95.1803     9.2330     0.0438     2.5383  -999.2500  -999.2500
 2649.5000    95.6294     9.2322     0.0453     2.5398  -999.2500  -999.2500
 2650.0000    94.9742     9.2464     0.0466     2.5434  -999.2500  -999.2500
 2650.5000    94.3954     9.1845     0.0465     2.5507  -999.2500  -999.2500
 2651.0000    93.3214     9.2444     0.0464     2.5581  -999.2500  -999.2500
 2651.5000    92.0954     9.2588     0.0478     2.5550  -999.2500  -999.2500
 2652.0000    91.1646     9.1358     0.0476     2.5657  -999.2500  -999.2500
 2652.5000    90.0967     9.1043     0.0475     2.5756  -999.2500  -999.2500
 2653.0000    90.2385     9.1182     0.0474     2.5518  -999.2500  -999.2500
 2653.5000    92.8119     9.1172     0.0473     2.5449  -999.2500  -999.2500
 2654.0000    95.0814     9.1162     0.0472     2.5335  -999.2500  -999.2500
 2654.5000    95.5271     9.1152     0.0471     2.5212  -999.2500  -999.2500
 2655.0000    95.0012     9.1294     0.0470     2.5273  -999.2500  -999.2500
 2655.5000    91.7048     9.1283     0.0468     2.5303  -999.2500  -999.2500
 2656.0000    89.4149     9.1118     0.0452     2.5272  -999.2500  -999.2500
 2656.5000    88.9513     9.1108     0.0451     2.5242  -999.2500  -999.2500
 2657.0000    91.5222     9.0946     0.0450     2.5241  -999.2500  -999.2500
 2657.5000    94.2476     9.0936     0.0449     2.5265  -999.2500  -999.2500
 2658.0000    96.3969     9.2143     0.0432     2.5302  -999.2500  -999.2500
 2658.5000    97.4161     9.2437     0.0431     2.5333  -999.2500  -999.2500
 2659.0000    97.8644     9.2424     0.0430     2.5294  -999.2500  -999.2500
 2659.5000    98.7635     9.2414     0.0444     2.5279  -999.2500  -999.2500
 2660.0000    99.8171     9.2556     0.0473     2.5393  -999.2500  -999.2500
 2660.5000   101.4787     9.2698     0.0503     2.5454  -999.2500  -999.2500
 2661.0000   103.2922     9.2840     0.0503     2.5415  -999.2500  -999.2500
 2661.5000   102.6715     9.2830     0.0502     2.5392  -999.2500  -999.2500
 2662.0000   101.5975     9.2972     0.0501     2.5446  -999.2500  -999.2500
