~VERSION INFORMATION
 VERS.                2.0:   CWLS LOG ASCII STANDARD - VERSION 2.0
 WRAP.                 NO:   ONE LINE PER DEPTH STEP
~WELL INFORMATION
#MNEM.UNIT      DATA TYPE    INFORMATION
#----------   ------------   ------------------------------
 STRT.F          670.0000:   START DEPTH
 STOP.F         3440.0000:   STOP DEPTH
 STEP.F            0.5000:   STEP LENGTH
 NULL.          -999.2500:   NO VALUE
 COMP.    FENIX & SCISSON:   COMPANY
 WELL.   FENIX "A" #57-33:   WELL
 FLD .             NPR #3:   FIELD
 LOC .      S33 T39N R78W:   LOCATION
 CNTY.            NATRONA:   COUNTY
 STAT.            WYOMING:   STATE
 CTRY. UNITED STATES OF AMERICA:   COUNTRY
 SRVC.       SCHLUMBERGER:   SERVICE COMPANY
 DATE.        27-APR-1977:   LOGDATE
 API .     49025103600000:   API NUMBER
~CURVE INFORMATION
#MNEM.UNIT       API CODE    CURVE DESCRIPTION
#----------   ------------   ------------------------------
 DEPT.F                  :   
 SPR .MV     11 010 01 00:   SPONTANEOUS POTENTIAL FROM RES.
 MSFL.OHMM   11 270 04 00:   MICRO SPHERICALLY FOCUSED
 LLD .OHMM   11 220 10 00:   LATEROLOG LOG DEEP
 LLS .OHMM   11 220 09 00:   LATEROLOG LOG SHALLOW
 CALD.IN     45 280 60 00:   CALIPER FROM DENSITY LOG
 DRHO.G/C3   45 356 01 00:   DENSITY CORRECTION
 NPHI.DEC    42 890 03 00:   NEUTRON POROSITY SANDSTONE
 RHOB.G/C3   45 350 01 00:   BULK DENSITY
 GRD .GAPI   45 310 01 00:   GAMMA RAY FROM RESISTIVITY
~PARAMETER INFORMATION
#MNEM.UNIT          VALUE    DESCRIPTION
#----------   ------------   ------------------------------
 EKB .F         5183.0000:   Kelly bushing
 EGL .F         5172.0000:   Ground level
 EDF .F            0.0000:   Drilling floor
 TD  .F         3424.0000:   Total depth
 DATE.        27-APR-1977:   Date logged
 CLNT.            A2DTECH:   Client Code
 SL  . 990' FSL & 2310' FEL:   Surface Location
 PD  .                 GL:   Permanent Datum
 EPD .F              5172:   Elevation Permanent Datum
 LMF .                 KB:   Log Measured From
 DMF .                 KB:   Drilling Measured From
 DAPD.F                11:   Feet Above Permanent Datum
 DD  .F              3421:   Depth driller
 DL  .F              3424:   Depth logger
 BLI .F              3423:   Bottom log interval
 TLI .F               764:   Top log interval
 CS1 .IN            8.625:   Casing size
 CBD1.      8.625" @ 711':   Casing driller 1
 BS1 .IN            7.875:   Bit size
 BSD1.F              3421:   Depth drilled with bit1
 DFT .            KCL MUD:   Type fluid in hole
 DFD .                9.5:   Density
 DFV .                 41:   Viscosity
 DFPH.                  8:   pH
 DFL .               10.8:   Fluid loss
 MSS .            MUD PIT:   Source of sample
 RMS .OHMM           0.26:   Rm
 MST .F                74:   Rm Meas. temp.
 RMF .OHMM           0.21:   Rmf
 MFST.F                74:   Rmf Meas. temp.
 RMC .OHMM            .09:   Rmc
 MCST.F                74:   Rmc Meas. temp.
 MFSS.               MEAS:   Source Rmf.
 MCSS.               CALC:   Source Rmc.
 RMB .OHMM           0.15:   Rm. at BHT
 BHT .F               126:   BHT.
 TCS .HRS            0900:   Time Circ. stopped
 TLAB.HRS            1430:   Time logger at bottom
 MRT .F               126:   Maximum recorded temp.
 LUN .               7711:   Logging unit number
 LUL .               CSPR:   Logging unit location
 ENGI.             SAYLER:   Recorded By
 WITN.         PETTINGILL:   Witnessed by
 ORIG.           5" PRINT:   Origin of data
 UWI .     49025103600000:   Unique Well ID
 DICO. A2D TECHNOLOGIES, INC.:   Digitizing Company
~OTHER INFORMATION
~A   DEPT      SPR       MSFL        LLD        LLS         CALD      DRHO        NPHI       RHOB      GRD   
# ...
 1400.0000   -34.6540    10.4640     7.8800     8.7210    10.1300     0.0080     0.2970     2.5620   123.4300
 1400.5000   -34.8150    10.0660     7.7680     8.5320    10.1330     0.0080     0.3000     2.5600   124.9610
 1401.0000   -34.7580    10.2360     7.7120     8.6900    10.1350     0.0120     0.3000     2.5640   125.4100
 1401.5000   -34.6650    10.5800     7.8630     8.8970    10.1380     0.0230     0.3000     2.5770   123.8450
 1402.0000   -34.5720    10.9240     8.0340     9.1830    10.1400     0.0350     0.3000     2.6170   122.3680
 1402.5000   -34.4800    11.2400     8.2130     9.1160    10.1430     0.0450     0.3000     2.6120   121.3100
 1403.0000   -34.3870    11.0020     8.1510     9.0180    10.1450     0.0390     0.2950     2.5980   122.8590
 1403.5000   -34.2950    10.7810     8.0670     8.9200    10.1480     0.0320     0.2970     2.5870   123.3800
 1404.0000   -34.2030    10.5610     7.9830     8.8230    10.1500     0.0250     0.3010     2.5760   123.1020
 1404.5000   -34.1100    10.4430     7.8550     8.7700    10.1530     0.0200     0.2960     2.5860   122.6980
 1405.0000   -34.0180    10.7740     8.0010     8.9710    10.1530     0.0310     0.2970     2.5990   124.6870
 1405.5000   -33.9250    11.3010     8.1940     9.1300    10.1510     0.0210     0.2990     2.5900   126.5690
 1406.0000   -33.8330    11.8280     8.4540     9.2880    10.1480     0.0140     0.2980     2.5790   127.9940
 1406.5000   -33.7400    12.4350     8.7140     9.4390    10.1460     0.0080     0.2830     2.5690   129.1300
 1407.0000   -33.6480    12.2000     8.9750     9.4170    10.1430     0.0110     0.2860     2.5650   126.9250
 1407.5000   -33.5560    11.9270     9.0160     9.3960    10.1410     0.0160     0.2910     2.5720   123.2770
 1408.0000   -33.4590    11.5540     8.9800     9.3740    10.1380     0.0190     0.2930     2.5700   120.2530
 1408.5000   -33.4620    11.6700     8.9240     9.3530    10.1350     0.0140     0.2880     2.5710   123.2700
 1409.0000   -33.5040    11.8770     8.8680     9.3310    10.1350     0.0080     0.2850     2.5720   121.7480
 1409.5000   -33.5470    11.4210     8.8120     9.3100    10.1410     0.0020     0.2810     2.5680   120.8430
 1410.0000   -33.5900    11.0500     8.7560     9.2890    10.1460     0.0060     0.2830     2.5720   120.2990
 1410.5000   -33.6330    10.8340     8.7010     9.2680    10.1520     0.0190     0.2850     2.5880   121.9870
 1411.0000   -33.6770    11.2400     8.6900     9.3020    10.1470     0.0270     0.2870     2.5980   124.8010
 1411.5000   -33.7200    11.0850     8.7540     9.3580    10.1390     0.0290     0.2820     2.5910   125.3340
 1412.0000   -33.7630    10.9340     8.8060     9.4140    10.1300     0.0430     0.2850     2.5890   123.1200
 1412.5000   -33.8050    11.1710     8.8590     9.4700    10.1210     0.0370     0.2920     2.6020   125.7530
 1413.0000   -33.8290    11.3680     8.9110     9.5270    10.1130     0.0290     0.3000     2.5900   122.4230
 1413.5000   -33.8120    11.5540     8.9630     9.5630    10.0950     0.0300     0.2990     2.5850   120.6830
 1414.0000   -33.7330    11.5540     9.0160     9.6000    10.0770     0.0220     0.2960     2.5770   119.7250
 1414.5000   -33.6550    11.8440     9.0680     9.6360    10.0600     0.0140     0.2930     2.5760   118.4690
 1415.0000   -33.5770    12.1380     9.1210     9.6730    10.0430     0.0180     0.2900     2.5800   117.8190
 1415.5000   -33.5000    12.3210     9.1730     9.7300    10.0330     0.0210     0.2870     2.5840   117.0240
 1416.0000   -33.4220    11.7890     9.2250     9.8810    10.0320     0.0150     0.2840     2.5880   117.6600
 1416.5000   -33.3440    11.5540     9.2780    10.0310    10.0300     0.0090     0.2810     2.5840   118.6980
 1417.0000   -33.2670    11.8380     9.3300    10.0660    10.0290     0.0140     0.2820     2.5810   117.2130
 1417.5000   -33.1890    12.2800     9.5270     9.9860    10.0270     0.0260     0.2860     2.5740   115.1170
 1418.0000   -33.1100    12.1580     9.4680     9.9030    10.0260     0.0300     0.2920     2.5670   113.4780
 1418.5000   -33.0410    11.7000     9.3040     9.8190    10.0240     0.0170     0.3000     2.5600   110.2700
 1419.0000   -33.1410    11.2430     9.1390     9.7360    10.0230     0.0140     0.2940     2.5530   112.1210
 1419.5000   -33.2470    11.0350     8.9330     9.6530    10.0210     0.0190     0.2870     2.5680   113.8590
 1420.0000   -33.3510    11.5340     9.1250     9.5270    10.0200     0.0170     0.2840     2.5770   115.5740
 1420.5000   -33.4550    12.0970     9.3140     9.7840    10.0180     0.0210     0.2810     2.5840   117.2920
 1421.0000   -33.5600    12.0970     9.4390    10.0660    10.0170     0.0270     0.2850     2.5900   118.2710
 1421.5000   -33.6640    11.6430     9.3540     9.9420    10.0150     0.0330     0.2910     2.5850   116.9670
 1422.0000   -33.7680    11.2020     9.2900     9.8420    10.0140     0.0270     0.2980     2.5700   113.7080
 1422.5000   -33.8720    10.7610     9.2260     9.7420    10.0520     0.0220     0.2940     2.5600   112.6830
 1423.0000   -33.9760    10.6370     9.1830     9.6430    10.0940     0.0270     0.2910     2.5700   112.8910
 1423.5000   -34.0810    10.8000     9.3230     9.6070    10.1360     0.0340     0.2930     2.5770   112.9990
 1424.0000   -34.1850    10.9470     9.4390     9.5450    10.1730     0.0290     0.2960     2.5740   110.7610
 1424.5000   -34.2890    11.1370     9.2610     9.4830    10.1770     0.0200     0.3010     2.5650   111.2010
 1425.0000   -34.3930    10.9810     9.0650     9.4320    10.1820     0.0150     0.3030     2.5690   110.1760
 1425.5000   -34.4980    10.7580     8.8680     9.4060    10.1870     0.0180     0.3010     2.5710   110.0520
 1426.0000   -34.6030    10.7350     8.6110     9.3810    10.1920     0.0170     0.2990     2.5710   110.9720
 1426.5000   -34.6240    10.9750     8.7110     9.3560    10.1970     0.0090     0.2910     2.5720   112.2640
 1427.0000   -34.5840    11.1600     8.9170     9.4670    10.2020     0.0140     0.2930     2.5790   114.2930
 1427.5000   -34.5340    11.3450     9.1220     9.5960    10.2070     0.0190     0.2940     2.5860   116.7400
 1428.0000   -34.4850    11.5310     9.3270     9.7250    10.2120     0.0190     0.2960     2.5780   119.2730
 1428.5000   -34.4350    11.5540     9.3530     9.7930    10.2060     0.0140     0.2980     2.5770   120.9680
 1429.0000   -34.3860    11.2590     9.2460     9.6880    10.1970     0.0150     0.2830     2.5790   121.5790
 1429.5000   -34.3360    11.0280     9.0880     9.6060    10.1870     0.0150     0.2670     2.5860   121.1390
 1430.0000   -34.2870    10.7970     8.9290     9.5240    10.1770     0.0120     0.2710     2.5980   120.9440
 1430.5000   -34.2370    10.5650     8.7700     9.4420    10.1680     0.0060     0.2760     2.5920   121.4830
 1431.0000   -34.2580    10.2530     8.6110     9.3600    10.1580     0.0050     0.2750     2.5910   121.6110
 1431.5000   -34.3110    10.7090     8.4520     9.2780    10.1550     0.0060     0.2770     2.5910   120.8950
 1432.0000   -34.3650    11.5850     8.3000     9.1830    10.1600     0.0080     0.2810     2.5890   120.9660
 1432.5000   -34.4190    11.4180     8.4560     9.2270    10.1640     0.0120     0.2840     2.5900   120.2990
 1433.0000   -34.4730    11.1110     8.6060     9.3280    10.1690     0.0060     0.2880     2.5930   120.5790
 1433.5000   -34.5270    10.8040     8.8510     9.4290    10.1710     0.0050     0.2870     2.5870   119.8650
 1434.0000   -34.5810    10.4430     8.5760     9.5270    10.1190     0.0080     0.2840     2.5840   117.6810
 1434.5000   -34.6350    10.5400     8.3530     9.3120    10.0670     0.0120     0.2970     2.5960   114.9330
 1435.0000   -34.6890    10.6210     8.0010     9.1580    10.0530     0.0170     0.3020     2.6080   112.4520
 1435.5000   -34.7420    10.7500     8.0310     9.0040    10.0350     0.0260     0.2990     2.6220   114.0250
 1436.0000   -34.8000    10.8800     8.1050     8.8510    10.0170     0.0320     0.2910     2.6070   115.2420
