~VERSION INFORMATION
 VERS.                2.0:   CWLS LOG ASCII STANDARD - VERSION 2.0
 WRAP.                 NO:   ONE LINE PER DEPTH STEP
~WELL INFORMATION
#MNEM.UNIT      DATA TYPE    INFORMATION
#----------   ------------   ------------------------------
 STRT.F          448.5000:   START DEPTH
 STOP.F         4490.5000:   STOP DEPTH
 STEP.F            0.5000:   STEP LENGTH
 NULL.          -999.2500:   NO VALUE
 COMP.  FENIX AND SCISSON:   COMPANY
 WELL. FENIX AND SCISSON NPR 3 #11-10:   WELL
 FLD .              NPR-3:   FIELD
 LOC .      S10 T38N R78W:   LOCATION
 CNTY.            NATRONA:   COUNTY
 STAT.            WYOMING:   STATE
 CTRY. UNITED STATES OF AMERICA:   COUNTRY
 SRVC.              WELEX:   SERVICE COMPANY
 DATE.        22-DEC-1978:   LOGDATE
 API .     49025107450000:   API NUMBER
~CURVE INFORMATION
#MNEM.UNIT       API CODE    CURVE DESCRIPTION
#----------   ------------   ------------------------------
 DEPT.F                  :   
 SPR .MV     07 010 01 00:   SPONTANEOUS POTENTIAL
 ILM .OHMM   07 120 44 00:   INDUCTION LOG MEDIUM
 ILD .OHMM   07 120 46 00:   DEEP RESISTIVITY
 SGRD.OHMM   07 220 01 00:   SHALLOW SHORT GUARD RESISTIVITY
 TENR.LBS    07 635 01 00:   TENSION FROM RESISTIVITY
 NPHI.DEC    42 890 03 00:   NEUTRON POROSITY SANDSTONE
 CALD.IN     45 280 60 00:   CALIPER FROM DENSITY LOG
 GRD .GAPI   45 310 01 00:   GAMMA RAY FROM DENSITY LOG
 RHOB.G/C3   45 350 01 00:   BULK DENSITY
 DRHO.G/C3   45 356 01 00:   DENSITY CORRECTION
 TEND.LBS    45 635 01 00:   TENSION FROM DENSITY
~PARAMETER INFORMATION
#MNEM.UNIT          VALUE    DESCRIPTION
#----------   ------------   ------------------------------
 EKB .F         5275.0000:   Kelly bushing
 EGL .F         5265.0000:   Ground level
 EDF .F            0.0000:   Drilling floor
 EPD .F         5265.0000:   Permanent datum
 TD  .F         4500.0000:   Total depth
 DATE.        22-DEC-1978:   Date logged
 CLNT.            A2DTECH:   Client Code
 SL  . 300' FNL & 500' FWL:   Surface Location
 DD  .F              4500:   Depth driller
 DL  .F              4481:   Depth logger
 BLI .F              4479:   Bottom log interval
 TLI .F               450:   Top log interval
 CS1 .IN            8.625:   Casing size
 CBD1.      8.625" @ 500':   Casing driller 1
 CBL1.F               473:   Casing logger 1
 BS1 .IN            7.875:   Bit size
 BSD1.F              4500:   Depth drilled with bit1
 DFT .               LSND:   Type fluid in hole
 DFD .                8.7:   Density
 DFV .                 49:   Viscosity
 DFPH.               11.0:   pH
 DFL .                7.6:   Fluid loss
 MSS .           FLOWLINE:   Source of sample
 RMS .OHMM            1.1:   Rm
 MST .F                86:   Rm Meas. temp.
 RMF .OHMM           0.73:   Rmf
 MFST.F                86:   Rmf Meas. temp.
 RMC .OHMM           1.68:   Rmc
 MCST.F                86:   Rmc Meas. temp.
 MFSS.               CALC:   Source Rmf.
 MCSS.               CALC:   Source Rmc.
 RMB .OHMM           0.72:   Rm. at BHT
 BHT .F               130:   BHT.
 TCS .HRS             3.5:   Time Circ. stopped
 MRT .F               130:   Maximum recorded temp.
 LUN .               9685:   Logging unit number
 LUL .             CASPER:   Logging unit location
 ENGI.            BENTSEN:   Recorded By
 WITN.           DINSMORE:   Witnessed by
 ORIG.           5" PRINT:   Origin of data
 UWI .     49025107450000:   Unique Well ID
 DICO. A2D TECHNOLOGIES, INC.:   Digitizing Company
~OTHER INFORMATION
~A  DEPTH      SPR        ILM        ILD       SGRD       TENR       NPHI       CALD        GRD       RHOB       DRHO       TEND
# ...
 2339.5000   -65.1205    10.6379    11.7826    12.3121  1050.9319     0.3026    11.7131    95.9776     2.4194     0.0202  1401.0190
 2340.0000   -65.0370    10.7986    11.6546    15.4823  1051.0784     0.3063    11.7158    98.8222     2.4323     0.0280  1401.4034
 2340.5000   -65.0222    10.1171    11.5813    12.9884  1051.2250     0.3130    11.7030   101.2833     2.4354     0.0359  1401.7880
 2341.0000   -65.0074     9.0308    11.4481    11.5151  1051.3716     0.3181    11.7051   103.7132     2.4339     0.0423  1402.1725
 2341.5000   -64.8953     8.1273    11.4200    13.1521  1051.5182     0.3210    11.7072   105.1258     2.4340     0.0471  1402.5570
 2342.0000   -64.8296     8.1528    11.3523    14.1932  1051.6648     0.3210    11.6944   105.6081     2.4348     0.0458  1402.9415
 2342.5000   -64.8148     9.0468    11.3615    11.3610  1051.8114     0.3194    11.6967   105.3270     2.4319     0.0402  1403.3260
 2343.0000   -64.8000     9.8693    11.4495    11.8278  1051.9580     0.3164    11.6990   104.7579     2.4267     0.0330  1403.7106
 2343.5000   -64.7852    10.1773    11.4587    14.9542  1052.1046     0.3139    11.7012   104.1746     2.4223     0.0258  1404.0951
 2344.0000   -64.6194    10.2226    11.5475    16.3189  1052.2512     0.3127    11.7034   103.4866     2.4186     0.0187  1404.4795
 2344.5000   -64.4569    10.1631    11.5568    16.4448  1052.3977     0.3176    11.7057   102.6332     2.4171     0.0130  1404.8640
 2345.0000   -64.4425     9.9628    11.4838    15.7584  1052.5443     0.3233    11.6947   101.5402     2.4165     0.0073  1405.2485
 2345.5000   -64.4281     9.6991    11.3232    14.6376  1052.6909     0.3300    11.6652   100.2261     2.4166     0.0031  1405.6331
 2346.0000   -64.4138     9.3771    11.0021    13.2896  1052.8375     0.3354    11.6358    98.9120     2.4166     0.0003  1406.0176
 2346.5000   -64.2512     9.1923    10.5579    12.1847  1052.9841     0.3379    11.6157    97.5773     2.4175    -0.0009  1406.4021
 2347.0000   -64.0887     9.0738    10.2164    11.1261  1053.1307     0.3362    11.6021    96.1149     2.4198     0.0011  1406.7866
 2347.5000   -64.0741     9.2092    10.0324    10.0502  1053.2773     0.3342    11.5999    93.9926     2.4244     0.0104  1407.1710
 2348.0000   -64.0593     9.3482     9.9836    10.8577  1053.4240     0.3346    11.5875    91.9216     2.4335     0.0213  1407.5555
 2348.5000   -64.0444     9.4240    10.0084    13.0290  1053.5706     0.3361    11.5896    90.1689     2.4396     0.0277  1407.9401
 2349.0000   -64.0296     9.4937    10.0696    13.8166  1053.7170     0.3381    11.6067    89.0872     2.4434     0.0310  1408.3246
 2349.5000   -64.0148     9.5024    10.0990    13.7149  1053.8636     0.3378    11.6088    88.6382     2.4450     0.0328  1408.7091
 2350.0000   -64.0009     9.5097    10.1779    13.3943  1054.0221     0.3350    11.5960    88.3729     2.4435     0.0332  1409.1541
 2350.5000   -63.9916     9.4636    10.2531    13.0305  1054.4413     0.3321    11.6268    88.3166     2.4420     0.0425  1408.6495
 2351.0000   -63.9809     9.4239    10.3299    12.1660  1054.8972     0.3287    11.6554    88.2549     2.4400     0.0472  1408.0510
 2351.5000   -63.9724     9.3823    10.3907    12.5367  1055.3531     0.3235    11.6765    89.4018     2.4348     0.0489  1407.4524
 2352.0000   -63.9639     9.2588    10.4462    13.0601  1055.8092     0.3181    11.6728    90.8318     2.4304     0.0417  1406.8539
 2352.5000   -63.9554     9.2647    10.5500    13.1498  1056.2651     0.3141    11.6587    92.3022     2.4282     0.0344  1406.2552
 2353.0000   -64.0950     9.2747    10.5878    12.9037  1056.7211     0.3113    11.6369    93.7313     2.4283     0.0331  1405.6566
 2353.5000   -64.0865     9.3611    10.6379    12.5072  1057.1770     0.3107    11.6246    94.7266     2.4329     0.0382  1405.0581
 2354.0000   -64.2262     9.5621    10.6822    12.4210  1057.6329     0.3111    11.6265    94.7721     2.4405     0.0457  1404.4595
 2354.5000   -64.2163     9.7070    10.7669    12.6345  1058.0889     0.3127    11.6174    93.9567     2.4482     0.0505  1403.8610
 2355.0000   -64.2074     9.8243    10.8522    12.9484  1058.5448     0.3150    11.6155    92.6563     2.4482     0.0478  1403.2623
 2355.5000   -64.1985     9.8306    10.8910    13.2996  1059.0007     0.3168    11.6027    91.8614     2.4446     0.0359  1402.6637
 2356.0000   -64.1896     9.7972    10.8985    13.5586  1059.4567     0.3187    11.6047    91.8353     2.4371     0.0265  1402.0652
 2356.5000   -64.1807     9.6414    10.9060    13.7195  1059.9126     0.3205    11.6064    92.2638     2.4304     0.0169  1401.4666
 2357.0000   -64.1719     9.4416    10.9136    13.7788  1060.3687     0.3225    11.6083    92.9486     2.4268     0.0127  1400.8680
 2357.5000   -64.1630     9.2980    10.9211    13.6332  1060.8246     0.3250    11.6100    93.5811     2.4239     0.0113  1400.2694
 2358.0000   -64.1541     9.2372    10.8546    13.0865  1061.2805     0.3274    11.5973    93.8338     2.4202     0.0117  1399.6708
 2358.5000   -64.1452     9.2077    10.7869    12.0524  1061.7365     0.3298    11.5993    93.4159     2.4173     0.0119  1399.0723
 2359.0000   -64.1363     9.2136    10.7197    10.9990  1062.1924     0.3317    11.6012    91.5185     2.4158     0.0106  1398.4736
 2359.5000   -64.1274     9.2556    10.5795    11.4676  1062.6483     0.3315    11.6102    89.3581     2.4159     0.0094  1397.8750
 2360.0000   -64.1185     9.3284    10.5136    12.8275  1063.1042     0.3286    11.6200    86.8922     2.4160     0.0081  1397.2765
 2360.5000   -64.1096     9.3602    10.3761    13.3650  1063.5602     0.3252    11.6219    84.1747     2.4153     0.0084  1396.6779
 2361.0000   -64.1007     9.3662    10.3830    13.3724  1064.0161     0.3217    11.6031    82.2125     2.4162     0.0094  1396.0793
 2361.5000   -64.0902     9.2800    10.3102    13.3797  1064.4722     0.3188    11.5960    81.3368     2.4208     0.0135  1395.4807
 2362.0000   -64.0817     9.0586    10.2316    13.5736  1064.9281     0.3169    11.5833    81.1162     2.4232     0.0137  1394.8821
 2362.5000   -64.0732     8.8072    10.1067    13.0287  1065.3840     0.3159    11.5851    81.5387     2.4218     0.0124  1394.2836
 2363.0000   -64.0647     8.5229    10.0411    11.5092  1065.8400     0.3158    11.5720    82.5831     2.4166     0.0096  1393.6849
 2363.5000   -64.0562     8.5281     9.9560    10.0161  1066.2959     0.3161    11.5738    83.6512     2.4114     0.0054  1393.0864
 2364.0000   -64.0474     8.6525     9.8204     9.7588  1066.7518     0.3163    11.5458    84.8239     2.4107     0.0012  1392.4878
 2364.5000   -64.0385     8.7787     9.6867    10.9707  1067.2078     0.3169    11.5476    85.7473     2.4106     0.0014  1391.8892
 2365.0000   -64.0296     8.9067     9.6097    11.9833  1067.6637     0.3168    11.5308    87.3412     2.4079     0.0017  1391.2906
 2365.5000   -64.0207     9.0367     9.6470    12.2167  1068.1196     0.3158    11.5167    89.2016     2.4050     0.0049  1390.6920
 2366.0000   -64.0118     9.0463     9.7234    12.3337  1068.5757     0.3144    11.5027    91.1732     2.4020     0.0082  1390.0935
 2366.5000   -64.0030     9.1175     9.8375    12.5455  1069.0316     0.3121    11.4961    93.2123     2.4112     0.0115  1389.4949
 2367.0000   -63.9941     9.1892     9.9871    12.8572  1069.4875     0.3096    11.4895    94.3347     2.4211     0.0132  1388.8962
 2367.5000   -63.9852     9.2615    10.1390    13.0355  1069.9435     0.3056    11.4851    95.0149     2.4234     0.0105  1388.2977
 2368.0000   -63.9763     9.3483    10.2932    12.7471  1070.3994     0.3020    11.4870    95.2645     2.4205     0.0062  1387.6991
 2368.5000   -63.9674     9.4733    10.3986    12.3800  1070.8553     0.3011    11.4744    94.2273     2.4131     0.0020  1387.1006
 2369.0000   -63.9585     9.5478    10.5356    12.1637  1071.3113     0.3019    11.4613    92.2190     2.4034    -0.0024  1386.5020
 2369.5000   -63.9496     9.6229    10.6541    12.0865  1071.7672     0.3050    11.4631    91.0126     2.3967    -0.0051  1385.9033
