~VERSION INFORMATION
 VERS.                2.0:   CWLS LOG ASCII STANDARD - VERSION 2.0
 WRAP.                 NO:   ONE LINE PER DEPTH STEP
~WELL INFORMATION
#MNEM.UNIT      DATA TYPE    INFORMATION
#----------   ------------   ------------------------------
 STRT.F          200.0000:   START DEPTH
 STOP.F         3060.0000:   STOP DEPTH
 STEP.F            0.5000:   STEP LENGTH
 NULL.          -999.2500:   NO VALUE
 COMP.    FENIX & SCISSON:   COMPANY
 WELL. FENIX & SCISSON NPR "AX" #81-10:   WELL
 FLD .                NPR:   FIELD
 LOC .      S10 T38N R78W:   LOCATION
 CNTY.            NATRONA:   COUNTY
 STAT.            WYOMING:   STATE
 CTRY. UNITED STATES OF AMERICA:   COUNTRY
 SRVC.              WELEX:   SERVICE COMPANY
 DATE.        28-NOV-1977:   LOGDATE
 API .     49025104400000:   API NUMBER
~CURVE INFORMATION
#MNEM.UNIT       API CODE    CURVE DESCRIPTION
#----------   ------------   ------------------------------
 DEPT.F                  :   
 CALD.IN     45 280 60 00:   CALIPER FROM DENSITY LOG
 GRD .GAPI   45 310 01 00:   GAMMA RAY FROM DENSITY LOG
 RHOB.G/C3   45 350 01 00:   BULK DENSITY
 CORR.G/C3   45 356 01 00:   DENSITY CORRECTION
 TEND.LBS    45 635 01 00:   TENSION FROM DENSITY LOG
 NPHI.DEC    42 890 03 00:   NEUTRON POROSITY SANDSTONE
 SPR .MV     07 010 01 00:   SPONTANEOUS POTENTIAL
 IL  .OHMM   07 120 00 00:   INDUCTION LOG RES.
 ASGR.OHMM   07 221 05 00:   AMPLIFIED SHALLOW GUARD
 SNP .DEC    41 890 00 00:   SIDEWALL NEUTRON POROSITY
~PARAMETER INFORMATION
#MNEM.UNIT          VALUE    DESCRIPTION
#----------   ------------   ------------------------------
 EKB .F         5147.0000:   Kelly bushing
 EGL .F         5137.0000:   Ground level
 EDF .F            0.0000:   Drilling floor
 TD  .F         3058.0000:   Total depth
 DATE.        28-NOV-1977:   Date logged
 CLNT.            A2DTECH:   Client Code
 PD  .                 GL:   Permanent Datum
 EPD .F              5137:   Elevation Permanent Datum
 LMF .                 KB:   Log Measured From
 DMF .                 KB:   Drilling Measured From
 DD  .F              3055:   Depth driller
 DL  .F              3058:   Depth logger
 BLI .F              3055:   Bottom log interval
 TLI .F               200:   Top log interval
 CS1 .IN            8.625:   Casing size
 CBD1.      8.625" @ 205':   Casing driller 1
 CBL1.F               215:   Casing logger 1
 BSD1.F              3055:   Depth drilled with bit1
 DFT .            KCL/MUD:   Type fluid in hole
 ENGI.            BENTSEN:   Recorded By
 WITN.         HARRINGTON:   Witnessed by
 ORIG.           5" PRINT:   Origin of data
 UWI .     49025104400000:   Unique Well ID
 DICO. A2D TECHNOLOGIES, INC.:   Digitizing Company
 DAPD.                 10:   Feet Above Permanent Datum
 BS1 .IN            7.875:   Bit size
 DFD .                8.9:   Density
 DFV .                 35:   Viscosity
 MSS .           FLOWLINE:   Source of sample
 RMS .OHMM            .17:   Rm
 MST .F                75:   Rm Meas. temp.
 RMF .OHMM            .12:   Rmf
 MFST.F                75:   Rmf Meas. temp.
 MFSS.               FANN:   Source Rmf.
 RMC .OHMM            .50:   Rmc
 MCST.F                75:   Rmc Meas. temp.
 MCSS.                KIT:   Source Rmc.
 RMB .OHMM           .113:   Rm. at BHT
 BHT .F               113:   BHT.
 TCS .HRS             2.5:   Time Circ. stopped
 MRT .F               113:   Maximum recorded temp.
 LUN .               9685:   Logging unit number
 LUL .             CASPER:   Logging unit location
 SL  . 601' FNL & 200' FEL:   Surface Location
~OTHER INFORMATION
~A   DEPT       CALD      GRD       RHOB       CORR        TEND        NPHI       SPR        IL       ASGR        SNP   
# ...
 2277.0000     8.6610   109.9980     2.4910     0.0020   995.3450     0.1390   -79.3800     6.1080    10.4830     0.2320
 2277.5000     8.6610   111.8680     2.4800    -0.0040   995.4210     0.1420   -79.4210     6.0220    12.1410     0.2400
 2278.0000     8.6620   113.7350     2.4690    -0.0100   995.4970     0.1400   -79.3370     5.9370     9.9110     0.2420
 2278.5000     8.6620   116.6110     2.4640    -0.0150   995.5730     0.1400   -79.1830     5.8510     7.5710     0.2410
 2279.0000     8.6620   120.3400     2.4640    -0.0090   995.6490     0.1410   -79.0280     5.7650     6.7810     0.2380
 2279.5000     8.6620   124.0750     2.4640    -0.0030   995.7240     0.1400   -78.8730     5.6790     8.1530     0.2340
 2280.0000     8.6630   127.3710     2.4640     0.0040   995.8000     0.1390   -78.7170     5.5940     9.4780     0.2320
 2280.5000     8.6630   129.0830     2.4670     0.0080   995.8760     0.1380   -78.5620     5.5080     9.0970     0.2310
 2281.0000     8.6630   128.5360     2.4700     0.0060   995.9520     0.1370   -78.4060     5.4220     9.6960     0.2310
 2281.5000     8.6640   128.0670     2.4690     0.0040   996.0280     0.1370   -78.2510     5.3530    10.2240     0.2320
 2282.0000     8.6640   131.3570     2.4600     0.0020   996.1040     0.1390   -78.0960     5.2510     9.2980     0.2320
 2282.5000     8.6640   135.9430     2.4500     0.0000   996.1800     0.1420   -77.9400     5.1510     7.0890     0.2350
 2283.0000     8.6640   140.5410     2.4410    -0.0020   996.2560     0.1480   -77.7850     5.0510     7.1170     0.2420
 2283.5000     8.6650   145.0980     2.4310    -0.0040   996.3320     0.1510   -77.6290     4.9510     6.9270     0.2560
 2284.0000     8.6650   148.8110     2.4200    -0.0060   996.4080     0.1510   -77.4740     4.8540     7.7780     0.2660
 2284.5000     8.6650   148.7420     2.4250    -0.0090   996.4840     0.1500   -77.3180     4.8030     5.0020     0.2660
 2285.0000     8.6650   146.9480     2.4350    -0.0110   996.5600     0.1480   -77.1650     4.9640     5.0620     0.2660
 2285.5000     8.6660   144.4820     2.4460    -0.0130   996.6360     0.1430   -77.0600     5.1210     5.0600     0.2600
 2286.0000     8.6660   142.4160     2.4560    -0.0110   996.7120     0.1380   -77.2050     5.2770     5.0750     0.2510
 2286.5000     8.6660   145.1940     2.4660    -0.0080   996.7880     0.1390   -77.3460     5.3280     8.7240     0.2410
 2287.0000     8.6670   150.2670     2.4760    -0.0040   996.8640     0.1400   -77.4870     5.1880    12.4120     0.2350
 2287.5000     8.6670   152.0830     2.4870    -0.0010   996.9390     0.1390   -77.6270     5.0510    11.4430     0.2330
 2288.0000     8.6670   153.3420     2.4970     0.0030   997.0150     0.1370   -77.7670     4.9140     7.9100     0.2310
 2288.5000     8.6670   168.2710     2.5070     0.0060   997.0910     0.1360   -77.8170     4.7760     6.1930     0.2300
 2289.0000     8.6680   168.4500     2.5150     0.0050   997.1670     0.1370   -77.7630     4.6390     4.8080     0.2300
 2289.5000     8.6680   163.7930     2.5230     0.0040   997.2430     0.1380   -77.7120     4.4440     4.1110     0.2310
 2290.0000     8.6680   152.6490     2.5300     0.0020   997.3190     0.1390   -77.6600     4.1960     4.0700     0.2310
 2290.5000     8.6690   137.6590     2.5380     0.0010   997.3950     0.1390   -77.6090     3.9470     5.4570     0.2310
 2291.0000     8.6690   136.5240     2.5450    -0.0010   997.4710     0.1390   -77.5570     3.7000     5.0930     0.2320
 2291.5000     8.6690   135.9050     2.5530    -0.0020   997.5470     0.1370   -77.5050     3.6690     4.7670     0.2310
 2292.0000     8.6690   134.9100     2.5600    -0.0040   997.6230     0.1330   -77.4510     3.6680     4.5450     0.2260
 2292.5000     8.6700   133.8940     2.5670    -0.0050   997.6990     0.1300   -77.4630     3.6680     5.1880     0.2200
 2293.0000     8.6700   132.8790     2.5750    -0.0110   997.7750     0.1300   -77.5030     3.6680     5.2520     0.2130
 2293.5000     8.6700   131.8640     2.5770    -0.0090   997.8510     0.1300   -77.5440     3.6680     5.2710     0.2100
 2294.0000     8.6710   130.8400     2.5630    -0.0070   997.9270     0.1300   -77.5850     3.6680     5.1700     0.2090
 2294.5000     8.6710   130.4800     2.5520    -0.0050   998.0030     0.1280   -77.6310     3.6680     5.2590     0.2060
 2295.0000     8.6710   130.5640     2.5420    -0.0030   998.0790     0.1240   -77.5090     3.6680     5.1720     0.2000
 2295.5000     8.6720   130.6500     2.5310    -0.0020   998.1540     0.1220   -77.3560     3.6680     5.1290     0.1960
 2296.0000     8.6740   130.3980     2.5250     0.0000   998.2300     0.1250   -77.2020     3.6690     5.2160     0.1970
 2296.5000     8.6760   129.9720     2.5300     0.0020   998.3060     0.1290   -77.0490     3.6680     5.1340     0.2050
 2297.0000     8.6780   129.5440     2.5370     0.0050   998.3820     0.1320   -76.8950     3.6650     5.0300     0.2100
 2297.5000     8.6800   129.0240     2.5450     0.0040   998.4580     0.1330   -76.7430     3.7790     4.9240     0.2150
 2298.0000     8.6820   128.8490     2.5530     0.0040   998.5340     0.1350   -76.6610     3.9230     5.0370     0.2200
 2298.5000     8.6840   129.8410     2.5600     0.0020   998.6100     0.1350   -76.7390     4.0680     5.3160     0.2260
 2299.0000     8.6870   131.1370     2.5570     0.0010   998.6860     0.1380   -76.8110     4.2150     5.1850     0.2310
 2299.5000     8.6890   132.4680     2.5550    -0.0010   998.7620     0.1420   -76.8840     4.3640     5.0580     0.2350
 2300.0000     8.6910   132.7660     2.5530    -0.0020   998.8380     0.1450   -76.9580     4.2670     5.6400     0.2450
 2300.5000     8.6930   132.2670     2.5500    -0.0040   998.9140     0.1470   -77.0270     4.1500     5.3510     0.2540
 2301.0000     8.6950   131.7630     2.5480    -0.0050   998.9900     0.1490   -76.8420     4.0340     5.1220     0.2610
 2301.5000     8.6970   131.2560     2.5480    -0.0060   999.0660     0.1510   -76.6230     3.9170     4.9490     0.2610
 2302.0000     8.6990   130.7480     2.5500    -0.0030   999.1420     0.1520   -76.4070     3.8010     4.6760     0.2590
 2302.5000     8.7010   130.2430     2.5520     0.0000   999.2180     0.1470   -76.2920     3.6850     4.3380     0.2570
 2303.0000     8.7030   129.7410     2.5540     0.0030   999.2940     0.1430   -76.5260     3.5830     4.1520     0.2520
 2303.5000     8.7050   130.2470     2.5490     0.0060   999.3690     0.1400   -76.7500     3.4830     4.1530     0.2450
 2304.0000     8.7080   131.5090     2.5430     0.0080   999.4450     0.1360   -76.9740     3.3830     4.1000     0.2350
 2304.5000     8.7100   132.7670     2.5380     0.0080   999.5210     0.1340   -77.1990     3.2840     4.0180     0.2270
 2305.0000     8.7120   134.0280     2.5370     0.0070   999.5970     0.1350   -77.2290     3.1840     4.0720     0.2220
 2305.5000     8.7140   135.2890     2.5500     0.0070   999.6730     0.1370   -77.2140     3.0840     4.2020     0.2230
 2306.0000     8.7160   136.5500     2.5520     0.0060   999.7490     0.1400   -77.1970     2.9850     4.2530     0.2260
 2306.5000     8.7180   137.8110     2.5530     0.0060   999.8250     0.1380   -77.1810     2.8850     4.1630     0.2280
 2307.0000     8.7200   139.0710     2.5530     0.0050   999.9010     0.1360   -77.1650     2.7850     4.0560     0.2280
 2307.5000     8.7220   140.3250     2.5540     0.0050   999.9770     0.1350   -77.1490     2.7270     3.9200     0.2260
 2308.0000     8.7240   140.7960     2.5540     0.0070  1000.0530     0.1360   -77.1330     2.6800     3.6390     0.2250
 2308.5000     8.7270   140.9310     2.5540     0.0090  1000.1290     0.1370   -77.1170     2.6340     3.1770     0.2260
 2309.0000     8.7290   141.0540     2.5550     0.0110  1000.2050     0.1360   -77.1000     2.5870     2.7230     0.2250
 2309.5000     8.7310   140.7830     2.5550     0.0130  1000.2810     0.1310   -77.0840     2.5400     2.7330     0.2230
 2310.0000     8.7330   138.5930     2.5560     0.0160  1000.3570     0.1250   -77.0680     2.4940     3.4530     0.2160
