~VERSION INFORMATION
 VERS.                2.0:   CWLS LOG ASCII STANDARD - VERSION 2.0
 WRAP.                 NO:   ONE LINE PER DEPTH STEP
~WELL INFORMATION
#MNEM.UNIT      DATA TYPE    INFORMATION
#----------   ------------   ------------------------------
 STRT.F          502.0000:   START DEPTH
 STOP.F         3068.0000:   STOP DEPTH
 STEP.F            0.5000:   STEP LENGTH
 NULL.          -999.2500:   NO VALUE
 COMP. LAWRENCE ALLISON AND ASSOCIATES:   COMPANY
 WELL. LAWRENCE NPR TX #85-33:   WELL
 FLD .              N P R:   FIELD
 LOC .      S33 T39N R78W:   LOCATION
 CNTY.            NATRONA:   COUNTY
 STAT.            WYOMING:   STATE
 CTRY. UNITED STATES OF AMERICA:   COUNTRY
 SRVC.       SCHLUMBERGER:   SERVICE COMPANY
 DATE.        20-JUN-1982:   LOGDATE
 API .     49025107990001:   API NUMBER
~CURVE INFORMATION
#MNEM.UNIT       API CODE    CURVE DESCRIPTION
#----------   ------------   ------------------------------
 DEPT.F                  :   
 RHOB.G/C3   45 350 01 00:   BULK DENSITY
 GRD .GAPI   45 310 01 00:   GAMMA RAY FROM DENSITY LOG
 CALD.IN     45 280 60 00:   CALIPER FROM DENSITY LOG
 CORR.G/C3   45 356 01 00:   DENSITY CORRECTION
 TEND.LBS    45 635 01 00:   TENSION FROM DENSITY LOG
 NPHI.DEC    42 890 03 00:   NEUTRON POROSITY SANDSTONE
 TENR.LBS    07 635 01 00:   TENSION FROM RESISTIVITY
 SPR .MV     07 010 01 00:   SPONTANEOUS POTENTIAL
 ILD .OHMM   07 120 46 00:   DEEP INDUCTION RESISTIVITY
 ILM .OHMM   07 120 44 00:   INDUCTION LOG MEDIUM RESISTIVITY
 SFL .OHMM   07 220 01 00:   SHALLOW FOCUSED LOG RESISTIVITY
~PARAMETER INFORMATION
#MNEM.UNIT          VALUE    DESCRIPTION
#----------   ------------   ------------------------------
 EKB .F         5123.0000:   Kelly bushing
 EGL .F         5113.0000:   Ground level
 EDF .F         5122.0000:   Drilling floor
 EPD .F         5113.0000:   Permanent datum
 TD  .F         3100.0000:   Total depth
 DATE.        20-JUN-1982:   Date logged
 CLNT.            A2DTECH:   Client Code
 SL  . 2263' FSL & 293' FEL:   Surface Location
 PD  .                 GL:   Permanent Datum
 DD  .F              3100:   Depth driller
 DL  .F              3056:   Depth logger
 BLI .F              3050:   Bottom log interval
 CS1 .IN            9.625:   Casing size
 CBD1.      9.625" @ 524':   Casing driller 1
 CBL1.F               520:   Casing logger 1
 BS1 .IN            7.875:   Bit size
 DFT .           POLY/KCL:   Type fluid in hole
 DFD .                8.4:   Density
 DFV .                 40:   Viscosity
 DFPH.                7.6:   pH
 DFL .                 10:   Fluid loss
 MSS .               TANK:   Source of sample
 RMS .OHMM            .92:   Rm
 MST .F                66:   Rm Meas. temp.
 RMF .OHMM           .603:   Rmf
 MFST.F                68:   Rmf Meas. temp.
 MFSS.               MEAS:   Source Rmf.
 RMB .OHMM           .515:   Rm. at BHT
 BHT .F               118:   BHT.
 TCS .HRS             815:   Time Circ. stopped
 MRT .F               118:   Maximum recorded temp.
 LUN .               8035:   Logging unit number
 LUL .               CSPR:   Logging unit location
 ENGI.              PENNY:   Recorded By
 WITN.           JENNINGS:   Witnessed by
 ORIG.           5" PRINT:   Origin of data
 UWI .     49025107990001:   Unique Well ID
 DICO. A2D TECHNOLOGIES, INC.:   Digitizing Company
 DAPD.                 10:   Feet Above Permanent Datum
 BSD1.               3100:   Depth drilled with bit1
 TLI .                520:   Top log interval
 TLAB.               1100:   Time logger at bottom
~OTHER INFORMATION
~A   DEPT     RHOB         GRD      CALD       CORR       TEND       NPHI       TENR        SPR        ILD        ILM        SFL   
# ...
 2027.0000     2.5100    87.5650     9.2490     0.0270  1261.6790     0.2930  1622.9340   -34.8210     7.3640     7.2440     9.2080
 2027.5000     2.5140    84.2310     9.2580     0.0280  1259.9210     0.2860  1623.6890   -34.7380     7.4600     7.3340     9.7010
 2028.0000     2.5120    87.2700     9.2660     0.0280  1263.9740     0.2850  1624.4430   -34.8920     7.5550     7.4240     9.8620
 2028.5000     2.5080    91.3920     9.2740     0.0300  1271.1450     0.2900  1625.1250   -35.1580     7.6510     7.5130     9.2540
 2029.0000     2.5060    95.4650     9.2820     0.0310  1278.3160     0.2950  1626.9800   -35.3260     7.7460     7.6030     9.0790
 2029.5000     2.5030    96.9600     9.2900     0.0270  1285.4880     0.2940  1629.0430   -35.1230     7.8420     7.6920     9.0330
 2030.0000     2.4940    95.5630     9.2980     0.0230  1292.6591     0.2960  1631.1071   -34.7950     7.9380     7.7820     8.9690
 2030.5000     2.4850    97.5300     9.3060     0.0200  1299.8300     0.3000  1633.1700   -34.4650     8.0330     7.8720     8.9140
 2031.0000     2.4770    99.8200     9.3140     0.0190  1307.0010     0.3020  1635.2330   -34.1330     8.1320     7.9110     9.8310
 2031.5000     2.4730   102.1820     9.3240     0.0180  1314.1720     0.3000  1637.2960   -33.8030     8.1320     7.9840    10.6270
 2032.0000     2.4750   103.6310     9.3390     0.0150  1321.3440     0.2940  1639.3590   -33.7570     7.8620     7.6370    11.1120
 2032.5000     2.4810   104.8150     9.3540     0.0120  1328.5150     0.2910  1641.4230   -33.9770     7.5180     7.3430    10.6320
 2033.0000     2.4830   107.0530     9.3690     0.0100  1335.6860     0.2970  1643.4860   -34.2310     7.1730     7.0490     9.6970
 2033.5000     2.4810   109.5460     9.3840     0.0100  1339.2860     0.3130  1642.3530   -34.4860     6.8290     6.7560     8.7620
 2034.0000     2.4750   111.1450     9.3990     0.0120  1338.5300     0.3290  1630.7990   -34.7400     6.4850     6.4620     7.8270
 2034.5000     2.4650   112.8160     9.4140     0.0110  1336.1110     0.3460  1619.2450   -34.9940     6.2310     6.1680     6.8920
 2035.0000     2.4590   113.7050     9.4030     0.0100  1333.6920     0.3630  1607.6910   -35.2490     6.0620     5.8970     6.5840
 2035.5000     2.4580   114.5860     9.3890     0.0120  1331.2729     0.3690  1596.1370   -35.5010     6.1110     5.8970     6.6450
 2036.0000     2.4680   115.4710     9.3760     0.0150  1328.8540     0.3400  1584.5830   -35.7230     6.1830     5.9920     7.0500
 2036.5000     2.4800   116.4060     9.3890     0.0180  1326.4340     0.3240  1573.0291   -35.7110     6.2540     6.0380     8.0430
 2037.0000     2.4830   118.3770     9.4060     0.0210  1324.0150     0.3300  1566.8270   -35.5640     6.3120     6.0840     9.2040
 2037.5000     2.4780   120.4300     9.4230     0.0230  1321.5959     0.3400  1571.4220   -35.4090     6.3560     6.1300     9.5060
 2038.0000     2.4720   122.5270     9.4400     0.0210  1319.1770     0.3500  1576.0170   -35.2540     6.4000     6.1760     8.6540
 2038.5000     2.4650   121.6230     9.4570     0.0190  1316.7581     0.3480  1580.6130   -35.0990     6.4440     6.2220     7.7530
 2039.0000     2.4570   120.2490     9.4740     0.0170  1314.3380     0.3440  1585.2080   -34.9450     6.4880     6.2680     7.4870
 2039.5000     2.4500   120.3160     9.4930     0.0140  1311.9189     0.3390  1589.8030   -34.7830     6.5470     6.3140     7.5350
 2040.0000     2.4420   120.7800     9.4420     0.0120  1309.5000     0.3290  1594.3990   -34.7380     6.6650     6.3600     7.6540
 2040.5000     2.4390   119.8850     9.3810     0.0100  1307.0811     0.3140  1598.9940   -34.7700     6.7820     6.4050     7.7720
 2041.0000     2.4380   117.1420     9.3200     0.0100  1304.6620     0.2990  1603.5890   -34.9150     6.8930     6.6940     7.8790
 2041.5000     2.4440   114.0840     9.2620     0.0190  1302.2419     0.2950  1608.1851   -35.0570     7.1620     6.9740     8.5770
 2042.0000     2.4560   116.2630     9.2830     0.0290  1299.6030     0.3010  1612.7800   -35.1250     7.4190     7.2530     9.5970
 2042.5000     2.4800   120.4920     9.3070     0.0380  1320.0110     0.3110  1617.3750   -34.9100     7.6750     7.5330    10.4200
 2043.0000     2.4990   128.5730     9.3300     0.0400  1320.8060     0.3150  1621.9700   -34.6720     7.9320     7.8390    10.0060
 2043.5000     2.5050   138.0980     9.3530     0.0390  1321.6021     0.3120  1625.5660   -34.4320     8.0580     7.7670     9.1730
 2044.0000     2.5110   141.0510     9.3760     0.0480  1322.3970     0.3190  1626.9720   -34.1920     7.8380     7.5020     8.3390
 2044.5000     2.5100   142.5870     9.3910     0.0590  1323.1930     0.3330  1628.3781   -33.9540     7.5610     7.2140     7.6260
 2045.0000     2.5020   144.2050     9.3620     0.0700  1323.9890     0.3450  1629.7841   -33.7490     7.2830     6.9260     7.5520
 2045.5000     2.4880   145.9510     9.3350     0.0770  1324.7841     0.3440  1631.1899   -33.7610     7.0640     6.6380     7.5220
 2046.0000     2.4720   146.8280     9.3800     0.0720  1325.5800     0.3430  1632.5959   -33.9080     6.8630     6.3460     7.4930
 2046.5000     2.4590   143.4120     9.5000     0.0640  1326.3760     0.3450  1634.0020   -34.0610     6.6620     6.3460     7.4640
 2047.0000     2.4570   141.8360     9.3870     0.0560  1327.1710     0.3480  1635.4080   -34.2130     6.4640     6.4030     7.4190
 2047.5000     2.4600   144.7970     9.2390     0.0470  1327.9670     0.3470  1636.8140   -34.3660     6.4640     6.4950     7.7130
 2048.0000     2.4570   149.2470     9.1050     0.0390  1328.7620     0.3470  1638.2200   -34.5180     6.7680     6.5840     8.4060
 2048.5000     2.4490   152.3350     9.1420     0.0280  1329.5580     0.3510  1639.6260   -34.6710     7.0620     6.8810     9.0990
 2049.0000     2.4430   153.6960     9.1830     0.0170  1330.3540     0.3540  1641.0320   -34.8220     7.3560     7.1660     9.5700
 2049.5000     2.4420   152.9760     9.2230     0.0060  1331.1490     0.3530  1642.4380   -34.9330     7.6500     7.4510     9.9260
 2050.0000     2.4490   147.6310     9.2590     0.0050  1331.9449     0.3540  1643.8440   -34.9290     7.9440     7.7350    10.2830
 2050.5000     2.4580   137.8970     9.2280     0.0120  1332.7410     0.3530  1645.2500   -34.6770     8.2380     8.0200    10.6400
 2051.0000     2.4770   130.1030     9.1850     0.0190  1333.5360     0.3460  1646.6560   -34.3390     8.4360     8.4360    10.8100
 2051.5000     2.4910   126.3180     9.1430     0.0260  1334.3320     0.3390  1648.0620   -34.4130     8.3950     8.3590    10.6240
 2052.0000     2.4950   129.6280     9.1000     0.0330  1335.1281     0.3350  1649.4680   -34.6450     8.2740     8.2690    10.3690
 2052.5000     2.4880   135.7530     9.1030     0.0330  1335.9230     0.3370  1650.8740   -34.8630     8.1530     8.0180    10.1140
 2053.0000     2.4810   139.2500     9.1440     0.0310  1336.7190     0.3350  1652.2800   -35.0670     8.0320     7.7660     9.8590
 2053.5000     2.4740   140.8870     9.1960     0.0310  1337.5140     0.3410  1653.6860   -35.3220     7.8140     7.5150     9.6030
 2054.0000     2.4670   143.1590     9.2500     0.0270  1338.3101     0.3600  1655.0920   -35.3200     7.5320     7.2540     9.3440
 2054.5000     2.4550   145.4940     9.2950     0.0210  1339.1060     0.3800  1656.4980   -35.3230     7.2500     6.9870     8.8490
 2055.0000     2.4440   147.2330     9.2470     0.0150  1339.2860     0.3730  1657.9041   -35.3230     7.1510     6.8930     8.2190
 2055.5000     2.4440   146.4150     9.1990     0.0160  1339.2860     0.3550  1659.3101   -35.3230     7.2510     7.0180     8.0580
 2056.0000     2.4430   144.7320     9.1520     0.0180  1339.2860     0.3510  1660.7159   -35.3230     7.4640     7.2840     8.5720
 2056.5000     2.4390   143.1620     9.1220     0.0150  1339.2860     0.3530  1662.1219   -35.3230     7.6960     7.5490     9.3260
 2057.0000     2.4300   142.2070     9.1280     0.0110  1339.2860     0.3560  1663.5280   -35.3230     8.0730     7.9740    10.1370
