~VERSION INFORMATION
 VERS.                2.0:   CWLS LOG ASCII STANDARD - VERSION 2.0
 WRAP.                 NO:   ONE LINE PER DEPTH STEP
~WELL INFORMATION
#MNEM.UNIT      DATA TYPE    INFORMATION
#----------   ------------   ------------------------------
 STRT.F          210.0000:   START DEPTH
 STOP.F         3128.0000:   STOP DEPTH
 STEP.F            0.5000:   STEP LENGTH
 NULL.          -999.2500:   NO VALUE
 COMP.    PENIX & SCISSON:   COMPANY
 WELL. FENIX NPR 3 "A" #14-27:   WELL
 FLD .                NPR:   FIELD
 LOC .      S27 T39N R78W:   LOCATION
 CNTY.            NATRONA:   COUNTY
 STAT.            WYOMING:   STATE
 CTRY. UNITED STATES OF AMERICA:   COUNTRY
 SRVC.      DRESSER ATLAS:   SERVICE COMPANY
 DATE.        31-AUG-1977:   LOGDATE
 API .     49025104280000:   API NUMBER
~CURVE INFORMATION
#MNEM.UNIT       API CODE    CURVE DESCRIPTION
#----------   ------------   ------------------------------
 DEPT.F                  :   
 GRD .GAPI   45 310 01 00:   GAMMA RAY FROM DENSITY LOG
 CALD.IN     45 280 60 00:   CALIPER FROM DENSITY LOG
 RHOB.G/C3   45 350 01 00:   BULK DENSITY
 CORR.G/C3   45 356 01 00:   DENSITY CORRECTION
 NPHI.DEC    42 890 03 00:   NEUTRON POROSITY SANDSTONE
 SPR .MV     11 010 01 00:   SPONTANEOUS POTENTIAL
 RXO .OHMM   11 220 01 00:   FLUSHED ZONE RESISTIVITY
 LLD .OHMM   11 220 10 00:   LATEROLOG LOG DEEP
 LLS .OHMM   11 220 09 00:   LATEROLOG LOG SHALLOW
 TENR.LBS    11 635 01 00:   TENSION FROM RESISTIVITY
 TEND.LBS    45 635 01 00:   TENSION FROM DENSITY LOG
~PARAMETER INFORMATION
#MNEM.UNIT          VALUE    DESCRIPTION
#----------   ------------   ------------------------------
 EKB .F         5046.0000:   Kelly bushing
 EGL .F         5036.0000:   Ground level
 TD  .F         3111.0000:   Total depth
 DATE.        31-AUG-1977:   Date logged
 CLNT.            A2DTECH:   Client Code
 SL  . 2310' FNL & 330' FWL:   Surface Location
 PD  .                 GL:   Permanent Datum
 EPD .F              5036:   Elevation Permanent Datum
 LMF .                 KB:   Log Measured From
 DMF .                 KB:   Drilling Measured From
 DAPD.F                10:   Feet Above Permanent Datum
 DD  .F              3109:   Depth driller
 DL  .F              3111:   Depth logger
 BLI .F              3109:   Bottom log interval
 TLI .F               217:   Top log interval
 CS1 .IN             8.75:   Casing size
 CBD1.       8.75" @ 215':   Casing driller 1
 CBL1.F               217:   Casing logger 1
 BS1 .IN            7.875:   Bit size
 BSD1.F              3109:   Depth drilled with bit1
 DFT .                GEL:   Type fluid in hole
 DFD .                8.8:   Density
 DFV .                 35:   Viscosity
 DFPH.                 10:   pH
 DFL .                8.8:   Fluid loss
 MSS .                PIT:   Source of sample
 RMS .OHMM            .36:   Rm
 MST .F                67:   Rm Meas. temp.
 RMF .OHMM            .24:   Rmf
 MFST.F                67:   Rmf Meas. temp.
 RMC .OHMM            .51:   Rmc
 MCST.F                67:   Rmc Meas. temp.
 MFSS.               MEAS:   Source Rmf.
 MCSS.               CALC:   Source Rmc.
 RMB .OHMM            .20:   Rm. at BHT
 BHT .F               121:   BHT.
 TCS .HRS               5:   Time Circ. stopped
 MRT .F               121:   Maximum recorded temp.
 LUN .               6080:   Logging unit number
 LUL .              WLSTN:   Logging unit location
 ENGI.               BALL:   Recorded By
 WITN.         PETTINGILL:   Witnessed by
 ORIG.      2.5" 5" PRINT:   Origin of data
 UWI .     49025104280000:   Unique Well ID
 DICO. A2D TECHNOLOGIES, INC.:   Digitizing Company
~OTHER INFORMATION
~A   DEPT      GRD         CALD     RHOB       CORR       NPHI        SPR        RXO        LLD        LLS        TENR      TEND   
# ...
 1918.0000    96.6638     9.0397     2.4762    -0.0014     0.2514   -36.5798    17.5612    13.0838    13.3602    99.9348    96.1640
 1918.5000   105.4382     9.0599     2.4703    -0.0034     0.2637   -36.6397    10.9341    11.7284    12.4215    99.9244   100.0526
 1919.0000   115.8084     9.0603     2.4752    -0.0013     0.2676   -36.6997    10.1656    11.3086    11.9772    99.9140    96.0443
 1919.5000   114.6198     9.0805     2.4892     0.0066     0.2696   -36.7596     9.6252    10.5137    11.1355    99.9036    99.9329
 1920.0000   113.8298     9.0609     2.4931     0.0086     0.2712   -36.8195     9.4516    10.5141    11.1358    99.8933    87.9679
 1920.5000   112.6412     8.9616     2.4981     0.0107     0.2756   -36.8794     9.1136    10.3246    10.9354    99.8829   103.7856
 1921.0000   113.4456     8.9620     2.5021     0.0127     0.2811   -36.9393     8.7880    10.3250    10.7382    99.8725    99.7893
 1921.5000   115.4457     8.8828     2.5101     0.0127     0.2855   -36.9700     8.3205    10.3254    10.5448    99.8621   107.6384
 1922.0000   117.8431     8.8829     2.5021     0.0107     0.2895   -36.9707     8.3208    10.3255    10.3545    99.8518    99.6577
 1922.5000   118.6476     8.8830     2.5002     0.0088     0.2918   -36.9713     8.3211    10.3262    10.1681    99.8414   103.5463
 1923.0000   119.4520     8.8930     2.4883     0.0048     0.2980   -37.3726     8.3214    10.1399    10.1684    99.8310   103.5224
 1923.5000   119.4592     8.9031     2.4803     0.0029     0.2998   -37.3732     8.3217     9.9571    10.1689    99.8206    99.4543
 1924.0000   118.2706     8.8843     2.4843    -0.0050     0.3040   -37.3736     8.3220     9.9574    10.1692    99.8103    99.4184
 1924.5000   118.2778     8.8843     2.4774    -0.0010     0.3087   -37.3742     8.3223     9.9577    10.1697    99.7999    99.3346
 1925.0000   118.2850     8.8961     2.4665    -0.0030     0.3095   -37.3746     8.3227     9.9583    10.1702    99.7895   103.2711
 1925.5000   119.0895     8.9079     2.4645    -0.0069     0.3075   -37.3752     8.3230     9.9585    10.1706    99.7791    95.2426
 1926.0000   121.0899     8.9197     2.4655    -0.0089     0.3036   -37.3756     8.3233     9.9591    10.3580    99.7687    95.2187
 1926.5000   121.8945     8.9315     2.4576    -0.0128     0.2994   -37.3762     8.4265    10.3294     9.9875    99.7584    99.0953
 1927.0000   122.6990     8.9432     2.4566    -0.0128     0.2867   -37.1768     8.4268     9.7798     9.8076    99.7480   103.0437
 1927.5000   123.1049     8.9550     2.4576    -0.0108     0.2824   -37.1772     8.2746     9.6034     9.6307    99.7376   106.9204
 1928.0000   123.5108     8.9666     2.4616    -0.0088     0.2780   -37.1776     8.2750     9.4302     9.6312    99.7272   114.8292
 1928.5000   122.7208     8.9669     2.4606    -0.0067     0.2744   -37.1782     8.2752     9.6041     9.6315    99.7169   106.8007
 1929.0000   121.5321     8.9870     2.4567    -0.0067     0.2717   -37.1786     8.1259     9.4310     9.4579    99.7065   102.8044
 1929.5000   120.3433     8.9873     2.4527    -0.0107     0.2721   -37.1792     7.9792     9.2608     9.2873    99.6961    98.7363
 1930.0000   119.5532     9.0047     2.4537    -0.0126     0.2721   -37.1798     7.8353     9.2612     9.2878    99.6857    94.6921
 1930.5000   118.3644     9.0222     2.4627    -0.0086     0.2705   -37.1802     7.6938     8.7683     8.9555    99.6754    94.6443
 1931.0000   117.5743     9.0397     2.4726    -0.0026     0.2677   -37.1806     7.4184     8.6102     8.6353    99.6650    98.6047
 1931.5000   115.9867     9.0572     2.4776    -0.0026     0.2657   -37.1810     7.4186     8.6105     8.6355    99.6546    98.4970
 1932.0000   114.7979     9.0688     2.4786    -0.0026     0.2649   -37.1814     7.2847     8.6109     8.6359    99.6442    98.4850
 1932.5000   116.7985     9.0692     2.4846    -0.0025     0.2661   -37.1820     7.3296     8.6111     8.9568    99.6339   102.3497
 1933.0000   118.7992     9.0695     2.4975     0.0054     0.2685   -37.1826     7.3298     9.2633     9.2899    99.6235   106.3101
 1933.5000   118.8050     9.0696     2.5065     0.0114     0.2693   -37.1830     7.4648     9.2636     9.2901    99.6131   106.2024
 1934.0000   118.8122     9.0817     2.5174     0.0134     0.2705   -37.1838     7.8849     9.4345     9.6356    99.6027   102.2181
 1934.5000   119.2181     9.0939     2.5134     0.0135     0.2709   -37.1842     7.8850     9.4348     9.4618    99.5923    98.1500
 1935.0000   119.2253     9.1061     2.5065     0.0135     0.2705   -37.5853     8.1783     9.6089     9.6363    99.5820   102.0984
 1935.5000   118.8339     9.1183     2.4986     0.0096     0.2681   -37.5857     8.3289     9.6092     9.6366    99.5716    98.0303
 1936.0000   113.2605     9.1304     2.4946     0.0076     0.2626   -37.5863     8.4827     9.6097     9.9949    99.5612    98.0064
 1936.5000   110.8753     9.1426     2.4926     0.0056     0.2590   -38.3875     8.4828     9.6100     9.6373    99.5508    93.9383
 1937.0000   110.4837     9.1519     2.4976     0.0057     0.2582   -38.3881     8.4832     9.6104     9.8151    99.5405   101.8591
 1937.5000   110.4909     9.1522     2.5006     0.0037     0.2733   -38.3884     8.4836     9.6107     9.6381    99.5301    89.8462
 1938.0000   112.4902     9.1524     2.4847     0.0018     0.2860   -37.9886     8.4838     9.6111     9.6385    99.5197    89.8223
 1938.5000   114.4911     9.1430     2.4867     0.0018     0.2868   -37.9890     8.4841     9.6114     9.4647    99.5093    93.6989
 1939.0000   114.8970     9.1337     2.4897    -0.0001     0.2741   -37.9897     8.1807     9.4381     9.4652    99.4990   105.5801
 1939.5000   115.7017     9.1244     2.4898    -0.0001     0.2753   -37.9899     8.1810     9.4384     9.4655    99.4886    93.5793
 1940.0000   116.1076     9.1150     2.4868    -0.0001     0.2773   -37.9905     8.0335     9.4388     9.4658    99.4782    93.5195
 1940.5000   116.5136     9.1057     2.4838    -0.0020     0.2848   -37.9910     7.8885     9.4391     9.4659    99.4678    93.4596
 1941.0000   118.5146     9.0964     2.4789    -0.0020     0.2888   -37.5911     7.7464     9.2689     9.4662    99.4574   101.3804
 1941.5000   118.9205     9.0870     2.4819     0.0060     0.2908   -37.5913     7.7466     9.2692     9.4667    99.4471    97.3123
 1942.0000   118.9278     9.0756     2.4988     0.0159     0.2948   -37.1917     7.7468     9.2696     9.4672    99.4367    97.2884
 1942.5000   119.3338     9.0756     2.5018     0.0179     0.2980   -37.1921     7.7471     9.2699     9.4677    99.4263   105.1374
 1943.0000   118.9422     9.0758     2.5048     0.0199     0.2956   -36.7926     7.7474     9.4410     9.4680    99.4159   113.0582
 1943.5000   117.7531     9.0365     2.5087     0.0200     0.2948   -36.7930     7.7477     9.4413     9.4682    99.4056    97.0730
 1944.0000   117.7603     9.0423     2.5078     0.0200     0.2924   -36.7937     7.7479     9.4417     9.4687    99.3952   104.9818
 1944.5000   118.1663     9.0481     2.5058     0.0161     0.2920   -36.7941     7.7484     9.2713     9.2979    99.3848   104.8981
 1945.0000   119.3699     9.0539     2.5008     0.0141     0.2948   -36.7947     7.7484     9.4424     9.4694    99.3744   108.8345
 1945.5000   120.5721     9.0597     2.4949     0.0102     0.2968   -36.7953     7.7490     9.6167     9.1307    99.3641   104.7784
 1946.0000   120.1805     9.0655     2.4860     0.0003     0.2992   -36.7955     7.6091     9.4431     9.4701    99.3537    96.7978
 1946.5000   119.3902     9.0713     2.4780     0.0003     0.2984   -36.7961     7.4720     8.7528     9.2993    99.3433   108.6311
 1947.0000   118.9986     9.0789     2.4661     0.0003     0.2924   -36.7965     7.4722     8.2865     9.1316    83.4740   108.6072
 1947.5000   119.0058     9.0790     2.4721     0.0023     0.2916   -36.7974     7.4725     7.5872     8.6459    83.4586    92.6220
 1948.0000   115.8225     9.0792     2.4999     0.0143     0.2944   -36.7978     7.4727     7.0534     8.4898    83.4113    88.6137
