~VERSION INFORMATION
 VERS.                2.0:   CWLS LOG ASCII STANDARD - VERSION 2.0
 WRAP.                 NO:   ONE LINE PER DEPTH STEP
~WELL INFORMATION
#MNEM.UNIT      DATA TYPE    INFORMATION
#----------   ------------   ------------------------------
 STRT.F          208.0000:   START DEPTH
 STOP.F         2980.0000:   STOP DEPTH
 STEP.F            0.5000:   STEP LENGTH
 NULL.          -999.2500:   NO VALUE
 COMP. FENIX & SCISSON INC:   COMPANY
 WELL. FENIX  32AX #28-28:   WELL
 FLD .        TEAPOT DOME:   FIELD
 LOC .      S28 T39N R78W:   LOCATION
 CNTY.            NATRONA:   COUNTY
 STAT.            WYOMING:   STATE
 CTRY. UNITED STATES OF AMERICA:   COUNTRY
 SRVC.           BIRDWELL:   SERVICE COMPANY
 DATE.        09-OCT-1977:   LOGDATE
 API .     49025104430000:   API NUMBER
~CURVE INFORMATION
#MNEM.UNIT       API CODE    CURVE DESCRIPTION
#----------   ------------   ------------------------------
 DEPT.F                  :   
 SPR .MV     05 010 01 00:   SPONTANEOUS POTENTIAL
 ILD .OHMM   05 120 46 00:   DEEP INDUCTION RESISTIVITY
 SN  .OHMM   05 040 16 00:   SHORT NORMAL
 GRD .GAPI   45 310 01 00:   GAMMA RAY FROM DENSITY LOG
 CALD.IN     45 280 60 00:   CALIPER FROM DENSITY LOG
 CORR.G/C3   45 356 01 00:   DENSITY CORRECTION
 DEN .G/C3   45 350 01 00:   BULK DENSITY
~PARAMETER INFORMATION
#MNEM.UNIT          VALUE    DESCRIPTION
#----------   ------------   ------------------------------
 EKB .F         5005.0000:   Kelly bushing
 EGL .F         4995.0000:   Ground level
 EDF .F            0.0000:   Drilling floor
 EPD .F         4995.0000:   Permanent datum
 TD  .F         2980.0000:   Total depth
 DATE.        09-OCT-1977:   Date logged
 CLNT.            A2DTECH:   Client Code
 SL  . 990' FNL & 1650' FWL:   Surface Location
 PD  .                 GL:   Permanent Datum
 DAPD.F                10:   Feet Above Permanent Datum
 DD  .F              2980:   Depth driller
 DL  .F              2979:   Depth logger
 BLI .F              2974:   Bottom log interval
 TLI .F               221:   Top log interval
 CS1 .IN            8.625:   Casing size
 CBD1.      8.625" @ 211':   Casing driller 1
 CBL1.F               221:   Casing logger 1
 BS1 .IN            7.875:   Bit size
 BSD1.F              2980:   Depth drilled with bit1
 DFT .            KCL GEL:   Type fluid in hole
 DFD .                8.8:   Density
 DFV .                 33:   Viscosity
 DFPH.                 11:   pH
 DFL .                6.4:   Fluid loss
 MSS .           FLOWLINE:   Source of sample
 RMS .OHMM            .52:   Rm
 MST .F                59:   Rm Meas. temp.
 RMF .OHMM            .67:   Rmf
 MFST.F                54:   Rmf Meas. temp.
 RMC .OHMM            .45:   Rmc
 MCST.F                56:   Rmc Meas. temp.
 MFSS.               MEAS:   Source Rmf.
 MCSS.               MEAS:   Source Rmc.
 RMB .OHMM            .35:   Rm. at BHT
 BHT .F                91:   BHT.
 TCS .HRS               3:   Time Circ. stopped
 MRT .F                91:   Maximum recorded temp.
 LUN .               2958:   Logging unit number
 LUL .             CASPER:   Logging unit location
 ENGI.                LAW:   Recorded By
 WITN.       W. PENINGELL:   Witnessed by
 ORIG.           5" PRINT:   Origin of data
 UWI .     49025104430000:   Unique Well ID
 DICO. A2D TECHNOLOGIES, INC.:   Digitizing Company
~OTHER INFORMATION
~A   DEPT      SPR        ILD         SN         GRD      CALD       CORR        DEN   
# ...
 1118.0000   -44.0730     8.5720     8.7520   122.2950     8.0450     0.0230     2.5290
 1118.5000   -44.0520     8.7290     8.9010   117.0670     8.0450     0.0070     2.5150
 1119.0000   -44.8850     8.8870     9.0190   117.1430     8.0450     0.0100     2.5130
 1119.5000   -45.4060     9.0440     9.0790   115.1050     8.0450     0.0130     2.5170
 1120.0000   -45.3960     9.2480     9.6820   117.7360     8.0450     0.0050     2.5220
 1120.5000   -45.3960     9.1000     9.5280   119.1520     8.0450     0.0090     2.5270
 1121.0000   -45.3990     8.9140     9.2480   116.3470     8.0450     0.0180     2.5320
 1121.5000   -45.4780     9.3330     9.4480   115.0440     8.0450     0.0220     2.5360
 1122.0000   -45.8830     9.0720     9.6820   111.9290     8.0450     0.0210     2.5350
 1122.5000   -46.2090     8.7490     8.9960   108.8000     8.0450     0.0210     2.5310
 1123.0000   -46.2370     8.7310     8.8870   112.9900     8.0450     0.0260     2.5310
 1123.5000   -46.2720     8.7130     8.8520   114.3950     8.0450     0.0320     2.5370
 1124.0000   -46.3090     8.6940     8.8160   120.2240     8.0450     0.0360     2.5420
 1124.5000   -46.3430     8.6720     8.7810   120.6210     8.0450     0.0270     2.5350
 1125.0000   -46.3800     8.7590     8.7520   121.4940     8.0450     0.0230     2.5280
 1125.5000   -46.1910     8.7960     8.8250   124.7070     8.0450     0.0190     2.5230
 1126.0000   -45.8010     8.8330     8.9140   121.6130     8.0450     0.0160     2.5230
 1126.5000   -45.4080     8.7660     8.8450   126.4920     8.0460     0.0150     2.5250
 1127.0000   -45.0150     8.7320     8.7760   125.5540     8.0480     0.0170     2.5240
 1127.5000   -45.0500     8.7090     8.7520   122.7680     8.0500     0.0200     2.5270
 1128.0000   -45.1340     8.6850     8.7520   123.5820     8.0520     0.0190     2.5290
 1128.5000   -45.0320     8.6610     8.7520   127.4300     8.0540     0.0130     2.5160
 1129.0000   -44.7500     8.6380     8.7520   123.8410     8.0560     0.0120     2.5210
 1129.5000   -44.4960     8.6140     8.8580   125.4830     8.0580     0.0200     2.5290
 1130.0000   -44.5910     8.5930     8.8960   127.2180     8.0600     0.0250     2.5370
 1130.5000   -44.8930     8.4830     8.9140   126.6490     8.0620     0.0200     2.5200
 1131.0000   -45.0650     8.3610     8.6740   127.5820     8.0640     0.0180     2.5240
 1131.5000   -45.2400     8.2400     8.5140   124.8820     8.0650     0.0170     2.5250
 1132.0000   -45.6360     8.1970     8.4350   119.3020     8.0650     0.0150     2.5210
 1132.5000   -45.9320     8.1840     8.4250   121.9150     8.0650     0.0160     2.5200
 1133.0000   -46.1920     8.1710     8.4160   126.3630     8.0650     0.0210     2.5300
 1133.5000   -46.3300     8.1580     8.4060   125.1030     8.0650     0.0250     2.5370
 1134.0000   -46.6000     8.1440     8.3960   122.0200     8.0650     0.0230     2.5300
 1134.5000   -46.9860     8.1310     8.3860   120.0060     8.0650     0.0240     2.5220
 1135.0000   -46.7570     8.1180     8.3770   121.4010     8.0650     0.0230     2.5250
 1135.5000   -46.5030     8.1050     8.3670   122.4590     8.0650     0.0200     2.5250
 1136.0000   -46.3920     8.0920     8.3590   118.8070     8.0650     0.0120     2.5140
 1136.5000   -46.2940     8.0780     8.3460   114.4410     8.0650     0.0130     2.5160
 1137.0000   -45.7090     8.0650     8.3340   113.3950     8.0650     0.0160     2.5170
 1137.5000   -45.5970     8.0320     8.3220   113.5250     8.0650     0.0180     2.5120
 1138.0000   -45.5960     7.9270     8.3090   122.1780     8.0650     0.0170     2.5140
 1138.5000   -45.4820     7.7670     8.2970   120.7620     8.0650     0.0170     2.5190
 1139.0000   -45.3030     7.8390     8.2840   119.0910     8.0650     0.0180     2.5150
 1139.5000   -45.2550     7.7690     8.2720   121.4010     8.0650     0.0230     2.5160
 1140.0000   -45.5210     7.6960     8.2590   123.7350     8.0650     0.0250     2.5240
 1140.5000   -45.5110     7.8070     8.2470   120.3610     8.0650     0.0220     2.5190
 1141.0000   -45.3350     7.8930     8.2340   118.9770     8.0650     0.0190     2.5140
 1141.5000   -45.1580     7.9840     8.2220   119.8800     8.0650     0.0190     2.5100
 1142.0000   -45.0390     7.9170     8.2090   119.9360     8.0650     0.0230     2.5180
 1142.5000   -45.3700     7.8440     8.1970   117.9600     8.0650     0.0260     2.5220
 1143.0000   -45.7080     7.7720     8.1840   120.9330     8.0650     0.0240     2.5220
 1143.5000   -45.9870     7.7000     8.1720   114.7500     8.0650     0.0260     2.5240
 1144.0000   -45.6730     7.6260     8.1600   110.1580     8.0650     0.0290     2.5290
 1144.5000   -45.7110     7.6540     8.1470   112.3310     8.0650     0.0220     2.5240
 1145.0000   -46.3690     7.6820     8.1320   115.0710     8.0650     0.0140     2.5150
 1145.5000   -46.5290     7.7110     8.1500   116.7000     8.0650     0.0100     2.5100
 1146.0000   -46.7500     7.7390     8.1740   112.1930     8.0650     0.0050     2.5110
 1146.5000   -46.7330     7.7670     8.1970   108.4780     8.0650     0.0070     2.5130
 1147.0000   -46.6680     7.7510     8.2200   108.2870     8.0650     0.0110     2.5150
 1147.5000   -46.6000     7.7250     8.2430   110.3250     8.0650     0.0150     2.5200
 1148.0000   -46.7500     7.6960     8.2660   113.6470     8.0650     0.0200     2.5330
 1148.5000   -46.6450     7.7840     8.3590   114.7150     8.0650     0.0240     2.5360
 1149.0000   -46.0560     7.9160     8.3750   115.5810     8.0650     0.0220     2.5410
 1149.5000   -45.5520     7.9980     8.3900   120.2190     8.0650     0.0200     2.5350
 1150.0000   -45.0520     8.0440     8.4050   123.4270     8.0650     0.0300     2.5420
 1150.5000   -44.8450     8.0910     8.4200   118.5010     8.0650     0.0330     2.5560
 1151.0000   -45.0080     8.1320     8.4360   116.8090     8.0650     0.0200     2.5460
 1151.5000   -45.1830     8.0390     8.3960   116.7530     8.0650     0.0200     2.5370
 1152.0000   -45.0000     7.9400     8.3400   116.8790     8.0650     0.0320     2.5560
 1152.5000   -45.0080     7.7670     8.2850   121.9250     8.0650     0.0360     2.5500
 1153.0000   -45.2800     8.0580     8.2070   118.5070     8.0650     0.0210     2.5370
 1153.5000   -45.9760     8.0120     8.2160   116.0030     8.0650     0.0260     2.5470
 1154.0000   -46.0090     7.8980     8.2360   118.9670     8.0650     0.0320     2.5640
 1154.5000   -45.8120     7.7670     8.2570   119.6740     8.0670     0.0290     2.5640
 1155.0000   -45.9370     8.1320     8.2780   119.6030     8.0690     0.0240     2.5640
 1155.5000   -46.2330     7.9830     8.2990   115.6520     8.0710     0.0270     2.5700
 1156.0000   -46.7310     7.8050     8.3200   113.3940     8.0730     0.0320     2.5760
 1156.5000   -46.7080     8.1320     8.3410   117.2720     8.0750     0.0240     2.5680
 1157.0000   -46.6150     7.9840     8.3590   119.8790     8.0770     0.0210     2.5660
 1157.5000   -46.6950     7.8820     8.3010   115.1690     8.0790     0.0260     2.5690
 1158.0000   -46.6490     7.7670     8.1920   114.4200     8.0810     0.0300     2.5560
 1158.5000   -46.1790     7.9080     8.0580   114.4990     8.0830     0.0290     2.5490
 1159.0000   -46.0090     8.0580     8.0940   116.0910     8.0850     0.0280     2.5450
 1159.5000   -46.0940     7.9580     8.1890   116.6270     8.0830     0.0280     2.5480
 1160.0000   -46.1860     7.8300     8.2830   114.8560     8.0800     0.0230     2.5380
 1160.5000   -45.9320     7.7020     8.1110   112.8750     8.0770     0.0240     2.5330
 1161.0000   -45.6190     7.5740     7.9840   113.6680     8.0740     0.0250     2.5380
 1161.5000   -45.2880     7.4450     7.9840   116.9660     8.0720     0.0150     2.5350
 1162.0000   -45.3590     7.3170     7.9840   116.1640     8.0690     0.0100     2.5370
 1162.5000   -45.5900     7.1510     7.9840   119.2290     8.0660     0.0130     2.5480
 1163.0000   -45.7870     7.1690     7.9840   120.8250     8.0660     0.0170     2.5660
