~VERSION INFORMATION
 VERS.                2.0:   CWLS LOG ASCII STANDARD - VERSION 2.0
 WRAP.                 NO:   ONE LINE PER DEPTH STEP
~WELL INFORMATION
#MNEM.UNIT      DATA TYPE    INFORMATION
#----------   ------------   ------------------------------
 STRT.F            5.0000:   START DEPTH
 STOP.F         4012.0000:   STOP DEPTH
 STEP.F            0.5000:   STEP LENGTH
 NULL.          -999.2500:   NO VALUE
 COMP.   LAWRENCE ALLISON:   COMPANY
 WELL. LAWRENCE "X" 51 #1-15:   WELL
 FLD .                NPR:   FIELD
 LOC .      S15 T38N R78W:   LOCATION
 CNTY.            NATRONA:   COUNTY
 STAT.            WYOMING:   STATE
 CTRY. UNITED STATES OF AMERICA:   COUNTRY
 SRVC.      DRESSER ATLAS:   SERVICE COMPANY
 DATE.        03-JUN-1985:   LOGDATE
 API .     49025110270000:   API NUMBER
~CURVE INFORMATION
#MNEM.UNIT       API CODE    CURVE DESCRIPTION
#----------   ------------   ------------------------------
 DEPT.F                  :   
 NPHI.DEC    42 890 03 00:   NEUTRON POROSITY SANDSTONE
 RHOB.G/C3   45 350 01 00:   BULK DENSITY
 CORR.G/C3   45 356 01 00:   DENSITY CORRECTION
 TEND.LBS    45 635 01 00:   TENSION FROM DENSITY LOG
 CALD.IN     45 280 60 00:   CALIPER FROM DENSITY LOG
 GRR .GAPI   07 310 01 00:   GAMMA RAY FROM RESISTIVITY
 SPR .MV     07 010 01 00:   SPONTANEOUS POTENTIAL
 RSFL.OHMM   07 220 01 00:   SPHERICALLY FOCUSED LOG RES.
 RILD.OHMM   07 120 46 00:   DEEP INDUCTION RESISTIVITY
 RILM.OHMM   07 120 44 00:   INDUCTION LOG MEDIUM RESISTIVITY
 TENR.LBS    07 635 01 00:   TENSION
~PARAMETER INFORMATION
#MNEM.UNIT          VALUE    DESCRIPTION
#----------   ------------   ------------------------------
 EKB .F         5235.0000:   Kelly bushing
 EGL .F         5222.0000:   Ground level
 EDF .F            0.0000:   Drilling floor
 TD  .F         4010.0000:   Total depth
 DATE.        03-JUN-1985:   Date logged
 CLNT.            A2DTECH:   Client Code
 SL  . 202' FNL & 2478' FEL:   Surface Location
 PD  .                 GL:   Permanent Datum
 EPD .F              5222:   Elevation Permanent Datum
 LMF .                 KB:   Log Measured From
 DMF .                 KB:   Drilling Measured From
 DAPD.F                13:   Feet Above Permanent Datum
 DD  .F              4010:   Depth driller
 DL  .F              4005:   Depth logger
 BLI .F              4003:   Bottom log interval
 CS1 .IN            8.625:   Casing size
 CBD1.      8.625" @ 605':   Casing driller 1
 CBL1.F               608:   Casing logger 1
 BS1 .IN            7.875:   Bit size
 BSD1.F              4010:   Depth drilled with bit1
 DFT .            KCL/GEL:   Type fluid in hole
 DFD .                  9:   Density
 DFV .                 45:   Viscosity
 DFPH.                  8:   pH
 DFL .                9.8:   Fluid loss
 MSS .           FLOWLINE:   Source of sample
 RMS .OHMM            .40:   Rm
 MST .F                65:   Rm Meas. temp.
 RMF .OHMM            .32:   Rmf
 MFST.F                65:   Rmf Meas. temp.
 RMC .OHMM            .50:   Rmc
 MCST.F                65:   Rmc Meas. temp.
 MFSS.               MEAS:   Source Rmf.
 MCSS.               CALC:   Source Rmc.
 RMB .OHMM            .20:   Rm. at BHT
 BHT .F               130:   BHT.
 TCS .HRS               3:   Time Circ. stopped
 MRT .F               130:   Maximum recorded temp.
 LUN .               6274:   Logging unit number
 LUL .               GLTE:   Logging unit location
 ENGI.             RAUTIO:   Recorded By
 WITN.             STRONG:   Witnessed by
 ORIG.     2.5", 5" PRINT:   Origin of data
 UWI .     49025110270000:   Unique Well ID
 DICO. A2D TECHNOLOGIES, INC.:   Digitizing Company
~OTHER INFORMATION
~A    DEPT    NPHI       RHOB       CORR       TEND       CALD        GRR        SPR       RSFL       RILD       RILM       TENR   
# ...
 2628.0000     0.2560     2.4480     0.0480    -4.6110     9.2200    88.7540   -56.1480    18.9430    19.0800    18.6650   -26.5500
 2628.5000     0.2590     2.4470     0.0530    -9.6210     9.2200    84.8900   -56.7420    16.7120    19.4160    18.9790   -39.1000
 2629.0000     0.2650     2.4500     0.0600   -14.6310     9.2200    82.7030   -57.3350    17.4180    19.7520    19.3190   -51.6500
 2629.5000     0.2700     2.4670     0.0670   -19.6410     9.2200    81.0370   -57.6910    18.7500    20.1940    19.5450   -64.2000
 2630.0000     0.2730     2.4900     0.0730   -24.6510     9.2200    81.3490   -57.7960    27.2030    20.6550    17.6620   -75.0000
 2630.5000     0.2720     2.4930     0.0570   -29.6610     9.2200    83.4270   -57.9020    33.9650    20.5140    17.1420   -75.0000
 2631.0000     0.2710     2.4830     0.0400   -34.6710     9.2200    81.9120   -58.0100    29.1120    20.1530    16.5900   -75.0000
 2631.5000     0.2660     2.4260     0.0230   -40.4190     9.2210    80.4260   -57.9610    23.9720    19.3000    16.0380   -75.0000
 2632.0000     0.2620     2.4000     0.0060   -36.1480     9.2190    79.2330   -57.7220    18.8320    18.4480    15.4860   -75.0000
 2632.5000     0.2580     2.3790    -0.0110   -31.1380     9.2360    80.1890   -57.4810    16.5110    17.5950    15.1450   -75.0000
 2633.0000     0.2530     2.3810    -0.0290   -26.1280     9.2650    82.6440   -57.2670    16.2130    16.7120    14.9710   -75.0000
 2633.5000     0.2500     2.3820    -0.0370   -20.4590     9.2910    87.0200   -57.9920    15.9150    16.8620    14.8260   -75.0000
 2634.0000     0.2480     2.3860    -0.0240   -10.7900     9.3180    88.6670   -58.7840    15.6690    17.0230    14.8610   -67.6290
 2634.5000     0.2420     2.3970    -0.0110     0.3440     9.3450    89.8930   -59.5730    16.5380    17.0500    15.0620   -24.6000
 2635.0000     0.2370     2.4120     0.0020    11.4770     9.3700    92.1060   -60.3600    17.2800    17.1800    15.2630   -18.5450
 2635.5000     0.2310     2.4270     0.0150    19.4610     9.3930    94.1690   -61.1470    18.0230    17.0230    15.4650   -23.1090
 2636.0000     0.2340     2.4310     0.0270    19.4610     9.4140    92.8920   -61.9350    18.7650    16.8670    15.6690   -27.6730
 2636.5000     0.2430     2.4260     0.0280    19.4610     9.4340    88.8890   -62.7220    19.3660    16.8260    15.6240   -32.2360
 2637.0000     0.2490     2.4200     0.0160    19.4610     9.4540    86.7720   -63.5090    18.2400    16.7740    15.5790   -34.1750
 2637.5000     0.2480     2.4200     0.0000    19.4610     9.4740    86.9460   -64.2970    17.2830    16.7220    15.5340   -32.0830
 2638.0000     0.2480     2.4270     0.0170    19.4610     9.4940    89.9860   -65.0850    16.5590    16.5590    15.5160   -29.9920
 2638.5000     0.2530     2.4330     0.0360    19.4610     9.5040    92.6240   -65.8640    16.8490    16.3500    15.4710   -27.9000
 2639.0000     0.2550     2.4400     0.0170    17.2940     9.5100    92.0570   -66.2980    18.2500    16.2570    15.4270   -25.8080
 2639.5000     0.2510     2.4460     0.0010    14.9080     9.5160    87.7380   -66.6700    19.6510    15.8390    15.3830   -30.4350
 2640.0000     0.2480     2.4510     0.0050    12.5230     9.5220    83.3250   -67.0430    20.4660    15.1590    14.8750   -39.2940
 2640.5000     0.2670     2.4450     0.0100    10.1370     9.5280    85.0620   -67.4160    19.9700    14.4780    14.3750   -48.1530
 2641.0000     0.2700     2.4400     0.0170     7.7510     9.5340    87.8470   -67.7880    19.3330    13.7980    13.8760   -53.3320
 2641.5000     0.2740     2.4430     0.0230     5.3650     9.5400    90.5450   -68.1610    18.4000    13.2210    13.3760   -45.9850
 2642.0000     0.2770     2.4510     0.0290     2.9800     9.5420    92.4720   -68.5340    17.5000    12.9900    12.8760   -38.6390
 2642.5000     0.2800     2.4590     0.0090     0.5940     9.5440    96.7230   -68.9040    15.7380    12.7590    12.6890   -31.2930
 2643.0000     0.2740     2.4600    -0.0210     3.6770     9.5460    98.7440   -69.1770    14.0370    12.5280    12.5230   -23.9460
 2643.5000     0.2660     2.4530    -0.0530    11.3850     9.5470    97.8450   -69.2490    13.6470    12.3320    12.3570   -16.6000
 2644.0000     0.2590     2.4440    -0.0630    19.0930     9.5490    94.4970   -69.3250    14.6560    12.3320    12.3320    -9.2540
 2644.5000     0.2590     2.4340    -0.0560    26.8000     9.5510    93.1090   -69.4000    15.8140    12.6640    13.1270    -1.9070
 2645.0000     0.2660     2.4340    -0.0330    34.5080     9.5530    92.1540   -69.4750    15.0230    13.1710    13.6720     5.0000
 2645.5000     0.2760     2.4460    -0.0110    38.1170     9.5550    91.2220   -69.5510    14.0290    13.6470    14.2900    -4.3880
 2646.0000     0.2790     2.4620     0.0220    34.5200     9.5570    90.1410   -69.6260    14.2550    13.5220    13.9500   -13.2470
 2646.5000     0.2500     2.4780     0.0030    30.9220     9.5590    86.6110   -69.7020    17.7490    13.2240    13.1680   -22.1060
 2647.0000     0.2480     2.4940     0.0150    27.3250     9.5610    86.9060   -69.7770    21.4300    12.8820    12.7090   -28.3800
 2647.5000     0.2500     2.4970     0.0300    23.7280     9.5630    92.0490   -69.8520    22.6480    12.5400    12.4060   -33.4000
 2648.0000     0.2550     2.4950     0.0440    20.1310     9.5650    97.3170   -69.9280    19.5530    12.1980    12.1020   -36.8720
 2648.5000     0.2570     2.4830     0.0320    16.5330     9.5660    99.0760   -70.0030    15.3830    11.8860    11.7180   -39.6190
 2649.0000     0.2560     2.4730     0.0080    12.9360     9.5680    99.2490   -70.0790    14.8300    11.2250    11.1310   -42.3670
 2649.5000     0.2560     2.4630    -0.0150     9.3390     9.5700    99.3260   -70.1540    14.3700    10.6180    10.5440   -45.1140
 2650.0000     0.2540     2.4560    -0.0090     5.7420     9.5720   102.1750   -70.2300    13.9100    10.0110     9.9580   -47.8620
 2650.5000     0.2610     2.4550    -0.0010     2.1440     9.5740   104.4720   -70.3050    13.5220     9.4040     9.3710   -50.6090
 2651.0000     0.2670     2.4550     0.0070    -1.4530     9.5760   102.5940   -70.3810    13.6040     8.7970     8.7850   -53.3570
 2651.5000     0.2610     2.4590     0.0140    -5.0500     9.5780   101.3670   -70.4580    13.9140     8.1480     8.1980   -56.1050
 2652.0000     0.2520     2.4550     0.0060    -8.6480     9.5790   103.5070   -70.5280    14.5560     7.8230     7.6120   -58.8520
 2652.5000     0.2550     2.4520     0.0000   -12.2450     9.5650   115.4670   -70.2760    12.6420     7.7100     7.1620   -61.6000
 2653.0000     0.2610     2.4480     0.0050   -15.8420     9.5490   119.8910   -70.0000    10.0660     7.8480     7.1620   -64.3470
 2653.5000     0.2680     2.4490     0.0090   -19.4390     9.5290   119.6400   -69.7210     7.4900     7.9990     8.9110   -65.0000
 2654.0000     0.2740     2.4510     0.0150   -19.5030     9.5070   115.8740   -69.2310     6.7150     9.3530    10.2000   -65.0000
 2654.5000     0.2790     2.4520     0.0110   -18.1690     9.4850   104.9420   -67.3070     9.7500    11.0100    11.5080   -65.0000
 2655.0000     0.2780     2.4470     0.0070   -16.8350     9.4630    99.2780   -65.3970    12.3260    12.6670    12.8990   -65.0000
 2655.5000     0.2740     2.4390     0.0020   -15.5010     9.4410    96.8610   -63.4930    14.9020    14.3240    14.2890   -65.0000
 2656.0000     0.2690     2.4310    -0.0020   -14.1660     9.4180    93.5100   -61.5900    16.4710    15.6410    15.8120   -65.0000
 2656.5000     0.2660     2.4220    -0.0040   -12.8320     9.3960    85.7170   -59.6860    16.5590    17.2720    17.4180   -65.0000
 2657.0000     0.2500     2.4150     0.0120   -11.4980     9.3750    78.0400   -57.8560    15.3260    18.8380    18.3240   -65.0000
 2657.5000     0.2370     2.4120     0.0260   -10.1640     9.3510    70.4660   -56.1850    15.2420    19.6610    18.3240   -65.0000
 2658.0000     0.2250     2.4170     0.0400    -8.8300     9.3390    64.1230   -54.5290    16.6130    20.2160    17.7010   -58.9430
