~VERSION INFORMATION
 VERS.                2.0:   CWLS LOG ASCII STANDARD - VERSION 2.0
 WRAP.                 NO:   ONE LINE PER DEPTH STEP
~WELL INFORMATION
#MNEM.UNIT      DATA TYPE    INFORMATION
#----------   ------------   ------------------------------
 STRT.F           46.0000:   START DEPTH
 STOP.F         2736.5000:   STOP DEPTH
 STEP.F            0.5000:   STEP LENGTH
 NULL.          -999.2500:   NO VALUE
 COMP.          INTEX OIL:   COMPANY
 WELL. INTEX NPR 3 "AX" #72-20:   WELL
 FLD .             TEAPOT:   FIELD
 LOC .      S20 T39N R78W:   LOCATION
 CNTY.            NATRONA:   COUNTY
 STAT.            WYOMING:   STATE
 CTRY. UNITED STATES OF AMERICA:   COUNTRY
 SRVC.       SCHLUMBERGER:   SERVICE COMPANY
 DATE.        11-MAY-1966:   LOGDATE
 API .     49025095110000:   API NUMBER
~CURVE INFORMATION
#MNEM.UNIT       API CODE    CURVE DESCRIPTION
#----------   ------------   ------------------------------
 DEPT.F                  :   
 SPR .MV     05 010 01 00:   SPONTANEOUS POTENTIAL FROM RES.
 ILD .OHMM   05 120 46 00:   INDUCTION LOG DEEP
 ASN .OHMM   05 041 16 00:   AMPLIFIED SHORT NORMAL 16"
 CALD.IN     45 280 60 00:   CALIPER FROM DENSITY LOG
 CORR.G/C3   45 356 01 00:   DENSITY CORRECTION
 RHOB.G/C3   45 350 01 00:   BULK DENSITY
 GRD .GAPI   45 310 01 00:   GAMMA RAY FROM DENSITY LOG
~PARAMETER INFORMATION
#MNEM.UNIT          VALUE    DESCRIPTION
#----------   ------------   ------------------------------
 EKB .F         5042.3000:   Kelly bushing
 EGL .F         5032.0000:   Ground level
 EDF .F            0.0000:   Drilling floor
 EPD .F         5032.0000:   Permanent datum
 TD  .F         2740.0000:   Total depth
 DATE.        11-MAY-1966:   Date logged
 CLNT.            A2DTECH:   Client Code
 DAPD.F              10.3:   Feet Above Permanent Datum
 DD  .F              2740:   Depth driller
 DL  .F              2737:   Depth logger
 BLI .F              2736:   Bottom log interval
 TLI .F                88:   Top log interval
 CS1 .IN            10.75:   Casing size
 CBD1.       10.75" @ 24':   Casing driller 1
 BS1 .IN            7.875:   Bit size
 BSD1.F              2740:   Depth drilled with bit1
 DFT .           OIL EMUL:   Type fluid in hole
 DFD .                9.8:   Density
 DFV .                 58:   Viscosity
 MSS .         CIRCULATED:   Source of sample
 RMS .OHMM           3.04:   Rm
 MST .F                54:   Rm Meas. temp.
 RMF .OHMM           1.95:   Rmf
 MFST.F                55:   Rmf Meas. temp.
 MFSS.                 FR:   Source Rmf.
 RMB .OHMM           1.64:   Rm. at BHT
 BHT .F               100:   BHT.
 TCS .HRS               4:   Time Circ. stopped
 MRT .F               100:   Maximum recorded temp.
 LUN .               4507:   Logging unit number
 LUL .               CSPR:   Logging unit location
 ENGI.               HAUG:   Recorded By
 WITN.             TUTTLE:   Witnessed by
 ORIG.        2" 5" PRINT:   Origin of data
 UWI .     49025095110000:   Unique Well ID
 DICO. A2D TECHNOLOGIES, INC.:   Digitizing Company
~OTHER INFORMATION
~A   DEPT      SPR        ILD        ASN       CALD       CORR       RHOB         GRD  
# ...
 2002.5000   -32.2180     4.0050     5.9900     9.4280     0.0270     2.4680   122.3200
 2003.0000   -32.1650     4.0290     5.9680     9.4260     0.0300     2.4710   124.0990
 2003.5000   -32.1130     4.0270     5.9470     9.4250     0.0340     2.4750   125.4810
 2004.0000   -32.0630     4.0270     5.9230     9.4230     0.0380     2.4790   126.9430
 2004.5000   -32.0100     4.0270     5.9000     9.4220     0.0410     2.4850   128.4910
 2005.0000   -31.9590     4.0270     5.8770     9.4200     0.0430     2.4710   129.0630
 2005.5000   -31.8750     4.0280     5.8540     9.4190     0.0280     2.4550   129.0610
 2006.0000   -31.7750     4.0270     5.8320     9.4170     0.0190     2.4460   128.6600
 2006.5000   -31.6800     4.0290     5.8050     9.4160     0.0240     2.4490   127.9330
 2007.0000   -31.5760     4.0270     5.8150     9.4140     0.0290     2.4520   127.2370
 2007.5000   -31.5740     4.0280     5.8640     9.4120     0.0250     2.4400   126.5600
 2008.0000   -31.6290     4.0350     5.9060     9.4110     0.0180     2.4290   125.8770
 2008.5000   -31.6740     4.1240     5.9510     9.4090     0.0150     2.4220   125.1350
 2009.0000   -31.7200     4.2100     5.9990     9.4080     0.0170     2.4220   125.4440
 2009.5000   -31.7680     4.3010     6.1170     9.4060     0.0180     2.4210   128.0870
 2010.0000   -31.8140     4.3870     6.2250     9.4070     0.0160     2.4200   131.0790
 2010.5000   -31.8610     4.4770     6.3050     9.4110     0.0120     2.4210   133.9610
 2011.0000   -31.9080     4.5630     6.3750     9.4140     0.0140     2.4250   130.7110
 2011.5000   -31.9430     4.6540     6.4550     9.4170     0.0170     2.4220   127.2200
 2012.0000   -31.9440     4.7420     6.4590     9.4200     0.0200     2.4180   124.1960
 2012.5000   -31.9440     4.7960     6.4240     9.4240     0.0170     2.4240   124.0700
 2013.0000   -31.9430     4.6430     6.3820     9.4270     0.0120     2.4290   124.8720
 2013.5000   -31.9440     4.5140     6.3470     9.4300     0.0080     2.4210   123.3170
 2014.0000   -31.9430     4.3720     6.2970     9.4330     0.0030     2.4230   125.0160
 2014.5000   -31.9430     4.2380     6.1610     9.4370     0.0030     2.4270   128.9060
 2015.0000   -31.8870     4.1000     5.8150     9.4400     0.0120     2.4310   130.2050
 2015.5000   -31.8100     3.9630     5.5140     9.4430     0.0200     2.4340   128.6800
 2016.0000   -31.7350     3.8260     5.1860     9.4470     0.0260     2.4460   127.7760
 2016.5000   -31.6590     3.6900     4.9830     9.4500     0.0300     2.4640   126.7240
 2017.0000   -31.5830     3.5530     4.8770     9.4530     0.0340     2.4720   126.6870
 2017.5000   -31.5080     3.4160     4.7700     9.4560     0.0330     2.4610   126.6560
 2018.0000   -31.4320     3.2820     4.6990     9.4600     0.0320     2.4600   126.7030
 2018.5000   -31.3570     3.1310     4.5640     9.4630     0.0300     2.4590   127.4450
 2019.0000   -31.2820     3.0380     4.3610     9.4660     0.0290     2.4590   131.4800
 2019.5000   -31.2030     3.0490     4.1920     9.4690     0.0270     2.4550   134.9260
 2020.0000   -31.1650     3.0450     4.1520     9.4730     0.0260     2.4450   135.6820
 2020.5000   -31.2100     3.0460     4.1160     9.4760     0.0190     2.4350   136.1590
 2021.0000   -31.2530     3.0460     4.1070     9.4790     0.0140     2.4240   136.1930
 2021.5000   -31.2980     3.0450     4.1060     9.4820     0.0080     2.4210   134.9910
 2022.0000   -31.3420     3.0460     4.1070     9.4860     0.0080     2.4200   131.9960
 2022.5000   -31.3870     3.0450     4.1060     9.4890     0.0120     2.4130   128.9770
 2023.0000   -31.4320     3.0450     4.1060     9.4920     0.0160     2.4230   127.7460
 2023.5000   -31.4750     3.0450     4.1060     9.4950     0.0190     2.4460   127.9450
 2024.0000   -31.5240     3.0450     4.1060     9.4990     0.0220     2.4630   127.2610
 2024.5000   -31.5470     3.0460     4.1060     9.5020     0.0180     2.4640   126.1800
 2025.0000   -31.5480     3.0440     4.1060     9.5050     0.0160     2.4580   125.0590
 2025.5000   -31.5470     3.0600     4.1070     9.5080     0.0120     2.4500   125.1650
 2026.0000   -31.5320     3.1000     4.1050     9.5120     0.0100     2.4410   127.1900
 2026.5000   -31.3490     3.1390     4.1080     9.5150     0.0070     2.4360   130.6840
 2027.0000   -31.1930     3.1780     4.1080     9.5180     0.0120     2.4370   133.3880
 2027.5000   -31.0290     3.2170     4.1450     9.5210     0.0180     2.4410   135.7490
 2028.0000   -30.8450     3.2550     4.2130     9.5250     0.0170     2.4480   138.1920
 2028.5000   -30.8270     3.2940     4.3900     9.5280     0.0110     2.4570   135.6960
 2029.0000   -31.0940     3.3330     4.4640     9.5310     0.0130     2.4640   132.2520
 2029.5000   -31.3310     3.3710     4.5790     9.5340     0.0160     2.4600   128.5370
 2030.0000   -31.5680     3.4150     4.5980     9.5380     0.0180     2.4430   127.3540
 2030.5000   -31.8530     3.4310     4.5600     9.5410     0.0210     2.4260   127.7040
 2031.0000   -31.7740     3.3970     4.4690     9.5440     0.0240     2.4180   128.4020
 2031.5000   -31.5190     3.3680     4.3900     9.5470     0.0180     2.4220   130.1700
 2032.0000   -31.5570     3.3380     4.3300     9.5510     0.0120     2.4150   133.4330
 2032.5000   -31.5450     3.3060     4.2690     9.5540     0.0050     2.4080   133.6400
 2033.0000   -31.5470     3.2780     4.2310     9.5570     0.0080     2.4080   131.0960
 2033.5000   -31.5490     3.2470     4.3070     9.5600     0.0090     2.4130   130.1580
 2034.0000   -31.5490     3.3020     4.3350     9.5630     0.0120     2.4170   131.6690
 2034.5000   -31.5810     3.3710     4.1490     9.5630     0.0130     2.4160   134.6640
 2035.0000   -31.6110     3.4420     3.8870     9.5630     0.0140     2.4160   137.5820
 2035.5000   -31.6420     3.5110     3.9890     9.5630     0.0110     2.4160   138.8770
 2036.0000   -31.6720     3.5810     4.1140     9.5630     0.0190     2.4340   137.6080
 2036.5000   -31.7030     3.6500     4.4030     9.5630     0.0270     2.4630   136.4730
 2037.0000   -31.7340     3.7190     4.6790     9.5630     0.0330     2.4810   131.5370
 2037.5000   -31.7650     3.7890     4.9710     9.5630     0.0260     2.4750   126.3950
 2038.0000   -31.7950     3.8580     5.2480     9.5630     0.0190     2.4690   123.1590
 2038.5000   -31.8260     3.9280     5.5340     9.5630     0.0120     2.4610   122.0390
 2039.0000   -31.8570     3.9970     5.6580     9.5630     0.0070     2.4510   120.3080
 2039.5000   -31.8880     4.0670     5.7090     9.5630     0.0180     2.4490   120.2550
 2040.0000   -31.9190     4.1360     5.5720     9.5630     0.0270     2.4520   122.4010
 2040.5000   -31.9430     4.2050     5.3730     9.5630     0.0290     2.4500   124.2900
 2041.0000   -31.9450     4.2250     5.3010     9.5630     0.0190     2.4360   126.2750
 2041.5000   -31.9460     4.2230     5.3040     9.5630     0.0100     2.4410   128.2820
 2042.0000   -32.0030     4.2240     5.4500     9.5630     0.0090     2.4570   128.9340
 2042.5000   -32.0870     4.2240     5.5480     9.5630     0.0160     2.4730   125.3990
 2043.0000   -32.1690     4.2240     5.6690     9.5630     0.0210     2.4830   120.0410
 2043.5000   -32.2500     4.2240     5.7290     9.5630     0.0270     2.4820   118.5730
 2044.0000   -32.3320     4.2240     5.7450     9.5630     0.0320     2.4860   119.5890
 2044.5000   -32.4150     4.2240     5.7720     9.5630     0.0370     2.4990   119.8480
 2045.0000   -32.4940     4.2250     5.8040     9.5630     0.0250     2.4780   118.7990
 2045.5000   -32.5800     4.2230     5.8360     9.5630     0.0130     2.4610   117.9400
 2046.0000   -32.6590     4.2470     5.7220     9.5630     0.0030     2.4510   119.1670
 2046.5000   -32.7210     4.3280     5.5320     9.5630     0.0110     2.4430   120.4050
 2047.0000   -32.5610     4.4080     5.3960     9.5630     0.0140     2.4440   121.7470
 2047.5000   -32.4040     4.4900     5.3540     9.5630     0.0110     2.4580   123.9440
