~VERSION INFORMATION
 VERS.                2.0:   CWLS LOG ASCII STANDARD - VERSION 2.0
 WRAP.                 NO:   ONE LINE PER DEPTH STEP
~WELL INFORMATION
#MNEM.UNIT      DATA TYPE    INFORMATION
#----------   ------------   ------------------------------
 STRT.F          200.0000:   START DEPTH
 STOP.F         3150.0000:   STOP DEPTH
 STEP.F            0.5000:   STEP LENGTH
 NULL.          -999.2500:   NO VALUE
 COMP.  FENIX AND SCISSON:   COMPANY
 WELL.  FENIX "AX" #88-10:   WELL
 FLD .              NPR 3:   FIELD
 LOC .      S10 T38N R78W:   LOCATION
 CNTY.            NATRONA:   COUNTY
 STAT.            WYOMING:   STATE
 CTRY. UNITED STATES OF AMERICA:   COUNTRY
 SRVC.              WELEX:   SERVICE COMPANY
 DATE.        13-JUN-1977:   LOGDATE
 API .     49025103780000:   API NUMBER
~CURVE INFORMATION
#MNEM.UNIT       API CODE    CURVE DESCRIPTION
#----------   ------------   ------------------------------
 DEPT.F                  :   
 CALD.IN     45 280 60 00:   CALIPER FROM DENSITY LOG
 GRD .GAPI   45 310 01 00:   GAMMA RAY FROM DENSITY LOG
 RHOB.G/C3   45 350 01 00:   BULK DENSITY
 CORR.G/C3   45 356 01 00:   DENSITY CORRECTION
 SPR .MV     07 010 01 00:   SPONTANEOUS POTENTIAL
 GURD.OHMM   07 220 05 00:   GUARD LOG RESISTIVITY
 ILD .OHMM   07 120 46 00:   INDUCTION LOG DEEP RESISTIVITY
 ILM .OHMM   07 120 44 00:   INDUCTION LOG MEDIUM RESISTIVITY
~PARAMETER INFORMATION
#MNEM.UNIT          VALUE    DESCRIPTION
#----------   ------------   ------------------------------
 EKB .F         5264.0000:   Kelly bushing
 EGL .F         5254.0000:   Ground level
 EDF .F            0.0000:   Drilling floor
 TD  .F         3160.0000:   Total depth
 DATE.        13-JUN-1977:   Date logged
 CLNT.            A2DTECH:   Client Code
 SL  . 430' FSL & 330' FEL:   Surface Location
 PD  .                 GL:   Permanent Datum
 EPD .F              5254:   Elevation Permanent Datum
 LMF .                 KB:   Log Measured From
 DMF .                 KB:   Drilling Measured From
 DAPD.F                10:   Feet Above Permanent Datum
 DD  .F              3160:   Depth driller
 DL  .F              3151:   Depth logger
 BLI .F              3149:   Bottom log interval
 CS1 .IN            8.625:   Casing size
 CBD1.      8.625" @ 208':   Casing driller 1
 BS1 .IN            7.875:   Bit size
 BSD1.F              3160:   Depth drilled with bit1
 DFT .            KCL MUD:   Type fluid in hole
 DFD .                9.1:   Density
 DFV .                 31:   Viscosity
 DFPH.                7.5:   pH
 DFL .                 20:   Fluid loss
 MSS .           FLOWLINE:   Source of sample
 RMS .OHMM            .90:   Rm
 MST .F                60:   Rm Meas. temp.
 RMF .OHMM            .53:   Rmf
 MFST.F                60:   Rmf Meas. temp.
 RMC .OHMM           1.47:   Rmc
 MCST.F                60:   Rmc Meas. temp.
 MFSS.               MEAS:   Source Rmf.
 MCSS.               MEAS:   Source Rmc.
 RMB .OHMM            .46:   Rm. at BHT
 BHT .F               116:   BHT.
 TCS .HRS               8:   Time Circ. stopped
 MRT .F               116:   Maximum recorded temp.
 LUN .               8611:   Logging unit number
 LUL .             CASPER:   Logging unit location
 ENGI.            C. DOAK:   Recorded By
 WITN.         D. RHOADES:   Witnessed by
 ORIG.           5" PRINT:   Origin of data
 UWI .     49025103780000:   Unique Well ID
 DICO. A2D TECHNOLOGIES, INC.:   Digitizing Company
~OTHER INFORMATION
~A   DEPT       CALD       GRD      RHOB       CORR        SPR       GURD        ILD        ILM   
# ...
 1374.5000     9.0955    97.2295     2.4977     0.0081   -52.6822    11.9413     7.8352     8.9109
 1375.0000     9.0985    96.0516     2.4988     0.0086   -52.6856    11.6158     7.8339     8.9095
 1375.5000     9.1015    95.2690     2.5008     0.0090   -52.6891    11.8287     7.8330     8.9081
 1376.0000     9.1038    95.2769     2.5018     0.0095   -52.6925    12.4955     7.8315     8.9067
 1376.5000     9.1042    97.2612     2.5028     0.0098   -52.6960    13.5671     7.8295     8.9877
 1377.0000     9.1046   100.8267     2.5078     0.0099   -52.6994    12.8395     7.7582     8.9866
 1377.5000     9.1050   101.6252     2.5118     0.0099   -52.9002    12.0402     7.6865     8.8210
 1378.0000     9.1054   101.2378     2.5168     0.0099   -52.7063    11.9285     7.6145     8.6595
 1378.5000     9.1453   101.6410     2.5158     0.0080   -52.7097    12.1471     7.6137     8.5790
 1379.0000     9.1654   102.0443     2.5138     0.0060   -52.7132    11.9247     7.5427     8.7368
 1379.5000     9.2054   102.0506     2.5108     0.0060   -52.7166    11.7064     7.4734     8.5764
 1380.0000     9.2058   102.0586     2.5049     0.0061   -52.7201    11.7046     7.4723     8.5750
 1380.5000     9.2060   101.2760     2.5019     0.0046   -52.7235    11.3855     7.4016     8.5737
 1381.0000     9.2660   100.8886     2.4999     0.0044   -52.7269    11.3837     7.4011     8.8928
 1381.5000     9.2464   100.8966     2.4930     0.0042   -52.9277    11.4866     7.4000     8.4151
 1382.0000     9.2073   100.9045     2.4870     0.0042   -52.9311    11.1735     7.3988     8.1854
 1382.5000     9.1879   100.9125     2.4830     0.0002   -52.9345    10.8689     7.2636     8.7272
 1383.0000     9.1685   100.5251     2.4811    -0.0037   -52.9380    11.4812     7.2623     8.8875
 1383.5000     9.1492   101.7189     2.4801     0.0003   -52.7441    12.2395     7.2614     8.5661
 1384.0000     9.1496   102.5174     2.4801     0.0004   -52.7476    12.2376     7.2600     8.3323
 1384.5000     9.1500   101.7348     2.4821     0.0004   -52.9483    11.6879     7.2591     8.2546
 1385.0000     9.1504   101.3475     2.4821     0.0024   -52.9517    11.4739     7.2577     8.1777
 1385.5000     9.1903   100.9601     2.4821    -0.0015   -52.9552    11.1612     7.2571     8.1764
 1386.0000     9.2105   101.3634     2.4831    -0.0055   -52.9586    11.7899     7.2555     7.9980
 1386.5000     9.2108   100.5808     2.4901    -0.0014   -52.9620    11.3639     7.3213     8.2487
 1387.0000     9.2508   100.5887     2.4991     0.0006   -53.1628    11.2585     7.3202     8.0681
 1387.5000     9.2709   100.2014     2.4991     0.0006   -53.1662    11.4649     7.3195     8.0673
 1388.0000     9.3306   101.0046     2.4952    -0.0033   -53.1689    11.4631     7.3186     8.0663
 1388.5000     9.3113    99.4267     2.4722    -0.0093   -53.1724    11.1506     7.3165     8.0641
 1389.0000     9.3314    99.8299     2.4603    -0.0092   -52.9786    11.2514     7.1171     7.8481
 1389.5000     9.3318   100.6284     2.4633    -0.0092   -52.9820    11.4576     7.1160     7.8469
 1390.0000     9.3322   102.2175     2.4693    -0.0072   -52.5909    11.4558     7.1149     7.8457
 1390.5000     9.3524   101.8301     2.4753    -0.0032   -53.1861    11.6658     7.2455     7.9872
 1391.0000     9.3725   101.4428     2.4763    -0.0051   -53.1896    11.9888     7.2442     7.9857
 1391.5000     9.3530   101.0555     2.4713    -0.0071   -53.1930    11.3460     7.2433     7.9848
 1392.0000     9.3140   101.0666     2.4704    -0.0090   -53.1964    11.1383     7.3086     8.0555
 1392.5000     9.3737   100.2808     2.4843    -0.0010   -53.1999    11.2390     7.1748     8.0102
 1393.0000     9.3741    99.1029     2.4903     0.0010   -53.2033    11.3406     7.1083     8.1578
 1393.5000     9.3548    99.5062     2.4983     0.0030   -53.0095    11.2354     7.1072     8.2314
 1394.0000     9.3749    99.9094     2.4963     0.0031   -53.0129    11.2337     7.1061     8.1549
 1394.5000     9.3951   101.1032     2.4924     0.0011   -53.0164    11.9756     7.1049     8.0057
 1395.0000     9.3757   102.2969     2.4894     0.0031   -53.0198    11.4377     7.1038     8.0039
 1395.5000     9.3959   104.6765     2.4864     0.0032   -53.0232    11.1260     7.1027     8.0027
 1396.0000     9.3765   102.7081     2.4725     0.0032   -53.0267    11.2266     7.1016     8.0754
 1396.5000     9.3571   101.9255     2.4725     0.0032   -53.0301    10.9206     7.1005     8.0736
 1397.0000     9.3378   101.9334     2.4715    -0.0027   -53.0336    10.3351     7.0994     8.0726
 1397.5000     9.3382   101.5461     2.4735    -0.0007   -53.0370    10.9172     7.0983     8.0716
 1398.0000     9.3386   100.7635     2.4805    -0.0006   -53.0404    11.1172     7.0972     8.0701
 1398.5000     9.3390   100.7714     2.4855    -0.0006   -53.0439    11.4251     7.0961     8.1435
 1399.0000     9.3394   101.1747     2.4905    -0.0006   -53.0473    11.5284     7.0950     8.2180
 1399.5000     9.3398   101.5763     2.4945    -0.0005   -53.0507    11.6326     7.0939     7.9199
 1400.0000     9.2413   101.5842     2.4905    -0.0005   -53.0542    11.7374     7.0928     7.8464
 1400.5000     9.3405   101.2023     2.4846    -0.0005   -53.2335    10.9308     7.0916     7.8449
 1401.0000     9.3407   100.0166     2.4726     0.0016   -53.0611    10.3215     7.0902     7.8436
 1401.5000     9.3606   100.0225     2.4617    -0.0003   -53.0646    10.3197     7.0889     7.8418
 1402.0000     9.4599   100.8190     2.4547    -0.0003   -53.0681    10.3178     7.0876     8.0594
 1402.5000     9.4602   101.6142     2.4508    -0.0062   -53.2688    10.3159     7.0863     8.2075
 1403.0000     9.4605   102.4107     2.4528    -0.0082   -53.2722    10.8966     7.0850     8.3576
 1403.5000     9.4410   102.4166     2.4568    -0.0081   -53.2757    11.3011     7.0837     8.3564
 1404.0000     9.4215   103.2131     2.4618    -0.0081   -53.2792    11.2990     7.0824     8.3545
 1404.5000     9.3824   102.4285     2.4659    -0.0040   -53.2827    11.6116     7.0811     8.2761
 1405.0000     9.4024   102.0403     2.4669    -0.0040   -53.2861    11.3988     7.0798     8.1999
 1405.5000     9.3829   101.2557     2.4639    -0.0059   -53.2896    11.2928     7.0785     8.1981
 1406.0000     9.3832   100.0758     2.4590    -0.0059   -53.2931    11.3946     7.0773     8.1969
 1406.5000     9.4033   100.0817     2.4610    -0.0038   -53.0993    11.2887     7.0760     8.1203
 1407.0000     9.4431   100.8782     2.4670    -0.0037   -53.1028    10.9808     7.0747     8.0447
 1407.5000     9.4631   101.2794     2.4740    -0.0017   -53.1062    10.6804     7.0734     8.0435
 1408.0000     9.4832   101.2853     2.4810    -0.0017   -53.1097    11.1796     7.0721     7.8235
 1408.5000     9.5230   100.8960     2.4830     0.0004   -53.1132    11.1772     7.0708     7.7503
 1409.0000     9.5035   100.5066     2.4830     0.0004   -53.1167    10.9727     7.0695     8.0394
 1409.5000     9.5236   100.5125     2.4831     0.0005   -53.1201    11.2763     7.0682     8.0373
 1410.0000     9.5239   100.9137     2.4811     0.0005   -53.1236    11.3780     7.0669     8.0355
 1410.5000     9.5242   101.7102     2.4801     0.0006   -53.1271    11.5862     7.0656     8.1084
 1411.0000     9.5048   102.1114     2.4822     0.0026   -53.1306    11.5841     7.0643     8.1069
 1411.5000     9.5051   104.4901     2.4842     0.0027   -53.3313    11.0635     7.0630     8.0314
 1412.0000     9.5054   105.2842     2.4842     0.0028   -53.3348    11.0615     7.0617     8.1037
 1412.5000     9.5847   106.0807     2.4753     0.0028   -53.3382    10.9587     7.0604     8.1768
 1413.0000     9.6047   105.6913     2.4723     0.0009   -53.3417    10.7578     7.0591     8.2510
 1413.5000     9.6841   104.1150     2.4713     0.0029   -53.1479    10.7558     7.0579     8.4022
 1414.0000     9.6448   101.7540     2.4724     0.0030   -53.3487    11.1551     7.0566     8.5562
 1414.5000     9.6056   102.1529     2.4734     0.0070   -53.3521    11.4633     7.0553     8.6338
