~VERSION INFORMATION
 VERS.                2.0:   CWLS LOG ASCII STANDARD - VERSION 2.0
 WRAP.                 NO:   ONE LINE PER DEPTH STEP
~WELL INFORMATION
#MNEM.UNIT      DATA TYPE    INFORMATION
#----------   ------------   ------------------------------
 STRT.F          290.0000:   START DEPTH
 STOP.F         2884.0000:   STOP DEPTH
 STEP.F            0.5000:   STEP LENGTH
 NULL.          -999.2500:   NO VALUE
 COMP.   FENNIX & SCISSON:   COMPANY
 WELL. FENIX & SCISSON AX #22-28:   WELL
 FLD .             NPR #3:   FIELD
 LOC .      S28 T39N R78W:   LOCATION
 CNTY.            NATRONA:   COUNTY
 STAT.            WYOMING:   STATE
 CTRY. UNITED STATES OF AMERICA:   COUNTRY
 SRVC.              WELEX:   SERVICE COMPANY
 DATE.        29-DEC-1979:   LOGDATE
 API .     49025107930000:   API NUMBER
~CURVE INFORMATION
#MNEM.UNIT       API CODE    CURVE DESCRIPTION
#----------   ------------   ------------------------------
 DEPT.F                  :   
 GRD .GAPI   45 310 01 00:   GAMMA RAY FROM DENSITY LOG
 CALD.IN     45 280 60 00:   CALIPER FROM DENSITY LOG
 CORR.G/C3   45 356 01 00:   DENSITY CORRECTION
 RHOB.G/C3   45 350 01 00:   BULK DENSITY
 NPHI.DEC    42 890 03 00:   NEUTRON POROSITY SANDSTONE
 SPR .MV     07 010 01 00:   SPONTANEOUS POTENTIAL
 TENR.LBS    07 635 01 00:   TENSION FROM RESISTIVITY
 ILD .OHMM   07 120 46 00:   DEEP INDUCTION RESISTIVITY
 ILM .OHMM   07 120 44 00:   INDUCTION LOG MEDIUM RESISTIVITY
 SGRD.OHMM   07 220 08 00:   LATEROLOG-8 RES.
~PARAMETER INFORMATION
#MNEM.UNIT          VALUE    DESCRIPTION
#----------   ------------   ------------------------------
 EKB .F         4988.0000:   Kelly bushing
 EGL .F         4978.0000:   Ground level
 EPD .F         4978.0000:   Permanent datum
 TD  .F         2872.0000:   Total depth
 CLNT.            A2DTECH:   Client Code
 SL  . 803' FNL & 938' FWL:   Surface Location
 DATE.        29-DEC-1979:   Date Logged [DD-MMM-YYYY]
 DD  .F              2868:   Depth driller
 DL  .F              2872:   Depth logger
 BLI .F              2870:   Bottom log interval
 TLI .F               300:   Top log interval
 CS1 .              8.625:   Casing size
 CBD1.      8.625" @ 318':   Casing driller 1
 CBL1.IN              318:   Casing logger 1
 BS1 .IN            7.875:   Bit size
 BSD1.F              2868:   Depth drilled with bit1
 DFT .          GEL-BENEX:   Type fluid in hole
 DFD .                8.8:   Density
 TCS .HRS              10:   Time Circ. stopped
 MRT .F               109:   Maximum recorded temp.
 ENGI.               REIN:   Recorded By
 WITN.          MR. AMEND:   Witnessed by
 ORIG.      2.5" 5" PRINT:   Origin of data
 UWI .     49025107930000:   Unique Well ID
 DICO. A2D TECHNOLOGIES, INC.:   Digitizing Company
 PD  .                 GL:   Permanent Datum
 LMF .                 KB:   Log Measured From
 DMF .                 KB:   Drilling Measured From
~OTHER INFORMATION
~A   DEPT       GRD        CALD     CORR         RHOB       NPHI      SPR       TENR        ILD        ILM       SGRD   
# ...
 2166.0000   121.0158     9.1092     0.0336     2.5478     0.2960   -65.0859  1706.5387     5.1015     5.0080     6.4578
 2166.5000   121.9310     9.0945     0.0428     2.5510     0.2985   -65.0844  1706.3904     5.1726     5.0087     6.2854
 2167.0000   121.6543     9.0518     0.0385     2.5473     0.3006   -64.7862  1706.2421     5.4648     4.9413     6.2118
 2167.5000   120.4844     9.0230     0.0312     2.5353     0.3013   -64.7847  1706.0938     5.5410     4.9420     7.2514
 2168.0000   118.7089     8.9943     0.0253     2.5309     0.3027   -64.7832  1705.9454     5.5418     4.9426     7.4305
 2168.5000   116.3337     8.9810     0.0255     2.5363     0.3042   -64.7818  1705.7971     5.5425     4.9433     6.8212
 2169.0000   119.3558     8.9677     0.0317     2.5386     0.3004   -64.7803  1705.6488     5.5433     4.8768     6.2969
 2169.5000   120.8787     8.9395     0.0364     2.5394     0.2998   -64.7788  1705.5005     5.5419     4.8400     6.3406
 2170.0000   117.6040     8.9416     0.0381     2.5305     0.3056   -64.7773  1705.3522     5.4668     4.7098     6.5810
 2170.5000   113.1298     8.9592     0.0352     2.5216     0.3099   -64.7758  1705.2083     5.3194     4.5480     6.6911
 2171.0000   114.9525     8.9767     0.0339     2.5142     0.3081   -64.4776  1705.0594     5.1730     3.6653     6.5386
 2171.5000   117.9746     8.9789     0.0311     2.5082     0.3043   -64.4762  1704.9106     4.8968     3.2254     6.0232
 2172.0000   116.4990     8.9964     0.0343     2.5136     0.3018   -64.4747  1704.7618     4.6357     3.0174     5.4988
 2172.5000   114.4237     9.0140     0.0497     2.5219     0.3002   -64.4732  1704.6130     4.3919     2.9420     4.6190
 2173.0000   114.4473     9.0470     0.0618     2.5280     0.3001   -64.4717  1704.4642     4.2118     2.8796     4.8079
 2173.5000   116.8697     9.0645     0.0634     2.5266     0.3001   -64.4703  1704.3154     4.0420     2.7374     5.3194
 2174.0000   119.0050     9.1129     0.0516     2.5169     0.3007   -64.4688  1704.1665     3.8792     2.5119     5.1371
 2174.5000   120.8465     9.1476     0.0668     2.5255     0.3017   -64.4673  1704.0177     3.7308     2.4638     4.5354
 2175.0000   121.7392     9.1790     0.0835     2.5332     0.3037   -64.4658  1703.8690     3.6805     2.4840     4.1672
 2175.5000   121.4619     9.2279     0.0822     2.5307     0.3052   -64.4643  1703.7202     3.6309     2.5186     3.7715
 2176.0000   119.9922     9.2454     0.0613     2.5225     0.3068   -64.4629  1703.5714     3.5820     2.5332     4.7161
 2176.5000   118.5165     9.2784     0.0389     2.5106     0.3073   -64.4614  1703.4226     3.6319     2.5541     4.7659
 2177.0000   118.8400     9.2960     0.0301     2.5047     0.3073   -64.4599  1703.2738     3.6324     2.5688     4.7498
 2177.5000   121.2624     9.2981     0.0272     2.5040     0.3076   -64.4584  1703.1250     3.6384     2.5692     4.6049
 2178.0000   122.7853     9.3157     0.0274     2.5116     0.3088   -64.4570  1702.9762     3.6893     2.5695     4.3956
 2178.5000   123.1087     9.3018     0.0291     2.5185     0.3100   -64.4555  1702.8274     3.7410     2.5699     4.6420
 2179.0000   122.8325     9.3045     0.0308     2.5223     0.3112   -64.4540  1702.6786     3.8524     2.5702     5.0217
 2179.5000   122.8561     9.3066     0.0310     2.5171     0.3111   -64.4525  1702.5297     3.9534     2.5706     5.0486
 2180.0000   124.6788     9.3242     0.0311     2.5112     0.3092   -64.4510  1702.3810     4.0014     2.5710     4.7177
 2180.5000   126.5016     9.3263     0.0313     2.5075     0.3070   -64.4496  1731.9995     3.9475     2.5714     4.5286
 2181.0000   126.5468     9.3439     0.0300     2.5024     0.3018   -64.4481  1728.9880     3.9404     2.5717     4.7906
 2181.5000   125.3494     9.3769     0.0302     2.5001     0.2989   -64.4466  1726.0829     3.7230     2.6075     4.9894
 2182.0000   123.5421     9.4107     0.0303     2.5055     0.2975   -64.4451  1723.1779     3.5879     2.6079     4.5525
 2182.5000   121.1293     9.4428     0.0306     2.5116     0.2934   -64.4437  1720.2727     3.5883     2.6082     4.5850
 2183.0000   118.7163     9.4651     0.0322     2.5147     0.2903   -64.4422  1717.3677     3.5888     2.6086     4.8211
 2183.5000   119.7526     9.4873     0.0324     2.5087     0.2887   -64.4407  1714.4625     3.5894     2.6089     4.9314
 2184.0000   123.0746     9.5095     0.0251     2.5074     0.2871   -64.4392  1711.5575     3.5899     2.5738     4.6837
 2184.5000   126.3965     9.5318     0.0207     2.5165     0.2865   -64.4376  1708.6523     3.5992     2.5742     4.4596
 2185.0000   129.4186     9.5386     0.0224     2.5233     0.2868   -64.4362  1705.7473     3.6404     2.5745     4.3904
 2185.5000   128.2428     9.5399     0.0301     2.5272     0.2883   -64.4347  1702.8422     3.6409     2.6104     4.6959
 2186.0000   124.9681     9.5414     0.0348     2.5303     0.2920   -64.4332  1700.5952     3.6917     2.6832     5.0718
 2186.5000   122.2931     9.5430     0.0320     2.5349     0.2957   -64.4317  1700.4464     3.6922     2.7205     5.1221
 2187.0000   123.2162     9.5290     0.0276     2.5387     0.2941   -64.4303  1700.2976     3.7436     2.7964     4.6908
 2187.5000   124.4393     9.5303     0.0353     2.5418     0.2926   -64.4288  1700.1488     3.7441     2.8353     4.4974
 2188.0000   122.9636     9.5163     0.0400     2.5396     0.2910   -64.4273  1700.0000     3.7446     2.8748     4.9783
 2188.5000   121.4880     9.5176     0.0312     2.5427     0.2906   -64.4258  1699.8511     3.7340     2.8752     5.8744
 2189.0000   121.5116     9.5032     0.0314     2.5481     0.2971   -64.4243  1699.7023     3.6724     2.7599     6.0923
 2189.5000   123.3355     9.4891     0.0468     2.5444     0.2993   -64.4229  1699.5535     3.5463     2.5427     5.4638
 2190.0000   125.1967     9.4909     0.0560     2.5407     0.2989   -64.4214  1699.4047     3.4875     2.4076     4.9972
 2190.5000   126.9805     9.5231     0.0590     2.5378     0.2960   -64.4199  1699.2559     3.3580     2.3110     4.4798
 2191.0000   127.0093     9.5399     0.0472     2.5311     0.2874   -64.4184  1699.1072     3.3019     2.2799     3.8527
 2191.5000   126.1333     9.5721     0.0293     2.5221     0.2793   -64.4169  1698.9584     3.2128     2.2187     4.1394
 2192.0000   124.9575     9.5889     0.0129     2.5067     0.2774   -64.4154  1698.8094     3.1155     2.1591     4.5551
 2192.5000   123.7817     9.6057     0.0161     2.5117     0.2808   -64.4140  1701.4584     3.0004     2.1594     4.4205
 2193.0000   123.2057     9.6071     0.0328     2.5240     0.2771   -64.4124  1704.8929     2.9299     2.1894     3.8757
 2193.5000   123.2293     9.6085     0.0360     2.5271     0.2820   -64.3856  1708.3274     2.9304     2.2505     3.9352
 2194.0000   123.5527     9.6102     0.0301     2.5264     0.2786   -64.3426  1711.7620     2.9419     2.3132     4.6543
 2194.5000   123.8762     9.6115     0.0379     2.5370     0.2758   -64.2995  1715.1964     2.9831     2.4105     4.7085
 2195.0000   123.8998     9.6129     0.0486     2.5469     0.2810   -64.2564  1718.6310     3.1211     2.5465     4.4939
 2195.5000   123.6177     9.6142     0.0548     2.5575     0.2841   -64.2134  1722.0656     3.2980     2.6902     4.5691
 2196.0000   123.0465     9.5998     0.0339     2.5613     0.2847   -64.1703  1725.5000     3.5185     2.8419     4.7250
 2196.5000   122.4714     9.6015     0.0205     2.5554     0.2803   -64.1273  1728.9346     3.7330     3.1281     4.9257
 2197.0000   120.9958     9.5871     0.0117     2.5495     0.2772   -64.0842  1732.3690     3.9278     3.3962     5.4243
 2197.5000   118.0049     9.5731     0.0058     2.5443     0.2753   -64.0411  1735.8036     4.1111     3.7382     6.0558
 2198.0000   113.4759     9.5285     0.0060     2.5444     0.2756   -63.9981  1739.2380     4.3440     3.9491     6.7608
 2198.5000   110.4871     9.4836     0.0142     2.5475     0.2777   -63.9550  1742.6726     4.5276     4.0040     6.8907
 2199.0000   109.6959     9.4540     0.0260     2.5483     0.2802   -63.9119  1746.1071     4.6978     4.0231     6.4062
