~VERSION INFORMATION
 VERS.                2.0:   CWLS LOG ASCII STANDARD - VERSION 2.0
 WRAP.                 NO:   ONE LINE PER DEPTH STEP
~WELL INFORMATION
#MNEM.UNIT      DATA TYPE    INFORMATION
#----------   ------------   ------------------------------
 STRT.F          444.0000:   START DEPTH
 STOP.F         3018.0000:   STOP DEPTH
 STEP.F            0.5000:   STEP LENGTH
 NULL.          -999.2500:   NO VALUE
 COMP.    FENIX & SCISSON:   COMPANY
 WELL.  FENIX "AX" #25-28:   WELL
 FLD .             TEAPOT:   FIELD
 LOC .      S28 T39N R78W:   LOCATION
 CNTY.            NATRONA:   COUNTY
 STAT.            WYOMING:   STATE
 CTRY. UNITED STATES OF AMERICA:   COUNTRY
 SRVC.              WELEX:   SERVICE COMPANY
 DATE.        01-DEC-1979:   LOGDATE
 API .     49025107940000:   API NUMBER
~CURVE INFORMATION
#MNEM.UNIT       API CODE    CURVE DESCRIPTION
#----------   ------------   ------------------------------
 DEPT.F                  :   
 SPR .MV     07 010 01 00:   SPONTANEOUS POTENTIAL
 RILM.OHMM   07 120 44 00:   INDUCTION LOG MEDIUM RESISTIVITY
 RILD.OHMM   07 120 46 00:   DEEP INDUCTION RESISTIVITY
 SGRD.OHMM   07 220 05 00:   SHALLOW GUARD LOG RESISTIVITY
 TENR.LBS    07 635 01 00:   TENSION FROM RESISTIVITY
 NPHI.DEC    42 890 03 00:   NEUTRON POROSITY SANDSTONE
 GRD .GAPI   45 310 01 00:   GAMMA RAY FROM DENSITY LOG
 CALD.IN     45 280 60 00:   CALIPER FROM DENSITY LOG
 RHOB.G/C3   45 350 01 00:   BULK DENSITY
 DCOR.G/C3   45 356 01 00:   DENSITY CORRECTION
 TEND.LBS    45 635 01 00:   TENSION FROM DENSITY LOG
~PARAMETER INFORMATION
#MNEM.UNIT          VALUE    DESCRIPTION
#----------   ------------   ------------------------------
 EKB .F         5092.0000:   Kelly bushing
 EGL .F         5082.0000:   Ground level
 EDF .F            0.0000:   Drilling floor
 TD  .F         3013.5000:   Total depth
 DATE.        01-DEC-1979:   Date logged
 CLNT.            A2DTECH:   Client Code
 SL  . 2267' FSL & 1070' FWL:   Surface Location
 PD  .                 GL:   Permanent Datum
 EPD .F              5082:   Elevation Permanent Datum
 LMF .                 KB:   Log Measured From
 DMF .                 KB:   Drilling Measured From
 DAPD.F                10:   Feet Above Permanent Datum
 DD  .F              3000:   Depth driller
 DL  .F            3013.5:   Depth logger
 BLI .F              3013:   Bottom log interval
 TLI .F               350:   Top log interval
 CS1 .IN            8.625:   Casing size
 CBD1.      8.625" @ 465':   Casing driller 1
 CBL1.F               462:   Casing logger 1
 BS1 .IN            7.875:   Bit size
 BSD1.F              3000:   Depth drilled with bit1
 DFT .           CHEM GEL:   Type fluid in hole
 DFD .                8.8:   Density
 DFV .                 55:   Viscosity
 DFPH.                  9:   pH
 DFL .                6.4:   Fluid loss
 MSS .           FLOWLINE:   Source of sample
 RMS .OHMM           1.53:   Rm
 MST .F                75:   Rm Meas. temp.
 RMF .OHMM           1.24:   Rmf
 MFST.F                75:   Rmf Meas. temp.
 RMC .OHMM           1.83:   Rmc
 MCST.F                75:   Rmc Meas. temp.
 MFSS.               MEAS:   Source Rmf.
 MCSS.               MEAS:   Source Rmc.
 RMB .OHMM           1.09:   Rm. at BHT
 BHT .F               105:   BHT.
 TCS .HRS             2.5:   Time Circ. stopped
 MRT .F               105:   Maximum recorded temp.
 LUN .                965:   Logging unit number
 LUL .             CASPER:   Logging unit location
 ENGI.            BENTSEN:   Recorded By
 WITN.           P. AMEND:   Witnessed by
 ORIG.           5" PRINT:   Origin of data
 UWI .     49025107940000:   Unique Well ID
 DICO. A2D TECHNOLOGIES, INC.:   Digitizing Company
~OTHER INFORMATION
~A   DEPT      SPR       RILM       RILD       SGRD       TENR       NPHI         GRD      CALD       RHOB       DCOR       TEND   
# ...
 2121.5000   -36.3960     6.9930     6.3680     7.3360   983.7730     0.3030    74.6900     8.1180     2.4910    -0.0170  1504.7020
 2122.0000   -36.4940     6.8630     6.3060     7.1520   983.7730     0.3010    72.0030     8.1140     2.5000    -0.0110  1507.1150
 2122.5000   -36.5840     6.8630     6.2430     7.4420   983.7730     0.2980    69.7580     8.1100     2.5150    -0.0020  1491.3040
 2123.0000   -36.3280     6.9930     6.1800     7.6940   983.7730     0.2950    69.8040     8.1060     2.5320     0.0090  1475.4940
 2123.5000   -36.0450     6.9930     6.1170     7.7990   983.7730     0.2930    70.4640     8.1020     2.5410     0.0050  1459.6840
 2124.0000   -35.7640     7.0580     6.0780     7.9580   983.7730     0.2920    71.7580     8.0970     2.5330    -0.0050  1443.8740
 2124.5000   -35.4830     7.0580     6.0780     7.9180   983.7730     0.2900    74.6500     8.0930     2.5180    -0.0160  1438.5070
 2125.0000   -35.2020     7.0580     6.0780     7.7850   983.7730     0.2930    74.0490     8.0890     2.5010    -0.0270  1457.5100
 2125.5000   -34.9210     7.0130     6.0780     7.6520   983.7730     0.2950    76.2460     8.0850     2.4880    -0.0340  1476.5129
 2126.0000   -34.6410     6.9570     6.0780     7.5190   983.7730     0.2970    77.9900     8.0870     2.4790    -0.0310  1495.5150
 2126.5000   -34.3590     6.9000     6.0610     7.3870   983.7730     0.2970    77.0130     8.0890     2.4710    -0.0280  1514.5179
 2127.0000   -34.0780     6.8440     6.0210     7.2590   983.7730     0.2990    82.0810     8.0920     2.4760    -0.0180  1531.6210
 2127.5000   -33.8000     6.7880     5.9800     7.3240   983.7730     0.3020    86.2100     8.0940     2.4780    -0.0070  1523.5360
 2128.0000   -33.5220     6.7310     5.8790     7.3870   983.7730     0.3080    89.2110     8.0970     2.4700    -0.0120  1514.5530
 2128.5000   -33.6320     6.6750     5.6880     7.3230   983.7730     0.3120    93.4810     8.0990     2.4620    -0.0070  1505.5699
 2129.0000   -34.1980     6.6190     5.5710     7.2390   983.7730     0.3130    99.8800     8.1010     2.4630    -0.0010  1496.5861
 2129.5000   -34.7670     6.5620     5.5330     7.1540   983.7730     0.3120   104.3180     8.1040     2.4590    -0.0030  1479.7430
 2130.0000   -35.3570     6.5060     5.4960     7.0700   983.7730     0.3110   105.3310     8.1060     2.4530    -0.0040  1455.0400
 2130.5000   -35.4180     6.4890     5.4590     6.9850   983.7730     0.3110   102.5100     8.1080     2.4500     0.0020  1432.8060
 2131.0000   -35.4490     6.5500     5.4340     6.9280   983.7730     0.3120    98.4450     8.1110     2.4560     0.0160  1444.0510
 2131.5000   -35.4810     6.6110     5.4680     7.0250   983.7730     0.3110    96.2550     8.1130     2.4590     0.0300  1454.2729
 2132.0000   -35.5160     6.6110     5.5370     7.1260   983.7730     0.3110    95.4340     8.1150     2.4490     0.0230  1464.4950
 2132.5000   -35.5500     6.7360     5.6900     7.4620   983.7730     0.3110    94.8330     8.1180     2.4430     0.0200  1474.7170
 2133.0000   -35.5820     7.0400     5.8440     8.2200   983.9990     0.3120    95.5700     8.1200     2.4430     0.0130  1484.9390
 2133.5000   -35.5260     7.3380     5.9840     8.8540   984.3000     0.3150    96.3690     8.1220     2.4530     0.0130  1489.7230
 2134.0000   -35.4640     7.6360     6.1130     9.2280   984.6000     0.3170    96.2120     8.1240     2.4630     0.0020  1481.8180
 2134.5000   -35.4020     7.9340     6.3410     9.5240   984.9010     0.3190    96.8690     8.1220     2.4770     0.0050  1473.9130
 2135.0000   -35.3400     8.2330     6.7260     9.8210   985.2020     0.3220    98.4920     8.1200     2.4850    -0.0030  1466.0081
 2135.5000   -35.2790     8.3680     7.1100     9.9670   985.5030     0.3240    97.4180     8.1180     2.4600    -0.0170  1458.1030
 2136.0000   -35.2180     8.3960     7.3960    10.0760   985.8030     0.3220    94.5500     8.1160     2.4430    -0.0310  1456.8040
 2136.5000   -35.1990     8.4290     7.6770    10.1600   986.1040     0.3190    93.0060     8.1140     2.4390    -0.0340  1470.9200
 2137.0000   -35.2820     8.3900     7.6770    10.1600   986.4050     0.3180    92.5290     8.1110     2.4460    -0.0260  1485.0370
 2137.5000   -35.3630     8.3290     7.5070    10.0490   986.7050     0.3190    93.4560     8.1090     2.4550    -0.0230  1499.1530
 2138.0000   -35.4440     8.2680     7.4430     9.5970   987.0060     0.3170    93.2980     8.1070     2.4500    -0.0360  1513.2690
 2138.5000   -35.5260     8.2070     7.3780     8.9990   987.3070     0.3170    92.5140     8.1050     2.4440    -0.0310  1527.3860
 2139.0000   -35.6240     8.1460     7.3100     9.0950   987.6070     0.3180    91.7750     8.1060     2.4410    -0.0330  1520.0920
 2139.5000   -35.7760     8.0850     7.2420     9.2390   987.9080     0.3210    94.1310     8.1080     2.4540    -0.0080  1503.6230
 2140.0000   -35.9260     8.0240     7.1740     9.0820   988.2090     0.3240    94.8850     8.1110     2.4650    -0.0180  1487.1541
 2140.5000   -36.0750     7.9290     7.1060     8.8320   988.5100     0.3190    93.1450     8.1130     2.4660    -0.0090  1470.6851
 2141.0000   -36.2250     7.6770     7.0380     9.0380   988.8100     0.3160    94.9740     8.1150     2.4610    -0.0080  1452.5690
 2141.5000   -36.3740     8.2730     6.9850     9.3260   989.1110     0.3120    93.9980     8.1170     2.4540    -0.0020  1459.5900
 2142.0000   -36.5240     8.1720     6.9640     9.5170   989.4120     0.3100    97.0590     8.1190     2.4490    -0.0090  1467.3910
 2142.5000   -36.4980     7.9820     6.9310     8.9990   989.7120     0.3090    96.5010     8.1220     2.4720    -0.0100  1475.1920
 2143.0000   -36.3300     7.8220     6.9540     9.2220   990.0130     0.3100    94.9700     8.1240     2.4700    -0.0130  1482.9940
 2143.5000   -36.1610     8.0870     7.0280     9.6100   990.3140     0.3110    95.5220     8.1240     2.4570    -0.0170  1490.7950
 2144.0000   -35.9910     8.3640     7.1020    10.1600   990.6140     0.3110    91.3480     8.1250     2.4590    -0.0160  1498.5959
 2144.5000   -35.8160     8.5880     7.1760    10.0950   990.9150     0.3110    90.7270     8.1250     2.4700    -0.0040  1506.3970
 2145.0000   -35.8960     8.4990     7.2770     9.9830   991.2160     0.3100    94.1980     8.1240     2.4770     0.0070  1505.9290
 2145.5000   -36.0310     8.4090     7.3220     9.8710   991.5170     0.3100    93.4170     8.1290     2.4660     0.0060  1486.1660
 2146.0000   -36.1690     8.3190     7.3670     9.7590   991.8170     0.3100    91.0460     8.1360     2.4530    -0.0040  1466.4030
 2146.5000   -36.3060     8.1960     7.4130     9.6200   992.1180     0.3110    91.1470     8.1420     2.4440    -0.0140  1446.6400
 2147.0000   -36.4430     8.4900     7.4580     9.9110   992.4190     0.3110    94.3330     8.1490     2.4470    -0.0070  1436.4210
 2147.5000   -36.5800     9.0100     7.5650    10.3900   992.7190     0.3080    96.3180     8.1550     2.4550    -0.0100  1448.4720
 2148.0000   -36.7170     9.0580     7.7900    10.7460   993.0200     0.3070    95.5690     8.1630     2.4630    -0.0040  1460.5229
 2148.5000   -36.8540     9.1060     8.0150    10.4810   993.3210     0.3060    91.6440     8.1500     2.4650    -0.0120  1472.5730
 2149.0000   -36.9910     9.1540     8.1200    11.1630   993.6210     0.3060    90.3900     8.1300     2.4510    -0.0120  1484.6240
 2149.5000   -37.1270     9.2020     8.1200    11.5800   993.9220     0.3060    90.7090     8.1100     2.4560    -0.0030  1496.6740
 2150.0000   -37.1770     9.2540     8.1200    11.3130   994.2230     0.3050    93.7090     8.1080     2.4620     0.0040  1508.7250
 2150.5000   -37.1360     9.1430     8.1200    10.6470   994.5240     0.3060    95.5080     8.1120     2.4690    -0.0060  1520.7750
 2151.0000   -37.0960     8.8890     8.0160     9.9720   994.8240     0.3100    94.9000     8.1170     2.4620    -0.0020  1531.6210
 2151.5000   -37.0560     8.5090     7.8120     9.4350   995.1250     0.3130    95.8060     8.1210     2.4490     0.0020  1514.4580
