~VERSION INFORMATION
 VERS.                2.0:   CWLS LOG ASCII STANDARD - VERSION 2.0
 WRAP.                 NO:   ONE LINE PER DEPTH STEP
~WELL INFORMATION
#MNEM.UNIT      DATA TYPE    INFORMATION
#----------   ------------   ------------------------------
 STRT.F          203.5000:   START DEPTH
 STOP.F         3126.0000:   STOP DEPTH
 STEP.F            0.5000:   STEP LENGTH
 NULL.          -999.2500:   NO VALUE
 COMP.    FENIX & SCISSON:   COMPANY
 WELL. FENIX NPR 3 "AX" #88-33:   WELL
 FLD .        TEAPOT DOME:   FIELD
 LOC .      S33 T39N R78W:   LOCATION
 CNTY.            NATRONA:   COUNTY
 STAT.            WYOMING:   STATE
 CTRY. UNITED STATES OF AMERICA:   COUNTRY
 SRVC.       SCHLUMBERGER:   SERVICE COMPANY
 DATE.        23-JAN-1978:   LOGDATE
 API .     49025105610000:   API NUMBER
~CURVE INFORMATION
#MNEM.UNIT       API CODE    CURVE DESCRIPTION
#----------   ------------   ------------------------------
 DEPT.F                  :   
 CALD.IN     45 280 60 00:   CALIPER FROM DENSITY LOG
 GRD .GAPI   45 310 01 00:   GAMMA RAY FROM DENSITY LOG
 RHOB.G/C3   45 350 01 00:   BULK DENSITY
 CORR.G/C3   45 356 01 00:   DENSITY CORRECTION
 SPR .MV     05 010 01 00:   SPONTANEOUS POTENTIAL
 SN  .OHMM   05 040 16 00:   SHORT NORMAL 16"
 ILD .OHMM   05 120 46 00:   DEEP INDUCTION RESISTIVITY
~PARAMETER INFORMATION
#MNEM.UNIT          VALUE    DESCRIPTION
#----------   ------------   ------------------------------
 EKB .F         5174.0000:   Kelly bushing
 EGL .F         5164.0000:   Ground level
 EDF .F            0.0000:   Drilling floor
 TD  .F         3115.0000:   Total depth
 DATE.        23-JAN-1978:   Date logged
 CLNT.            A2DTECH:   Client Code
 PD  .                 GL:   Permanent Datum
 EPD .F              5164:   Elevation Permanent Datum
 LMF .                 KB:   Log Measured From
 DMF .                 KB:   Drilling Measured From
 DD  .F              3115:   Depth driller
 DL  .F              3115:   Depth logger
 BLI .F              3115:   Bottom log interval
 TLI .F               210:   Top log interval
 CS1 .IN            8.625:   Casing size
 CBD1.      9.625" @ 219':   Casing driller 1
 CBL1.F               219:   Casing logger 1
 BS1 .IN            7.875:   Bit size
 BSD1.F              3115:   Depth drilled with bit1
 DFT .                GEL:   Type fluid in hole
 DFD .                8.9:   Density
 DFV .                 36:   Viscosity
 DFPH.                 10:   pH
 DFL .                7.8:   Fluid loss
 MSS .           FLOWLINE:   Source of sample
 RMS .OHMM            2.2:   Rm
 MST .F                62:   Rm Meas. temp.
 RMF .OHMM           1.94:   Rmf
 MFST.F                54:   Rmf Meas. temp.
 RMC .OHMM            3.4:   Rmc
 MCST.F                54:   Rmc Meas. temp.
 MFSS.               MEAS:   Source Rmf.
 MCSS.               MEAS:   Source Rmc.
 RMB .OHMM            1.1:   Rm. at BHT
 BHT .F               114:   BHT.
 TCS .HRS             4.5:   Time Circ. stopped
 MRT .F               114:   Maximum recorded temp.
 LUN .               2958:   Logging unit number
 LUL .             CASPER:   Logging unit location
 ENGI.           REYNOLDS:   Recorded By
 WITN.           MCGINLEY:   Witnessed by
 ORIG.           5" PRINT:   Origin of data
 UWI .     49025105610000:   Unique Well ID
 DICO. A2D TECHNOLOGIES, INC.:   Digitizing Company
 DAPD.F              5164:   Feet Above Permanent Datum
 SL  . 100' FSL & 550' FEL:   Surface Location
~OTHER INFORMATION
~A   DEPT     CALD        GRD       RHOB       CORR        SPR         SN        ILD   
# ...
 2296.5000     9.7609   108.6206     2.4701     0.0534   -41.8565     5.2451     4.4856
 2297.0000     9.7610   107.4318     2.4621     0.0554   -42.0559     4.6974     4.4854
 2297.5000     9.7611   106.6397     2.4621     0.0594   -42.2553     4.5693     4.4812
 2298.0000     9.7613   106.6413     2.4581     0.0713   -42.2563     4.7842     4.3991
 2298.5000     9.7614   106.6429     2.4621     0.0793   -42.2573     4.8282     4.1620
 2299.0000     9.7129   106.6444     2.4631     0.0952   -42.0599     4.8726     3.9742
 2299.5000     9.7525   106.8444     2.4581     0.1012   -41.8625     5.5423     3.7600
 2300.0000     9.8214   107.2428     2.4451     0.1132   -40.8714     5.4410     3.5903
 2300.5000     9.8938   108.5290     2.4272     0.1270   -40.8724     4.8360     3.4346
 2301.0000     9.9599   108.5282     2.4401     0.1491   -40.6712     4.1675     3.3664
 2301.5000     9.9598   102.1759     2.4585     0.1391   -40.6702     3.9079     3.3052
 2302.0000     9.9595   106.7381     2.4361     0.0932   -40.8676     3.7671     3.2154
 2302.5000     9.9395    99.2965     2.4182     0.0912   -40.6682     3.4682     3.1569
 2303.0000     9.9393   100.0881     2.4052     0.0832   -40.6672     3.4684     3.0711
 2303.5000     9.9391   100.4829     2.3753     0.0832   -40.6662     3.9457     3.0714
 2304.0000     9.9389   102.4654     2.3333     0.0912   -40.8636     3.6661     3.1581
 2304.5000     9.9388   103.2571     2.2834     0.1451   -40.8626     3.4977     3.1293
 2305.0000     9.9187   104.0491     2.2954     0.2230   -40.8616     4.0525     2.9885
 2305.5000     9.9184   103.4514     2.3104     0.2250   -40.8606     3.4025     2.9888
 2306.0000     9.9183   102.0606     2.2914     0.2509   -40.8596     3.4073     2.9892
 2306.5000     9.9379   101.8606     2.2794     0.3008   -40.8585     3.4077     2.9895
 2307.0000     9.9576   103.0486     2.4052     0.2289   -40.8575     3.4395     2.9897
 2307.5000     9.8383   102.6502     2.3862     0.2349   -41.0551     3.4399     3.0740
 2308.0000     9.9175   100.3649     2.3553     0.2988   -41.0541     3.5366     3.1605
 2308.5000    10.3140   108.2004     2.3992     0.3148   -41.2515     3.6360     3.5311
 2309.0000    10.0559   108.5964     2.4691     0.0972   -41.2505     3.9869     3.6981
 2309.5000     9.9962   109.5864     2.4341     0.0812   -41.4479     4.2919     4.1315
 2310.0000     9.9961   112.7590     2.4711     0.0733   -41.2485     4.4945     4.4486
 2310.5000    10.3927   114.7410     2.4990     0.0613   -41.4459     4.7067     4.6163
 2311.0000     9.9957   109.5796     2.4900     0.0273   -41.4449     4.9743     4.8348
 2311.5000     9.9954   111.5625     2.4711     0.0293   -40.8487     5.1615     4.9710
 2312.0000     9.9159   113.8410     2.4790     0.0453   -40.8477     5.4902     5.0176
 2312.5000     9.8761   122.2721     2.4840     0.0473   -40.6480     5.5410     5.0646
 2313.0000     9.9750   122.0717     2.4890     0.0353   -40.8457     5.7487     5.0651
 2313.5000     9.9748   119.8880     2.4810     0.0333   -40.8446     6.1878     5.0658
 2314.0000     9.9350   115.5210     2.5000     0.0373   -40.4470     6.1878     5.0663
 2314.5000     9.9347   114.3286     2.5030     0.0413   -40.4460     5.8750     5.0204
 2315.0000     9.9346   114.5250     2.5100     0.0473   -40.2466     5.8757     5.0209
 2315.5000    10.2123   115.1182     2.5170     0.0493   -40.4440     5.8763     5.0213
 2316.0000     9.8946   115.3142     2.5309     0.0473   -40.6414     5.8770     5.0686
 2316.5000     9.8349   119.4949     2.5379     0.0473   -40.6404     5.8776     5.4577
 2317.0000     9.8347   118.5043     2.5389     0.0413   -40.6402     5.9874     5.7887
 2317.5000     9.8345   117.5135     2.5389     0.0333   -40.8368     6.4455     6.3271
 2318.0000     9.8343   120.6636     2.5389     0.0293   -41.0342     6.9741     6.6265
 2318.5000     9.7944   122.6453     2.5389     0.0293   -41.4300     7.4381     7.0771
 2319.0000     9.7744   119.6675     2.5484     0.0234   -41.4290     7.8602     7.5584
 2319.5000     9.7742   116.8878     2.5504     0.0174   -41.4280     8.4606     8.0723
 2320.0000    10.1907   114.3064     2.5220     0.0134   -41.4266     9.0235     8.8254
 2320.5000     9.6944   115.7913     2.5070     0.0174   -41.4260     9.1911     8.9078
 2321.0000     9.6942   111.3263     2.5000     0.0174   -41.4252     9.5357     9.1591
 2321.5000     9.6940   109.1418     2.4940     0.0194   -41.2258     9.6238     9.3618
 2322.0000     9.6938   108.1995     2.4830     0.0254   -41.0263     9.8026     9.3618
 2322.5000     9.6936   108.1992     2.4840     0.0373   -40.6216     9.8932     9.5357
 2323.0000     9.7133   109.9294     2.4850     0.0413   -40.6206     9.8932     9.8026
 2323.5000     9.6932   111.3166     2.4850     0.0433   -40.6194    10.1701    10.0769
 2324.0000     9.6732   113.4971     2.4850     0.0473   -40.5778    10.5513     9.6238
 2324.5000     9.6928   115.0824     2.4934     0.0573   -40.5363    10.8467     9.1665
 2325.0000     9.7125   115.2788     2.5104     0.0713   -40.4947    11.0105     9.0479
 2325.5000     9.7123   115.0784     2.5210     0.0753   -40.4532    10.9111     8.9309
 2326.0000     9.7121   113.0919     2.5260     0.0772   -40.4148    10.9123     9.0848
 2326.5000     9.7119   117.2569     2.5260     0.0792   -40.6204    10.8136     8.9197
 2327.0000     9.7117   120.2310     2.5230     0.0832   -40.4212    10.6175     8.9207
 2327.5000     9.7115   122.0151     2.5260     0.0903   -40.4202    10.5214     8.9217
 2328.0000    10.1675   117.6477     2.5293     0.0633   -40.4192    10.3305     8.8407
 2328.5000     9.7309   116.0584     2.5050     0.0493   -40.4182    10.5236     8.9237
 2329.0000     9.7307   114.8659     2.5030     0.0493   -40.6156    10.5248     8.9245
 2329.5000     9.7504   114.2687     2.5020     0.0493   -40.6146    10.5260     8.9255
 2330.0000     9.7502   113.6714     2.5000     0.0513   -40.8120    10.3352     9.0928
 2330.5000     9.7500   114.0666     2.5020     0.0493   -41.4063    10.8232     9.1781
 2331.0000     9.7498   113.0722     2.5020     0.0473   -41.6037    10.8244     9.0948
 2331.5000     9.7496   106.9195     2.5030     0.0493   -41.6027    10.8256     9.1802
 2332.0000     9.7494   102.7509     2.5030     0.0513   -41.2048    10.8268     9.1812
 2332.5000     9.7492    99.7727     2.5000     0.0493   -41.6006    10.8281     9.1823
 2333.0000     9.7490    97.5882     2.4923     0.0533   -41.4012    11.0305     9.2685
 2333.5000     9.7488    97.3878     2.4943     0.0573   -41.0034    11.2367     9.1844
 2334.0000     9.7486    98.5762     2.5083     0.0513   -40.8042    11.2380     9.0174
 2334.5000     9.7484    99.3679     2.5093     0.0433   -40.6047    11.1361     9.2716
 2335.0000     9.7482   101.1520     2.5033     0.0413   -40.4053    11.0353     9.2718
 2335.5000     9.7480   101.7452     2.5063     0.0413   -40.4043    10.9354     9.2735
 2336.0000     9.7478   102.9336     2.5083     0.0413   -40.4033    10.9367     9.3605
 2336.5000     9.7476   100.9479     2.5063     0.0413   -40.4023    10.8377     9.1902
 2337.0000     9.7474   107.2946     2.4980     0.0473   -40.5997    10.8389     9.0233
 2337.5000     9.7472   111.0624     2.4910     0.0473   -40.7971    10.8401     9.0243
 2338.0000     9.7470   113.6397     2.4840     0.0493   -40.7961    10.9416     9.0254
 2338.5000     9.7468   125.3434     2.4760     0.0573   -41.1919    10.8426     9.0264
 2339.0000     9.7466   125.9382     2.4751     0.0573   -41.3893    10.8441     9.0270
 2339.5000     9.7464   117.6022     2.4751     0.0573   -41.1895    10.7457     9.0283
 2340.0000     9.7462   111.8464     2.4741     0.0593   -41.1889    10.4542     9.0294
 2340.5000     9.7460   110.6539     2.4751     0.0573   -41.3863    10.3593     8.9473
 2341.0000     9.7458   115.0169     2.4820     0.0553   -40.9887    10.4563     8.7041
 2341.5000     9.7456   113.8244     2.4850     0.0533   -40.7893    10.4577     8.6251
