~VERSION INFORMATION
 VERS.                2.0:   CWLS LOG ASCII STANDARD - VERSION 2.0
 WRAP.                 NO:   ONE LINE PER DEPTH STEP
~WELL INFORMATION
#MNEM.UNIT      DATA TYPE    INFORMATION
#----------   ------------   ------------------------------
 STRT.F            0.0000:   START DEPTH
 STOP.F         2870.0000:   STOP DEPTH
 STEP.F            0.5000:   STEP LENGTH
 NULL.          -999.2500:   NO VALUE
 COMP.  FENIX AND SCISSON:   COMPANY
 WELL.  FENIX "A" #304-28:   WELL
 FLD .             NPR #3:   FIELD
 LOC .      S28 T39N R78W:   LOCATION
 CNTY.            NATRONA:   COUNTY
 STAT.            WYOMING:   STATE
 CTRY. UNITED STATES OF AMERICA:   COUNTRY
 SRVC.         MCCULLOUGH:   SERVICE COMPANY
 DATE.        21-DEC-1977:   LOGDATE
 API .     49025105600000:   API NUMBER
~CURVE INFORMATION
#MNEM.UNIT       API CODE    CURVE DESCRIPTION
#----------   ------------   ------------------------------
 DEPT.F                  :   
 GR  .GAPI   30 310 01 00:   GAMMA RAY
 CALI.IN     70 280 01 00:   CALIPER
~PARAMETER INFORMATION
#MNEM.UNIT          VALUE    DESCRIPTION
#----------   ------------   ------------------------------
 EKB .F            0.0000:   Kelly bushing
 EGL .F            0.0000:   Ground level
 EDF .F         5074.7000:   Drilling floor
 EPD .F         5074.7000:   Permanent datum
 TD  .F         2868.0000:   Total depth
 DATE.        21-DEC-1977:   Date logged
 CLNT.            A2DTECH:   Client Code
 DL  .F              2868:   Depth logger
 BLI .F              2866:   Bottom log interval
 TLI .F              2000:   Top log interval
 CS1 .IN             6.25:   Casing size
 CBD1.     6.625" @ 2935':   Casing driller 1
 BS1 .IN             6.25:   Bit size
 BSD1.F              2868:   Depth drilled with bit1
 DFT .              WATER:   Type fluid in hole
 TCS .HRS             1.5:   Time Circ. stopped
 ENGI.             CONLEY:   Recorded By
 WITN.           HARRISON:   Witnessed by
 ORIG.           5" PRINT:   Origin of data
 UWI .     49025105600000:   Unique Well ID
 DICO. A2D TECHNOLOGIES, INC.:   Digitizing Company
~OTHER INFORMATION
~A    DEPT      GR         CALI 
# ...
 1458.0000  -999.2500     6.7690
 1458.5000  -999.2500     6.7690
 1459.0000  -999.2500     6.7680
 1459.5000  -999.2500     6.7650
 1460.0000  -999.2500     6.7620
 1460.5000  -999.2500     6.7580
 1461.0000  -999.2500     6.7590
 1461.5000  -999.2500     6.7600
 1462.0000  -999.2500     6.7590
 1462.5000  -999.2500     6.9740
 1463.0000  -999.2500     6.8500
 1463.5000  -999.2500     6.8380
 1464.0000  -999.2500     6.8270
 1464.5000  -999.2500     6.8060
 1465.0000  -999.2500     6.8040
 1465.5000  -999.2500     6.8030
 1466.0000  -999.2500     6.8040
 1466.5000  -999.2500     6.8040
 1467.0000  -999.2500     6.8040
 1467.5000  -999.2500     6.8040
 1468.0000  -999.2500     6.8050
 1468.5000  -999.2500     6.8050
 1469.0000  -999.2500     6.7980
 1469.5000  -999.2500     6.7910
 1470.0000  -999.2500     6.7840
 1470.5000  -999.2500     6.7780
 1471.0000  -999.2500     6.7740
 1471.5000  -999.2500     6.7740
 1472.0000  -999.2500     6.7740
 1472.5000  -999.2500     6.7780
 1473.0000  -999.2500     6.7840
 1473.5000  -999.2500     6.7900
 1474.0000  -999.2500     6.7960
 1474.5000  -999.2500     6.8020
 1475.0000  -999.2500     6.8010
 1475.5000  -999.2500     6.7990
 1476.0000  -999.2500     6.7950
 1476.5000  -999.2500     6.7870
 1477.0000  -999.2500     6.7850
 1477.5000  -999.2500     6.7850
 1478.0000  -999.2500     6.7850
 1478.5000  -999.2500     6.7860
 1479.0000  -999.2500     6.7870
 1479.5000  -999.2500     6.7870
 1480.0000  -999.2500     6.7860
 1480.5000  -999.2500     6.7860
 1481.0000  -999.2500     6.7870
 1481.5000  -999.2500     6.7880
 1482.0000  -999.2500     6.7880
 1482.5000  -999.2500     6.7880
 1483.0000  -999.2500     6.7870
 1483.5000  -999.2500     6.8360
 1484.0000  -999.2500     7.0230
 1484.5000  -999.2500     6.9000
 1485.0000  -999.2500     6.9110
 1485.5000  -999.2500     6.8990
 1486.0000  -999.2500     6.8850
 1486.5000  -999.2500     6.8860
 1487.0000  -999.2500     6.8750
 1487.5000  -999.2500     6.8620
 1488.0000  -999.2500     6.8510
 1488.5000  -999.2500     6.8490
 1489.0000  -999.2500     6.8510
 1489.5000  -999.2500     6.8530
 1490.0000  -999.2500     6.8510
 1490.5000  -999.2500     6.8490
 1491.0000  -999.2500     6.8470
 1491.5000  -999.2500     6.8460
 1492.0000  -999.2500     6.8440
 1492.5000  -999.2500     6.8440
 1493.0000  -999.2500     6.8450
 1493.5000  -999.2500     6.8460
 1494.0000  -999.2500     6.8500
 1494.5000  -999.2500     6.8720
 1495.0000  -999.2500     6.8940
 1495.5000  -999.2500     6.9160
 1496.0000  -999.2500     6.9380
 1496.5000  -999.2500     6.9390
 1497.0000  -999.2500     6.9410
 1497.5000  -999.2500     6.9420
 1498.0000  -999.2500     6.9380
 1498.5000  -999.2500     6.9330
 1499.0000  -999.2500     6.9260
 1499.5000  -999.2500     6.9160
 1500.0000  -999.2500     6.9070
 1500.5000  -999.2500     6.9000
 1501.0000  -999.2500     6.8930
 1501.5000  -999.2500     6.8900
 1502.0000  -999.2500     6.8890
 1502.5000  -999.2500     6.8890
 1503.0000  -999.2500     6.8870
 1503.5000  -999.2500     6.8920
 1504.0000  -999.2500     6.9060
 1504.5000  -999.2500     7.0460
 1505.0000  -999.2500     6.7850
 1505.5000  -999.2500     6.7770
 1506.0000  -999.2500     6.7790
 1506.5000  -999.2500     6.7640
 1507.0000  -999.2500     6.7560
 1507.5000  -999.2500     6.7540
 1508.0000  -999.2500     6.7510
 1508.5000  -999.2500     6.7400
 1509.0000  -999.2500     6.7320
 1509.5000  -999.2500     6.7280
 1510.0000  -999.2500     6.7240
 1510.5000  -999.2500     6.7230
 1511.0000  -999.2500     6.7230
 1511.5000  -999.2500     6.7220
 1512.0000  -999.2500     6.7210
 1512.5000  -999.2500     6.7240
 1513.0000  -999.2500     6.7260
 1513.5000  -999.2500     6.7280
 1514.0000  -999.2500     6.7300
 1514.5000  -999.2500     6.7320
 1515.0000  -999.2500     6.7390
 1515.5000  -999.2500     6.7550
 1516.0000  -999.2500     6.7920
 1516.5000  -999.2500     6.8480
 1517.0000  -999.2500     6.8720
 1517.5000  -999.2500     6.8800
 1518.0000  -999.2500     6.8780
 1518.5000  -999.2500     6.8480
 1519.0000  -999.2500     6.8160
 1519.5000  -999.2500     6.8010
 1520.0000  -999.2500     6.7830
 1520.5000  -999.2500     6.7650
 1521.0000  -999.2500     6.7530
 1521.5000  -999.2500     6.7490
 1522.0000  -999.2500     6.7490
 1522.5000  -999.2500     6.7500
 1523.0000  -999.2500     6.7540
 1523.5000  -999.2500     6.7630
 1524.0000  -999.2500     6.7720
 1524.5000  -999.2500     6.7810
 1525.0000  -999.2500     6.7830
 1525.5000  -999.2500     6.7850
 1526.0000  -999.2500     6.7870
 1526.5000  -999.2500     6.7880
 1527.0000  -999.2500     6.9990
 1527.5000  -999.2500     6.8890
 1528.0000  -999.2500     6.9000
 1528.5000  -999.2500     6.8750
 1529.0000  -999.2500     6.8690
 1529.5000  -999.2500     6.8690
 1530.0000  -999.2500     6.8830
 1530.5000  -999.2500     6.8920
 1531.0000  -999.2500     6.8900
 1531.5000  -999.2500     6.8820
 1532.0000  -999.2500     6.8790
 1532.5000  -999.2500     6.8760
 1533.0000  -999.2500     6.8740
 1533.5000  -999.2500     6.8750
 1534.0000  -999.2500     6.8790
 1534.5000  -999.2500     6.9000
 1535.0000  -999.2500     6.9020
 1535.5000  -999.2500     6.9020
 1536.0000  -999.2500     6.9030
 1536.5000  -999.2500     6.9110
 1537.0000  -999.2500     6.9190
 1537.5000  -999.2500     6.9100
 1538.0000  -999.2500     6.8950
 1538.5000  -999.2500     6.8860
 1539.0000  -999.2500     6.8840
 1539.5000  -999.2500     6.8840
 1540.0000  -999.2500     6.8850
 1540.5000  -999.2500     6.8860
 1541.0000  -999.2500     6.8870
 1541.5000  -999.2500     6.8860
 1542.0000  -999.2500     6.8910
 1542.5000  -999.2500     6.9000
 1543.0000  -999.2500     6.9000
 1543.5000  -999.2500     6.9000
 1544.0000  -999.2500     6.9000
 1544.5000  -999.2500     6.9070
 1545.0000  -999.2500     6.9150
 1545.5000  -999.2500     6.9150
 1546.0000  -999.2500     6.9020
 1546.5000  -999.2500     6.8920
 1547.0000  -999.2500     6.8870
 1547.5000  -999.2500     6.8820
 1548.0000  -999.2500     6.8750
 1548.5000  -999.2500     6.8720
 1549.0000  -999.2500     6.8670
 1549.5000  -999.2500     6.9560
 1550.0000  -999.2500     6.8310
 1550.5000  -999.2500     6.8300
 1551.0000  -999.2500     6.8340
 1551.5000  -999.2500     6.8360
 1552.0000  -999.2500     6.8360
 1552.5000  -999.2500     6.8350
 1553.0000  -999.2500     6.8340
 1553.5000  -999.2500     6.8330
 1554.0000  -999.2500     6.8320
 1554.5000  -999.2500     6.8330
 1555.0000  -999.2500     6.8340
 1555.5000  -999.2500     6.8350
 1556.0000  -999.2500     6.8350
 1556.5000  -999.2500     6.8340
 1557.0000  -999.2500     6.8340
 1557.5000  -999.2500     6.8370
 1558.0000  -999.2500     6.8520
 1558.5000  -999.2500     6.8580
 1559.0000  -999.2500     6.8580
 1559.5000  -999.2500     6.8610
 1560.0000  -999.2500     6.8640
 1560.5000  -999.2500     6.8640
 1561.0000  -999.2500     6.8640
 1561.5000  -999.2500     6.8640
 1562.0000  -999.2500     6.8600
 1562.5000  -999.2500     6.8560
 1563.0000  -999.2500     6.8550
 1563.5000  -999.2500     6.8560
 1564.0000  -999.2500     6.8480
 1564.5000  -999.2500     6.8370
 1565.0000  -999.2500     6.8380
 1565.5000  -999.2500     6.8380
 1566.0000  -999.2500     6.8530
 1566.5000  -999.2500     6.8810
 1567.0000  -999.2500     6.9180
 1567.5000  -999.2500     6.9510
 1568.0000  -999.2500     6.9510
 1568.5000  -999.2500     6.9530
 1569.0000  -999.2500     6.9640
 1569.5000  -999.2500     7.0020
 1570.0000  -999.2500     6.8710
 1570.5000  -999.2500     6.8620
 1571.0000  -999.2500     6.8430
 1571.5000  -999.2500     6.8400
 1572.0000  -999.2500     6.8450
 1572.5000  -999.2500     6.8760
 1573.0000  -999.2500     6.8830
 1573.5000  -999.2500     6.8870
 1574.0000  -999.2500     6.8820
 1574.5000  -999.2500     6.8700
 1575.0000  -999.2500     6.8580
 1575.5000  -999.2500     6.8570
 1576.0000  -999.2500     6.8560
 1576.5000  -999.2500     6.8550
 1577.0000  -999.2500     6.8560
 1577.5000  -999.2500     6.8630
 1578.0000  -999.2500     6.8700
 1578.5000  -999.2500     6.8900
 1579.0000  -999.2500     6.9030
