~VERSION INFORMATION
 VERS.                2.0:   CWLS LOG ASCII STANDARD - VERSION 2.0
 WRAP.                 NO:   ONE LINE PER DEPTH STEP
~WELL INFORMATION
#MNEM.UNIT      DATA TYPE    INFORMATION
#----------   ------------   ------------------------------
 STRT.F          590.0000:   START DEPTH
 STOP.F         3428.0000:   STOP DEPTH
 STEP.F            0.5000:   STEP LENGTH
 NULL.          -999.2500:   NO VALUE
 COMP.    FENIX & SCISSON:   COMPANY
 WELL. FENIX NPR 3 "AX" #25-27:   WELL
 FLD .                NPR:   FIELD
 LOC .      S27 T39N R78W:   LOCATION
 CNTY.            NATRONA:   COUNTY
 STAT.            WYOMING:   STATE
 CTRY. UNITED STATES OF AMERICA:   COUNTRY
 SRVC.       SCHLUMBERGER:   SERVICE COMPANY
 DATE.        13-AUG-1981:   LOGDATE
 API .     49025108780000:   API NUMBER
~CURVE INFORMATION
#MNEM.UNIT       API CODE    CURVE DESCRIPTION
#----------   ------------   ------------------------------
 DEPT.F                  :   
 CALD.IN     45 280 60 00:   CALIPER FROM DENSITY LOG
 GRD .GAPI   45 310 01 00:   GAMMA RAY FROM DENSITY LOG
 CORR.G/C3   45 356 01 00:   DENSITY CORRECTION
 RHOB.G/C3   45 350 01 00:   BULK DENSITY
 NPHI.DEC    42 890 03 00:   NEUTRON POROSITY SANDSTONE
 TENR.LBS    07 635 01 00:   TENSION
 SPR .MV     07 010 01 00:   SPONTANEOUS POTENTIAL
 ILD .OHMM   07 120 46 00:   INDUCTION LOG DEEP RESISTIVITY
 ILM .OHMM   07 120 44 00:   INDUCTION LOG MEDIUM RESISTIVITY
 SFL .OHMM   07 220 01 00:   SHALLOW FOCUSED LOG RESISTIVITY
 TEND.LBS    45 635 01 00:   TENSION FROM DENSITY LOG
~PARAMETER INFORMATION
#MNEM.UNIT          VALUE    DESCRIPTION
#----------   ------------   ------------------------------
 EKB .F         5057.0000:   Kelly bushing
 EGL .F         5047.0000:   Ground level
 EDF .F            0.0000:   Drilling floor
 TD  .F         3415.0000:   Total depth
 DATE.        13-AUG-1981:   Date logged
 CLNT.            A2DTECH:   Client Code
 SL  . 2100' FSL & 1050' FWL:   Surface Location
 PD  .                 GL:   Permanent Datum
 EPD .F              5047:   Elevation Permanent Datum
 LMF .                 KB:   Log Measured From
 DMF .                 KB:   Drilling Measured From
 DAPD.F                10:   Feet Above Permanent Datum
 DD  .F              3400:   Depth driller
 DL  .F              3415:   Depth logger
 BLI .F              3409:   Bottom log interval
 TLI .F               603:   Top log interval
 CS1 .IN            9.625:   Casing size
 CBD1.      9.625" @ 607':   Casing driller 1
 CBL1.F               603:   Casing logger 1
 BS1 .IN            7.875:   Bit size
 BSD1.F              3400:   Depth drilled with bit1
 DFT .                FGM:   Type fluid in hole
 DFD .                8.7:   Density
 DFV .                 36:   Viscosity
 DFPH.                  9:   pH
 DFL .                 13:   Fluid loss
 MSS .           MUD/TANK:   Source of sample
 RMS .OHMM           1.69:   Rm
 MST .F                75:   Rm Meas. temp.
 RMF .OHMM           1.34:   Rmf
 MFST.F                75:   Rmf Meas. temp.
 MFSS.               MEAS:   Source Rmf.
 RMB .OHMM           1.09:   Rm. at BHT
 BHT .F               120:   BHT.
 TCS .HRS            2145:   Time Circ. stopped
 TLAB.HRS            0200:   Time logger at bottom
 MRT .F               120:   Maximum recorded temp.
 LUN .               8039:   Logging unit number
 LUL .               CSPR:   Logging unit location
 ENGI.            PURPICH:   Recorded By
 WITN.              FIVAS:   Witnessed by
 ORIG.           5" PRINT:   Origin of data
 UWI .     49025108780000:   Unique Well ID
 DICO. A2D TECHNOLOGIES, INC.:   Digitizing Company
~OTHER INFORMATION
~A   DEPT     CALD         GRD      CORR       RHOB         NPHI     TENR        SPR        ILD        ILM        SFL       TEND   
# ...
 1322.0000     8.9720   104.5620     0.0220     2.5120     0.3170   722.1130   -86.6570     8.5960     7.3320     9.5070   742.9010
 1322.5000     8.9720   106.6440     0.0180     2.5070     0.3140   722.2460   -86.8470     8.5470     7.2610     9.2340   743.0440
 1323.0000     8.9720   110.0000     0.0200     2.5160     0.3070   722.3790   -86.9940     8.4920     7.2240     9.1220   743.1880
 1323.5000     8.9720   111.9880     0.0240     2.5290     0.3000   722.5120   -86.9050     8.4370     7.1770     9.4060   743.3310
 1324.0000     8.9720   109.3820     0.0180     2.5320     0.2910   722.6460   -86.8160     8.3820     7.1300     9.6360   743.4740
 1324.5000     8.9720   106.6880     0.0110     2.5210     0.3000   722.7790   -86.9620     8.3260     7.0840     9.5350   743.6170
 1325.0000     8.9720   108.2010     0.0060     2.5070     0.3010   722.9120   -87.1630     8.1760     7.0010     9.2810   743.7600
 1325.5000     8.9720   110.4930     0.0080     2.4930     0.2990   723.0450   -87.3750     8.1490     6.9280     9.0270   743.9030
 1326.0000     8.9720   112.4890     0.0100     2.4790     0.2940   723.1790   -87.0350     8.1230     6.9130     8.8760   744.0460
 1326.5000     8.9720   111.9970     0.0140     2.4800     0.2970   723.3120   -86.5890     8.0970     6.8990     8.9080   744.1900
 1327.0000     8.9720   110.5680     0.0190     2.4930     0.3030   723.4450   -86.0470     8.0710     6.8840     8.9610   744.3330
 1327.5000     8.9720   109.1340     0.0230     2.4990     0.3100   723.5780   -85.4480     8.0440     6.8700     9.0150   744.4760
 1328.0000     8.9720   107.7030     0.0170     2.4980     0.3040   723.7110   -85.0800     8.0180     6.8550     9.0680   744.6190
 1328.5000     8.9720   106.2830     0.0100     2.4980     0.3010   723.8450   -84.8480     7.9920     6.8400     9.1210   744.7620
 1329.0000     8.9720   104.8710     0.0060     2.5060     0.3020   723.9780   -84.6280     7.9650     6.8260     9.1750   744.9050
 1329.5000     8.9720   105.0800     0.0040     2.5150     0.3040   724.1110   -84.6220     7.9390     6.8110     9.2060   745.0490
 1330.0000     8.9720   108.6100     0.0040     2.5170     0.3090   724.2440   -84.6230     7.9130     6.7960     8.8070   745.1920
 1330.5000     8.9720   113.7940     0.0140     2.5170     0.3130   724.3780   -84.6240     7.8860     6.7820     8.4790   745.3350
 1331.0000     8.9720   117.0230     0.0260     2.5190     0.3180   724.5110   -84.6230     7.8600     6.7670     8.1510   745.4780
 1331.5000     8.9720   115.7380     0.0350     2.5240     0.3190   724.6440   -84.6110     7.8340     6.7520     8.0280   745.6210
 1332.0000     8.9720   112.0600     0.0360     2.5290     0.3140   724.7770   -84.9770     7.8080     6.7380     8.2740   745.7640
 1332.5000     8.9720   103.2490     0.0310     2.5360     0.3080   724.9110   -85.4010     7.7810     6.7230     8.5720   745.9070
 1333.0000     8.9720   100.2210     0.0340     2.5470     0.3020   725.0440   -85.8090     7.7550     6.7080     8.8700   746.0510
 1333.5000     8.9810    99.4540     0.0400     2.5560     0.3060   725.1770   -85.9620     7.7400     6.6880     9.1220   746.1940
 1334.0000     8.9910    98.7710     0.0490     2.5560     0.3120   725.3100   -86.1020     7.7920     6.7110     8.7470   746.3370
 1334.5000     8.9840   100.2070     0.0510     2.5520     0.3180   725.4440   -86.2140     7.8330     6.7620     8.3850   746.4800
 1335.0000     8.9780   102.6360     0.0420     2.5450     0.3210   725.5770   -86.2100     7.8750     6.8140     8.3260   746.6230
 1335.5000     8.9710   105.1420     0.0360     2.5380     0.3230   725.7100   -86.2040     7.9170     6.8660     8.6790   746.7660
 1336.0000     8.9640   107.6880     0.0270     2.5350     0.3140   725.8430   -86.3790     7.9590     7.0070     9.0180   746.9090
 1336.5000     8.9580   107.7630     0.0250     2.5300     0.3030   725.9770   -86.5770     8.0010     7.0320     9.2900   747.0530
 1337.0000     8.9510   107.1320     0.0200     2.5240     0.2930   726.1100   -86.7800     8.0420     7.0580     9.2350   747.1960
 1337.5000     8.9440   105.8680     0.0180     2.5190     0.2970   726.2430   -86.6850     8.0840     7.0840     9.1710   747.3390
 1338.0000     8.9380   104.5180     0.0190     2.5240     0.3060   726.3760   -86.5470     8.1260     7.1090     9.0390   747.4820
 1338.5000     8.9320   101.1400     0.0240     2.5360     0.3160   726.5100   -86.3920     8.1680     7.1350     8.9570   747.6250
 1339.0000     8.9400    97.7250     0.0220     2.5440     0.3140   726.6430   -85.8870     8.2090     7.1600     8.9960   747.7680
 1339.5000     8.9480    95.1050     0.0180     2.5260     0.3060   726.7760   -85.4250     8.2510     7.1860     9.0550   747.9110
 1340.0000     8.9550    96.6520     0.0090     2.5040     0.2960   726.9090   -85.4140     8.2930     7.2120     9.1150   748.0550
 1340.5000     8.9630   100.6800     0.0100     2.5100     0.2860   727.0430   -85.4170     8.3350     7.2370     9.1740   748.1980
 1341.0000     8.9710   104.6480     0.0130     2.5280     0.2930   727.1760   -85.4170     8.3770     7.2630     9.2720   748.3410
 1341.5000     8.9790   106.7280     0.0210     2.5480     0.3000   727.3090   -85.3090     8.4180     7.2880     9.4150   748.4840
 1342.0000     8.9860   106.0660     0.0330     2.5610     0.3010   727.4420   -85.1850     8.4600     7.3140     9.5480   748.6270
 1342.5000     8.9920   102.6170     0.0390     2.5690     0.2940   727.5760   -85.0570     8.5020     7.3440     9.7240   748.7700
 1343.0000     8.9920   100.9140     0.0420     2.5580     0.2880   727.7090   -84.9600     8.5440     7.3810     9.6300   748.9130
 1343.5000     8.9920   101.5660     0.0340     2.5330     0.2880   727.8420   -84.8700     8.7150     7.4170     9.5480   749.0570
 1344.0000     8.9920   102.1990     0.0210     2.5100     0.2900   727.9750   -84.9170     8.7660     7.4530     9.5480   749.2000
 1344.5000     8.9920   101.6710     0.0160     2.4970     0.2900   728.1090   -85.1150     8.8130     7.4900     9.7230   749.3430
 1345.0000     8.9920   102.6300     0.0230     2.5040     0.2840   728.2420   -85.3120     8.8610     7.5260     9.9820   749.4860
 1345.5000     8.9920   104.1850     0.0340     2.5200     0.2790   728.3750   -85.4480     8.8760     7.5620    10.2410   749.6290
 1346.0000     8.9920   102.2210     0.0280     2.5310     0.2770   728.8190   -85.5150     8.9180     7.5980    10.2720   749.7720
 1346.5000     8.9920    98.7790     0.0150     2.5160     0.2860   729.5950   -85.5830     8.9570     7.6350    10.1440   749.9150
 1347.0000     8.9920    96.1020     0.0010     2.5060     0.2910   730.3720   -85.8100     8.9960     7.6710    10.0260   750.0590
 1347.5000     8.9920    98.2330     0.0080     2.5040     0.2910   731.1480   -86.2080     9.0350     7.7070     9.9080   750.2020
 1348.0000     8.9920    99.1140     0.0220     2.5220     0.2900   731.9240   -86.6760     9.1220     7.7400     9.7900   750.3450
 1348.5000     8.9920    97.7250     0.0340     2.5440     0.2920   732.7010   -87.2140     9.1030     7.7400     9.6360   750.4880
 1349.0000     8.9920    97.5840     0.0420     2.5510     0.2880   733.4770   -87.5750     9.0640     7.6820     9.7810   750.6310
 1349.5000     8.9920    98.7310     0.0390     2.5490     0.2840   734.2530   -87.4390     9.0250     7.6290     9.9900   750.7740
 1350.0000     8.9920    99.8860     0.0310     2.5430     0.2810   735.0300   -87.3140     8.9860     7.5760    10.1780   750.9180
 1350.5000     8.9920   100.3830     0.0240     2.5340     0.2860   735.8060   -87.1360     8.9470     7.5230    10.1780   751.0610
 1351.0000     8.9920    99.4130     0.0300     2.5260     0.2870   736.5830   -86.5210     8.9080     7.4700     9.7910   751.2040
 1351.5000     8.9920    98.2850     0.0380     2.5310     0.2860   737.3590   -86.0780     8.8690     7.4170     9.4940   751.3470
 1352.0000     8.9920   100.8110     0.0400     2.5400     0.2860   738.1350   -85.8130     8.8300     7.3640     9.2900   751.4900
