~VERSION INFORMATION
 VERS.                2.0:   CWLS LOG ASCII STANDARD - VERSION 2.0
 WRAP.                 NO:   ONE LINE PER DEPTH STEP
~WELL INFORMATION
#MNEM.UNIT      DATA TYPE    INFORMATION
#----------   ------------   ------------------------------
 STRT.F         2299.0000:   START DEPTH
 STOP.F         3387.5000:   STOP DEPTH
 STEP.F            0.5000:   STEP LENGTH
 NULL.          -999.2500:   NO VALUE
 COMP. LAWRENCE ALLISON AND ASSOCIATES:   COMPANY
 WELL. 		  62-AX-3:   WELL
 FLD .                NPR:   FIELD
 LOC .       S3 T38N R78W:   LOCATION
 CNTY.            NATRONA:   COUNTY
 STAT.            WYOMING:   STATE
 CTRY. UNITED STATES OF AMERICA:   COUNTRY
 SRVC.      DRESSER ATLAS:   SERVICE COMPANY
 DATE.        14-JUN-1985:   LOGDATE
 API .     49025110330000:   API NUMBER
~CURVE INFORMATION
#MNEM.UNIT       API CODE    CURVE DESCRIPTION
#----------   ------------   ------------------------------
 DEPT.F                  :   
 NPHI.DEC    42 890 01 00:   NEUTRON POROSITY
 TEND.LBS    45 635 01 00:   TENSION
 RHOB.G/C3   45 350 01 00:   BULK DENSITY
 CORR.DEC    45 356 01 00:   CORRECTION
~PARAMETER INFORMATION
#MNEM.UNIT          VALUE    DESCRIPTION
#----------   ------------   ------------------------------
 EKB .F         5160.0000:   Kelly bushing
 EGL .F         5148.0000:   Ground level
 EDF .F            0.0000:   Drilling floor
 EPD .F         5148.0000:   Permanent datum
 TD  .F         3380.0000:   Total depth
 DATE.        14-JUN-1985:   Date logged
 CLNT.            A2DTECH:   Client Code
 PD  .                 GL:   Permanent Datum
 LMF .                 KB:   Log Measured From
 DMF .                 KB:   Drilling Measured From
 DL  .F              3380:   Depth logger
 BLI .F              3378:   Bottom log interval
 CS1 .IN            8.625:   Casing size
 CBD1.      8.625" @ 603':   Casing driller 1
 DFT .        KCL POLYMER:   Type fluid in hole
 ENGI.               MACK:   Recorded By
 WITN.             STRONG:   Witnessed by
 ORIG.       2.5"5" PRINT:   Origin of data
 UWI .     49025110330000:   Unique Well ID
 DICO. A2D TECHNOLOGIES, INC.:   Digitizing Company
 DAPD.F                12:   Feet Above Permanent Datum
 BS1 .IN            7.875:   Bit size
 DFD .                8.9:   Density
 DFV .                 46:   Viscosity
 DFPH.                8.5:   pH
 DFL .                9.6:   Fluid loss
 MSS .           FLOWLINE:   Source of sample
 RMS .OHMM           0.38:   Rm
 MST .F                74:   Rm Meas. temp.
 RMF .OHMM           0.29:   Rmf
 MFST.F                74:   Rmf Meas. temp.
 MFSS.               MEAS:   Source Rmf.
 RMC .OHMM           0.23:   Rmc
 MCST.F               120:   Rmc Meas. temp.
 MCSS.               MEAS:   Source Rmc.
 RMB .OHMM           0.23:   Rm. at BHT
 BHT .F               120:   BHT.
 TCS .                  8:   Time Circ. stopped
 MRT .                122:   Maximum recorded temp.
 LUN .            HL-6274:   Logging unit number
 LUL .               GLTE:   Logging unit location
~OTHER INFORMATION
~A     DEPTH         CORR         NPHI         RHOB         TEND
# ...
   2795.0000       0.0080       0.1580       2.5480       0.2205
   2795.5000       0.0200       0.1655       2.5510       0.2117
   2796.0000       0.0220       0.1787       2.5530       0.2030
   2796.5000       0.0210       0.1905       2.5510       0.1936
   2797.0000       0.0130       0.2005       2.5460       0.2013
   2797.5000      -0.0020       0.2121       2.5370       0.2095
   2798.0000      -0.0170       0.2187       2.5280       0.2112
   2798.5000      -0.0100       0.2265       2.5260       0.2067
   2799.0000       0.0040       0.2324       2.5290       0.2022
   2799.5000       0.0040       0.2408       2.5330       0.1977
   2800.0000      -0.0010       0.2564       2.5320       0.1936
   2800.5000       0.0070       0.2515       2.5280       0.1946
   2801.0000       0.0140       0.2400       2.5320       0.1954
   2801.5000       0.0210       0.2328       2.5430       0.1963
   2802.0000       0.0270       0.2261       2.5580       0.1971
   2802.5000       0.0330       0.2230       2.5770       0.1980
   2803.0000       0.0310       0.2218       2.5790       0.1988
   2803.5000       0.0260       0.2211       2.5630       0.1997
   2804.0000       0.0220       0.2138       2.5510       0.2005
   2804.5000       0.0170       0.2045       2.5440       0.2014
   2805.0000       0.0130       0.1931       2.5470       0.2022
   2805.5000       0.0090       0.1865       2.5660       0.2031
   2806.0000       0.0130       0.1834       2.5870       0.2039
   2806.5000       0.0120       0.1822       2.6010       0.2048
   2807.0000       0.0080       0.1851       2.5960       0.2056
   2807.5000       0.0040       0.1964       2.5860       0.2065
   2808.0000       0.0050       0.2113       2.5740       0.2073
   2808.5000       0.0070       0.2250       2.5630       0.2082
   2809.0000       0.0100       0.2261       2.5470       0.2090
   2809.5000       0.0080       0.2180       2.5300       0.2098
   2810.0000      -0.0010       0.2090       2.5170       0.2107
   2810.5000      -0.0130       0.2067       2.5090       0.2115
   2811.0000      -0.0200       0.2081       2.5040       0.2124
   2811.5000      -0.0270       0.2185       2.5040       0.2132
   2812.0000      -0.0270       0.2376       2.4970       0.2021
   2812.5000      -0.0260       0.2429       2.4900       0.1837
   2813.0000      -0.0190       0.2440       2.4830       0.1932
   2813.5000      -0.0120       0.2315       2.4780       0.2037
   2814.0000      -0.0040       0.2234       2.4800       0.2143
   2814.5000      -0.0030       0.2216       2.4900       0.2232
   2815.0000      -0.0080       0.2221       2.5000       0.2215
   2815.5000      -0.0130       0.2298       2.5020       0.2197
   2816.0000      -0.0180       0.2357       2.5010       0.2179
   2816.5000      -0.0230       0.2320       2.5010       0.2162
   2817.0000      -0.0210       0.2299       2.5010       0.2144
   2817.5000      -0.0200       0.2271       2.5020       0.2127
   2818.0000      -0.0190       0.2193       2.5060       0.2109
   2818.5000      -0.0100       0.2066       2.5150       0.2092
   2819.0000      -0.0080       0.2034       2.5160       0.2074
   2819.5000      -0.0050       0.2043       2.5170       0.2056
   2820.0000      -0.0030       0.2105       2.5240       0.2039
   2820.5000      -0.0060       0.2158       2.5330       0.2006
   2821.0000      -0.0080       0.2199       2.5400       0.1971
   2821.5000      -0.0110       0.2228       2.5390       0.1935
   2822.0000      -0.0050       0.2290       2.5370       0.1899
   2822.5000       0.0020       0.2322       2.5410       0.1863
   2823.0000       0.0050       0.2346       2.5420       0.1835
   2823.5000       0.0030       0.2384       2.5430       0.1827
   2824.0000       0.0040       0.2356       2.5450       0.1820
   2824.5000       0.0040       0.2298       2.5440       0.1812
   2825.0000       0.0010       0.2210       2.5280       0.1804
   2825.5000      -0.0030       0.2174       2.5110       0.1797
   2826.0000      -0.0060       0.2197       2.5030       0.1789
   2826.5000      -0.0080       0.2190       2.5010       0.1781
   2827.0000      -0.0120       0.2162       2.5000       0.1773
   2827.5000      -0.0170       0.2116       2.4990       0.1766
   2828.0000      -0.0220       0.2149       2.4960       0.1758
   2828.5000      -0.0240       0.2217       2.4930       0.1750
   2829.0000      -0.0210       0.2258       2.4950       0.1743
   2829.5000      -0.0210       0.2226       2.4990       0.1749
   2830.0000      -0.0210       0.2094       2.5070       0.1781
   2830.5000      -0.0220       0.2087       2.5140       0.1812
   2831.0000      -0.0130       0.2093       2.5180       0.1843
   2831.5000      -0.0040       0.2091       2.5180       0.1875
   2832.0000       0.0000       0.2058       2.5160       0.1906
   2832.5000      -0.0140       0.2024       2.5050       0.1937
   2833.0000      -0.0250       0.2011       2.5020       0.1968
   2833.5000      -0.0260       0.2058       2.5030       0.2000
   2834.0000      -0.0220       0.2147       2.5140       0.2031
   2834.5000      -0.0140       0.2183       2.5250       0.1954
   2835.0000      -0.0080       0.2176       2.5250       0.1992
   2835.5000      -0.0060       0.2151       2.5230       0.2031
   2836.0000      -0.0100       0.2120       2.5210       0.2018
   2836.5000      -0.0150       0.2059       2.5240       0.1997
   2837.0000      -0.0150       0.2014       2.5300       0.1976
   2837.5000      -0.0130       0.2013       2.5400       0.1955
   2838.0000      -0.0060       0.2036       2.5480       0.1954
   2838.5000      -0.0020       0.2091       2.5390       0.2121
   2839.0000       0.0010       0.2147       2.5260       0.2188
   2839.5000       0.0050       0.2235       2.5210       0.2045
   2840.0000       0.0080       0.2302       2.5230       0.1902
   2840.5000       0.0100       0.2307       2.5250       0.1922
   2841.0000       0.0010       0.2279       2.5240       0.2079
   2841.5000      -0.0080       0.2165       2.5180       0.2235
   2842.0000      -0.0180       0.2059       2.5120       0.2241
   2842.5000      -0.0290       0.2049       2.5060       0.2041
   2843.0000      -0.0360       0.2117       2.5080       0.2070
   2843.5000      -0.0320       0.2218       2.5100       0.2100
   2844.0000      -0.0150       0.2307       2.5080       0.2129
   2844.5000      -0.0020       0.2310       2.4940       0.2085
   2845.0000      -0.0140       0.2288       2.4790       0.2061
   2845.5000      -0.0250       0.2284       2.4630       0.2176
   2846.0000      -0.0370       0.2373       2.4580       0.2292
   2846.5000      -0.0290       0.2438       2.4680       0.2197
   2847.0000      -0.0140       0.2524       2.4810       0.2047
   2847.5000      -0.0230       0.2631       2.4880       0.2093
   2848.0000      -0.0320       0.2925       2.4800       0.2135
   2848.5000      -0.0240       0.3062       2.4570       0.2046
   2849.0000      -0.0120       0.3216       2.4320       0.2070
   2849.5000      -0.0190       0.3467       2.3910       0.2108
   2850.0000      -0.0320       0.3622       2.3490       0.2050
   2850.5000      -0.0400       0.3693       2.3240       0.1738
   2851.0000      -0.0070       0.3688       2.3150       0.1794
   2851.5000       0.0150       0.3612       2.3100       0.1873
   2852.0000       0.0170       0.3588       2.3180       0.1951
   2852.5000       0.0040       0.3593       2.3360       0.2030
   2853.0000      -0.0090       0.3682       2.3350       0.2108
   2853.5000      -0.0140       0.3745       2.1910       0.2187
   2854.0000       0.0080       0.3837       2.0740       0.2234
   2854.5000       0.0340       0.3863       2.0130       0.2234
   2855.0000       0.0130       0.3141       2.1070       0.2234
   2855.5000      -0.0030       0.2516       2.3070       0.2234
   2856.0000       0.0000       0.2458       2.4370       0.2234
   2856.5000       0.0050       0.2599       2.4830       0.2234
