~VERSION INFORMATION
 VERS.                2.0:   CWLS LOG ASCII STANDARD - VERSION 2.0
 WRAP.                 NO:   ONE LINE PER DEPTH STEP
~WELL INFORMATION
#MNEM.UNIT      DATA TYPE    INFORMATION
#----------   ------------   ------------------------------
 STRT.F            0.0000:   START DEPTH
 STOP.F         3083.0000:   STOP DEPTH
 STEP.F            0.5000:   STEP LENGTH
 NULL.          -999.2500:   NO VALUE
 COMP. LAWRENCE & ALLISON & ASSOCIATES:   COMPANY
 WELL. LAWRENCE 71 "AX" #3-29:   WELL
 FLD .              N P R:   FIELD
 LOC .      S29 T38N R78W:   LOCATION
 CNTY.            NATRONA:   COUNTY
 STAT.            WYOMING:   STATE
 CTRY. UNITED STATES OF AMERICA:   COUNTRY
 SRVC.      DRESSER ATLAS:   SERVICE COMPANY
 DATE.        12-MAR-1985:   LOGDATE
 API .     49025110160000:   API NUMBER
~CURVE INFORMATION
#MNEM.UNIT       API CODE    CURVE DESCRIPTION
#----------   ------------   ------------------------------
 DEPT.F                  :   
 GRR .GAPI   07 310 01 00:   GAMMA RAY FROM RESISTIVITY
 SPR .MV     07 010 01 00:   SPONTANEOUS POTENTIAL
 TENR.LBS    07 635 01 00:   TENSION FROM RESISTIVITY
 RFOC.OHMM   07 220 04 00:   RESISTIVITY FOCUSED LOG RES.
 RILD.OHMM   07 120 46 00:   DEEP INDUCTION RESISTIVITY
 RILM.OHMM   07 120 44 00:   INDUCTION LOG MEDIUM RESISTIVITY
 TEND.LBS    45 635 01 00:   TENSION FROM DENSITY LOG
 DEN .G/C3   45 350 01 00:   BULK DENSITY
 CORR.G/C3   45 356 01 00:   DENSITY CORRECTION
 CNC .DEC    42 890 01 00:   NEUTRON PORISITY LIMESTONE
 CALD.IN     45 280 60 00:   CALIPER FROM DENSITY LOG
~PARAMETER INFORMATION
#MNEM.UNIT          VALUE    DESCRIPTION
#----------   ------------   ------------------------------
 EKB .F         4983.0000:   Kelly bushing
 EGL .F         4971.0000:   Ground level
 TD  .F         3082.0000:   Total depth
 DATE.        12-MAR-1985:   Date logged
 CLNT.            A2DTECH:   Client Code
 SL  . 568' FNL AND 829' FEL:   Surface Location
 PD  .                 GL:   Permanent Datum
 EPD .F              4971:   Elevation Permanent Datum
 LMF .                 KB:   Log Measured From
 DMF .                 KB:   Drilling Measured From
 DD  .F              3080:   Depth driller
 DL  .F              3082:   Depth logger
 BLI .F              3080:   Bottom log interval
 TLI .F              2100:   Top log interval
 CS1 .IN            8.625:   Casing size
 CBD1.      8.625" @ 311':   Casing driller 1
 BS1 .IN            7.875:   Bit size
 DFT .            KCL GEL:   Type fluid in hole
 DFD .                9.1:   Density
 DFV .                 38:   Viscosity
 DFPH.                  8:   pH
 DFL .               10.4:   Fluid loss
 MSS .           FLOWLINE:   Source of sample
 RMS .OHMM            .47:   Rm
 MST .F                60:   Rm Meas. temp.
 RMF .OHMM            .35:   Rmf
 MFST.F                61:   Rmf Meas. temp.
 RMC .OHMM            .53:   Rmc
 MCST.F                61:   Rmc Meas. temp.
 MFSS.               CLAC:   Source Rmf.
 RMB .OHMM           .209:   Rm. at BHT
 BHT .F               134:   BHT.
 TCS .HRS               3:   Time Circ. stopped
 MRT .F               134:   Maximum recorded temp.
 LUN .               6234:   Logging unit number
 LUL .               CLTE:   Logging unit location
 ENGI.      MACK/ EDWARDS:   Recorded By
 WITN.             STRONG:   Witnessed by
 PWI .                  -:   Primary Well Identifier
 ORIG.           5" PRINT:   Origin of data
 UWI .     49025110160000:   Unique Well ID
 DICO. A2D TECHNOLOGIES, INC.:   Digitizing Company
 DAPD.F                12:   Feet Above Permanent Datum
 BSD1.F              3080:   Depth drilled with bit1
 MCSS.               CALC:   Source Rmc.
~OTHER INFORMATION
~A    DEPT      GRR       SPR       TENR       RFOC       RILD       RILM       TEND        DEN       CORR        CNC       CALD   
# ...
 1250.5000    94.8470   -49.5300   -60.1160     8.3520     7.5260     7.3010  -999.2500  -999.2500  -999.2500  -999.2500  -999.2500
 1251.0000    92.7650   -49.3250   -60.3460     8.1830     7.5580     7.3170  -999.2500  -999.2500  -999.2500  -999.2500  -999.2500
 1251.5000    90.7190   -49.1200   -60.5750     7.9990     7.5890     7.3470  -999.2500  -999.2500  -999.2500  -999.2500  -999.2500
 1252.0000    88.6730   -48.9150   -60.8040     7.9990     7.6200     7.3780  -999.2500  -999.2500  -999.2500  -999.2500  -999.2500
 1252.5000    86.6230   -48.7090   -61.0330     8.2050     7.6420     7.4090  -999.2500  -999.2500  -999.2500  -999.2500  -999.2500
 1253.0000    85.9430   -48.5040   -61.2620     8.3640     7.6420     7.4390  -999.2500  -999.2500  -999.2500  -999.2500  -999.2500
 1253.5000    85.2030   -48.3260   -61.4920     8.5240     7.6420     7.4700  -999.2500  -999.2500  -999.2500  -999.2500  -999.2500
 1254.0000    83.1850   -48.4130   -61.7210     8.6830     7.6420     7.5040  -999.2500  -999.2500  -999.2500  -999.2500  -999.2500
 1254.5000    81.8240   -48.5000   -61.9500     8.7620     7.6420     7.4700  -999.2500  -999.2500  -999.2500  -999.2500  -999.2500
 1255.0000    83.3700   -48.5870   -62.1790     8.6280     7.6430     7.4320  -999.2500  -999.2500  -999.2500  -999.2500  -999.2500
 1255.5000    87.8380   -48.6740   -62.4080     8.4360     7.5730     7.3950  -999.2500  -999.2500  -999.2500  -999.2500  -999.2500
 1256.0000    93.2500   -48.9090   -62.6380     8.2440     7.5860     7.3680  -999.2500  -999.2500  -999.2500  -999.2500  -999.2500
 1256.5000    91.9900   -49.2930   -62.8670     8.0720     7.6130     7.4310  -999.2500  -999.2500  -999.2500  -999.2500  -999.2500
 1257.0000    89.4910   -49.6800   -63.0960     8.0720     7.6420     7.4800  -999.2500  -999.2500  -999.2500  -999.2500  -999.2500
 1257.5000    86.0520   -50.0810   -63.3250     8.0720     7.5970     7.5040  -999.2500  -999.2500  -999.2500  -999.2500  -999.2500
 1258.0000    87.4890   -50.1020   -63.5540     8.4670     7.5320     7.4550  -999.2500  -999.2500  -999.2500  -999.2500  -999.2500
 1258.5000    89.8470   -50.1000   -63.7830     8.8260     7.4360     7.4170  -999.2500  -999.2500  -999.2500  -999.2500  -999.2500
 1259.0000    89.8040   -50.0990   -64.0130     9.0050     7.4760     7.3680  -999.2500  -999.2500  -999.2500  -999.2500  -999.2500
 1259.5000    87.1470   -50.1000   -64.2420     8.6090     7.5560     7.4340  -999.2500  -999.2500  -999.2500  -999.2500  -999.2500
 1260.0000    84.5020   -50.0960   -64.4710     8.2500     7.6370     7.5280  -999.2500  -999.2500  -999.2500  -999.2500  -999.2500
 1260.5000    83.7760   -49.7880   -64.7000     7.8540     7.7170     7.6230  -999.2500  -999.2500  -999.2500  -999.2500  -999.2500
 1261.0000    83.1270   -49.4420   -64.9290     7.8540     7.7980     7.7170  -999.2500  -999.2500  -999.2500  -999.2500  -999.2500
 1261.5000    82.4110   -49.0930   -65.1590     8.2940     7.8540     7.7830  -999.2500  -999.2500  -999.2500  -999.2500  -999.2500
 1262.0000    83.3170   -48.7310   -65.3880     8.6330     7.8000     7.6700  -999.2500  -999.2500  -999.2500  -999.2500  -999.2500
 1262.5000    82.8930   -48.6320   -65.6170     9.0050     7.7580     7.5830  -999.2500  -999.2500  -999.2500  -999.2500  -999.2500
 1263.0000    80.7320   -48.5440   -65.8460     8.9380     7.7120     7.4960  -999.2500  -999.2500  -999.2500  -999.2500  -999.2500
 1263.5000    79.9960   -48.4550   -66.0750     8.8040     7.6420     7.3930  -999.2500  -999.2500  -999.2500  -999.2500  -999.2500
 1264.0000    80.8840   -48.3650   -66.3050     8.6830     7.6560     7.2350  -999.2500  -999.2500  -999.2500  -999.2500  -999.2500
 1264.5000    82.4890   -48.2750   -66.5340     8.3100     7.6750     7.3450  -999.2500  -999.2500  -999.2500  -999.2500  -999.2500
 1265.0000    84.5750   -48.1870   -66.7630     7.8540     7.6950     7.5040  -999.2500  -999.2500  -999.2500  -999.2500  -999.2500
 1265.5000    86.5910   -48.1690   -66.8320     7.7830     7.7120     7.4960  -999.2500  -999.2500  -999.2500  -999.2500  -999.2500
 1266.0000    88.6210   -48.3520   -66.8320     7.9180     7.5840     7.4840  -999.2500  -999.2500  -999.2500  -999.2500  -999.2500
 1266.5000    86.8070   -48.5290   -66.8320     8.1900     7.4670     7.4720  -999.2500  -999.2500  -999.2500  -999.2500  -999.2500
 1267.0000    83.9490   -48.7040   -66.8320     8.4620     7.3510     7.4600  -999.2500  -999.2500  -999.2500  -999.2500  -999.2500
 1267.5000    82.6390   -48.8810   -66.8320     8.7330     7.2340     7.4490  -999.2500  -999.2500  -999.2500  -999.2500  -999.2500
 1268.0000    83.5350   -49.0650   -66.8320     8.9230     7.1180     7.4360  -999.2500  -999.2500  -999.2500  -999.2500  -999.2500
 1268.5000    85.9850   -49.1830   -66.8320     8.5390     7.0010     7.3120  -999.2500  -999.2500  -999.2500  -999.2500  -999.2500
 1269.0000    86.9040   -49.4680   -66.8320     8.0590     6.8500     7.1730  -999.2500  -999.2500  -999.2500  -999.2500  -999.2500
 1269.5000    88.6700   -49.7420   -66.8320     7.5800     6.8980     7.0920  -999.2500  -999.2500  -999.2500  -999.2500  -999.2500
 1270.0000    91.4950   -50.0270   -66.8320     7.3930     6.9670     7.0670  -999.2500  -999.2500  -999.2500  -999.2500  -999.2500
 1270.5000    93.7800   -49.9770   -66.8320     7.3320     7.0360     7.0430  -999.2500  -999.2500  -999.2500  -999.2500  -999.2500
 1271.0000    93.3970   -49.8110   -66.8320     7.2350     7.1040     7.0180  -999.2500  -999.2500  -999.2500  -999.2500  -999.2500
 1271.5000    91.0530   -49.6410   -66.8320     7.8180     7.1730     6.9930  -999.2500  -999.2500  -999.2500  -999.2500  -999.2500
 1272.0000    88.7970   -49.4700   -66.8320     8.2960     7.2350     6.9760  -999.2500  -999.2500  -999.2500  -999.2500  -999.2500
 1272.5000    86.4520   -49.3010   -66.8320     8.0660     7.3940     7.1420  -999.2500  -999.2500  -999.2500  -999.2500  -999.2500
 1273.0000    84.5250   -49.1310   -66.8320     7.8580     7.5380     7.2700  -999.2500  -999.2500  -999.2500  -999.2500  -999.2500
 1273.5000    83.3080   -48.9610   -66.8320     7.7120     7.6820     7.4360  -999.2500  -999.2500  -999.2500  -999.2500  -999.2500
 1274.0000    82.3110   -48.7910   -66.8320     8.2000     7.7830     7.3840  -999.2500  -999.2500  -999.2500  -999.2500  -999.2500
 1274.5000    81.4950   -48.6210   -66.8320     8.7620     7.5040     7.3010  -999.2500  -999.2500  -999.2500  -999.2500  -999.2500
 1275.0000    81.1180   -48.4510   -66.8320     8.5350     7.5550     7.3630  -999.2500  -999.2500  -999.2500  -999.2500  -999.2500
 1275.5000    81.1630   -48.2810   -66.8320     8.0810     7.6290     7.4310  -999.2500  -999.2500  -999.2500  -999.2500  -999.2500
 1276.0000    82.4670   -48.1090   -66.8320     7.8540     7.7020     7.4990  -999.2500  -999.2500  -999.2500  -999.2500  -999.2500
 1276.5000    83.5990   -47.9340   -66.8320     7.8540     7.7830     7.5670  -999.2500  -999.2500  -999.2500  -999.2500  -999.2500
 1277.0000    83.9260   -48.0600   -66.8320     8.1480     7.7990     7.6420  -999.2500  -999.2500  -999.2500  -999.2500  -999.2500
 1277.5000    87.1610   -48.2130   -66.8320     8.4150     7.8170     7.6150  -999.2500  -999.2500  -999.2500  -999.2500  -999.2500
 1278.0000    91.7860   -48.3410   -66.8320     8.6820     7.8340     7.5850  -999.2500  -999.2500  -999.2500  -999.2500  -999.2500
 1278.5000    89.9780   -48.4130   -66.8320     8.7620     7.8540     7.5560  -999.2500  -999.2500  -999.2500  -999.2500  -999.2500
 1279.0000    86.8140   -48.4850   -66.8320     8.7620     7.7910     7.5260  -999.2500  -999.2500  -999.2500  -999.2500  -999.2500
 1279.5000    84.0320   -48.7800   -66.8320     8.7620     7.7200     7.4960  -999.2500  -999.2500  -999.2500  -999.2500  -999.2500
 1280.0000    82.9720   -49.2980   -66.8320     8.4640     7.6500     7.4660  -999.2500  -999.2500  -999.2500  -999.2500  -999.2500
 1280.5000    82.0980   -49.8170   -66.8320     7.9260     7.5730     7.4370  -999.2500  -999.2500  -999.2500  -999.2500  -999.2500
