~VERSION INFORMATION
 VERS.                2.0:   CWLS LOG ASCII STANDARD - VERSION 2.0
 WRAP.                 NO:   ONE LINE PER DEPTH STEP
~WELL INFORMATION
#MNEM.UNIT      DATA TYPE    INFORMATION
#----------   ------------   ------------------------------
 STRT.F         1999.5000:   START DEPTH
 STOP.F         2762.5000:   STOP DEPTH
 STEP.F            0.5000:   STEP LENGTH
 NULL.          -999.2500:   NO VALUE
 COMP.          U.S. NAVY:   COMPANY
 WELL. LAWRENCE US NAVY 3 "A" #404-20:   WELL
 FLD .        TEAPOT DOME:   FIELD
 LOC .      S20 T39N R78W:   LOCATION
 CNTY.            NATRONA:   COUNTY
 STAT.            WYOMING:   STATE
 CTRY. UNITED STATES OF AMERICA:   COUNTRY
 SRVC.         MCCULLOUGH:   SERVICE COMPANY
 DATE.        09-JUL-1966:   LOGDATE
 API .     49025095910000:   API NUMBER
~CURVE INFORMATION
#MNEM.UNIT       API CODE    CURVE DESCRIPTION
#----------   ------------   ------------------------------
 DEPT.F                  :   
 TEMP.DEG    99 000 00 00:   TEMPERATURE AT TOOL
 GR  .GAPI   30 310 01 00:   GAMMA RAY
~PARAMETER INFORMATION
#MNEM.UNIT          VALUE    DESCRIPTION
#----------   ------------   ------------------------------
 EGL .F         5004.0000:   Ground level
 EDF .F         5008.0000:   Drilling floor
 TD  .F         2765.0000:   Total depth
 DATE.        09-JUL-1966:   Date logged
 CLNT.            A2DTECH:   Client Code
 PD  .                 GL:   Permanent Datum
 EPD .F              5004:   Elevation Permanent Datum
 LMF .                 GL:   Log Measured From
 DMF .                 GL:   Drilling Measured From
 DL  .F              2765:   Depth logger
 BLI .F              2763:   Bottom log interval
 TLI .F              2000:   Top log interval
 CS1 .IN           5.1875:   Casing size
 CBD1.    5.1875" @ 2790':   Casing driller 1
 DFT .              WATER:   Type fluid in hole
 ENGI.        FITZSIMMONS:   Recorded By
 WITN.             HUDSON:   Witnessed by
 ORIG.           5" PRINT:   Origin of data
 UWI .     49025095910000:   Unique Well ID
 DICO. A2D TECHNOLOGIES, INC.:   Digitizing Company
~OTHER INFORMATION
~A  DEPT      TEMP          GR  
# ...
 2607.0000    96.2670   166.0211
 2607.5000    96.2700   161.2233
 2608.0000    96.2880   157.4616
 2608.5000    96.3050   164.1187
 2609.0000    96.3220   164.8614
 2609.5000    96.3400   165.4039
 2610.0000    96.3570   167.9147
 2610.5000    96.3750   175.9414
 2611.0000    96.3940   178.9663
 2611.5000    96.4140   179.6442
 2612.0000    96.4330   174.2038
 2612.5000    96.4530   175.2006
 2613.0000    96.4720   175.9836
 2613.5000    96.4910   173.3404
 2614.0000    96.5110   178.9525
 2614.5000    96.5300   176.2505
 2615.0000    96.5510   175.4214
 2615.5000    96.5800   176.1886
 2616.0000    96.5980   174.8504
 2616.5000    96.6130   170.7659
 2617.0000    96.6290   166.9394
 2617.5000    96.6440   170.5696
 2618.0000    96.6600   179.6442
 2618.5000    96.6750   181.3475
 2619.0000    96.6840   176.2769
 2619.5000    96.6860   167.3064
 2620.0000    96.6960   166.8855
 2620.5000    96.7060   167.5134
 2621.0000    96.7150   168.3003
 2621.5000    96.7250   172.6536
 2622.0000    96.7340   176.6567
 2622.5000    96.7440   177.7546
 2623.0000    96.7510   176.7891
 2623.5000    96.7580   172.9656
 2624.0000    96.7690   172.2739
 2624.5000    96.7960   172.2729
 2625.0000    96.8220   171.8854
 2625.5000    96.8440   166.1290
 2626.0000    96.8440   166.5617
 2626.5000    96.8430   170.1095
 2627.0000    96.8430   175.0966
 2627.5000    96.8460   173.2442
 2628.0000    96.8510   176.2004
 2628.5000    96.8570   178.7445
 2629.0000    96.8620   181.6899
 2629.5000    96.8860   179.2253
 2630.0000    96.9140   168.8507
 2630.5000    96.9420   172.0237
 2631.0000    96.9710   179.2900
 2631.5000    96.9920   174.1253
 2632.0000    97.0090   172.7929
 2632.5000    97.0250   172.6124
 2633.0000    97.0420   171.3614
 2633.5000    97.0590   177.3817
 2634.0000    97.0680   175.1349
 2634.5000    97.0750   173.7554
 2635.0000    97.0820   171.9491
 2635.5000    97.0890   168.5220
 2636.0000    97.0960   171.2731
 2636.5000    97.1030   175.0957
 2637.0000    97.1100   173.0873
 2637.5000    97.1170   170.6952
 2638.0000    97.1190   174.7778
 2638.5000    97.1080   181.1317
 2639.0000    97.0970   177.4965
 2639.5000    97.0870   169.6591
 2640.0000    97.0820   172.2896
 2640.5000    97.0820   165.6836
 2641.0000    97.0820   170.9523
 2641.5000    97.0820   173.8006
 2642.0000    97.0820   176.2034
 2642.5000    97.0820   181.7498
 2643.0000    97.0870   183.5678
 2643.5000    97.0940   185.4732
 2644.0000    97.1000   180.8157
 2644.5000    97.1140   176.0954
 2645.0000    97.1300   171.4360
 2645.5000    97.1460   168.5671
 2646.0000    97.1620   176.6203
 2646.5000    97.1780   178.6386
 2647.0000    97.1940   176.3015
 2647.5000    97.2090   173.1393
 2648.0000    97.2230   170.5500
 2648.5000    97.2380   176.2740
 2649.0000    97.2520   176.7901
 2649.5000    97.2670   177.2620
 2650.0000    97.2810   176.6822
 2650.5000    97.2960   176.9951
 2651.0000    97.3110   176.5016
 2651.5000    97.3250   175.6981
 2652.0000    97.3400   175.2320
 2652.5000    97.3540   175.9875
 2653.0000    97.3690   178.4904
 2653.5000    97.3830   174.7022
 2654.0000    97.3980   171.3928
 2654.5000    97.4120   166.0711
 2655.0000    97.4270   160.7004
 2655.5000    97.4420   166.0123
 2656.0000    97.4570   171.1181
 2656.5000    97.4660   173.3689
 2657.0000    97.4740   175.0388
 2657.5000    97.4820   180.0720
 2658.0000    97.4900   184.1761
 2658.5000    97.4980   183.0822
 2659.0000    97.5070   182.8722
 2659.5000    97.5160   184.4734
 2660.0000    97.5260   183.4187
 2660.5000    97.5350   181.0796
 2661.0000    97.5490   182.2884
 2661.5000    97.5650   189.1956
 2662.0000    97.5820   192.8563
 2662.5000    97.5990   193.4214
 2663.0000    97.6310   204.5731
 2663.5000    97.6640   214.6199
 2664.0000    97.7040   208.6370
 2664.5000    97.7490   206.6099
 2665.0000    97.7940   200.3866
 2665.5000    97.8390   193.0074
 2666.0000    97.8720   187.7043
 2666.5000    97.8980   183.1783
 2667.0000    97.9230   178.5002
 2667.5000    97.9480   172.2778
 2668.0000    97.9730   171.0082
 2668.5000    97.9990   168.7320
 2669.0000    98.0240   167.3741
 2669.5000    98.0490   163.3534
 2670.0000    98.0740   166.7148
 2670.5000    98.1000   171.4988
 2671.0000    98.1250   167.3515
 2671.5000    98.1500   166.7167
 2672.0000    98.1760   164.4532
 2672.5000    98.2010   169.6101
 2673.0000    98.2220   171.3183
 2673.5000    98.2370   169.9869
 2674.0000    98.2520   171.0308
 2674.5000    98.2660   171.4919
 2675.0000    98.2810   170.7109
 2675.5000    98.2960   172.4191
 2676.0000    98.3050   174.4030
 2676.5000    98.3130   170.8032
 2677.0000    98.3220   168.4111
 2677.5000    98.3300   169.9084
 2678.0000    98.3260   172.1660
 2678.5000    98.3000   177.2905
 2679.0000    98.2870   183.4334
 2679.5000    98.2760   188.3499
 2680.0000    98.2650   190.3985
 2680.5000    98.2540   195.7369
 2681.0000    98.2420   189.5322
 2681.5000    98.2310   184.0211
 2682.0000    98.2200   177.5377
 2682.5000    98.2160   170.9337
 2683.0000    98.2160   168.1737
 2683.5000    98.2070   172.6713
 2684.0000    98.1860   174.6473
 2684.5000    98.1650   170.2361
 2685.0000    98.1440   163.7174
 2685.5000    98.1150   147.6031
 2686.0000    98.0820   153.8235
 2686.5000    98.0490   153.1603
 2687.0000    98.0160   157.0387
 2687.5000    97.9820   153.8225
 2688.0000    97.9490   150.2571
 2688.5000    97.9160   147.0448
 2689.0000    97.8830   146.1196
 2689.5000    97.8650   151.4217
 2690.0000    97.8490   152.8601
 2690.5000    97.8330   155.8624
 2691.0000    97.8170   158.8843
 2691.5000    97.8020   161.8669
 2692.0000    97.7860   165.1233
 2692.5000    97.7700   173.9683
 2693.0000    97.7540   181.1660
 2693.5000    97.7370   184.4636
 2694.0000    97.7200   186.5868
 2694.5000    97.7020   178.0460
 2695.0000    97.6850   176.6841
 2695.5000    97.6680   175.5499
 2696.0000    97.6510   177.0952
 2696.5000    97.6340   174.0596
 2697.0000    97.6160   168.8497
 2697.5000    97.5990   163.1983
 2698.0000    97.5820   158.6076
 2698.5000    97.5650   166.2330
 2699.0000    97.5520   169.5915
 2699.5000    97.5410   176.1720
 2700.0000    97.5300   174.5717
 2700.5000    97.5190   171.0426
 2701.0000    97.5120   168.0962
 2701.5000    97.5050   173.2648
 2702.0000    97.4980   177.1149
 2702.5000    97.4910   176.3996
 2703.0000    97.4840   177.7084
 2703.5000    97.4780   171.7333
 2704.0000    97.4740   174.1950
 2704.5000    97.4710   181.4505
 2705.0000    97.4670   179.1546
 2705.5000    97.4630   176.5527
 2706.0000    97.4560   175.8688
 2706.5000    97.4400   179.7325
 2707.0000    97.4250   181.8989
 2707.5000    97.4280   176.9716
 2708.0000    97.4390   173.0981
 2708.5000    97.4500   176.1111
 2709.0000    97.4610   177.0521
 2709.5000    97.4720   175.6991
 2710.0000    97.4830   179.9317
 2710.5000    97.4940   176.4241
 2711.0000    97.5060   176.1396
 2711.5000    97.5170   171.0308
 2712.0000    97.5170   169.8986
 2712.5000    97.5120   163.6016
 2713.0000    97.5070   165.0596
 2713.5000    97.5020   168.0834
 2714.0000    97.4900   170.5461
 2714.5000    97.4700   173.2011
 2715.0000    97.4500   170.2773
 2715.5000    97.4300   169.1195
 2716.0000    97.4100   167.9343
 2716.5000    97.3910   165.8013
 2717.0000    97.3710   163.4122
 2717.5000    97.3510   155.6691
 2718.0000    97.3230   157.8286
 2718.5000    97.2880   156.7611
 2719.0000    97.2520   155.1177
 2719.5000    97.2050   160.7779
 2720.0000    97.1530   167.3083
 2720.5000    97.1010   166.0083
 2721.0000    97.0490   165.2548
 2721.5000    96.9940   167.4820
 2722.0000    96.9370   165.0919
 2722.5000    96.8800   165.5845
 2723.0000    96.8240   165.2332
 2723.5000    96.7670   157.6716
 2724.0000    96.7100   152.4843
 2724.5000    96.6530   150.5033
 2725.0000    96.5940   147.1842
 2725.5000    96.5340   144.5390
 2726.0000    96.4730   136.3955
 2726.5000    96.4130   118.5417
 2727.0000    96.3520   101.3197
 2727.5000    96.3010   118.9695
 2728.0000    96.2510   133.9957
