~VERSION INFORMATION
 VERS.                2.0:   CWLS LOG ASCII STANDARD - VERSION 2.0
 WRAP.                 NO:   ONE LINE PER DEPTH STEP
~WELL INFORMATION
#MNEM.UNIT      DATA TYPE    INFORMATION
#----------   ------------   ------------------------------
 STRT.F          648.0000:   START DEPTH
 STOP.F         3196.0000:   STOP DEPTH
 STEP.F            0.5000:   STEP LENGTH
 NULL.          -999.2500:   NO VALUE
 COMP.    FENIX & SCISSON:   COMPANY
 WELL.   FENIX "AX" #18-2:   WELL
 FLD .             NPR #3:   FIELD
 LOC .       S2 T38N R78W:   LOCATION
 CNTY.            NATRONA:   COUNTY
 STAT.            WYOMING:   STATE
 CTRY. UNITED STATES OF AMERICA:   COUNTRY
 SRVC.              WELEX:   SERVICE COMPANY
 DATE.        05-OCT-1980:   LOGDATE
 API .     49025108500000:   API NUMBER
~CURVE INFORMATION
#MNEM.UNIT       API CODE    CURVE DESCRIPTION
#----------   ------------   ------------------------------
 DEPT.F                  :   
 GRD .GAPI   45 310 01 00:   GAMMA RAY FROM DENSITY LOG
 CALD.IN     45 280 60 00:   CALIPER FROM DENSITY LOG
 CORR.G/C3   45 356 01 00:   DENSITY CORRECTION
 RHOB.G/C3   45 350 01 00:   BULK DENSITY
 SPR .MV     07 010 01 00:   SPONTANEOUS POTENTIAL FROM RES.
 ILD .OHMM   07 120 46 00:   INDUCTION LOG DEEP RESISTIVITY
 ILM .OHMM   07 120 44 00:   INDUCTION LOG MEDIUM RESISTIVITY
 SGRD.OHMM   07 220 05 00:   SHORT GUARD RESISTIVITY
~PARAMETER INFORMATION
#MNEM.UNIT          VALUE    DESCRIPTION
#----------   ------------   ------------------------------
 EKB .F         5162.0000:   Kelly bushing
 EGL .F         5152.0000:   Ground level
 EDF .F            0.0000:   Drilling floor
 TD  .F         3200.0000:   Total depth
 CLNT.            A2DTECH:   Client Code
 PD  .                 GL:   Permanent Datum
 EPD .F              5152:   Elevation Permanent Datum
 LMF .                 KB:   Log Measured From
 DMF .                 KB:   Drilling Measured From
 DAPD.F                10:   Feet Above Permanent Datum
 DATE.        05-OCT-1980:   Date Logged [DD-MMM-YYYY]
 DD  .F              3200:   Depth driller
 DL  .F              3198:   Depth logger
 BLI .F              3196:   Bottom log interval
 TLI .F               646:   Top log interval
 CS1 .IN            8.625:   Casing size
 CBD1.      8.625" @ 647':   Casing driller 1
 CBL1.F               650:   Casing logger 1
 BS1 .IN            7.875:   Bit size
 BSD1.F              3200:   Depth drilled with bit1
 DFT .           CHEM GEL:   Type fluid in hole
 DFD .                8.6:   Density
 DFV .                 38:   Viscosity
 DFPH.                9.5:   pH
 MSS .           FLOWLINE:   Source of sample
 MFSS.               MEAS:   Source Rmf.
 MCSS.               MEAS:   Source Rmc.
 RMB .OHMM           1.24:   Rm. at BHT
 BHT .F               118:   BHT.
 TCS .HRS               5:   Time Circ. stopped
 MRT .F               118:   Maximum recorded temp.
 LUN .               1892:   Logging unit number
 LUL .             CASPER:   Logging unit location
 ORIG.           5" PRINT:   Origin of data
 UWI .     49025108500000:   Unique Well ID
 DICO. A2D TECHNOLOGIES, INC.:   Digitizing Company
 SL  . 313' FSL & 565' FWL:   Surface Location
 RMS .               2.34:   Rm
~OTHER INFORMATION
~A   DEPT       GRD      CALD       CORR       RHOB        SPR        ILD        ILM       SGRD   
# ...
 1336.5000    83.6786     9.2057     0.0295     2.4990   -36.1051     7.2601     7.8371     8.4260
 1337.0000    79.9450     9.2218     0.0357     2.4975   -36.2139     7.2648     8.1165     8.3213
 1337.5000    78.8496     9.2379     0.0434     2.5103   -36.1207     7.3191     7.6868     8.5613
 1338.0000    78.4130     9.2541     0.0497     2.5186   -35.9138     7.3230     7.5322     8.8053
 1338.5000    79.2981     9.2849     0.0578     2.5231   -35.7598     7.3273     7.4359     8.4539
 1339.0000    81.0609     9.3024     0.0650     2.5217   -35.5571     7.2798     7.3897     8.6977
 1339.5000    79.7456     9.3319     0.0516     2.5157   -35.3650     7.2846     7.3959     8.6437
 1340.0000    80.1908     9.3483     0.0427     2.5098   -35.3309     7.2885     7.4008     8.4140
 1340.5000    81.9547     9.3791     0.0399     2.5001   -35.1133     7.2422     7.3536     8.2472
 1341.0000    83.7185     9.3952     0.0370     2.4813   -35.1291     7.1961     7.3597     8.7318
 1341.5000    84.6092     9.4113     0.0341     2.4761   -35.1272     7.1505     7.4157     8.3168
 1342.0000    85.2669     9.4275     0.0343     2.4689   -35.2006     7.0571     7.5253     8.0959
 1342.5000    85.3518     9.4289     0.0375     2.4689   -35.3023     7.0122     7.7480     7.9889
 1343.0000    85.9352     9.4153     0.0392     2.4705   -35.5192     7.0160     8.0183     7.9961
 1343.5000    83.5212     9.3877     0.0363     2.4758   -35.7049     7.0684     7.9684     8.1126
 1344.0000    80.8863     9.3598     0.0259     2.4893   -35.8333     7.1706     7.7566     8.1180
 1344.5000    80.4496     9.3312     0.0185     2.4781   -35.9077     7.2742     7.7071     8.0663
 1345.0000    81.3348     9.2745     0.0142     2.4759   -35.9094     7.4821     7.9845     8.2419
 1345.5000    81.5580     9.2323     0.0144     2.4752   -35.9735     7.6430     8.1570     8.5960
 1346.0000    79.3639     9.1897     0.0206     2.4805   -35.9168     7.8082     8.0506     8.9062
 1346.5000    76.7290     9.1614     0.0253     2.4970   -36.1181     7.9760     7.9455     9.1062
 1347.0000    72.9943     9.1191     0.0315     2.5023   -36.0906     8.0913     8.1186     9.2300
 1347.5000    69.6995     9.0912     0.0346     2.5009   -36.2967     8.1518     8.3515     9.1081
 1348.0000    69.2639     9.0629     0.0333     2.4948   -36.3200     8.2696     8.4150     9.1788
 1348.5000    72.4829     9.0353     0.0289     2.4831   -36.3437     8.3314     8.4206     9.5074
 1349.0000    75.7302     9.0073     0.0291     2.4621   -36.2087     8.3937     8.3669     9.7799
 1349.5000    78.2955     8.9941     0.0413     2.4689   -35.9174     8.3993     8.3739     9.8542
 1350.0000    77.6400     8.9809     0.0581     2.4989   -35.9093     8.3448     8.3222     9.3313
 1350.5000    75.4449     8.9677     0.0643     2.5042   -35.5108     8.2960     8.1560     9.0759
 1351.0000    74.5695     8.9692     0.0675     2.5103   -35.2421     8.1937     8.0485     9.0897
 1351.5000    75.4536     8.9856     0.0706     2.5104   -35.1251     8.0857     8.1095     9.0313
 1352.0000    76.5576     9.0017     0.0723     2.5031   -35.1246     7.9792     8.2906     8.7921
 1352.5000    75.4622     9.0325     0.0755     2.4830   -35.1292     7.8751     8.4618     8.6159
 1353.0000    75.2455     9.0633     0.0772     2.4854   -35.3233     7.8252     8.5250     8.7422
 1353.5000    75.9107     9.0941     0.0789     2.5116   -35.5159     7.8293     8.4126     9.0545
 1354.0000    78.9942     9.1543     0.0820     2.5342   -35.7008     7.8336     8.2445     9.3135
 1354.5000    79.4384     9.1851     0.0807     2.5403   -35.9007     7.8921     8.1347     8.9400
 1355.0000    78.1011     9.2159     0.0703     2.5434   -36.1183     7.8973     8.0840     8.7633
 1355.5000    79.3002     9.2320     0.0614     2.5387   -36.1042     7.8472     8.0885     8.8918
 1356.0000    80.6306     9.2362     0.0525     2.5085   -36.1949     7.7974     8.2092     8.8972
 1356.5000    82.4190     9.2442     0.0436     2.4951   -36.1642     7.7479     8.4408     8.9025
 1357.0000    84.0042     9.2470     0.0393     2.4690   -36.2566     7.6977     8.2722     8.8453
 1357.5000    83.0850     9.2334     0.0319     2.4512   -36.1772     7.6498     8.0512     8.9750
 1358.0000    79.3568     9.2199     0.0306     2.4461   -36.1492     7.6001     7.9990     9.1052
 1358.5000    80.4673     9.2066     0.0340     2.4709   -36.2006     7.5012     8.2856     9.0481
 1359.0000    83.5572     9.1931     0.0492     2.4717   -36.0866     7.4024     8.4053     8.8047
 1359.5000    82.0284     9.1943     0.0522     2.4696   -36.1166     7.3059     8.2374     8.5049
 1360.0000    81.3767     9.1804     0.0523     2.4660   -35.9202     7.2595     8.1288     8.4020
 1360.5000    85.3491     9.1819     0.0525     2.4519   -35.8666     7.2634     8.0216     8.9470
 1361.0000    82.5006     9.1830     0.0527     2.4452   -35.7322     7.2164     8.0826     9.0754
 1361.5000    80.0921     9.1842     0.0544     2.4714   -35.5275     7.2212     8.1430     8.8351
 1362.0000    79.4428     9.2000     0.0575     2.5022   -35.2600     7.2251     8.2038     8.7783
 1362.5000    81.4333     9.2012     0.0622     2.5090   -35.1303     7.2791     8.2082     8.8457
 1363.0000    78.7524     9.2182     0.0669     2.4986   -35.1373     7.3342     8.2695     8.9741
 1363.5000    76.1414     9.2329     0.0701     2.5218   -35.3482     7.3890     8.2739     9.1673
 1364.0000    76.6296     9.2352     0.0718     2.5309   -35.2580     7.3929     8.2213     9.1730
 1364.5000    81.9190     9.2501     0.0750     2.5324   -35.5375     7.3969     8.2258     9.2433
 1365.0000    84.1265     9.2511     0.0766     2.5280   -35.6637     7.4008     8.1174     9.0594
 1365.5000    80.4010     9.2524     0.0768     2.5348   -35.7140     7.4048     8.0669     8.8778
 1366.0000    81.2915     9.2536     0.0769     2.5423   -35.8411     7.4088     8.0157     9.0080
 1366.5000    83.5017     9.2546     0.0726     2.5244   -36.0761     7.4650     7.9638     8.8899
 1367.0000    84.1723     9.2558     0.0668     2.4938   -36.1287     7.4690     7.9132     8.5346
 1367.5000    83.9632     9.2570     0.0609     2.4811   -36.1111     7.4730     8.0843     8.3053
 1368.0000    82.4343     9.2582     0.0640     2.4760   -36.2114     7.4246     8.0960     8.6637
 1368.5000    78.9261     9.2593     0.0552     2.4837   -36.2993     7.3785     8.0373     8.7302
 1369.0000    76.0602     9.2605     0.0478     2.4999   -36.3371     7.3307     7.8767     8.5565
 1369.5000    74.9625     9.2617     0.0540     2.5233   -36.0427     7.2851     7.6673     8.2701
 1370.0000    74.5596     9.2628     0.0708     2.5361   -35.9158     7.2390     7.5132     8.6262
 1370.5000    76.3326     9.2789     0.0875     2.5474   -35.7087     7.1436     7.4141     9.0584
 1371.0000    77.4431     9.2651     0.0997     2.5557   -35.3687     7.0504     7.3164     8.8172
 1371.5000    77.0140     9.2812     0.1029     2.5535   -35.1756     7.0048     7.2699     8.2344
 1372.0000    75.4852     9.2824     0.0940     2.5086   -34.9903     6.9125     7.1741     7.7433
 1372.5000    76.3757     9.2835     0.0758     2.4847   -34.7231     6.8223     7.0804     7.8557
 1373.0000    79.6856     9.3140     0.0685     2.4781   -34.7320     6.7324     7.0339     8.0260
 1373.5000    80.7961     9.3299     0.0659     2.4938   -34.7325     6.6437     6.9357     8.1424
 1374.0000    81.9066     9.3457     0.0766     2.5081   -34.8657     6.5076     6.8050     7.1464
 1374.5000    82.1373     9.3616     0.0843     2.5187   -34.9245     6.3811     6.7153     7.3002
 1375.0000    82.8079     9.3774     0.0754     2.4955   -35.2967     6.2971     6.6717     7.8264
 1375.5000    83.9184     9.3785     0.0650     2.4851   -35.5474     6.2571     6.7690     8.4486
 1376.0000    81.6601     9.3627     0.0562     2.5001   -35.4393     6.3046     6.9623     7.8901
 1376.5000    79.9810     9.3221     0.0548     2.5189   -35.7320     6.3517     7.0143     7.9499
