~VERSION INFORMATION
 VERS.                2.0:   CWLS LOG ASCII STANDARD - VERSION 2.0
 WRAP.                 NO:   ONE LINE PER DEPTH STEP
~WELL INFORMATION
#MNEM.UNIT      DATA TYPE    INFORMATION
#----------   ------------   ------------------------------
 STRT.F          170.5000:   START DEPTH
 STOP.F         3160.0000:   STOP DEPTH
 STEP.F            0.5000:   STEP LENGTH
 NULL.          -999.2500:   NO VALUE
 COMP.  FENIX AND SCISSON:   COMPANY
 WELL.    FENIX "A" #85-3:   WELL
 FLD .       TEA POT DOME:   FIELD
 LOC .       S3 T38N R78W:   LOCATION
 CNTY.            NATRONA:   COUNTY
 STAT.            WYOMING:   STATE
 CTRY. UNITED STATES OF AMERICA:   COUNTRY
 SRVC.           BIRDWELL:   SERVICE COMPANY
 DATE.        20-DEC-1977:   LOGDATE
 API .     49025104450000:   API NUMBER
~CURVE INFORMATION
#MNEM.UNIT       API CODE    CURVE DESCRIPTION
#----------   ------------   ------------------------------
 DEPT.F                  :   
 CALD.IN     45 280 60 00:   CALIPER FROM DENSITY LOG
 GRD .GAPI   45 310 01 00:   GAMMA RAY FROM DENSITY LOG
 RHOB.G/C3   45 350 01 00:   BULK DENSITY
 CORR.G/C3   45 356 01 00:   DENSITY CORRECTION
 SPR .MV     05 010 01 00:   SPONTANEOUS POTENTIAL
 SN  .OHMM   05 040 00 00:   SHORT NORMAL
 ILD .OHMM   05 120 46 00:   DEEP INDUCTION RESISTIVITY
~PARAMETER INFORMATION
#MNEM.UNIT          VALUE    DESCRIPTION
#----------   ------------   ------------------------------
 EKB .F         5165.0000:   Kelly bushing
 EGL .F         5155.0000:   Ground level
 TD  .F         3151.0000:   Total depth
 DATE.        20-DEC-1977:   Date logged
 CLNT.            A2DTECH:   Client Code
 SL  . 2000' FSL & 100'FEL:   Surface Location
 PD  .                 GL:   Permanent Datum
 EPD .F              5155:   Elevation Permanent Datum
 LMF .                 KB:   Log Measured From
 DMF .                 KB:   Drilling Measured From
 DAPD.F                10:   Feet Above Permanent Datum
 DD  .F              3150:   Depth driller
 DL  .F              3151:   Depth logger
 BLI .F              3146:   Bottom log interval
 TLI .F               200:   Top log interval
 CS1 .IN            8.625:   Casing size
 CBD1.      8.625" @ 223':   Casing driller 1
 BS1 .IN            7.875:   Bit size
 BSD1.F              3150:   Depth drilled with bit1
 DFT .                KCL:   Type fluid in hole
 DFD .                8.9:   Density
 DFV .                 40:   Viscosity
 DFPH.                 11:   pH
 DFL .                7.2:   Fluid loss
 MSS .           FLOWLINE:   Source of sample
 RMS .OHMM            0.4:   Rm
 MST .F                62:   Rm Meas. temp.
 RMF .OHMM           0.48:   Rmf
 MFST.F                63:   Rmf Meas. temp.
 RMC .OHMM           0.52:   Rmc
 MCST.F                63:   Rmc Meas. temp.
 MFSS.               MEAS:   Source Rmf.
 MCSS.               MEAS:   Source Rmc.
 TCS .HRS             3.5:   Time Circ. stopped
 MRT .F               118:   Maximum recorded temp.
 LUN .               2958:   Logging unit number
 LUL .             CASPER:   Logging unit location
 ENGI.             MILLER:   Recorded By
 WITN.         HERRINGTON:   Witnessed by
 ORIG.           5" PRINT:   Origin of data
 UWI .     49025104450000:   Unique Well ID
 DICO. A2D TECHNOLOGIES, INC.:   Digitizing Company
~OTHER INFORMATION
~A   DEPT     CALD        GRD       RHOB        CORR       SPR         SN        ILD   
# ...
  807.5000    11.5543    92.5574     2.5122     0.0205   -60.6796     7.7176     6.0176
  808.0000    11.5731    92.7515     2.5131     0.0235   -60.6719     7.6494     5.9096
  808.5000    11.5927    93.5419     2.5141     0.0255   -60.6641     7.6515     5.8573
  809.0000    11.5922    93.5373     2.5221     0.0274   -60.4584     7.5843     5.8563
  809.5000    11.5918    93.3339     2.5261     0.0274   -60.4507     7.4482     5.8045
  810.0000    11.6509    93.3293     2.5281     0.0304   -60.4429     7.4507     5.8065
  810.5000    11.5908    92.7284     2.5311     0.0334   -60.2357     7.4533     5.8084
  811.0000    11.6103    92.3263     2.5320     0.0334   -60.4274     7.3873     5.7071
  811.5000    11.6098    93.1167     2.5270     0.0313   -60.4197     7.3898     5.7090
  812.0000    11.6093    93.9070     2.5220     0.0273   -60.4119     7.3923     5.7109
  812.5000    11.6089    93.9024     2.5239     0.0273   -60.2047     7.3944     5.7658
  813.0000    11.6283    93.5003     2.5269     0.0252   -59.5984     7.3969     5.7144
  813.5000    11.6278    92.7007     2.5219     0.0212   -59.5907     7.3994     5.7163
  814.0000    11.6075    92.4973     2.5219     0.0242   -59.5829     7.4019     5.7183
  814.5000    11.6269    92.6915     2.5299     0.0282   -59.7747     7.4044     5.6677
  815.0000    11.6262    93.6805     2.5349     0.0301   -59.7670     7.4070     5.6175
  815.5000    11.6260    94.0734     2.5308     0.0261   -59.9587     7.4095     5.6194
  816.0000    11.6454    94.0687     2.5298     0.0200   -60.1505     7.3439     5.6213
  816.5000    11.6648    93.0705     2.5207     0.0210   -60.1427     7.4145     5.5716
  817.0000    11.6842    91.4760     2.5247     0.0240   -60.5340     7.4170     5.5735
  817.5000    11.6837    89.8816     2.5287     0.0240   -60.5278     7.3524     5.5753
  818.0000    11.6832    87.4896     2.5287     0.0250   -60.5200     7.4221     5.5772
  818.5000    11.6828    87.6865     2.5297     0.0249   -60.5123     7.4934     5.6308
  819.0000    11.6823    89.2717     2.5296     0.0259   -60.7040     7.4955     5.6850
  819.5000    11.6818    89.2671     2.5306     0.0279   -60.6963     7.4985     5.6869
  820.0000    11.6814    89.0629     2.5316     0.0319   -60.4890     7.5011     5.6888
  820.5000    11.7008    88.4631     2.5316     0.0319   -60.6808     7.5031     5.6907
  821.0000    11.7203    89.4520     2.5325     0.0309   -60.6730     7.5057     5.7454
  821.5000    11.6999    90.8384     2.5275     0.0288   -60.6653     7.5077     5.6942
  822.0000    11.6796    92.4235     2.5275     0.0268   -60.6575     7.5103     5.6961
  822.5000    11.7189    93.0150     2.5214     0.0278   -60.6498     7.5128     5.6981
  823.0000    11.7184    92.8117     2.5284     0.0307   -60.6420     7.5154     5.7000
  823.5000    11.7179    92.4097     2.5324     0.0307   -60.6343     7.5882     5.7548
  824.0000    11.6976    92.8025     2.5334     0.0287   -60.4271     7.5902     5.7039
  824.5000    11.7170    92.7978     2.5284     0.0256   -60.4193     7.5933     5.7058
  825.0000    11.7364    92.9919     2.5203     0.0256   -60.6111     7.5964     5.7077
  825.5000    11.7360    93.5834     2.5203     0.0276   -60.4039     7.4596     5.7097
  826.0000    11.7156    93.7784     2.5233     0.0296   -60.5971     7.4621     5.8180
  826.5000    11.7152    90.9912     2.5242     0.0276   -60.3899     7.6037     5.7135
  827.0000    11.7147    90.7879     2.5242     0.0225   -60.3822     7.6768     5.8219
  827.5000    11.7142    90.7833     2.5242     0.0185   -60.3744     7.6794     5.8239
  828.0000    11.6939    91.3747     2.5151     0.0134   -60.3667     7.7532     5.8799
  828.5000    11.7133    91.7684     2.5041     0.0114   -60.1595     7.7559     5.9364
  829.0000    11.7128    90.7695     2.5071     0.0164   -60.1518     7.7585     5.9384
  829.5000    11.7322    90.9645     2.5121     0.0244   -59.9430     7.7606     5.9400
  830.0000    11.7516    91.1586     2.5281     0.0183   -60.5352     7.7633     5.9971
  830.5000    11.7710    92.1473     2.5281     0.0233   -60.3280     7.8379     5.9992
  831.0000    11.7706    91.1494     2.5320     0.0253   -60.3202     7.9133     6.1130
  831.5000    11.7900    90.3501     2.5300     0.0223   -60.3125     7.8433     6.1151
  832.0000    11.7498    91.1402     2.5129     0.0192   -60.3048     7.8459     6.1172
  832.5000    11.7692    92.1289     2.5129     0.0202   -60.4964     7.9214     6.1192
  833.0000    11.7687    90.9323     2.5189     0.0252   -60.4887     7.9241     6.1213
  833.5000    11.7881    88.9411     2.5349     0.0252   -60.4809     7.9270     6.1234
  834.0000    11.8075    87.1476     2.5349     0.0302   -60.4732     7.9295     6.1255
  834.5000    11.8070    86.3484     2.5409     0.0332   -60.6649     7.9322     6.1275
  835.0000    11.8264    86.9407     2.5439     0.0291   -60.4593     8.0084     6.1865
  835.5000    11.8061    89.7174     2.5318     0.0231   -60.6509     8.0854     6.3039
  836.0000    11.8454    90.7061     2.5258     0.0221   -60.6432     8.1632     6.3060
  836.5000    11.8052    89.3109     2.5268     0.0200   -60.6354     8.1660     6.4257
  837.0000    11.8047    88.5117     2.5287     0.0210   -60.6277     8.4771     6.6705
  837.5000    11.8042    87.9112     2.5247     0.0200   -60.8194     8.3998     6.8563
  838.0000    11.8038    86.9134     2.5227     0.0199   -60.6122     8.4811     6.9247
  838.5000    11.8033    85.9156     2.5277     0.0199   -60.6045     8.8031     7.1876
  839.0000    11.8028    77.1699     2.5276     0.0169   -60.5967     8.8859     7.3919
  839.5000    11.8222    75.1791     2.5196     0.0189   -60.5890     9.1404     7.7437
  840.0000    11.8813    75.5719     2.5296     0.0239   -60.3819     9.2283     7.9585
  840.5000    11.8611    75.7661     2.5366     0.0228   -60.3741     9.5799     8.4150
  841.0000    11.9401    75.9603     2.5366     0.0198   -60.5658     9.5819     8.7344
  841.5000    11.9198    75.9558     2.5235     0.0228   -60.3586     9.6740     8.9826
  842.0000    11.9392    75.3555     2.5325     0.0288   -60.3509     9.6773     9.0742
  842.5000    11.9188    74.9538     2.5405     0.0318   -60.3431     9.6800     9.1602
  843.0000    11.9382    74.7508     2.5465     0.0318   -60.3354     9.6840     9.1633
  843.5000    11.9378    74.5477     2.5475     0.0307   -60.3292     9.7739     9.1671
  844.0000    11.9373    75.5364     2.5474     0.0247   -60.3215     9.6874     9.2565
  844.5000    11.9368    77.9154     2.5454     0.0196   -60.3137     9.6901     9.2597
  845.0000    11.9363    79.8980     2.5384     0.0156   -60.1066     9.7832     9.2629
  845.5000    11.9359    80.6880     2.5333     0.0155   -59.8995     9.8780     9.3520
  846.0000    11.9354    80.6835     2.5333     0.0246   -59.6924     9.8807     9.4413
  846.5000    11.9548    81.6720     2.5483     0.0296   -59.4853     9.8841     9.4445
  847.0000    11.9543    82.0648     2.5533     0.0306   -59.0789     9.8875     9.4477
  847.5000    11.9539    81.0672     2.5503     0.0285   -59.0712     9.8909     9.4510
  848.0000    11.9733    81.2613     2.5543     0.0305   -59.0635     9.8942     9.4542
  848.5000    11.9529    85.4275     2.5593     0.0305   -59.0557     9.9894     9.6337
  849.0000    11.9525    81.0537     2.5662     0.0335   -59.0480     9.9955     9.7263
  849.5000    11.9520    79.4604     2.5642     0.0304   -59.0418    10.0923     9.8199
  850.0000    11.8919    78.4629     2.5632     0.0274   -59.0326    10.0957     9.7330
  850.5000    11.9511    77.4655     2.5602     0.0304   -59.2242    10.0064     9.7363
  851.0000    11.9506    77.0638     2.5581     0.0304   -59.0171    10.0098     9.8300
  851.5000    11.9303    75.8664     2.5541     0.0283   -59.4096     9.9213     9.8334
  852.0000    11.8901    77.0549     2.5541     0.0263   -59.6012     9.9247     9.8367
  852.5000    11.9492    82.2138     2.5520     0.0253   -59.9921     9.9267     9.7497
