~VERSION INFORMATION
 VERS.                2.0:   CWLS LOG ASCII STANDARD - VERSION 2.0
 WRAP.                 NO:   ONE LINE PER DEPTH STEP
~WELL INFORMATION
#MNEM.UNIT      DATA TYPE    INFORMATION
#----------   ------------   ------------------------------
 STRT.F          216.0000:   START DEPTH
 STOP.F         3241.0000:   STOP DEPTH
 STEP.F            0.5000:   STEP LENGTH
 NULL.          -999.2500:   NO VALUE
 COMP.    FENIX & SCISSON:   COMPANY
 WELL.    FENIX "A" #72-4:   WELL
 FLD .             NPR #3:   FIELD
 LOC .       S4 T38N R78W:   LOCATION
 CNTY.            NATRONA:   COUNTY
 STAT.            WYOMING:   STATE
 CTRY. UNITED STATES OF AMERICA:   COUNTRY
 SRVC.              WELEX:   SERVICE COMPANY
 DATE.        09-JUL-1977:   LOGDATE
 API .     49025103900000:   API NUMBER
~CURVE INFORMATION
#MNEM.UNIT       API CODE    CURVE DESCRIPTION
#----------   ------------   ------------------------------
 DEPT.F                  :   
 CORR.G/C3   45 356 01 00:   DENSITY CORRECTION
 GRD .GAPI   45 310 01 00:   GAMMA RAY FROM DENSITY LOG
 RHOB.G/C3   45 350 01 00:   BULK DENSITY
 CALD.IN     45 280 60 00:   CALIPER FROM DENSITY LOG
 SPR .MV     07 010 01 00:   SPONTANEOUS POTENTIAL
 ILD .OHMM   07 120 46 00:   DEEP INDUCTION RESISTIVITY
 ILM .OHMM   07 120 44 00:   INDUCTION LOG MEDIUM RESISTIVITY
 SGRD.OHMM   07 220 05 00:   SHALLOW SHORT GUARD RESISTIVITY
~PARAMETER INFORMATION
#MNEM.UNIT          VALUE    DESCRIPTION
#----------   ------------   ------------------------------
 EKB .F         5192.0000:   Kelly bushing
 EGL .F         5182.0000:   Ground level
 TD  .F         3243.0000:   Total depth
 CLNT.            A2DTECH:   Client Code
 SL  . 990' FNL & 990' FEL:   Surface Location
 PD  .                 GL:   Permanent Datum
 EPD .F              5182:   Elevation Permanent Datum
 LMF .                 KB:   Log Measured From
 DMF .                 KB:   Drilling Measured From
 DAPD.F                10:   Feet Above Permanent Datum
 DATE.        09-JUL-1977:   Date Logged [DD-MMM-YYYY]
 DD  .F              3230:   Depth driller
 DL  .F              3243:   Depth logger
 BLI .F              3241:   Bottom log interval
 TLI .F               224:   Top log interval
 CS1 .IN            8.625:   Casing size
 CBD1.      8.625" @ 221':   Casing driller 1
 CBL1.F               224:   Casing logger 1
 BS1 .IN            7.875:   Bit size
 BSD1.F              3230:   Depth drilled with bit1
 DFT .                KCL:   Type fluid in hole
 DFD .                8.9:   Density
 DFV .                 44:   Viscosity
 DFPH.                7.5:   pH
 DFL .                5.8:   Fluid loss
 MSS .            MUD PIT:   Source of sample
 RMS .OHMM           0.24:   Rm
 MST .F                68:   Rm Meas. temp.
 RMF .OHMM           0.20:   Rmf
 MFST.F                68:   Rmf Meas. temp.
 MFSS.               MEAS:   Source Rmf.
 RMC .OHMM           0.31:   Rmc
 MCST.F                68:   Rmc Meas. temp.
 MCSS.               MEAS:   Source Rmc.
 RMB .OHMM           0.13:   Rm. at BHT
 BHT .F               117:   BHT.
 TCS .HRS               3:   Time Circ. stopped
 MRT .F               117:   Maximum recorded temp.
 LUN .               8766:   Logging unit number
 LUL .             CASPER:   Logging unit location
 ENGI.          T. JOYNER:   Recorded By
 WITN.         HARRINGTON:   Witnessed by
 ORIG.           5" PRINT:   Origin of data
 UWI .     49025103900000:   Unique Well ID
 DICO. A2D TECHNOLOGIES, INC.:   Digitizing Company
~OTHER INFORMATION
~A   DEPT     CORR         GRD        RHOB     CALD        SPR        ILD        ILM       SGRD   
# ...
 3213.0000     0.0012   150.5952     2.4195     7.9068   -56.7399     3.2522     4.2285     5.1311
 3213.5000     0.0027   147.3214     2.4323     7.8845   -56.5550     3.5357     4.4410     6.0607
 3214.0000     0.0028   147.0238     2.4443     7.8709   -56.2645     3.7392     4.5370     7.3086
 3214.5000     0.0044   150.0000     2.4556     7.8577   -56.2519     3.8201     4.4445     7.7827
 3215.0000     0.0088   153.5714     2.4698     7.8599   -56.2392     3.7962     4.2699     7.6196
 3215.5000     0.0149   157.4405     2.4842     7.8617   -56.2266     3.7727     4.0993     7.0271
 3216.0000     0.0209   160.7143     2.4978     7.8584   -56.2140     3.8032     4.0172     4.7755
 3216.5000     0.0239   162.7976     2.5059     7.8498   -56.2016     3.8575     4.2198     4.1613
 3217.0000     0.0270   163.6905     2.5066     7.8520   -56.1885     3.9410     4.6837     4.4936
 3217.5000     0.0278   164.3206     2.5014     7.8537   -56.1729     4.0262     5.0570     5.2349
 3218.0000     0.0248   167.8571     2.4970     7.8555   -56.1603     4.1706     5.3850     6.4896
 3218.5000     0.0225   169.3452     2.4955     7.8418   -56.1477     4.2903     5.7039     7.8801
 3219.0000     0.0197   164.5833     2.4985     7.8293   -56.1350     4.5059     6.1074     7.5045
 3219.5000     0.0197   159.2262     2.5068     7.8310   -56.1224     4.7983     6.4588     8.3983
 3220.0000     0.0213   148.8095     2.5138     7.8331   -56.1103     5.1095     6.3744     9.6494
 3220.5000     0.0228   131.5476     2.5203     7.8199   -56.0971     5.4499     5.8712    10.4906
 3221.0000     0.0228   125.8929     2.5256     7.8063   -56.2335     5.7950     5.8751    10.7157
 3221.5000     0.0214   121.4286     2.5286     7.7936   -56.2177     6.0443     6.2131    11.1016
 3222.0000     0.0192   117.5595     2.5309     7.7803   -56.3541     6.1751     6.6651    10.3674
 3222.5000     0.0170   113.3929     2.5249     7.7821   -56.3415     6.1356     7.1016     9.2886
 3223.0000     0.0170   111.3095     2.5160     7.7842   -56.3289     6.0975     7.2992     9.8345
 3223.5000     0.0156   110.4167     2.5235     7.7706   -56.3162     6.1026     7.4057     8.5034
 3224.0000     0.0153   111.0196     2.5273     7.7578   -56.3036     6.1067     7.3596     7.9948
 3224.5000     0.0142   111.9048     2.5266     7.7594   -56.2910     6.1108     7.2623     8.1677
 3225.0000     0.0127   110.7634     2.5243     7.7612   -56.4274     6.1151     7.1674     7.5763
 3225.5000     0.0098   104.4643     2.5206     7.7631   -56.4116     6.1200     7.1239     7.0752
 3226.0000     0.0098    88.3929     2.5169     7.7651   -56.5511     6.1241     7.5915     7.4823
 3226.5000     0.0099    54.7619     2.5110     7.7666   -56.5353     6.1283     8.3060     8.4789
 3227.0000     0.0099     3.6197     2.5050     7.7685   -56.6749     6.1324     8.8434    11.0622
 3227.5000     0.0100     0.0933     2.5020     7.7701   -56.6591     6.0932     8.0347    13.6765
 3228.0000     0.0108     0.0933     2.5051     7.7720   -56.6465     6.0562     7.4004    10.2401
 3228.5000     0.0123     0.0933     2.5091     7.7737   -56.6338     6.0187     7.0071     8.5620
 3229.0000     0.0123     0.0933     2.5104     7.7755   -56.6207     5.9360     6.8679     7.3596
 3229.5000     0.0116     0.0933     2.5074     7.7773   -56.6054     5.7036     6.7316     7.1144
 3230.0000     0.0117     0.0933     2.5029     7.7791   -56.5928     5.5136     6.5488     7.0215
 3230.5000     0.0087     0.0933     2.4902     7.7812   -56.5802     5.3300     6.2916     6.8820
 3231.0000     0.0050     0.0933     2.4723     7.7829   -56.4185     5.1882     6.0402     6.7416
 3231.5000     0.0028     0.0933     2.4712     7.7810   -56.4059     5.0154     5.6407     6.2138
 3232.0000     0.0074     0.0933     2.4821     7.7561   -56.2442     4.8483     5.4897     5.8431
 3232.5000     0.0089     0.0933     2.4836     7.7583   -56.0730     4.7193     5.6482     6.0945
 3233.0000     0.0082     0.0933     2.4604     7.7600   -55.7687     4.6577     5.6574     6.5802
 3233.5000     0.0045     0.0933     2.4529     7.7618   -55.4580     4.6609     5.3517     6.9109
 3234.0000     0.0016     0.0933     2.4635     7.7487   -55.2963     4.6647     5.1337     6.6347
 3234.5000     0.0061     0.0933     2.4732     7.7355   -54.9856     4.6679     4.9674     6.1959
 3235.0000     0.0107     0.0933     2.4822     7.7227   -54.8240     4.7034     4.9708     5.8196
 3235.5000     0.0182     0.0933     2.4920     7.7096   -54.8113     4.7065     5.0086     5.4418
 3236.0000     0.0235     0.0933     2.5018     7.6960   -54.6497     4.7423     5.0467     5.2606
 3236.5000     0.0257     0.0933     2.4980     7.6828   -54.4877     4.7784     5.0851     5.3744
 3237.0000     0.0258     0.0933     2.4951     7.6700   -54.4722     4.8148     5.1593     5.4906
 3237.5000     0.0258     0.0933     2.4929     7.6564   -54.4596     4.8515     5.1994     5.4555
 3238.0000     0.0289     0.0933     2.4952     7.6437   -54.4470     4.8892     5.2382     5.3481
 3238.5000     0.0379     0.0991     2.5027     7.6454   -54.4343     4.9264     5.2788     5.5782
 3239.0000     0.0470     0.3355     2.5199     7.6322   -54.4217     4.9297     5.2451     5.8216
 3239.5000     0.0577     0.5952     2.5245     7.6042   -54.4091     4.9672     5.2495     5.9863
 3240.0000     0.0620     0.7986     2.5237     7.5761   -54.3964     4.9705     5.2530     6.0736
 3240.5000     0.0613     0.5729     2.5113     7.5036   -54.5671     5.1475     5.3666     6.4895
 3241.0000     0.0591     0.3108     2.4966     7.3277  -999.2500  -999.2500     5.8829     6.5869
