~VERSION INFORMATION
 VERS.                2.0:   CWLS LOG ASCII STANDARD - VERSION 2.0
 WRAP.                 NO:   ONE LINE PER DEPTH STEP
~WELL INFORMATION
#MNEM.UNIT      DATA TYPE    INFORMATION
#----------   ------------   ------------------------------
 STRT.F           95.0000:   START DEPTH
 STOP.F          866.5000:   STOP DEPTH
 STEP.F            0.5000:   STEP LENGTH
 NULL.          -999.2500:   NO VALUE
 COMP.          U.S. NAVY:   COMPANY
 WELL. U.S NAVY RES 3 TEAPOT DOM "SX" #41-2:   WELL
 FLD .        TEAPOT DOME:   FIELD
 LOC .       S2 T38N R78W:   LOCATION
 CNTY.            NATRONA:   COUNTY
 STAT.            WYOMING:   STATE
 CTRY. UNITED STATES OF AMERICA:   COUNTRY
 SRVC.       SCHLUMBERGER:   SERVICE COMPANY
 DATE.        20-JUL-1953:   LOGDATE
 API .     49025064770000:   API NUMBER
~CURVE INFORMATION
#MNEM.UNIT       API CODE    CURVE DESCRIPTION
#----------   ------------   ------------------------------
 DEPT.F                  :   
 SPR .MV     05 010 01 00:   SPONTANEOUS POTENTIAL FROM RES.
 ASN .OHMM   05 041 16 00:   AMPLIFIED SHORT NORMAL 16"
 ILD .OHMM   05 120 46 00:   INDUCTION LOG DEEP
 GR  .GAPI   30 310 01 00:   GAMMA RAY
~PARAMETER INFORMATION
#MNEM.UNIT          VALUE    DESCRIPTION
#----------   ------------   ------------------------------
 EKB .F         5140.0000:   Kelly bushing
 EGL .F         5135.0000:   Ground level
 TD  .F          862.0000:   Total depth
 DATE.        20-JUL-1953:   Date logged
 CLNT.            A2DTECH:   Client Code
 DD  .F               862:   Depth driller
 DL  .F               855:   Depth logger
 BLI .F               654:   Bottom log interval
 TLI .F                50:   Top log interval
 CS1 .IN            8.625:   Casing size
 CBD1.       8.625" @ 10':   Casing driller 1
 BS1 .IN             6.75:   Bit size
 BSD1.F               862:   Depth drilled with bit1
 DFT .            GEL-OIL:   Type fluid in hole
 DFD .                9.4:   Density
 DFV .                 50:   Viscosity
 DFPH.                8.0:   pH
 DFL .                3.1:   Fluid loss
 RMS .OHMM           1.83:   Rm
 MST .F                96:   Rm Meas. temp.
 RMF .OHMM           1.56:   Rmf
 MFST.F                96:   Rmf Meas. temp.
 TCS .HRS               1:   Time Circ. stopped
 LUN .               4507:   Logging unit number
 LUL .               CSPR:   Logging unit location
 ENGI.            WINKLER:   Recorded By
 WITN.          JORGENSON:   Witnessed by
 ORIG.           5" PRINT:   Origin of data
 UWI .     49025064770000:   Unique Well ID
 DICO. A2D TECHNOLOGIES, INC.:   Digitizing Company
 MSS .           FLOWLINE:   Source of sample
~OTHER INFORMATION
~A  DEPTH      SPR        ASN        ILD         GR
# ...
  825.0000   -43.8992    11.3403    10.4476  -999.2500
  825.5000   -44.3485    11.3439    10.4463  -999.2500
  826.0000   -44.7978    11.3475    10.5194  -999.2500
  826.5000   -44.9495    11.3517    10.7418  -999.2500
  827.0000   -45.1016    11.3554    10.8898  -999.2500
  827.5000   -45.1042    11.3590    11.0374  -999.2500
  828.0000   -45.1074    11.3626    11.1284  -999.2500
  828.5000   -45.2590    11.4411    11.2581  -999.2500
  829.0000   -45.2624    11.4453    11.3313  -999.2500
  829.5000   -45.2653    11.4489    11.2550  -999.2500
  830.0000   -45.2681    11.3772    11.1043  -999.2500
  830.5000   -45.2710    11.2593    10.8790  -999.2500
  831.0000   -45.1246    11.1425    10.7283  -999.2500
  831.5000   -44.9787    11.0143    10.7268  -999.2500
  832.0000   -44.6221    10.9430    10.5759  -999.2500
  832.5000   -44.0925    10.9473    10.4998  -999.2500
  833.0000   -43.6490    10.9506    10.4787  -999.2500
  833.5000   -43.2054    10.8790    10.4223  -999.2500
  834.0000   -42.9107    10.8084    10.4206  -999.2500
  834.5000   -42.6159    10.8126    10.4192  -999.2500
  835.0000   -42.4700    10.8159    10.3431  -999.2500
  835.5000   -42.3244    10.8199    10.3418  -999.2500
  836.0000   -42.3279    10.8990    10.4146  -999.2500
  836.5000   -42.9260    10.9020    10.4132  -999.2500
  837.0000   -42.9289    10.9062    10.3373  -999.2500
  837.5000   -42.7824    10.9098    10.3357  -999.2500
  838.0000   -42.9351    10.9134    10.3343  -999.2500
  838.5000   -43.3844    10.9919    10.3328  -999.2500
  839.0000   -43.5361    11.0710    10.4057  -999.2500
  839.5000   -43.6877    11.2243    10.4045  -999.2500
  840.0000   -43.6906    11.4525    10.4776  -999.2500
  840.5000   -43.6940    11.6806    10.6253  -999.2500
  841.0000   -43.6968    11.9843    10.8475  -999.2500
  841.5000   -43.6997    12.3621    11.2938  -999.2500
  842.0000   -43.8514    12.8897    12.1132  -999.2500
  842.5000   -45.0452    13.7167    13.0820  -999.2500
  843.0000   -47.4291    14.9927    14.2745  -999.2500
  843.5000   -49.8129    16.7185    16.1385  -999.2500
  844.0000   -52.0479    17.6952    17.5550  -999.2500
  844.5000   -54.8782    20.0186    18.8222  -999.2500
  845.0000   -57.4113    19.8725    20.2387  -999.2500
  845.5000   -57.2649    21.4486    20.6852  -999.2500
  846.0000   -56.8218    23.6234    20.3848  -999.2500
  846.5000   -56.3777    23.7013    19.8610  -999.2500
  847.0000   -56.0830    23.1067    19.4118  -999.2500
  847.5000   -56.6821    22.4367    19.1118  -999.2500
  848.0000   -57.2797    21.8409    18.8865  -999.2500
  848.5000   -54.7533    22.0697    18.8102  -999.2500
  849.0000   -53.7145    21.1757    18.8838  -999.2500
  849.5000   -55.6524    20.0566    19.0314  -999.2500
  850.0000   -56.6969    19.8350    19.1790  -999.2500
  850.5000   -56.4017    19.9890    19.2522  -999.2500
  851.0000   -54.9169    19.7686    19.1759  -999.2500
  851.5000   -53.1341    19.0986    19.0252  -999.2500
  852.0000   -51.3517    18.7274    18.7252  -999.2500
  852.5000   -50.1641    18.5819    18.4999  -999.2500
  853.0000   -49.1253    18.3609    18.3492  -999.2500
  853.5000   -49.2770    17.7664    18.2729  -999.2500
  854.0000   -51.0656    17.0215    18.2714  -999.2500
  854.5000   -51.6642  -999.2500  -999.2500  -999.2500
  855.0000   -51.2206  -999.2500  -999.2500  -999.2500
  855.5000   -50.8984  -999.2500  -999.2500  -999.2500
  856.0000   -50.7795  -999.2500  -999.2500  -999.2500
  856.5000   -50.9321  -999.2500  -999.2500  -999.2500
  857.0000   -50.9345  -999.2500  -999.2500  -999.2500
  857.5000   -50.9379  -999.2500  -999.2500  -999.2500
  858.0000   -50.9407  -999.2500  -999.2500  -999.2500
  858.5000   -50.9435  -999.2500  -999.2500  -999.2500
  859.0000   -50.7976  -999.2500  -999.2500  -999.2500
  859.5000   -50.5034  -999.2500  -999.2500  -999.2500
  860.0000   -50.5063  -999.2500  -999.2500  -999.2500
  860.5000   -50.5092  -999.2500  -999.2500  -999.2500
  861.0000   -50.5120  -999.2500  -999.2500  -999.2500
  861.5000   -50.5154  -999.2500  -999.2500  -999.2500
  862.0000   -50.3694  -999.2500  -999.2500  -999.2500
  862.5000   -50.2230  -999.2500  -999.2500  -999.2500
  863.0000   -49.7800  -999.2500  -999.2500  -999.2500
  863.5000   -49.3359  -999.2500  -999.2500  -999.2500
  864.0000   -49.3398  -999.2500  -999.2500  -999.2500
  864.5000   -49.1938  -999.2500  -999.2500  -999.2500
  865.0000   -49.0474  -999.2500  -999.2500  -999.2500
  865.5000   -49.1996  -999.2500  -999.2500  -999.2500
  866.0000   -49.2029  -999.2500  -999.2500  -999.2500
  866.5000   -49.3544  -999.2500  -999.2500  -999.2500
