~VERSION INFORMATION
 VERS.                2.0:   CWLS LOG ASCII STANDARD - VERSION 2.0
 WRAP.                 NO:   ONE LINE PER DEPTH STEP
~WELL INFORMATION
#MNEM.UNIT      DATA TYPE    INFORMATION
#----------   ------------   ------------------------------
 STRT.F           31.5000:   START DEPTH
 STOP.F         3370.0000:   STOP DEPTH
 STEP.F            0.5000:   STEP LENGTH
 NULL.          -999.2500:   NO VALUE
 COMP. LAWRENCE ALLISON & ASSOC - WEST:   COMPANY
 WELL. LAWRENCE "AX" #46-34:   WELL
 FLD .             NPR #3:   FIELD
 LOC .      S34 T39N R78W:   LOCATION
 CNTY.            NATRONA:   COUNTY
 STAT.            WYOMING:   STATE
 CTRY. UNITED STATES OF AMERICA:   COUNTRY
 SRVC.       SCHLUMBERGER:   SERVICE COMPANY
 DATE.        30-APR-1986:   LOGDATE
 API .     49025111380000:   API NUMBER
~CURVE INFORMATION
#MNEM.UNIT       API CODE    CURVE DESCRIPTION
#----------   ------------   ------------------------------
 DEPT.F                  :   
 TENR.LBS    07 635 01 00:   TENSION FROM RESISTIVITY
 GRR .GAPI   07 310 01 00:   GAMMA RAY FROM RESISTIVITY
 CALR.IN     07 280 01 00:   CALIPER FROM RESISTIVITY
 SPR .MV     07 010 01 00:   SPONTANEOUS POTENTIAL
 TEND.LBS    45 635 01 00:   TENSION FROM DENSITY LOG
 DEN .G/C3   45 350 01 00:   BULK DENSITY
 CORR.G/C3   45 356 01 00:   DENSITY CORRECTION
 CNC .DEC    42 890 03 00:   NEUTRON PORISITY SANDSTONE
 RFOC.OHMM   07 220 04 00:   RESISTIVITY FOCUSED LOG
 RILD.OHMM   07 120 46 00:   RESISTIVITY INDUCTION LOG DEEP
 RILM.OHMM   07 120 44 00:   RESISTIVITY INDUCTION LOG MEDIUM
~PARAMETER INFORMATION
#MNEM.UNIT          VALUE    DESCRIPTION
#----------   ------------   ------------------------------
 EKB .F         5094.0000:   Kelly bushing
 EGL .F         5082.0000:   Ground level
 EDF .F            0.0000:   Drilling floor
 TD  .F         3370.0000:   Total depth
 DATE.        30-APR-1986:   Date logged
 CLNT.            A2DTECH:   Client Code
 SL  . 2462' FWL & 1545' FSL:   Surface Location
 PD  .                 GL:   Permanent Datum
 EPD .F              5082:   Elevation Permanent Datum
 LMF .                 KB:   Log Measured From
 DMF .                 KB:   Drilling Measured From
 DAPD.F                12:   Feet Above Permanent Datum
 DD  .F              3370:   Depth driller
 DL  .F              3369:   Depth logger
 BLI .F              3367:   Bottom log interval
 CS1 .IN            8.625:   Casing size
 CBD1.      8.625" @ 642':   Casing driller 1
 CBL1.F               642:   Casing logger 1
 BS1 .IN            7.875:   Bit size
 BSD1.F              3370:   Depth drilled with bit1
 DFT .        POLYMER/KCL:   Type fluid in hole
 DFD .                8.9:   Density
 DFV .                 36:   Viscosity
 DFPH.                8.5:   pH
 DFL .               10.2:   Fluid loss
 MSS .           FLOWLINE:   Source of sample
 RMS .OHMM           .319:   Rm
 MST .F                79:   Rm Meas. temp.
 RMF .OHMM            .24:   Rmf
 MFST.F                79:   Rmf Meas. temp.
 RMC .OHMM            .40:   Rmc
 MCST.F                79:   Rmc Meas. temp.
 MFSS.               CALC:   Source Rmf.
 MCSS.               CALC:   Source Rmc.
 RMB .OHMM            .21:   Rm. at BHT
 BHT .F               117:   BHT.
 TCS .HRS               4:   Time Circ. stopped
 MRT .F               117:   Maximum recorded temp.
 LUN .            HL-6264:   Logging unit number
 LUL .           GILLETTE:   Logging unit location
 ENGI.     P. M. FAHLSING:   Recorded By
 WITN.             STRONG:   Witnessed by
 ORIG.        2" 5" PRINT:   Origin of data
 UWI .     49025111380000:   Unique Well ID
 DICO. A2D TECHNOLOGIES, INC.:   Digitizing Company
 TLI .                  0:   Top log interval
~OTHER INFORMATION
~A   DEPT     TENR        GRR       CALR        SPR       TEND        DEN       CORR        CNC       RFOC       RILD       RILM   
# ...
 2258.0000   -57.5950    82.6190     9.2900   -92.4910  -999.2500  -999.2500  -999.2500  -999.2500     8.5320     5.5570     5.7390
 2258.5000   -61.1230    84.6760     9.2930   -92.5080  -999.2500  -999.2500  -999.2500  -999.2500     9.4130     5.6080     5.6970
 2259.0000   -64.4430    84.8210     9.2950   -92.4930  -999.2500  -999.2500  -999.2500  -999.2500     9.4130     5.6080     5.4120
 2259.5000   -64.4430    82.5340     9.2970   -92.5060  -999.2500  -999.2500  -999.2500  -999.2500     8.5840     5.2440     5.1280
 2260.0000   -64.4430    81.0410     9.3000   -92.4950  -999.2500  -999.2500  -999.2500  -999.2500     7.9230     5.0000     4.8430
 2260.5000   -64.4430    85.9300     9.3020   -92.5050  -999.2500  -999.2500  -999.2500  -999.2500     7.2040     4.7570     4.5590
 2261.0000   -64.4430    91.8400     9.3040   -92.3700  -999.2500  -999.2500  -999.2500  -999.2500     6.3550     4.4510     4.3820
 2261.5000   -64.4430    94.8720     9.3060   -92.0070  -999.2500  -999.2500  -999.2500  -999.2500     5.5060     4.3580     4.4210
 2262.0000   -63.8830    96.1460     9.3090   -91.6200  -999.2500  -999.2500  -999.2500  -999.2500     4.9730     4.2330     4.4600
 2262.5000   -62.3780    93.4940     9.3100   -91.2610  -999.2500  -999.2500  -999.2500  -999.2500     5.2260     4.1330     4.4990
 2263.0000   -60.8740    91.2810     9.3060   -90.8710  -999.2500  -999.2500  -999.2500  -999.2500     5.8700     4.2200     4.5380
 2263.5000   -59.3690    91.2630     9.3010   -90.5140  -999.2500  -999.2500  -999.2500  -999.2500     6.5140     4.2930     4.5760
 2264.0000   -57.8650    94.0780     9.2970   -90.2920  -999.2500  -999.2500  -999.2500  -999.2500     7.1580     4.3660     4.5760
 2264.5000   -56.3600    98.6670     9.2920   -90.3070  -999.2500  -999.2500  -999.2500  -999.2500     7.7510     4.4390     4.5760
 2265.0000   -54.8560    98.4950     9.2870   -90.5830  -999.2500  -999.2500  -999.2500  -999.2500     6.7320     4.5120     4.5760
 2265.5000   -54.4130    94.7740     9.2820   -90.9220  -999.2500  -999.2500  -999.2500  -999.2500     5.7130     4.5760     4.5760
 2266.0000   -54.4130    92.9810     9.2770   -91.2420  -999.2500  -999.2500  -999.2500  -999.2500     5.9010     4.4810     4.5760
 2266.5000   -54.4130    94.5440     9.2730   -91.5740  -999.2500  -999.2500  -999.2500  -999.2500     6.0950     4.4100     4.6670
 2267.0000   -54.4130    97.7240     9.2680   -91.9010  -999.2500  -999.2500  -999.2500  -999.2500     6.0170     4.6950     4.8330
 2267.5000   -54.4130   102.7150     9.2630   -92.0990  -999.2500  -999.2500  -999.2500  -999.2500     5.9370     4.9420     4.9990
 2268.0000   -54.4130   105.6380     9.2580   -92.1010  -999.2500  -999.2500  -999.2500  -999.2500     5.8190     5.1900     5.1650
 2268.5000   -54.4130   104.8880     9.2530   -92.0990  -999.2500  -999.2500  -999.2500  -999.2500     6.4260     5.4370     5.3310
 2269.0000   -54.4130   104.8570     9.2500   -92.1010  -999.2500  -999.2500  -999.2500  -999.2500     6.6850     5.6840     5.4550
 2269.5000   -54.4130   104.2020     9.2510   -92.0980  -999.2500  -999.2500  -999.2500  -999.2500     8.2220     5.7660     5.5780
 2270.0000   -54.4130   102.7050     9.2530   -92.1030  -999.2500  -999.2500  -999.2500  -999.2500     9.3260     5.8220     5.6760
 2270.5000   -54.4130   100.5510     9.2550   -92.0950  -999.2500  -999.2500  -999.2500  -999.2500     8.8320     5.8730     5.7730
 2271.0000   -54.4130    94.4610     9.2580   -92.0190  -999.2500  -999.2500  -999.2500  -999.2500     8.1310     5.9280     5.7500
 2271.5000   -54.4130    89.8110     9.2600   -91.7340  -999.2500  -999.2500  -999.2500  -999.2500     7.2660     5.8020     5.6190
 2272.0000   -50.1860    90.6760     9.2620   -91.4930  -999.2500  -999.2500  -999.2500  -999.2500     7.0670     5.6690     5.4880
 2272.5000   -46.5320    91.5430     9.2640   -91.1960  -999.2500  -999.2500  -999.2500  -999.2500     6.9530     5.5350     5.3570
 2273.0000   -44.3830    90.8660     9.2660   -90.9190  -999.2500  -999.2500  -999.2500  -999.2500     6.8360     5.4050     5.3390
 2273.5000   -44.3830    89.5570     9.2680   -91.0800  -999.2500  -999.2500  -999.2500  -999.2500     6.7470     5.4730     5.4210
 2274.0000   -42.0190    87.9940     9.2710   -91.1210  -999.2500  -999.2500  -999.2500  -999.2500     6.7470     5.5570     5.5040
 2274.5000   -38.3650    86.6730     9.2730   -90.8860  -999.2500  -999.2500  -999.2500  -999.2500     6.9710     5.6410     5.5860
 2275.0000   -34.3530    85.1510     9.2750   -90.5240  -999.2500  -999.2500  -999.2500  -999.2500     7.4470     5.7250     5.6680
 2275.5000   -25.4690    84.3450     9.2770   -90.0670  -999.2500  -999.2500  -999.2500  -999.2500     7.6800     5.8080     5.7500
 2276.0000   -29.1230    84.7450     9.2790   -90.1260  -999.2500  -999.2500  -999.2500  -999.2500     7.5240     5.8920     5.8320
 2276.5000   -32.7770    85.1130     9.2810   -90.5540  -999.2500  -999.2500  -999.2500  -999.2500     7.3330     5.9760     5.9140
 2277.0000   -36.4310    86.4870     9.2840   -91.1160  -999.2500  -999.2500  -999.2500  -999.2500     7.4680     6.0590     5.9970
 2277.5000   -40.0850    89.1060     9.2860   -91.6770  -999.2500  -999.2500  -999.2500  -999.2500     7.5390     6.1430     6.0950
 2278.0000   -44.3830    92.0550     9.2880   -91.7180  -999.2500  -999.2500  -999.2500  -999.2500     6.9370     6.2090     6.2130
 2278.5000   -37.9640    94.4760     9.2900   -91.6880  -999.2500  -999.2500  -999.2500  -999.2500     7.3750     6.1010     6.3250
 2279.0000   -27.7330    94.3090     9.2920   -91.7040  -999.2500  -999.2500  -999.2500  -999.2500     8.0720     6.0130     6.1870
 2279.5000   -17.5030    92.7640     9.2930   -91.7030  -999.2500  -999.2500  -999.2500  -999.2500     8.7690     5.8270     6.0390
 2280.0000   -14.2930    91.7550     9.2950   -91.6920  -999.2500  -999.2500  -999.2500  -999.2500     8.5930     5.5930     5.8210
 2280.5000   -16.5500    90.2330     9.2960   -91.5120  -999.2500  -999.2500  -999.2500  -999.2500     8.0190     5.3600     5.5750
 2281.0000   -19.7470    89.1060     9.2980   -91.3820  -999.2500  -999.2500  -999.2500  -999.2500     7.4440     5.1260     5.3280
 2281.5000   -22.9440    92.5030     9.2990   -91.0850  -999.2500  -999.2500  -999.2500  -999.2500     6.8700     4.8370     5.0820
 2282.0000   -26.1410    99.0320     9.3010   -90.7500  -999.2500  -999.2500  -999.2500  -999.2500     6.2950     4.8610     4.9360
 2282.5000   -29.3380   105.4070     9.3020   -90.4400  -999.2500  -999.2500  -999.2500  -999.2500     5.6080     4.8040     4.9590
 2283.0000   -32.5350   109.3740     9.3030   -90.1200  -999.2500  -999.2500  -999.2500  -999.2500     5.5050     4.7480     4.9830
 2283.5000   -34.3530   107.7190     9.3060   -89.7970  -999.2500  -999.2500  -999.2500  -999.2500     5.5380     4.7050     5.0060
 2284.0000   -34.3530   105.2200     9.3050   -89.5020  -999.2500  -999.2500  -999.2500  -999.2500     5.6080     4.7050     5.0190
 2284.5000   -34.3530   104.8590     9.3100   -89.7020  -999.2500  -999.2500  -999.2500  -999.2500     7.0460     4.7350     4.9500
 2285.0000   -34.3530   105.5370     9.3070   -90.1110  -999.2500  -999.2500  -999.2500  -999.2500     7.8060     4.7590     4.8950
 2285.5000   -34.3530   105.1050     9.2890   -90.4590  -999.2500  -999.2500  -999.2500  -999.2500     7.1750     4.7830     4.8390
 2286.0000   -34.3530   102.4860     9.2490   -90.7540  -999.2500  -999.2500  -999.2500  -999.2500     6.1520     4.8070     4.7840
 2286.5000   -34.3530   103.4580     9.2130   -91.1260  -999.2500  -999.2500  -999.2500  -999.2500     6.0950     4.8370     4.8020
 2287.0000   -34.3530   105.9810     9.2390   -91.4730  -999.2500  -999.2500  -999.2500  -999.2500     6.0950     4.8820     4.9550
 2287.5000   -27.6660   107.2230     9.3000   -91.5270  -999.2500  -999.2500  -999.2500  -999.2500     6.0950     4.9410     5.1070
 2288.0000   -14.2930   107.5270     9.3280   -91.6750  -999.2500  -999.2500  -999.2500  -999.2500     6.0710     5.0000     5.2600
