~VERSION INFORMATION
 VERS.                2.0:   CWLS LOG ASCII STANDARD - VERSION 2.0
 WRAP.                 NO:   ONE LINE PER DEPTH STEP
~WELL INFORMATION
#MNEM.UNIT      DATA TYPE    INFORMATION
#----------   ------------   ------------------------------
 STRT.F          450.0000:   START DEPTH
 STOP.F         3098.0000:   STOP DEPTH
 STEP.F            0.5000:   STEP LENGTH
 NULL.          -999.2500:   NO VALUE
 COMP. FENIX & SCISSON - U.S NAVY:   COMPANY
 WELL. FENIX NPR 3 "AX" #11-33:   WELL
 FLD .              N P R:   FIELD
 LOC .      S33 T39N R78W:   LOCATION
 CNTY.            NATRONA:   COUNTY
 STAT.            WYOMING:   STATE
 CTRY. UNITED STATES OF AMERICA:   COUNTRY
 SRVC.              WELEX:   SERVICE COMPANY
 DATE.        12-MAR-1977:   LOGDATE
 API .     49025103210000:   API NUMBER
~CURVE INFORMATION
#MNEM.UNIT       API CODE    CURVE DESCRIPTION
#----------   ------------   ------------------------------
 DEPT.F                  :   
 CALD.IN     45 280 60 00:   CALIPER FROM DENSITY LOG
 GRD .GAPI   45 310 01 00:   GAMMA RAY FROM DENSITY LOG
 RHOB.G/C3   45 350 01 00:   BULK DENSITY
 CORR.G/C3   45 356 01 00:   DENSITY CORRECTION
 SPR .MV     07 010 01 00:   SPONTANEOUS POTENTIAL
 SGRD.MV     07 010 01 00:   SHALLOW GUARD RESISTIVITY
 ILD .OHMM   07 120 46 00:   DEEP INDUCTION RESISTIVITY
 ILM .OHMM   07 120 44 00:   INDUCTION LOG MEDIUM RESISTIVITY
~PARAMETER INFORMATION
#MNEM.UNIT          VALUE    DESCRIPTION
#----------   ------------   ------------------------------
 EKB .F         5133.0000:   Kelly bushing
 EGL .F         5122.0000:   Ground level
 TD  .F         3130.0000:   Total depth
 DATE.        12-MAR-1977:   Date logged
 CLNT.            A2DTECH:   Client Code
 SL  . 331' FNL & 430' FWL:   Surface Location
 PD  .                 GL:   Permanent Datum
 DD  .F              3130:   Depth driller
 DL  .F              3102:   Depth logger
 BLI .F              3100:   Bottom log interval
 CS1 .IN            8.625:   Casing size
 CBD1.      8.625" @ 459':   Casing driller 1
 CBL1.F               455:   Casing logger 1
 BS1 .IN            7.875:   Bit size
 DFT .                KCL:   Type fluid in hole
 DFD .                9.3:   Density
 DFV .                 36:   Viscosity
 DFL .               16.2:   Fluid loss
 MSS .           FLOWLINE:   Source of sample
 RMS .OHMM           0.37:   Rm
 MST .F                50:   Rm Meas. temp.
 RMF .OHMM           0.32:   Rmf
 MFST.F                55:   Rmf Meas. temp.
 RMC .OHMM           0.58:   Rmc
 MCST.F                55:   Rmc Meas. temp.
 MFSS.               MEAS:   Source Rmf.
 RMB .OHMM           .168:   Rm. at BHT
 BHT .F               110:   BHT.
 TCS .HRS               4:   Time Circ. stopped
 MRT .F               110:   Maximum recorded temp.
 LUN .               0716:   Logging unit number
 LUL .             VERNAT:   Logging unit location
 ENGI.        E. CALLAHAN:   Recorded By
 WITN.            K. JAPP:   Witnessed by
 ORIG.           5" PRINT:   Origin of data
 UWI .     49025103210000:   Unique Well ID
 DICO. A2D TECHNOLOGIES, INC.:   Digitizing Company
 DAPD.F                11:   Feet Above Permanent Datum
 BSD1.               3950:   Depth drilled with bit1
 MCSS.               CALC:   Source Rmc.
 EPD .F              5122:   Elevation Permanent Datum
 LMF .                 KB:   Log Measured From
 DMF .                 KB:   Drilling Measured From
 TLI .F               455:   Top log interval
~OTHER INFORMATION
~A   DEPT       CALD       GRD        RHOB      CORR       SPR       SGRD        ILD        ILM   
# ...
 2677.5000     8.5756   100.8658     2.4543     0.0636   -49.2871    17.5628    11.5025    13.7014
 2678.0000     8.5756   100.4690     2.4188     0.0465   -49.2831    17.8917    11.8278    14.3508
 2678.5000     8.5954    99.6760     2.4235     0.0345   -49.0818    18.7380    12.1613    14.8926
 2679.0000     8.5755    99.4774     2.4258     0.0625   -49.2752    22.9615    12.8556    16.9470
 2679.5000     8.5755    99.8733     2.3938     0.0375   -49.0739    29.4490    13.2180    16.1867
 2680.0000     8.5557   100.8632     2.4030     0.0255   -49.0699    18.7622    13.4674    15.4619
 2680.5000     8.5556   103.8342     2.4098     0.0415   -49.0660    17.7554    13.8471    14.6342
 2681.0000     8.5556   105.2203     2.4118     0.0435   -48.6657    17.5967    13.8502    14.2381
 2681.5000     8.5556   104.8232     2.4158     0.0435   -48.6633    16.6554    13.8527    14.2426
 2682.0000     8.5754   103.2383     2.4078     0.0454   -48.4620    16.5066    13.7242    14.2439
 2682.5000     8.5555   102.4454     2.4168     0.0494   -48.4581    15.9133    13.4768    14.2471
 2683.0000     8.5555   102.8411     2.4188     0.0554   -48.4549    17.2914    13.2333    13.4811
 2683.5000     8.5753   103.6329     2.4138     0.0554   -48.2536    17.1369    12.7582    13.2369
 2684.0000     8.5951   102.4439     2.4388     0.0634   -48.2497    17.1408    12.2997    12.8786
 2684.5000     8.5950   100.8586     2.4387     0.0714   -48.2450    16.6776    12.0780    12.5311
 2685.0000     8.6148    99.4716     2.4297     0.0674   -48.2411    16.8357    11.9694    12.3063
 2685.5000     8.6148    98.6788     2.4147     0.0614   -48.2379    15.9344    12.0845    12.8879
 2686.0000     8.6346    95.7072     2.4172     0.0513   -48.2340    15.6471    12.0862    12.8908
 2686.5000     8.6346   100.0643     2.4041     0.0493   -48.2317    14.6743    12.0889    12.6585
 2687.0000     8.6147   101.0542     2.4107     0.0453   -48.2254    15.0881    12.0916    12.3164
 2687.5000     8.5949    99.9160     2.3977     0.0473   -48.4196    15.6579    11.8736    11.8785
 2688.0000     8.6345   103.6278     2.4217     0.0503   -48.8088    15.6614    11.5527    12.4411
 2688.5000     8.6345   103.8259     2.4147     0.0463   -49.2003    16.2528    11.4494    12.9103
 2689.0000     8.6542   101.9801     2.4202     0.0343   -49.1963    17.6541    11.4567    13.0333
 2689.5000     8.6542    99.8632     2.4522     0.0553   -49.1924    19.0073    11.3538    13.0356
 2690.0000     8.6740   101.8432     2.4857     0.0632   -49.3858    20.4661    11.2522    13.0392
 2690.5000     8.6542   104.4176     2.4631     0.0412   -49.5792    17.6654    10.8481    12.9226
 2691.0000     8.6739   105.2094     2.4703     0.0432   -49.7725    19.7434    10.4581    12.4580
 2691.5000     8.6739   105.6050     2.4896     0.0562   -49.9659    15.1191     9.8977    12.2334
 2692.0000     8.6937   106.7927     2.4696     0.0392   -50.1592    14.0490     9.7192    11.5778
 2692.5000     8.6937   107.3863     2.4696     0.0352   -50.1553    13.1742     9.4568    11.2643
 2693.0000     8.6936   110.1581     2.4731     0.0312   -50.3486    13.0564     9.0328    10.8598
 2693.5000     8.6936   108.5734     2.4606     0.0312   -50.3446    12.9396     8.8703    10.7641
 2694.0000     8.6936   106.7904     2.4466     0.0331   -50.3407    12.9426     8.7104    10.3761
 2694.5000     8.6936   108.9684     2.4539     0.0351   -50.3367    12.9455     8.6320    10.2833
 2695.0000     8.6935   110.3540     2.4636     0.0391   -50.3327    13.3112     8.3217    10.2847
 2695.5000     8.6935   111.5417     2.4646     0.0431   -50.1315    13.3142     8.2476    10.0075
 2696.0000     8.6935   111.7394     2.4726     0.0651   -50.3248    13.3172     8.2487    10.0098
 2696.5000     8.6935   110.3523     2.4611     0.0491   -50.1236    12.8384     7.9501     9.9202
 2697.0000     8.6934   109.9556     2.4475     0.0451   -50.3169    12.8413     7.9374     9.9224
 2697.5000     8.6934   109.9550     2.4305     0.0291   -50.3129    12.7265     7.9247    10.0165
 2698.0000     8.7132   109.3603     2.4425     0.0391   -50.3089    12.3829     7.9120    10.2995
 2698.5000     8.7330   109.3598     2.4605     0.0390   -50.3050    12.4998     7.8993    10.3008
 2699.0000     8.7329   108.5667     2.4795     0.0470   -50.3010    12.8529     7.8867    10.3027
 2699.5000     8.7131   107.3784     2.4795     0.0490   -50.2978    13.0949     7.8740    10.3059
 2700.0000     8.7131   106.7838     2.4695     0.0530   -50.2939    13.7152     7.8614    10.2142
 2700.5000     8.7313   108.1138     2.5060     0.0603   -50.4540    12.7747     7.8488     9.8843
 2701.0000     8.7325   109.0062     2.4815     0.0560   -50.4840    12.2848     7.8362     9.4912
 2701.5000     8.7323   110.1923     2.4815     0.0500   -50.6765    11.8415     7.8235     9.2340
 2702.0000     8.7321   110.1903     2.5155     0.0461   -50.8699    11.4150     7.8109     9.2349
 2702.5000     8.7319   108.9527     2.4948     0.0481   -50.8659    11.9549     7.7983     9.5836
 2703.0000     8.7317   108.9507     2.4785     0.0471   -50.8620    12.4056     7.7857    10.0366
 2703.5000     8.7117   110.9284     2.4985     0.0491   -50.8580    12.5224     7.7731    10.1311
 2704.0000     8.6917   112.1141     2.4985     0.0411   -50.8541    13.1144     7.7606    10.1331
 2704.5000     8.6915   112.5090     2.4545     0.0391   -50.8509    13.4786     7.9767    10.0418
 2705.0000     8.6913   113.1014     2.4515     0.0352   -50.8470    12.8791     8.0513     9.8600
 2705.5000     8.6911   113.0991     2.4495     0.0332   -50.8399    12.4156     8.0523     9.5017
 2706.0000     8.6711   111.3146     2.4496     0.0352   -50.8391    11.8586     8.1278     9.3291
 2706.5000     8.6907   111.1146     2.4561     0.0332   -51.0325    12.8857     8.1296     9.5041
 2707.0000     8.6905   112.3007     2.4636     0.0332   -51.2258    13.6202     8.2056     9.7716
 2707.5000     8.6903   112.8927     2.4536     0.0312   -51.2219    13.2506     8.2074    10.0473
 2708.0000     8.6703   112.0987     2.4516     0.0332   -51.2171    12.6565     8.2087    10.0489
 2708.5000     8.6899   113.0868     2.4726     0.0533   -51.4105    12.6586     8.2095     9.6870
 2709.0000     8.6897   113.8769     2.4766     0.0393   -51.4074    13.2566     8.2108     9.5113
 2709.5000     8.6895   114.6669     2.4595     0.0313   -51.4034    12.0926     8.2126     9.4259
 2710.0000     8.6893   115.2590     2.4424     0.0273   -51.5937    12.0945     8.2134     9.4311
 2710.5000     8.6891   115.4550     2.4286     0.0273   -51.7894    12.6667     8.1399     9.4326
 2711.0000     8.6889   116.0471     2.4436     0.0253   -51.7855    13.1451     7.9926     9.4335
 2711.5000     8.6887   117.0348     2.4486     0.0313   -51.7816    13.1460     7.9203     9.3488
 2712.0000     8.6885   117.2328     2.4526     0.0354   -51.7776    11.3425     7.6352     9.0120
 2712.5000     8.6883   121.5855     2.4846     0.0434   -51.9711    11.1365     7.4969     8.8491
 2713.0000     8.6882   120.0086     2.4736     0.0334   -51.9671    10.9346     7.2937     8.5303
 2713.5000     8.6880   118.4133     2.4991     0.0334   -51.9632    10.8360     7.0305     8.4529
 2714.0000     8.6878   119.0058     2.4786     0.0334   -51.9593    10.3499     6.8404     8.3004
 2714.5000     8.6678   119.2018     2.5076     0.0194   -51.7580    10.2566     6.7161     8.1499
 2715.0000     8.6874   119.1999     2.5077     0.0295   -51.7541    10.2624     6.7793     8.0024
 2715.5000     8.6674   119.5939     2.5077     0.0475   -51.9475     9.7121     6.5960     7.8577
 2716.0000     8.6870   120.3840     2.4977     0.0495   -51.7462     9.3622     6.1285     7.5056
 2716.5000     8.6670   120.9760     2.5007     0.0335   -51.7423     9.2775     6.0169     7.3693
 2717.0000     8.6668   122.7562     2.5037     0.0315   -51.7384     9.2793     6.0183     7.3705
 2717.5000     8.6468   123.7442     2.4877     0.0135   -51.7344     9.8082     6.0190     7.3712
