~VERSION INFORMATION
 VERS.                2.0:   CWLS LOG ASCII STANDARD - VERSION 2.0
 WRAP.                 NO:   ONE LINE PER DEPTH STEP
~WELL INFORMATION
#MNEM.UNIT      DATA TYPE    INFORMATION
#----------   ------------   ------------------------------
 STRT.F          720.0000:   START DEPTH
 STOP.F         3416.0000:   STOP DEPTH
 STEP.F            0.5000:   STEP LENGTH
 NULL.          -999.2500:   NO VALUE
 COMP.    FENIX & SCISSON:   COMPANY
 WELL.  FENIX "AX" #31-14:   WELL
 FLD .                NPR:   FIELD
 LOC .      S14 T38N R78W:   LOCATION
 CNTY.            NATRONA:   COUNTY
 STAT.            WYOMING:   STATE
 CTRY. UNITED STATES OF AMERICA:   COUNTRY
 SRVC.       SCHLUMBERGER:   SERVICE COMPANY
 DATE.        04-JUN-1981:   LOGDATE
 API .     49025108730000:   API NUMBER
~CURVE INFORMATION
#MNEM.UNIT       API CODE    CURVE DESCRIPTION
#----------   ------------   ------------------------------
 DEPT.F                  :   
 TEND.LBS    45 635 01 00:   TENSION FROM DENSITY LOG
 CORR.G/C3   45 356 01 00:   DENSITY CORRECTION
 RHOB.G/C3   45 350 01 00:   BULK DENSITY
 CALD.IN     45 280 60 00:   CALIPER FROM DENSITY LOG
 GRD .GAPI   45 310 01 00:   GAMMA RAY FROM DENSITY LOG
 SPR .MV     07 010 01 00:   SPONTANEOUS POTENTIAL
 SFL .OHMM   07 220 01 00:   SHALLOW FOCUSED LOG RESISTIVITY
 ILD .OHMM   07 120 46 00:   INDUCTION LOG DEEP RESISTIVITY
 ILM .OHMM   07 120 44 00:   INDUCTION LOG MEDIUM RESISTIVITY
 TENR.LBS    07 635 01 00:   TENSION FROM RESISTIVITY
~PARAMETER INFORMATION
#MNEM.UNIT          VALUE    DESCRIPTION
#----------   ------------   ------------------------------
 EKB .F         5196.0000:   Kelly bushing
 EGL .F         5186.0000:   Ground level
 EDF .F            0.0000:   Drilling floor
 TD  .F         3402.0000:   Total depth
 DATE.        04-JUN-1981:   Date logged
 CLNT.            A2DTECH:   Client Code
 SL  . 377' FWL & 1733' FWL:   Surface Location
 PD  .                 GL:   Permanent Datum
 DD  .F              3400:   Depth driller
 DL  .F              3402:   Depth logger
 BLI .F              3395:   Bottom log interval
 TLI .F               720:   Top log interval
 CS1 .IN            8.625:   Casing size
 CBD1.      8.625" @ 707':   Casing driller 1
 CBL1.F               751:   Casing logger 1
 BS1 .IN            7.875:   Bit size
 BSD1.F              3400:   Depth drilled with bit1
 DFT .                FGM:   Type fluid in hole
 DFD .                8.8:   Density
 DFV .                 55:   Viscosity
 DFPH.                9.5:   pH
 DFL .                  9:   Fluid loss
 MSS .           MUD TANK:   Source of sample
 RMS .OHMM            1.7:   Rm
 MST .F                78:   Rm Meas. temp.
 RMF .OHMM           1.45:   Rmf
 MFST.F                78:   Rmf Meas. temp.
 MFSS.               MEAS:   Source Rmf.
 RMB .OHMM           1.12:   Rm. at BHT
 BHT .F               118:   BHT.
 TCS .HRS            1200:   Time Circ. stopped
 TLAB.HRS            1600:   Time logger at bottom
 MRT .F               118:   Maximum recorded temp.
 LUN .               8043:   Logging unit number
 LUL .             CASPER:   Logging unit location
 ENGI.             LARSON:   Recorded By
 WITN.              FIVAS:   Witnessed by
 ORIG.      2.5" 5" PRINT:   Origin of data
 UWI .     49025108730000:   Unique Well ID
 DICO. A2D TECHNOLOGIES, INC.:   Digitizing Company
 EPD .               5186:   Elevation Permanent Datum
 LMF .                 KB:   Log Measured From
 DMF .                 KB:   Drilling Measured From
 DAPD.                 10:   Feet Above Permanent Datum
~OTHER INFORMATION
~A   DEPT     TEND       CORR       RHOB       CALD         GRD       SPR        SFL        ILD        ILM       TENR   
# ...
 2830.5000  1528.3400     0.0040     2.4000     8.0840    67.8050   -24.8760    26.2960    27.9330    21.7140  1554.5900
 2831.0000  1528.3400     0.0080     2.4070     8.0840    65.6870   -25.1050    26.5120    28.2680    22.2510  1553.7550
 2831.5000  1528.3400     0.0120     2.4190     8.0830    65.4870   -25.0430    26.7490    28.6030    22.7880  1552.9200
 2832.0000  1528.3400     0.0150     2.4310     8.0830    65.5610   -23.9310    26.9870    28.9380    23.3250  1552.0850
 2832.5000  1528.3400     0.0190     2.4330     8.0830    63.1170   -23.1210    27.2240    29.2730    23.9280  1551.2510
 2833.0000  1528.3400     0.0170     2.4140     8.0820    60.4970   -23.0560    27.4620    29.4480    23.9500  1550.4160
 2833.5000  1528.3400     0.0090     2.3990     8.0820    57.9380   -23.0590    27.6990    29.4670    23.9970  1549.5811
 2834.0000  1528.3400     0.0020     2.3910     8.0810    57.8500   -23.0650    27.8270    29.5370    24.0440  1548.7460
 2834.5000  1528.3400     0.0010     2.3890     8.0810    59.5260   -23.0590    27.8270    29.6060    24.0910  1547.9110
 2835.0000  1528.3400     0.0040     2.4010     8.0810    61.2080   -23.0630    27.8270    29.6760    24.1380  1547.0760
 2835.5000  1528.3400     0.0070     2.4180     8.0800    62.9820   -23.0610    27.8270    29.7450    24.1860  1546.2419
 2836.0000  1518.4030     0.0100     2.4160     8.0800    62.1820   -23.0590    27.8270    29.8150    24.2330  1545.4070
 2836.5000  1500.2629     0.0080     2.4080     8.0800    60.4980   -23.0670    28.2540    29.8840    24.2800  1544.5720
 2837.0000  1482.1230     0.0050     2.4030     8.0790    58.7880   -22.9900    28.6700    29.9540    24.3270  1543.7371
 2837.5000  1463.9830     0.0070     2.3990     8.0790    57.1270   -22.7970    29.0860    30.0100    24.3830  1542.9020
 2838.0000  1445.8440     0.0060     2.3950     8.0790    56.8040   -22.6210    29.5030    30.0100    24.6990  1542.0680
 2838.5000  1427.7040     0.0020     2.3920     8.0780    57.8950   -22.4280    29.9190    30.3680    25.0940  1541.2330
 2839.0000  1409.5640     0.0020     2.3900     8.0780    58.9650   -22.2360    30.5810    30.7290    25.4890  1540.3979
 2839.5000  1410.3510     0.0020     2.3880     8.0780    59.6590   -21.8540    30.4460    31.0910    25.8840  1543.9290
 2840.0000  1414.4210     0.0010     2.3880     8.0770    57.4860   -21.3890    30.2100    31.4520    26.2960  1550.7190
 2840.5000  1418.4900     0.0020     2.3930     8.0770    55.3440   -20.4700    30.0100    31.7580    25.3850  1557.5090
 2841.0000  1422.5601     0.0080     2.4060     8.0770    53.6550   -19.4710    29.4480    31.7580    24.3830  1564.2980
 2841.5000  1426.6300     0.0070     2.4190     8.0760    54.7410   -19.3640    29.4480    31.7580    24.3830  1571.0880
 2842.0000  1467.6110     0.0050     2.4330     8.0760    55.8620   -19.3140    29.4480    34.2000    25.3210  1577.8781
 2842.5000  1467.6110     0.0040     2.4750     8.0760    54.5760   -17.9340    30.0100    36.3480    28.0830  1584.6680
 2843.0000  1447.3680     0.0000     2.5560     8.0750    51.3070   -17.1890    31.7580    38.4960    32.4310  1591.4580
 2843.5000  1447.3680    -0.0020     2.6210     8.0750    44.8700   -16.6470    50.6610    40.6430    36.7790  1598.2480
 2844.0000  1487.8540     0.0010     2.6400     8.0560    41.1590   -16.7410    86.3530    42.3000    40.5890  1605.0380
 2844.5000  1497.7531     0.0230     2.5180     8.1360    42.5300   -17.1140   106.2770    42.8030    39.4260  1611.8280
 2845.0000  1515.3230     0.0160     2.4700     8.1360    48.1760   -17.4360    99.1710    43.3060    37.0630  1618.6169
 2845.5000  1529.3781     0.0090     2.4450     8.1360    53.9910   -17.7680    81.0360    43.7720    34.7000  1625.4070
 2846.0000  1546.9470     0.0000     2.4190     8.1360    57.6810   -18.2890    62.9010    41.6630    32.3370  1632.1970
 2846.5000  1564.5160     0.0000     2.4240     8.1370    61.5250   -19.1500    44.7650    38.5120    29.9740  1638.9871
 2847.0000  1582.0850     0.0010     2.4330     8.1370    65.3680   -19.2860    31.0120    35.3610    27.6110  1645.7770
 2847.5000  1599.6541     0.0020     2.4380     8.1380    69.2530   -19.5250    30.4040    32.9790    25.9700  1652.5670
 2848.0000  1600.2791     0.0020     2.4240     8.1390    70.2940   -19.7690    29.7960    31.1640    25.2360  1659.3571
 2848.5000  1589.1970     0.0030     2.4170     8.1390    69.7630   -19.2230    29.4480    30.3050    24.5020  1663.2440
 2849.0000  1578.1150     0.0030     2.4170     8.1400    69.5490   -18.9690    30.6220    29.2700    23.4800  1663.2440
 2849.5000  1567.0330     0.0090     2.4380     8.1410    71.1890   -18.9800    31.7580    28.2360    23.4800  1656.2629
 2850.0000  1555.9510     0.0160     2.4490     8.1410    72.5700   -18.9780    31.7580    27.8270    23.4800  1639.2880
 2850.5000  1544.8680     0.0170     2.4460     8.1420    74.0050   -18.9890    30.9770    27.8270    23.4640  1622.3130
 2851.0000  1533.7860     0.0110     2.4430     8.1430    74.1420   -18.9970    30.3270    27.8270    23.4220  1605.3390
 2851.5000  1522.7040     0.0060     2.4390     8.1440    72.4760   -20.1680    29.6770    27.8270    23.3800  1588.3640
 2852.0000  1511.6219     0.0020     2.4310     8.1440    70.7640   -21.6040    29.0270    27.8270    23.3380  1579.2280
 2852.5000  1500.5400     0.0010     2.4220     8.1450    68.6240   -22.6410    28.3780    27.8270    23.2960  1575.9420
 2853.0000  1489.4580     0.0000     2.4210     8.1460    66.5910   -23.0480    27.8270    26.7970    23.2540  1572.6570
 2853.5000  1484.6541     0.0050     2.4250     8.1460    64.7520   -22.9170    27.8270    26.7970    23.2120  1569.3710
 2854.0000  1493.5710     0.0150     2.4290     8.1470    62.9240   -22.8070    28.1850    27.2530    23.1710  1566.0861
 2854.5000  1502.4880     0.0230     2.4320     8.1480    61.7410   -22.7610    28.5650    27.7370    23.1290  1562.8010
 2855.0000  1511.4060     0.0190     2.4240     8.1480    61.7690   -22.6810    28.8980    28.8980    23.0870  1559.5150
 2855.5000  1520.3230     0.0100     2.4130     8.1490    62.1590   -23.3480    28.6080    28.7710    23.0400  1556.2300
 2856.0000  1529.2400     0.0010     2.4030     8.1500    63.8760   -24.0680    28.2040    28.3670    23.0450  1552.9440
 2856.5000  1538.1570    -0.0010     2.4010     8.1510    66.2290   -25.4010    27.8000    27.9630    23.0380  1549.6591
 2857.0000  1540.7679     0.0000     2.4030     8.1510    68.5750   -25.8690    27.3960    27.5590    22.7610  1546.3730
 2857.5000  1529.8170     0.0020     2.4050     8.1520    70.9290   -26.1280    26.9930    27.1550    22.4520  1543.0880
 2858.0000  1518.8669     0.0020     2.4080     8.1530    73.2870   -25.3760    26.5890    26.7520    22.1380  1539.8030
 2858.5000  1507.9160     0.0020     2.4100     8.1530    75.5230   -24.6580    26.1850    26.3480    21.7730  1536.5170
 2859.0000  1502.0160     0.0010     2.4130     8.1540    76.3130   -23.9260    25.8040    25.8040    21.7830  1533.2321
 2859.5000  1482.4410     0.0020     2.4250     8.1550    75.1380   -23.1980    25.8040    26.4030    21.7730  1529.9460
 2860.0000  1484.4041     0.0020     2.4560     8.1550    72.6980   -22.4580    26.1480    26.8330    22.9620  1526.6610
 2860.5000  1486.3660     0.0030     2.4890     8.1560    70.5790   -21.7420    29.3500    27.2640    23.6820  1523.3760
 2861.0000  1488.3290     0.0130     2.5090     8.1570    69.1190   -21.0500    34.1460    27.6940    24.3830  1520.0900
 2861.5000  1490.2920     0.0240     2.5110     8.1570    67.5200   -21.0440    39.8300    28.1240    24.3830  1516.8051
 2862.0000  1492.2550     0.0290     2.4880     8.1580    65.9270   -20.9980    39.8300    28.5540    24.0910  1513.5190
 2862.5000  1494.2180     0.0150     2.4310     8.1590    64.7530   -20.9550    35.2750    28.8980    23.7310  1510.2340
 2863.0000  1496.1810     0.0070     2.4070     8.1600    65.7580   -19.9400    30.7560    28.8980    23.3710  1506.9480
 2863.5000  1498.1440     0.0080     2.4080     8.1600    67.6270   -19.0880    28.4860    28.5970    23.0110  1503.6630
