~VERSION INFORMATION
 VERS.                2.0:   CWLS LOG ASCII STANDARD - VERSION 2.0
 WRAP.                 NO:   ONE LINE PER DEPTH STEP
~WELL INFORMATION
#MNEM.UNIT      DATA TYPE    INFORMATION
#----------   ------------   ------------------------------
 STRT.F          198.0000:   START DEPTH
 STOP.F         3140.0000:   STOP DEPTH
 STEP.F            0.5000:   STEP LENGTH
 NULL.          -999.2500:   NO VALUE
 COMP.    FENIX & SCISSON:   COMPANY
 WELL. FENIX NPR 3 "AX" #43-34:   WELL
 FLD .                NPR:   FIELD
 LOC .      S34 T39N R78W:   LOCATION
 CNTY.            NATRONA:   COUNTY
 STAT.            WYOMING:   STATE
 CTRY. UNITED STATES OF AMERICA:   COUNTRY
 SRVC.              WELEX:   SERVICE COMPANY
 DATE.        02-JUL-1977:   LOGDATE
 API .     49025103890000:   API NUMBER
~CURVE INFORMATION
#MNEM.UNIT       API CODE    CURVE DESCRIPTION
#----------   ------------   ------------------------------
 DEPT.F                  :   
 CALD.IN     45 280 60 00:   CALIPER FROM DENSITY LOG
 GRD .GAPI   45 310 01 00:   GAMMA RAY FROM DENSITY LOG
 RHOB.G/C3   45 350 01 00:   BULK DENSITY
 CORR.G/C3   45 356 01 00:   DENSITY CORRECTION
 SPR .MV     07 010 01 00:   SPONTANEOUS POTENTIAL
 SFLU.OHMM   07 220 01 00:   SPHERICALLY FOCUSED LOG UNAVERAGED RESISTIVITY
 ILD .OHMM   07 120 46 00:   DEEP INDUCTION RESISTIVITY
 ILM .OHMM   07 120 44 00:   INDUCTION LOG MEDIUM RESISTIVITY
~PARAMETER INFORMATION
#MNEM.UNIT          VALUE    DESCRIPTION
#----------   ------------   ------------------------------
 EKB .F         5118.0000:   Kelly bushing
 EGL .F         5108.0000:   Ground level
 TD  .F         3145.0000:   Total depth
 DATE.        02-JUL-1977:   Date logged
 CLNT.            A2DTECH:   Client Code
 SL  . 1650' FNL & 2310' FWL:   Surface Location
 PD  .                 GL:   Permanent Datum
 EPD .F              5108:   Elevation Permanent Datum
 LMF .                 KB:   Log Measured From
 DMF .                 KB:   Drilling Measured From
 DAPD.F                10:   Feet Above Permanent Datum
 DD  .F              3145:   Depth driller
 DL  .F              3143:   Depth logger
 BLI .F              3141:   Bottom log interval
 TLI .F               200:   Top log interval
 CS1 .IN            8.625:   Casing size
 CBD1.      8.625" @ 203':   Casing driller 1
 CBL1.F               224:   Casing logger 1
 BS1 .IN            7.875:   Bit size
 BSD1.F              3145:   Depth drilled with bit1
 DFT .            KCL/MUD:   Type fluid in hole
 DFD .                  9:   Density
 DFV .                 34:   Viscosity
 DFPH.                7.5:   pH
 DFL .                9.2:   Fluid loss
 MSS .           FLOWLINE:   Source of sample
 RMS .OHMM            .18:   Rm
 MST .F                75:   Rm Meas. temp.
 RMF .OHMM            .16:   Rmf
 MFST.F                75:   Rmf Meas. temp.
 RMC .OHMM            .30:   Rmc
 MCST.F                75:   Rmc Meas. temp.
 MFSS.               FANN:   Source Rmf.
 MCSS.                KIT:   Source Rmc.
 RMB .OHMM            .11:   Rm. at BHT
 BHT .F               118:   BHT.
 TCS .HRS            3.75:   Time Circ. stopped
 MRT .F               118:   Maximum recorded temp.
 LUN .               8766:   Logging unit number
 LUL .             CASPER:   Logging unit location
 ENGI.          T. JOYNER:   Recorded By
 WITN.     W. PETTNG/GILL:   Witnessed by
 ORIG.           5" PRINT:   Origin of data
 UWI .     49025103890000:   Unique Well ID
 DICO. A2D TECHNOLOGIES, INC.:   Digitizing Company
~OTHER INFORMATION
~A   DEPT     CALD         GRD        RHOB     CORR        SPR       SFLU        ILD        ILM   
# ...
  400.5000     9.1418   120.1807     2.4587     0.0521   -37.5669     9.7135     8.2914     9.0881
  401.0000     9.1417   119.6910     2.4617     0.0534   -37.8830     9.8961     8.1434     9.0910
  401.5000     9.1420   119.6946     2.4717     0.0694   -37.8778    10.0824     8.1464     9.0942
  402.0000     9.1422   119.3006     2.4816     0.0694   -38.2670    10.4608     8.1472     9.0963
  402.5000     9.1423   120.4970     2.4876     0.0774   -38.6587    10.4644     7.8574     9.0995
  403.0000     9.2221   121.2957     2.4926     0.0774   -39.4449    10.2770     7.7155     9.1016
  403.5000     9.2224   123.6836     2.4936     0.0774   -39.4398     9.9099     7.7183     8.7768
  404.0000     9.2027   120.9052     2.4897     0.0735   -39.4321     9.7335     7.4429     8.6193
  404.5000     9.2029   122.1015     2.4827     0.0695   -39.4270     9.3869     7.4455     8.3118
  405.0000     9.1834   124.0927     2.4737     0.0615   -39.8163     9.0516     7.0485     8.1626
  405.5000     9.1835   120.9159     2.4637     0.0616   -39.8112     8.7293     6.6735     7.7283
  406.0000     9.1838   120.9195     2.4648     0.0616   -39.8036     8.5730     6.5695     7.4517
  406.5000     9.1841   119.3330     2.4717     0.0656   -39.7985     7.0552     6.2051     7.1858
  407.0000     9.1843   119.7341     2.4728     0.0656   -40.1879     6.6791     6.2066     7.0569
  407.5000     9.1846   122.9177     2.4718     0.0656   -40.1828     6.8051     6.0960     7.0594
  408.0000     9.1848   122.9212     2.4648     0.0577   -39.7782     7.1918     5.9859     7.0611
  408.5000     9.1850   122.9248     2.4639     0.0577   -39.7731     8.0312     5.9888     7.0636
  409.0000     9.1853   122.5308     2.4639     0.0537   -39.7655     8.1818     5.9906     7.1961
  409.5000     9.1856   124.5192     2.4669     0.0498   -39.7604     8.1838     6.1033     7.3319
  410.0000     9.1856   123.7277     2.4659     0.0458   -40.1499     8.1857     6.2178     7.4693
  410.5000     9.1660   120.9515     2.4609     0.0458   -39.7477     8.1895     6.3344     7.6103
  411.0000     9.1266   119.7627     2.4609     0.0419   -40.1372     8.1915     6.3359     7.7530
  411.5000     9.1069   119.7663     2.4579     0.0419   -40.1321     8.5005     6.5749     7.7557
  412.0000     9.1071   120.5648     2.4530     0.0419   -40.1245     9.1485     6.5776     7.7580
  412.5000     9.1074   120.9658     2.4560     0.0419   -40.1194     9.1517     6.7014     7.7603
  413.0000     9.1076   120.5719     2.4580     0.0459   -40.1118     9.1549     6.8068     7.7626
  413.5000     9.1078   122.5626     2.4580     0.0460   -40.5040     8.9917     6.9559     7.7649
  414.0000     9.1081   124.9505     2.4650     0.0500   -40.0991     8.9938     7.0855     7.7672
  414.5000     9.1083   125.7488     2.4680     0.0540   -40.4913     8.8325     7.0880     7.7695
  415.0000     9.1086   125.3549     2.4720     0.0540   -40.4837     8.8356     7.3554     7.7713
  415.5000     9.1088   125.7558     2.4720     0.0540   -40.4786     8.6791     7.3579     7.7731
  416.0000     9.1090   124.9645     2.4700     0.0501   -40.4710     9.3407     7.3580     7.7759
  416.5000     9.1093   124.9679     2.4710     0.0461   -40.4659     9.5157     7.3615     7.7777
  417.0000     9.1095   124.9714     2.4700     0.0384   -40.4583     9.5179     7.3641     7.7805
  417.5000     9.1097   121.3982     2.4621     0.0382   -40.4532     9.5202     7.3658     8.0720
  418.0000     9.1100   122.9917     2.4591     0.0382   -40.4457     9.1204     7.2337     8.0749
  418.5000     9.1102   122.9952     2.4621     0.0422   -40.4406     9.1226     7.2363     7.7869
  419.0000     9.1104   124.1907     2.4651     0.0422   -40.8304     9.1258     7.1065     7.7896
  419.5000     9.1107   122.6036     2.4671     0.0462   -40.8254     9.1279     6.9791     7.6499
  420.0000     9.1110   125.7869     2.4711     0.0463   -40.8178     8.6435     6.9816     7.5136
  420.5000     9.1111   125.3931     2.4731     0.0503   -40.8127     8.4888     6.8572     7.5154
  421.0000     9.1313   124.9993     2.4702     0.0463   -41.2026     8.4918     6.7350     7.3815
  421.5000     9.1314   125.7973     2.4652     0.0423   -41.1975     8.4938     6.7366     7.3833
  422.0000     9.1316   124.2117     2.4552     0.0424   -40.7924     8.4968     6.7382     7.3859
  422.5000     9.1320   125.8042     2.4512     0.0344   -41.1849     8.4987     6.7399     7.3868
  423.0000     9.1322   128.1913     2.4462     0.0265   -41.1774     8.6587     6.7423     7.3894
  423.5000     9.1325   126.6057     2.4343     0.0225   -41.1723     8.6607     6.7439     7.5288
  424.0000     9.1327   125.8146     2.4194     0.0185   -41.1647     8.3525     6.7455     7.5314
  424.5000     9.1528   123.0374     2.4094     0.0146   -41.1597     8.2031     6.7479     7.6726
  425.0000     9.1530   123.0409     2.4024     0.0066   -41.1521     8.3574     6.7503     7.6754
  425.5000     9.1533   124.2361     2.4025     0.0106   -41.1471     8.3594     6.7527     7.6762
  426.0000     9.1932   125.0341     2.4085     0.0106   -41.1395     8.3623     6.7543     7.6798
  426.5000     9.1935   125.4333     2.4244     0.0147   -41.1344     8.5187     6.7559     7.6816
  427.0000     9.1738   124.2466     2.4364     0.0187   -41.1268     8.3672     6.7591     7.4078
  427.5000     9.1740   123.8529     2.4424     0.0306   -41.1218     8.3692     6.7599     7.4095
  428.0000     9.1942   124.6508     2.4524     0.0307   -41.1143     8.2204     6.7624     7.2776
  428.5000     9.1745   122.6684     2.4564     0.0386   -41.1092     8.2224     6.7648     7.1471
  429.0000     9.1748   123.0691     2.4584     0.0466   -41.1016     8.0762     6.7672     7.1497
  429.5000     9.2148   122.2783     2.4664     0.0586   -41.0965     8.0781     6.6459     7.1514
  430.0000     9.2148   125.8562     2.4803     0.0666   -41.4867     8.0810     6.2934     7.0240
  430.5000     9.2128   125.4625     2.4843     0.0707   -41.8795     8.0829     6.1799     7.2879
  431.0000     9.2107   125.0688     2.4903     0.0707   -42.2697     8.0857     6.1813     7.4253
  431.5000     9.2087   125.0744     2.4903     0.0747   -42.2647     8.0876     6.1828     7.4271
  432.0000     9.2067   126.6643     2.4864     0.0747   -42.6550     7.5671     5.9632     6.5763
  432.5000     9.2046   125.4764     2.4864     0.0747   -42.6500     7.4315     5.8556     6.4604
  433.0000     9.2026   123.0972     2.4824     0.0747   -42.6425     7.2992     5.4444     6.1255
  433.5000     9.2005   123.1007     2.4824     0.0708   -41.8418     7.1683     5.4458     5.5036
  434.0000     9.1985   122.7071     2.4804     0.0668   -41.4363     7.0399     4.7050     5.3113
  434.5000     9.1972   125.0923     2.4705     0.0668   -41.0334     5.3501     4.7061     5.3126
  435.0000     9.2372   122.3178     2.4605     0.0669   -41.0258     5.2549     4.7073     5.3139
  435.5000     9.2374   121.9243     2.4566     0.0669   -41.0207     5.4523     4.7961     5.3151
  436.0000     9.1978   121.1337     2.4585     0.0669   -41.4111     7.1794     4.8859     5.5108
  436.5000     9.2776   121.5343     2.4645     0.0629   -41.0080     7.4491     5.1639     5.6123
  437.0000     9.2182   120.7438     2.4685     0.0669   -41.0004     7.7298     5.2606     5.8183
  437.5000     9.1986   119.5562     2.4705     0.0670   -40.9954     7.5913     5.1676     6.0325
  438.0000     9.1989   119.5598     2.4666     0.0670   -40.9878     7.5940     5.4596     6.4778
  438.5000     9.1991   121.1515     2.4686     0.0670   -40.9828     7.8792     5.9862     6.7203
  439.0000     9.1993   122.3461     2.4706     0.0710   -41.3732     8.1752     6.2110     6.9669
  439.5000     9.1996   122.3496     2.4796     0.0710   -41.3682     8.3293     6.4451     7.2233
  440.0000     9.1998   122.3531     2.4865     0.0711   -41.3606     8.1810     6.4466     7.3546
  440.5000     9.2000   121.1657     2.4886     0.0791   -41.3555     7.8885     6.4490     7.3580
