~VERSION INFORMATION
 VERS.                2.0:   CWLS LOG ASCII STANDARD - VERSION 2.0
 WRAP.                 NO:   ONE LINE PER DEPTH STEP
~WELL INFORMATION
#MNEM.UNIT      DATA TYPE    INFORMATION
#----------   ------------   ------------------------------
 STRT.F            0.0000:   START DEPTH
 STOP.F         1077.0000:   STOP DEPTH
 STEP.F            0.5000:   STEP LENGTH
 NULL.          -999.2500:   NO VALUE
 COMP.         JOHN BROWN:   COMPANY
 WELL.       JOHN X #66-2:   WELL
 FLD .                NPR:   FIELD
 LOC .       S2 T38N R78W:   LOCATION
 CNTY.            NATRONA:   COUNTY
 STAT.            WYOMING:   STATE
 CTRY. UNITED STATES OF AMERICA:   COUNTRY
 SRVC.     ATLAS WIRELINE:   SERVICE COMPANY
 DATE.        04-DEC-1991:   LOGDATE
 API .     49025224820000:   API NUMBER
~CURVE INFORMATION
#MNEM.UNIT       API CODE    CURVE DESCRIPTION
#----------   ------------   ------------------------------
 DEPT.F                  :   
 TENR.LBS    07 635 01 00:   TENSION
 RILD.OHMM   07 120 46 00:   INDUCTION LOG DEEP RESISTIVITY
 RILM.OHMM   07 120 44 00:   INDUCTION LOG MEDIUM RESISTIVITY
 GRR .GAPI   07 310 01 00:   GAMMA RAY FROM RESISTIVITY
~PARAMETER INFORMATION
#MNEM.UNIT          VALUE    DESCRIPTION
#----------   ------------   ------------------------------
 EKB .F         5189.0000:   Kelly bushing
 EGL .F         5179.0000:   Ground level
 EDF .F         5188.0000:   Drilling floor
 EPD .F         5179.0000:   Permanent datum
 TD  .F         1072.0000:   Total depth
 DATE.        04-DEC-1991:   Date logged
 CLNT.            A2DTECH:   Client Code
 SL  . 1893' FSL & 1937' FEL:   Surface Location
 PD  .                 GL:   Permanent Datum
 LMF .                 KB:   Log Measured From
 DMF .                 KB:   Drilling Measured From
 DAPD.F                10:   Feet Above Permanent Datum
 DD  .F              1072:   Depth driller
 DL  .F              1073:   Depth logger
 BLI .F              1071:   Bottom log interval
 CS1 .IN            9.625:   Casing size
 CBD1.       9.625" @ 40':   Casing driller 1
 CBL1.F                50:   Casing logger 1
 BS1 .IN            7.875:   Bit size
 BSD1.F              1072:   Depth drilled with bit1
 DFT .                AIR:   Type fluid in hole
 LUN .            HL 6387:   Logging unit number
 LUL .             CASPER:   Logging unit location
 WITN.        GARY STRONG:   Witnessed by
 ORIG.         2.5" PRINT:   Origin of data
 UWI .     49025224820000:   Unique Well ID
 DICO. A2D TECHNOLOGIES, INC.:   Digitizing Company
~OTHER INFORMATION
~A    DEPT    TENR       RILD       RILM         GRR  
# ...
  146.0000   -62.9920     5.8780     5.8780   130.1800
  146.5000   -62.9920     5.8940     5.8940   129.9360
  147.0000   -62.9920     5.9090     5.9090   126.6440
  147.5000   -62.9920     5.9240     5.9240   123.7800
  148.0000   -62.9920     5.9390     5.9390   120.7200
  148.5000   -62.9920     5.9550     5.9550   122.6800
  149.0000   -62.9920     5.9700     5.9700   126.4030
  149.5000   -62.9920     5.9900     5.9900   130.3010
  150.0000   -62.9920     5.9360     5.9360   131.2700
  150.5000   -62.9920     5.8450     5.8470   130.2730
  151.0000   -62.9920     5.7580     5.7580   129.3730
  151.5000   -62.9920     5.6730     5.6730   129.2790
  152.0000   -62.9920     5.3460     5.3460   129.9920
  152.5000   -62.9920     5.1810     5.1810   133.1980
  153.0000   -62.9920     5.2140     5.2140   133.0180
  153.5000   -62.9920     5.2630     5.2630   131.1720
  154.0000   -62.9920     5.3120     5.3120   129.5220
  154.5000   -62.9920     5.3600     5.3600   127.9050
  155.0000   -62.9920     5.5280     5.6190   126.2270
  155.5000   -62.9920     5.7350     5.9490   124.6440
  156.0000   -62.9920     5.9430     6.2780   123.7610
  156.5000   -62.9920     6.1500     6.6080   123.9150
  157.0000   -62.9920     6.3580     6.8000   122.5190
  157.5000   -62.9920     6.5650     6.8000   118.7340
  158.0000   -62.9920     6.7730     6.8000   117.5590
  158.5000   -62.9920     6.9010     6.8000   120.7480
  159.0000   -62.9920     6.8110     6.8000   126.9130
  159.5000   -62.9920     6.7210     6.7360   128.4490
  160.0000   -62.9920     6.6320     6.6430   127.8690
  160.5000   -62.9920     6.5420     6.5500   130.2810
  161.0000   -62.9920     6.4520     6.4570   136.1900
  161.5000   -62.9920     6.3630     6.3640   141.8240
  162.0000   -62.9920     6.2680     6.2830   141.4950
  162.5000   -62.9920     6.1690     6.2110   135.9160
  163.0000   -62.9920     6.0710     6.1390   133.3620
  163.5000   -62.9920     5.9720     6.0670   136.4610
  164.0000   -62.9920     5.8740     5.9950   139.7130
  164.5000   -62.9920     5.7750     5.9230   143.0670
  165.0000   -62.9920     5.6760     5.8510   146.2960
  165.5000   -62.9920     5.5780     5.7790   149.9180
  166.0000   -62.9920     5.4710     5.6730   152.2850
  166.5000   -62.9920     5.5550     5.7150   152.5460
  167.0000   -62.9920     5.6470     5.7980   153.1030
  167.5000   -62.9920     5.7390     5.8800   153.3620
  168.0000   -62.9920     5.8310     5.9630   151.7510
  168.5000   -62.9920     5.9230     6.0450   150.3380
  169.0000   -62.9920     6.0150     6.1270   148.7390
  169.5000   -62.9920     6.1070     6.2100   149.0660
  170.0000   -62.9920     6.1990     6.2920   152.7130
  170.5000   -62.9920     6.2910     6.3750   157.0500
  171.0000   -62.9920     6.3830     6.4570   159.1470
  171.5000   -62.9920     6.4750     6.5390   154.4530
  172.0000   -62.9920     6.5580     6.6780   144.8640
  172.5000   -62.9920     6.4410     6.6470   139.7560
  173.0000   -62.9920     6.3350     6.5490   136.0220
  173.5000   -62.9920     6.2290     6.4510   133.9430
  174.0000   -62.9920     6.1220     6.3520   134.0180
  174.5000   -62.9920     6.0160     6.2540   134.2780
  175.0000   -62.9920     5.9100     6.1560   135.3290
  175.5000   -62.9920     5.8040     6.0580   134.0920
  176.0000   -62.9920     5.6970     5.9600   133.4350
  176.5000   -62.9920     5.5910     5.8610   132.8580
  177.0000   -62.9920     5.4710     5.7630   136.9050
  177.5000   -62.9920     5.4710     5.6730   143.6330
  178.0000   -62.9920     5.4710     5.6730   146.9930
  178.5000   -62.9920     5.4710     5.6730   144.2750
  179.0000   -62.9920     5.4710     5.6730   143.1200
  179.5000   -62.9920     5.4710     5.6730   142.6890
  180.0000   -62.9920     5.4710     5.6730   143.2930
  180.5000   -62.9920     5.4710     5.6730   144.6270
  181.0000   -62.9920     5.4710     5.6730   141.3950
  181.5000   -62.9920     5.4710     5.6730   139.9520
  182.0000   -62.9920     5.4700     5.6730   138.6020
  182.5000   -62.9920     5.4700     5.6720   147.0870
  183.0000   -62.9920     5.4700     5.6730   144.0160
  183.5000   -62.9920     5.4700     5.6750   137.8410
  184.0000   -62.9920     5.4350     5.6690   132.7820
  184.5000   -62.9920     5.3940     5.6270   129.5960
  185.0000   -62.9920     5.3540     5.5850   125.9530
  185.5000   -62.9920     5.3140     5.5430   122.1230
  186.0000   -62.9920     5.2730     5.5010   121.8260
  186.5000   -62.9920     5.2330     5.4590   124.5720
  187.0000   -62.9920     5.1920     5.4170   127.1860
  187.5000   -62.9920     5.1520     5.3750   128.6490
  188.0000   -62.9920     5.0880     5.3330   128.3860
  188.5000   -62.9920     5.1030     5.2760   130.4160
  189.0000   -62.9920     5.1370     5.3060   135.9970
  189.5000   -62.9920     5.1710     5.3540   138.4510
  190.0000   -62.9920     5.2060     5.4020   141.0850
  190.5000   -62.9920     5.2400     5.4500   143.0820
  191.0000   -62.9920     5.2750     5.4980   141.7460
  191.5000   -62.9920     5.3090     5.5460   139.6450
  192.0000   -62.9920     5.3430     5.5940   136.6660
  192.5000   -62.9920     5.3720     5.6730   133.9050
  193.0000   -62.9920     5.3080     5.6470   131.8270
  193.5000   -62.9920     5.2520     5.5780   130.1110
  194.0000   -62.9920     5.1970     5.5080   128.3230
  194.5000   -62.9920     5.1410     5.4390   126.5740
  195.0000   -62.9920     5.0880     5.3720   129.1380
  195.5000   -62.9920     5.1500     5.5220   137.6730
  196.0000   -62.9920     5.2090     5.6660   135.3440
  196.5000   -62.9920     5.2680     5.8100   130.6910
  197.0000   -62.9920     5.3280     5.8820   124.1690
  197.5000   -62.9920     5.3870     5.8820   119.0720
  198.0000   -62.9920     5.4470     5.8820   105.1610
  198.5000   -62.9920     5.5060     5.8820    95.4300
  199.0000   -62.9920     5.5660     5.8820   101.3790
  199.5000   -62.9920     5.6250     5.8820   111.2100
  200.0000   -62.9920     5.6730     5.8820   120.7740
  200.5000   -62.9920     5.7300     5.9020   125.2700
  201.0000   -62.9920     5.7780     5.9520   126.0440
  201.5000   -62.9920     5.8260     6.0020   126.5820
  202.0000   -62.9920     5.8820     6.0520   128.8230
  202.5000   -62.9920     5.7480     6.0990   132.6060
  203.0000   -62.9920     5.5870     5.9260   132.6650
  203.5000   -62.9920     5.4260     5.7590   128.2490
  204.0000   -62.9920     5.2650     5.5920   123.8660
  204.5000   -62.9920     5.1040     5.4250   124.8920
  205.0000   -62.9920     4.9430     5.2580   128.9320
  205.5000   -62.9920     4.7320     5.0910   136.2340
  206.0000   -62.9920     4.7610     4.9070   137.3410
  206.5000   -62.9920     4.8590     4.9570   135.9090
  207.0000   -62.9920     4.9570     5.0590   129.8990
  207.5000   -62.9920     5.0540     5.1600   124.6080
  208.0000   -62.9920     5.1520     5.2620   119.4990
  208.5000   -62.9920     5.2500     5.3630   121.6610
  209.0000   -62.9920     5.3380     5.4710   125.0970
  209.5000   -62.9920     5.4230     5.5740   125.3700
  210.0000   -62.9920     5.5080     5.6840   125.4760
  210.5000   -62.9920     5.5930     5.7940   125.6250
  211.0000   -62.9920     5.6780     5.9030   129.2460
  211.5000   -62.9920     5.7630     6.0130   129.5230
  212.0000   -62.9920     5.8480     6.1230   130.1680
  212.5000   -62.9920     5.9050     6.2110   130.4210
  213.0000   -62.9920     5.9440     6.2600   136.3720
  213.5000   -62.9920     5.9900     6.3250   136.1830
  214.0000   -62.9920     5.9020     6.2770   132.7590
  214.5000   -62.9920     5.7760     6.1630   129.2930
  215.0000   -62.9920     5.6450     6.0070   127.8720
  215.5000   -62.9920     5.4870     5.7970   128.5840
  216.0000   -62.9920     5.3300     5.5870   132.9920
  216.5000   -62.9920     5.2220     5.3760   134.8750
  217.0000   -62.9920     5.1390     5.1810   134.6970
  217.5000   -62.9920     5.0570     5.0920   134.9570
  218.0000   -62.9920     4.9750     5.0090   132.3720
  218.5000   -62.9920     4.8920     4.9260   126.8290
