~VERSION INFORMATION
 VERS.                2.0:   CWLS LOG ASCII STANDARD - VERSION 2.0
 WRAP.                 NO:   ONE LINE PER DEPTH STEP
~WELL INFORMATION
#MNEM.UNIT      DATA TYPE    INFORMATION
#----------   ------------   ------------------------------
 STRT.F          200.5000:   START DEPTH
 STOP.F         3012.5000:   STOP DEPTH
 STEP.F            0.5000:   STEP LENGTH
 NULL.          -999.2500:   NO VALUE
 COMP.    FENIX & SCISSON:   COMPANY
 WELL.  FENIX "AX" #75-29:   WELL
 FLD .              NPR-3:   FIELD
 LOC .      S29 T39N R78W:   LOCATION
 CNTY.            NATRONA:   COUNTY
 STAT.            WYOMING:   STATE
 CTRY. UNITED STATES OF AMERICA:   COUNTRY
 SRVC.           BIRDWELL:   SERVICE COMPANY
 DATE.        15-FEB-1978:   LOGDATE
 API .     49025105830000:   API NUMBER
~CURVE INFORMATION
#MNEM.UNIT       API CODE    CURVE DESCRIPTION
#----------   ------------   ------------------------------
 DEPT.F                  :   
 GRD .GAPI   45 310 01 00:   GAMMA RAY FROM DENSITY LOG
 CALD.IN     45 280 60 00:   CALIPER FROM DENSITY LOG
 DEN .G/C3   45 350 01 00:   BULK DENSITY
 DCOR.G/C3   45 356 01 00:   DENSITY CORRECTION
 SPR .MV     05 010 01 00:   SPONTANEOUS POTENTIAL
 SN  .OHMM   05 040 16 00:   SHORT NORMAL 16"
 RILD.OHMM   05 120 46 00:   DEEP INDUCTION RESISTIVITY
~PARAMETER INFORMATION
#MNEM.UNIT          VALUE    DESCRIPTION
#----------   ------------   ------------------------------
 EKB .F         5042.0000:   Kelly bushing
 EGL .F         5032.0000:   Ground level
 EDF .F            0.0000:   Drilling floor
 TD  .F         3010.0000:   Total depth
 DATE.        15-FEB-1978:   Date logged
 CLNT.            A2DTECH:   Client Code
 SL  . 2550' FSL & 950' FEL:   Surface Location
 PD  .                 GL:   Permanent Datum
 EPD .F              5032:   Elevation Permanent Datum
 LMF .                 KB:   Log Measured From
 DMF .                 KB:   Drilling Measured From
 DAPD.F                10:   Feet Above Permanent Datum
 DD  .F              3010:   Depth driller
 DL  .F              3010:   Depth logger
 BLI .F              3002:   Bottom log interval
 TLI .F               200:   Top log interval
 CS1 .IN            8.625:   Casing size
 CBD1.      8.625" @ 222':   Casing driller 1
 CBL1.F               222:   Casing logger 1
 BS1 .IN            7.875:   Bit size
 BSD1.F              3010:   Depth drilled with bit1
 DFT .         LIGNO/SULF:   Type fluid in hole
 DFD .                9.1:   Density
 DFV .                 33:   Viscosity
 DFPH.                 10:   pH
 DFL .                4.9:   Fluid loss
 MSS .           FLOWLINE:   Source of sample
 RMS .OHMM              2:   Rm
 MST .F                66:   Rm Meas. temp.
 RMF .OHMM            2.2:   Rmf
 MFST.F                58:   Rmf Meas. temp.
 RMC .OHMM            1.8:   Rmc
 MCST.F                60:   Rmc Meas. temp.
 MFSS.               MEAS:   Source Rmf.
 RMB .OHMM            1.7:   Rm. at BHT
 BHT .F               118:   BHT.
 TCS .HRS               5:   Time Circ. stopped
 MRT .F               118:   Maximum recorded temp.
 LUN .               2958:   Logging unit number
 LUL .               CASP:   Logging unit location
 ENGI.            POINTER:   Recorded By
 WITN.           MCGINLEY:   Witnessed by
 ORIG.           5" PRINT:   Origin of data
 UWI .     49025105830000:   Unique Well ID
 DICO. A2D TECHNOLOGIES, INC.:   Digitizing Company
~OTHER INFORMATION
~A   DEPT       GRD      CALD        DEN       DCOR        SPR         SN       RILD   
# ...
 2066.0000    80.9700     7.9410     2.4740     0.0720   -46.6210     7.1880     6.1450
 2066.5000    78.6550     7.9410     2.4700     0.0700   -46.6680     7.1880     6.2210
 2067.0000    78.6710     7.9410     2.4640     0.0740   -46.7160     7.2540     6.3170
 2067.5000    81.1390     7.9410     2.4810     0.0820   -46.7640     7.6000     6.5040
 2068.0000    79.9750     7.9410     2.4850     0.0840   -46.8120     8.0350     6.7470
 2068.5000    77.5690     7.9410     2.4950     0.0730   -46.8610     8.4700     6.9370
 2069.0000    75.2710     7.9410     2.4860     0.0640   -46.9090     8.8850     6.9720
 2069.5000    72.8830     7.9410     2.4720     0.0650   -46.8430     8.5590     7.0020
 2070.0000    71.0360     7.9410     2.4750     0.0660   -46.7670     8.2540     7.0240
 2070.5000    70.4950     7.9410     2.4820     0.0670   -46.7120     8.3300     7.0530
 2071.0000    68.1100     7.9410     2.4870     0.0710   -46.7130     8.2450     6.9450
 2071.5000    65.6160     7.9410     2.4900     0.0850   -46.7130     8.0280     6.7600
 2072.0000    62.4520     7.9410     2.5060     0.0930   -46.7130     7.9550     6.4940
 2072.5000    59.7230     7.9410     2.5140     0.0930   -46.7130     7.9550     6.6050
 2073.0000    58.5960     7.9410     2.5120     0.0930   -46.7130     7.9550     6.9920
 2073.5000    58.2400     7.9410     2.5140     0.0930   -46.7130     8.0410     6.8780
 2074.0000    57.9840     7.9400     2.5220     0.0930   -46.7100     8.1570     6.7380
 2074.5000    59.7220     7.9370     2.5200     0.0930   -46.7990     8.2720     6.9920
 2075.0000    63.6570     7.9350     2.5180     0.0930   -46.9020     8.3880     6.8010
 2075.5000    66.5830     7.9330     2.5190     0.0930   -47.0060     8.5640     6.9010
 2076.0000    67.0260     7.9310     2.5210     0.0900   -47.1110     8.4940     7.0130
 2076.5000    66.5160     7.9280     2.5140     0.0860   -47.0340     8.3500     7.1250
 2077.0000    65.8520     7.9260     2.5070     0.0900   -46.9260     8.3300     7.2370
 2077.5000    65.6950     7.9240     2.5000     0.0950   -47.2540     8.4070     7.3210
 2078.0000    68.0010     7.9210     2.5060     0.0950   -47.6780     8.7220     7.2040
 2078.5000    70.2330     7.9220     2.5120     0.0940   -47.0220     8.9680     7.1750
 2079.0000    70.5790     7.9240     2.5100     0.0950   -46.5080     8.8780     7.1460
 2079.5000    70.5470     7.9250     2.5180     0.0980   -46.6640     8.8040     7.1220
 2080.0000    70.8500     7.9270     2.5130     0.1050   -46.8280     8.4710     6.8290
 2080.5000    76.6750     7.9290     2.5200     0.1090   -46.8410     8.0280     6.4570
 2081.0000    79.6640     7.9300     2.5210     0.1070   -46.7000     7.7080     6.0890
 2081.5000    84.7310     7.9320     2.5140     0.1060   -46.5610     7.2900     5.9810
 2082.0000    85.4620     7.9340     2.4890     0.1140   -46.4220     6.8640     5.8680
 2082.5000    84.0210     7.9360     2.4960     0.1240   -46.3520     6.7380     5.8040
 2083.0000    82.1180     7.9370     2.5070     0.1190   -46.5320     6.8010     5.7860
 2083.5000    78.8720     7.9390     2.5090     0.0890   -46.7080     6.9030     5.7610
 2084.0000    75.3930     7.9400     2.4730     0.0680   -46.8860     7.0150     5.7700
 2084.5000    75.3100     7.9430     2.4510     0.0820   -46.7760     7.1280     5.7840
 2085.0000    77.8460     7.9450     2.4800     0.0850   -46.6140     7.2390     5.7970
 2085.5000    82.6840     7.9480     2.4960     0.0850   -46.4510     7.3210     5.8110
 2086.0000    83.0670     7.9500     2.4820     0.0950   -46.3450     7.0780     5.8240
 2086.5000    84.0100     7.9530     2.4820     0.1060   -46.5470     6.9270     5.8380
 2087.0000    84.2810     7.9550     2.4840     0.1160   -46.7460     6.9270     5.8650
 2087.5000    83.9370     7.9580     2.4810     0.1110   -46.9420     6.9670     5.8910
 2088.0000    82.1050     7.9600     2.4870     0.1140   -47.0950     7.0640     5.6560
 2088.5000    80.0970     7.9630     2.4830     0.1070   -46.9800     7.1610     6.3760
 2089.0000    79.6400     7.9660     2.4760     0.1020   -46.8630     7.2590     5.8680
 2089.5000    78.4730     7.9680     2.4710     0.1010   -46.7460     7.4110     6.0890
 2090.0000    79.7140     7.9710     2.4900     0.0990   -46.5900     7.6630     6.2020
 2090.5000    83.6970     7.9730     2.5020     0.0980   -46.4160     7.8910     6.0490
 2091.0000    80.1560     7.9760     2.4970     0.1060   -46.2430     7.9550     5.9510
 2091.5000    71.6070     7.9780     2.5000     0.1100   -46.1130     7.6030     5.9220
 2092.0000    68.7240     7.9800     2.5110     0.1110   -46.1160     7.2540     5.9220
 2092.5000    66.5720     7.9770     2.5180     0.1090   -46.1160     7.0310     5.7290
 2093.0000    66.8280     7.9740     2.5230     0.0910   -46.1160     6.8280     5.6170
 2093.5000    70.9240     7.9720     2.5190     0.0900   -46.1160     6.6770     5.5810
 2094.0000    75.6150     7.9690     2.5120     0.0950   -46.1160     6.7220     5.5480
 2094.5000    75.3160     7.9660     2.5290     0.0970   -46.1170     6.7580     5.5140
 2095.0000    74.9760     7.9630     2.5340     0.0940   -46.2140     6.8010     5.5010
 2095.5000    76.0980     7.9600     2.5440     0.0920   -46.4640     6.7230     5.5010
 2096.0000    76.6580     7.9530     2.5310     0.0890   -46.7060     6.5970     5.5010
 2096.5000    78.7740     7.9450     2.5180     0.0990   -46.6840     6.4940     5.5010
 2097.0000    81.2960     7.9370     2.5130     0.1140   -46.6450     6.4940     5.5010
 2097.5000    85.2370     7.9290     2.5250     0.1230   -46.6060     6.4940     5.5010
 2098.0000    91.6620     7.9210     2.5350     0.1170   -46.5670     6.4430     5.5010
 2098.5000    97.6340     7.9090     2.5360     0.1090   -46.5280     6.2980     5.4540
 2099.0000   102.4780     7.8960     2.5110     0.1050   -46.4900     6.2390     5.3020
 2099.5000   110.0370     7.8840     2.4900     0.1240   -46.4510     6.2100     5.1920
 2100.0000   118.8470     7.8710     2.4800     0.1620   -46.4120     6.1820     5.1060
 2100.5000   121.9950     7.8580     2.4990     0.1830   -46.3740     6.1540     5.0170
 2101.0000   120.6800     7.8450     2.5170     0.1810   -46.3360     6.1260     5.0170
 2101.5000   110.7890     7.8280     2.4730     0.1740   -46.3580     6.0980     5.0170
 2102.0000   103.4270     7.7970     2.4710     0.1460   -46.4470     6.0630     5.0170
 2102.5000   105.1930     7.7660     2.4410     0.1370   -46.5220     5.9770     5.0780
 2103.0000   102.8000     7.7350     2.4580     0.1470   -46.5480     6.0130     5.1320
 2103.5000    99.7270     7.7040     2.4750     0.0990   -46.5760     6.0890     5.2170
 2104.0000    98.8920     7.6980     2.4510     0.1220   -46.6030     6.9270     5.4610
 2104.5000    99.8890     7.6920     2.4370     0.1140   -46.6300     6.8640     5.5560
 2105.0000   102.5730     7.6860     2.4730     0.0990   -46.6580     7.0490     5.7920
 2105.5000   103.4310     7.6790     2.4540     0.0830   -46.6850     7.5960     5.9770
 2106.0000   100.0390     7.6730     2.4330     0.0970   -46.7130     7.9200     6.0590
 2106.5000    97.1840     7.6670     2.4430     0.1090   -46.7400     8.0880     6.4540
 2107.0000    98.5840     7.6610     2.4650     0.0990   -46.7670     8.1910     6.6450
 2107.5000   102.0190     7.6550     2.4700     0.0890   -46.7950     8.2620     6.7760
 2108.0000   102.7810     7.6480     2.4610     0.1030   -46.8220     8.3340     6.9920
 2108.5000   105.6600     7.6420     2.4680     0.1030   -46.8490     8.4070     6.6790
 2109.0000   105.1970     7.6360     2.4610     0.1120   -46.8770     8.3350     6.5780
 2109.5000   104.8170     7.6300     2.4560     0.1150   -46.9060     8.2320     6.3760
 2110.0000   104.4410     7.6230     2.4640     0.1150   -46.8500     8.0910     6.4820
 2110.5000   105.4820     7.6170     2.4620     0.1290   -46.7650     7.9490     6.3290
 2111.0000   107.8140     7.6110     2.4600     0.1410   -46.6780     7.7680     6.2200
