~VERSION INFORMATION
 VERS.                2.0:   CWLS LOG ASCII STANDARD - VERSION 2.0
 WRAP.                 NO:   ONE LINE PER DEPTH STEP
~WELL INFORMATION
#MNEM.UNIT      DATA TYPE    INFORMATION
#----------   ------------   ------------------------------
 STRT.F           42.0000:   START DEPTH
 STOP.F         4542.0000:   STOP DEPTH
 STEP.F            0.5000:   STEP LENGTH
 NULL.          -999.2500:   NO VALUE
 COMP. LAWRENCE ALLISON & ASSOC.:   COMPANY
 WELL. ALLISON NPR 3 #86-27:   WELL
 FLD .                NPR:   FIELD
 LOC .      S27 T39N R78W:   LOCATION
 CNTY.            NATRONA:   COUNTY
 STAT.            WYOMING:   STATE
 CTRY. UNITED STATES OF AMERICA:   COUNTRY
 SRVC.      DRESSER ATLAS:   SERVICE COMPANY
 DATE.        20-MAR-1985:   LOGDATE
 API .     49025110190000:   API NUMBER
~CURVE INFORMATION
#MNEM.UNIT       API CODE    CURVE DESCRIPTION
#----------   ------------   ------------------------------
 DEPT.F                  :   
 CALD.IN     45 280 60 00:   CALIPER FROM DENSITY LOG
 TEND.LBS    45 635 01 00:   TENSION FROM DENSITY LOG
 CORR.G/C3   45 356 01 00:   DENSITY CORRECTION
 RHOB.G/C3   45 350 01 00:   BULK DENSITY
 CNC .DEC    42 890 03 00:   NEUTRON PORISITY SANDSTONE
 TENR.LBS    07 635 01 00:   TENSION FROM RESISTIVITY
 GRR .GAPI   07 310 01 00:   GAMMA RAY FROM RESISTIVITY
 SFL .OHMM   07 220 01 00:   SHALLOW FOCUSED LOG RESISTIVITY
 ILD .OHMM   07 120 46 00:   DEEP INDUCTION RESISTIVITY
 ILM .OHMM   07 120 44 00:   INDUCTION LOG MEDIUM RESISTIVITY
 TENS.LBS    60 635 01 00:   TENSION FROM SONIC LOG
 DT  .US/F   60 520 00 00:   DELTA TIME
 CALS.IN     60 280 50 00:   CALIPER FROM SONIC LOG
 GRS .GAPI   60 310 01 00:   GAMMA RAY FROM SONIC LOG
~PARAMETER INFORMATION
#MNEM.UNIT          VALUE    DESCRIPTION
#----------   ------------   ------------------------------
 EKB .F         5095.0000:   Kelly bushing
 EGL .F         5083.0000:   Ground level
 EDF .F            0.0000:   Drilling floor
 TD  .F         4545.0000:   Total depth
 DATE.        20-MAR-1985:   Date logged
 CLNT.            A2DTECH:   Client Code
 SL  . 292' FEL & 1975' FWL:   Surface Location
 PD  .                 GL:   Permanent Datum
 EPD .F              5083:   Elevation Permanent Datum
 LMF .                 KB:   Log Measured From
 DMF .                 KB:   Drilling Measured From
 DAPD.F                12:   Feet Above Permanent Datum
 DD  .F              4545:   Depth driller
 DL  .F              4533:   Depth logger
 BLI .F              4534:   Bottom log interval
 TLI .F              1045:   Top log interval
 CS1 .IN            8.625:   Casing size
 CBD1.     8.625" @ 1033':   Casing driller 1
 CBL1.F              1045:   Casing logger 1
 BS1 .IN            7.875:   Bit size
 BSD1.F              4545:   Depth drilled with bit1
 DFT .    GEL/KCL/STA/FLO:   Type fluid in hole
 DFD .                9.1:   Density
 DFV .                 30:   Viscosity
 DFPH.                  8:   pH
 DFL .                 12:   Fluid loss
 MSS .           MUD/TANK:   Source of sample
 RMS .OHMM            .46:   Rm
 MST .F                74:   Rm Meas. temp.
 RMF .OHMM            .37:   Rmf
 MFST.F                72:   Rmf Meas. temp.
 RMC .OHMM            .58:   Rmc
 MCST.F                74:   Rmc Meas. temp.
 MFSS.               MEAS:   Source Rmf.
 MCSS.               CALC:   Source Rmc.
 RMB .OHMM            .25:   Rm. at BHT
 BHT .F               138:   BHT.
 TCS .HRS             4.5:   Time Circ. stopped
 MRT .F               138:   Maximum recorded temp.
 LUN .            HL-6274:   Logging unit number
 LUL .           GILLETTE:   Logging unit location
 ENGI.             RAUTIO:   Recorded By
 WITN.             STRONG:   Witnessed by
 ORIG.           5" PRINT:   Origin of data
 UWI .     49025110190000:   Unique Well ID
 DICO. A2D TECHNOLOGIES, INC.:   Digitizing Company
~OTHER INFORMATION
~A   DEPT     CALD       TEND       CORR       RHOB        CNC       TENR        GRR        SFL        ILD        ILM       TENS         DT        CALS        GRS  
# ...
 4378.5000     8.0970   -20.4590    -0.0030     2.5240     0.3170    50.1990   112.8520     3.9420     3.0600     2.9620  -999.2500  -999.2500  -999.2500  -999.2500
 4379.0000     8.0990   -20.4590    -0.0100     2.5160     0.3080    53.5120   113.7870     3.1170     3.2090     3.2350  -999.2500  -999.2500  -999.2500  -999.2500
 4379.5000     8.1010   -20.4590     0.0140     2.5200     0.3040    56.8260   110.6280     3.4000     3.3570     3.6740  -999.2500  -999.2500  -999.2500  -999.2500
 4380.0000     8.1030   -20.4590     0.0320     2.5350     0.2960    53.8910   103.7780     3.6820     3.8780     4.2230  -999.2500  -999.2500  -999.2500  -999.2500
 4380.5000     8.1050   -20.4590     0.0190     2.5610     0.2650    46.7910    97.0360     6.6460     4.3990     4.7710  -999.2500  -999.2500  -999.2500  -999.2500
 4381.0000     8.1070   -24.3660     0.0170     2.5870     0.2590    39.6900    89.9870     8.6210     4.9200     5.4300  -999.2500  -999.2500  -999.2500  -999.2500
 4381.5000     8.1070   -27.9580     0.0340     2.6080     0.2610    32.5900    87.4750    11.1690     5.3550     5.6380  -999.2500  -999.2500  -999.2500  -999.2500
 4382.0000     8.1000   -31.5510     0.0380     2.6030     0.2640    25.4900    89.5180    10.7640     5.8460     5.8460  -999.2500  -999.2500  -999.2500  -999.2500
 4382.5000     8.0940   -35.1440     0.0190     2.5810     0.2810    18.3900    91.4140     9.9050     5.6220     5.5250  -999.2500  -999.2500  -999.2500  -999.2500
 4383.0000     8.0870   -38.7370     0.0100     2.5550     0.2830    22.5310    93.4900     8.8310     4.9500     5.0420  -999.2500  -999.2500  -999.2500  -999.2500
 4383.5000     8.0810   -27.0460     0.0230     2.5440     0.2840    26.6730    96.0700     7.7570     4.4780     4.6260  -999.2500  -999.2500  -999.2500  -999.2500
 4384.0000     8.0740   -20.4590     0.0300     2.5370     0.2850    30.8150    99.9530     6.6840     3.8870     4.1050  -999.2500  -999.2500  -999.2500  -999.2500
 4384.5000     8.0680   -20.4590     0.0140     2.5300     0.3100    34.9570   104.4550     5.6100     3.2970     3.5850  -999.2500  -999.2500  -999.2500  -999.2500
 4385.0000     8.0610   -20.4590    -0.0030     2.5200     0.3280    39.0990   106.2050     4.5360     2.9510     3.0640  -999.2500  -999.2500  -999.2500  -999.2500
 4385.5000     8.0550   -20.4590    -0.0100     2.5110     0.3460    43.2410   108.2010     3.7420     2.8080     2.5440  -999.2500  -999.2500  -999.2500  -999.2500
 4386.0000     8.0480   -20.4590     0.0040     2.4980     0.3530    47.3820   108.5420     3.3670     2.7390     2.6870  -999.2500  -999.2500  -999.2500  -999.2500
 4386.5000     8.0420   -20.4590     0.0160     2.4850     0.3030    51.5240   107.3690     2.8420     2.7390     2.8310  -999.2500  -999.2500  -999.2500  -999.2500
 4387.0000     8.0350   -20.4590     0.0190     2.4800     0.3040    55.6660   105.0950     2.8950     2.8190     2.9740  -999.2500  -999.2500  -999.2500  -999.2500
 4387.5000     8.0280   -20.4590     0.0070     2.4880     0.2530    58.1510    89.2160     3.6420     2.9510     3.1170  -999.2500  -999.2500  -999.2500  -999.2500
 4388.0000     8.0180   -20.4590    -0.0020     2.4990     0.2270    58.1510    65.8060     4.5760     3.2690     3.5510  -999.2500  -999.2500  -999.2500  -999.2500
 4388.5000     8.0060   -20.4590    -0.0120     2.4610     0.2060    58.1510    43.3420     5.5310     3.7110     3.9850  -999.2500  -999.2500  -999.2500  -999.2500
 4389.0000     7.9940   -20.4590     0.0150     2.3980     0.2010    58.1510    29.0870     5.4090     4.1520     4.4180  -999.2500  -999.2500  -999.2500  -999.2500
 4389.5000     7.9820   -20.0530     0.0410     2.3630     0.1960    58.1510    20.7540     5.2050     4.5940     4.8520  -999.2500  -999.2500  -999.2500  -999.2500
 4390.0000     7.9700   -18.2880     0.0390     2.3490     0.1900    58.1510    20.8660     5.0420     5.0970     5.2860  -999.2500  -999.2500  -999.2500  -999.2500
 4390.5000     7.9580   -16.5230     0.0320     2.3620     0.1890    58.1510    20.9050     5.9320     5.6420     5.7190  -999.2500  -999.2500  -999.2500  -999.2500
 4391.0000     7.9480   -14.7580     0.0210     2.3790     0.1930    58.1510    21.4210     6.6730     6.2950     6.1530  -999.2500  -999.2500  -999.2500  -999.2500
 4391.5000     7.9530   -12.9930     0.0110     2.3960     0.2020    58.1510    21.9350     7.4140     6.4130     6.5040  -999.2500  -999.2500  -999.2500  -999.2500
 4392.0000     7.9610   -11.2280     0.0070     2.4050     0.2030    58.1510    21.5120     8.0060     6.8110     6.7790  -999.2500  -999.2500  -999.2500  -999.2500
 4392.5000     7.9690    -9.4640     0.0190     2.4020     0.1930    58.1510    20.4320     7.2100     7.2100     7.0340  -999.2500  -999.2500  -999.2500  -999.2500
 4393.0000     7.9770    -7.6990     0.0300     2.3940     0.1850    58.1510    19.6380     6.4130     7.6080     7.3520  -999.2500  -999.2500  -999.2500  -999.2500
 4393.5000     7.9850    -5.9340     0.0360     2.3960     0.1850    58.1510    20.2690     6.6590     8.0060     7.6710  -999.2500  -999.2500  -999.2500  -999.2500
 4394.0000     7.9880    -4.1690     0.0400     2.4000     0.1860    58.1510    20.7600     6.9050     8.3520     7.9900  -999.2500  -999.2500  -999.2500  -999.2500
 4394.5000     7.9880    -2.4040     0.0440     2.4050     0.1880    58.1510    21.3420     7.5860     8.6980     8.3080  -999.2500  -999.2500  -999.2500  -999.2500
 4395.0000     7.9880    -0.6390     0.0450     2.4090     0.1940    58.1510    21.0370     8.1520     9.1130     8.4390  -999.2500  -999.2500  -999.2500  -999.2500
 4395.5000     7.9880     1.1260     0.0410     2.4130     0.2010    58.1510    20.6980     8.9460     8.9690     8.6210  -999.2500  -999.2500  -999.2500  -999.2500
 4396.0000     7.9880     2.8910     0.0370     2.4070     0.2080    58.1510    20.3260     8.5690     8.7880     8.2250  -999.2500  -999.2500  -999.2500  -999.2500
 4396.5000     7.9880     4.6560     0.0290     2.3950     0.2120    58.1510    19.9760     7.9410     8.6080     7.5640  -999.2500  -999.2500  -999.2500  -999.2500
 4397.0000     7.9880     6.4200     0.0200     2.3840     0.2120    58.1510    19.6000     7.3130     8.4630     7.1040  -999.2500  -999.2500  -999.2500  -999.2500
 4397.5000     7.9880     8.1850     0.0120     2.3730     0.2130    58.1510    19.2740     6.6850     7.9270     6.7790  -999.2500  -999.2500  -999.2500  -999.2500
 4398.0000     7.9940     9.9500     0.0050     2.3620     0.2130    58.1510    18.9630     6.0580     7.4810     6.4540  -999.2500  -999.2500  -999.2500  -999.2500
 4398.5000     8.0000    11.7150    -0.0020     2.3510     0.2130    58.1510    19.5210     5.4300     7.0340     6.1290  -999.2500  -999.2500  -999.2500  -999.2500
 4399.0000     8.0060    13.4800     0.0020     2.3470     0.2180    58.1510    19.9200     5.3300     6.1590     5.7390  -999.2500  -999.2500  -999.2500  -999.2500
 4399.5000     8.0120    15.2450     0.0090     2.3530     0.2240    58.1510    21.0800     6.0550     5.3720     5.1660  -999.2500  -999.2500  -999.2500  -999.2500
 4400.0000     8.0180    17.0100     0.0170     2.3600     0.2520    58.1510    29.1650     6.7790     4.7170     4.4480  -999.2500  -999.2500  -999.2500  -999.2500
 4400.5000     8.0240    18.7750     0.0210     2.3760     0.2960    58.1510    39.8770     6.1750     4.0610     3.7310  -999.2500  -999.2500  -999.2500  -999.2500
 4401.0000     8.0290    19.4610     0.0310     2.3920     0.3380    58.1510    51.8440     4.6730     3.4060     3.0140  -999.2500  -999.2500  -999.2500  -999.2500
 4401.5000     8.0350    19.4610     0.0710     2.3990     0.3520    58.1510    58.3730     3.1710     2.7500     2.4290  -999.2500  -999.2500  -999.2500  -999.2500
 4402.0000     8.0410    19.4610     0.1000     2.4020     0.3710    58.1510    66.0980     2.4810     2.3200     2.1910  -999.2500  -999.2500  -999.2500  -999.2500
 4402.5000     8.0470    19.4610     0.0900     2.3940     0.3790    57.1060    72.0650     2.3020     2.0370     2.0530  -999.2500  -999.2500  -999.2500  -999.2500
