~VERSION INFORMATION
 VERS.                2.0:   CWLS LOG ASCII STANDARD - VERSION 2.0
 WRAP.                 NO:   ONE LINE PER DEPTH STEP
~WELL INFORMATION
#MNEM.UNIT      DATA TYPE    INFORMATION
#----------   ------------   ------------------------------
 STRT.F          640.0000:   START DEPTH
 STOP.F         2792.0000:   STOP DEPTH
 STEP.F            0.5000:   STEP LENGTH
 NULL.          -999.2500:   NO VALUE
 COMP.    FENIX & SCISSON:   COMPANY
 WELL.   FENIX SHX #41-11:   WELL
 FLD .        TEAPOT DOME:   FIELD
 LOC .      S11 T38N R78W:   LOCATION
 CNTY.            NATRONA:   COUNTY
 STAT.            WYOMING:   STATE
 CTRY. UNITED STATES OF AMERICA:   COUNTRY
 SRVC.           BIRDWELL:   SERVICE COMPANY
 DATE.        07-JUL-1979:   LOGDATE
 API .     49025107880000:   API NUMBER
~CURVE INFORMATION
#MNEM.UNIT       API CODE    CURVE DESCRIPTION
#----------   ------------   ------------------------------
 DEPT.F                  :   
 CALD.IN     45 280 60 00:   CALIPER FROM DENSITY LOG
 RHOB.G/C3   45 350 01 00:   BULK DENSITY
 CORR.G/C3   45 356 01 00:   DENSITY CORRECTION
 GRD .GAPI   45 310 01 00:   GAMMA RAY FROM DENSITY LOG
~PARAMETER INFORMATION
#MNEM.UNIT          VALUE    DESCRIPTION
#----------   ------------   ------------------------------
 EKB .F         5168.0000:   Kelly bushing
 EGL .F         5158.0000:   Ground level
 EDF .F            0.0000:   Drilling floor
 EPD .F            0.0000:   Permanent datum
 TD  .F         2801.0000:   Total depth
 DATE.        07-JUL-1979:   Date logged
 CLNT.            A2DTECH:   Client Code
 SL  . 95' FNL & 2414' FWL:   Surface Location
 PD  .                 GL:   Permanent Datum
 DAPD.F                10:   Feet Above Permanent Datum
 DD  .F              2801:   Depth driller
 DL  .F              2791:   Depth logger
 BLI .F              2790:   Bottom log interval
 TLI .F               640:   Top log interval
 CS1 .IN            9.625:   Casing size
 CBD1.      9.625" @ 909':   Casing driller 1
 CBL1.F               910:   Casing logger 1
 BS1 .IN             8.75:   Bit size
 BSD1.F              2801:   Depth drilled with bit1
 DFT .                AIR:   Type fluid in hole
 LUN .               2959:   Logging unit number
 LUL .             CASPER:   Logging unit location
 ENGI.         B. RULLINS:   Recorded By
 WITN.           GINSMORE:   Witnessed by
 ORIG.           5" PRINT:   Origin of data
 UWI .     49025107880000:   Unique Well ID
 DICO. A2D TECHNOLOGIES, INC.:   Digitizing Company
~OTHER INFORMATION
~A   DEPT     CALD       RHOB       CORR         GRD  
# ...
 2538.0000     9.0800     2.4540     0.0000   127.6560
 2538.5000     9.0800     2.4370     0.0000   132.6110
 2539.0000     9.0800     2.4190     0.0010   136.5700
 2539.5000     9.0800     2.4200     0.0100   138.2010
 2540.0000     9.0800     2.4270     0.0180   135.3200
 2540.5000     9.0800     2.4330     0.0260   133.3070
 2541.0000     9.0800     2.4390     0.0260   133.0110
 2541.5000     9.0800     2.4380     0.0220   129.8290
 2542.0000     9.0880     2.4260     0.0140   125.8260
 2542.5000     9.1220     2.4310     0.0120   125.9890
 2543.0000     9.1550     2.4360     0.0150   129.7270
 2543.5000     9.1880     2.4400     0.0190   130.2180
 2544.0000     9.2210     2.4370     0.0220   137.3670
 2544.5000     9.2550     2.4330     0.0200   142.4940
 2545.0000     9.2880     2.4320     0.0140   142.0910
 2545.5000     9.3210     2.4330     0.0090   141.7440
 2546.0000     9.3540     2.4370     0.0040   141.4710
 2546.5000     9.3870     2.4470     0.0040   147.3250
 2547.0000     9.4200     2.4610     0.0240   147.6090
 2547.5000     9.4700     2.4740     0.0300   146.9360
 2548.0000     9.5510     2.4740     0.0240   148.6410
 2548.5000     9.6320     2.4740     0.0140   149.8140
 2549.0000     9.6760     2.4740     0.0070   149.7930
 2549.5000     9.7030     2.4810     0.0140   148.0300
 2550.0000     9.7110     2.4880     0.0210   144.5680
 2550.5000     9.7170     2.4940     0.0170   141.1190
 2551.0000     9.7080     2.4930     0.0130   137.7030
 2551.5000     9.6990     2.4930     0.0120   137.4910
 2552.0000     9.6900     2.4950     0.0140   139.9840
 2552.5000     9.6810     2.4950     0.0100   143.0150
 2553.0000     9.6720     2.4960     0.0040   146.0210
 2553.5000     9.6630     2.4960     0.0000   145.5960
 2554.0000     9.6540     2.4960     0.0040   143.9870
 2554.5000     9.6450     2.4910     0.0120   142.2390
 2555.0000     9.6410     2.4860     0.0120   140.4810
 2555.5000     9.6410     2.4820     0.0080   138.7240
 2556.0000     9.6410     2.4820     0.0100   136.9650
 2556.5000     9.6410     2.4780     0.0180   135.3650
 2557.0000     9.6410     2.4700     0.0200   135.1920
 2557.5000     9.6270     2.4630     0.0220   136.9730
 2558.0000     9.5230     2.4630     0.0230   138.9530
 2558.5000     9.4190     2.4690     0.0300   140.9200
 2559.0000     9.3150     2.4800     0.0380   143.3340
 2559.5000     9.2800     2.4920     0.0360   138.5780
 2560.0000     9.2200     2.5010     0.0250   129.2210
 2560.5000     9.1590     2.4930     0.0130   125.0100
 2561.0000     9.0990     2.4840     0.0020   127.1810
 2561.5000     9.0600     2.4750    -0.0060   130.3270
 2562.0000     9.0550     2.4680    -0.0060   137.1160
 2562.5000     9.0480     2.4680    -0.0050   143.8160
 2563.0000     9.0560     2.4680    -0.0040   150.4730
 2563.5000     9.0650     2.4680    -0.0040   155.6880
 2564.0000     9.0740     2.4650    -0.0050   156.2620
 2564.5000     9.0830     2.4550    -0.0060   152.3230
 2565.0000     9.0920     2.4440    -0.0070   149.0990
 2565.5000     9.1010     2.4430    -0.0080   145.8690
 2566.0000     9.1100     2.4480    -0.0050   142.5960
 2566.5000     9.1190     2.4530     0.0000   141.7020
 2567.0000     9.1270     2.4590     0.0050   143.7300
 2567.5000     9.1370     2.4640     0.0070   143.3620
 2568.0000     9.1290     2.4690     0.0050   128.3850
 2568.5000     9.1080     2.4690     0.0050   125.1190
 2569.0000     9.0870     2.4690     0.0080   125.6800
 2569.5000     9.0660     2.4670     0.0110   124.7140
 2570.0000     9.0640     2.4640     0.0120   122.4160
 2570.5000     9.0680     2.4610     0.0110   120.0530
 2571.0000     9.0730     2.4580     0.0090   119.7660
 2571.5000     9.0780     2.4580     0.0070   119.9650
 2572.0000     9.0800     2.4690     0.0050   119.4880
 2572.5000     9.0640     2.5010     0.0040   113.5920
 2573.0000     9.0400     2.5010     0.0050   112.5650
 2573.5000     9.0150     2.4900     0.0050   116.6930
 2574.0000     8.9900     2.4760     0.0060   119.4450
 2574.5000     8.9650     2.4620     0.0060   125.0800
 2575.0000     8.9620     2.4480     0.0060   133.6110
 2575.5000     8.9670     2.4340     0.0080   148.6020
 2576.0000     8.9710     2.4210     0.0070   160.6920
 2576.5000     8.9760     2.4170     0.0070   156.5680
 2577.0000     8.9810     2.4170     0.0060   149.7260
 2577.5000     8.9860     2.4290     0.0090   142.6810
 2578.0000     8.9910     2.4420     0.0200   142.5770
 2578.5000     8.9950     2.4540     0.0300   143.7060
 2579.0000     9.0000     2.4630     0.0400   144.4160
 2579.5000     9.0050     2.4540     0.0480   143.8270
 2580.0000     9.0100     2.4430     0.0320   138.3280
 2580.5000     9.0150     2.4320     0.0170   134.6690
 2581.0000     9.0190     2.4290     0.0010   135.4800
 2581.5000     9.0240     2.4340     0.0000   140.2750
 2582.0000     9.0290     2.4440     0.0000   145.0780
 2582.5000     9.0340     2.4540     0.0020   149.5370
 2583.0000     9.0390     2.4640     0.0050   149.5020
 2583.5000     9.0400     2.4690     0.0080   144.1580
 2584.0000     9.0400     2.4690     0.0120   138.4390
 2584.5000     9.0400     2.4680     0.0110   138.1350
 2585.0000     9.0400     2.4640     0.0090   140.2620
 2585.5000     9.0400     2.4610     0.0070   144.7160
 2586.0000     9.0400     2.4600     0.0050   149.1850
 2586.5000     9.0400     2.4630     0.0040   150.1870
 2587.0000     9.0390     2.4670     0.0020   144.6380
 2587.5000     9.1010     2.4710     0.0000   140.8700
 2588.0000     9.1840     2.4730    -0.0020   137.0840
 2588.5000     9.2680     2.4720    -0.0010   133.4460
 2589.0000     9.3540     2.4690     0.0170   132.3890
 2589.5000     9.3060     2.4710     0.0350   128.8860
 2590.0000     9.1970     2.4720     0.0530   125.0100
 2590.5000     9.0980     2.4720     0.0550   121.1140
 2591.0000     9.1000     2.4770     0.0200   117.0920
 2591.5000     9.0900     2.4820     0.0040   116.7470
 2592.0000     9.0800     2.4880    -0.0060   120.3880
 2592.5000     9.0790     2.4880    -0.0030   123.1690
 2593.0000     9.0780     2.4860     0.0060   123.5100
 2593.5000     9.0770     2.4830     0.0160   121.2610
 2594.0000     9.0760     2.4870     0.0160   115.7900
 2594.5000     9.0750     2.4910     0.0160   112.0340
 2595.0000     9.0740     2.4950     0.0160   111.7310
 2595.5000     9.0720     2.4960     0.0060   111.8230
 2596.0000     9.0710     2.4940    -0.0040   117.0070
 2596.5000     9.0700     2.4850    -0.0140   117.4560
 2597.0000     9.0690     2.4760    -0.0170   111.9180
 2597.5000     9.0680     2.4660    -0.0180   106.4500
 2598.0000     9.0670     2.4610    -0.0170   100.9250
 2598.5000     9.0660     2.4570    -0.0130    99.9030
 2599.0000     9.0640     2.4550    -0.0080    99.8960
 2599.5000     9.0630     2.4650    -0.0040   100.0650
 2600.0000     9.0620     2.4760    -0.0020   102.8880
 2600.5000     9.0610     2.4870    -0.0020   106.2010
 2601.0000     9.0520     2.4890    -0.0050   105.8080
 2601.5000     8.9960     2.4830    -0.0070   102.8220
 2602.0000     8.9400     2.4720    -0.0010   102.5910
 2602.5000     8.8840     2.4620     0.0050   103.8990
 2603.0000     8.8280     2.4610     0.0110   102.4750
 2603.5000     8.7980     2.4810     0.0170   101.7780
 2604.0000     8.7940     2.5000     0.0230   107.3660
 2604.5000     8.7900     2.5140     0.0240   104.7780
 2605.0000     8.7860     2.5120     0.0160   102.2070
 2605.5000     8.7820     2.4820     0.0080   101.9570
 2606.0000     8.7780     2.4500     0.0020   107.5390
 2606.5000     8.7740     2.4450     0.0020   118.7560
 2607.0000     8.7710     2.4490     0.0030   130.0210
 2607.5000     8.7670     2.4520     0.0040   135.6840
 2608.0000     8.7630     2.4490     0.0060   131.1430
 2608.5000     8.7600     2.4460     0.0060   127.1840
 2609.0000     8.7670     2.4500     0.0060   124.5190
 2609.5000     8.7740     2.4570     0.0120   125.0400
 2610.0000     8.7800     2.4620     0.0170   131.7370
 2610.5000     8.7870     2.4540     0.0200   140.2820
