~VERSION INFORMATION
 VERS.                2.0:   CWLS LOG ASCII STANDARD - VERSION 2.0
 WRAP.                 NO:   ONE LINE PER DEPTH STEP
~WELL INFORMATION
#MNEM.UNIT      DATA TYPE    INFORMATION
#----------   ------------   ------------------------------
 STRT.F           11.0000:   START DEPTH
 STOP.F         3368.0000:   STOP DEPTH
 STEP.F            0.5000:   STEP LENGTH
 NULL.          -999.2500:   NO VALUE
 COMP. LAWRENCE ALLISON AND ASSOC.:   COMPANY
 WELL. LAWRENCE NPR "AX" #3-11:   WELL
 FLD .                NPR:   FIELD
 LOC .      S11 T38N R78W:   LOCATION
 CNTY.            NATRONA:   COUNTY
 STAT.            WYOMING:   STATE
 CTRY. UNITED STATES OF AMERICA:   COUNTRY
 SRVC.      DRESSER ATLAS:   SERVICE COMPANY
 DATE.        17-JAN-1986:   LOGDATE
 API .     49025110540000:   API NUMBER
~CURVE INFORMATION
#MNEM.UNIT       API CODE    CURVE DESCRIPTION
#----------   ------------   ------------------------------
 DEPT.F                  :   
 TEND.LBS    45 635 01 00:   TENSION FROM DENSITY LOG
 DEN .G/C3   45 350 01 00:   BULK DENSITY
 CORR.G/C3   45 356 01 00:   DENSITY CORRECTION
 CNC .DEC    42 890 03 00:   NEUTRON PORISITY SANDSTONE
 TENR.LBS    07 635 01 00:   TENSION FROM RESISTIVITY
 CALR.IN     07 280 01 00:   CALIPER FROM RESISTIVITY
 SPR .MV     07 010 01 00:   SPONTANEOUS POTENTIAL
 GRR .GAPI   07 310 01 00:   GAMMA RAY FROM RESISTIVITY
 RFOC.OHMM   07 220 04 00:   RESISTIVITY FOCUSED LOG RES.
 RILD.OHMM   07 120 46 00:   INDUCTION LOG DEEP RESISTIVITY
 RILM.OHMM   07 120 44 00:   INDUCTION LOG MEDIUM RESISTIVITY
 TENS.LBS    60 635 01 00:   TENSION FROM SONIC
 AC  .US/F   60 250 00 00:   ACCOUSTIC
~PARAMETER INFORMATION
#MNEM.UNIT          VALUE    DESCRIPTION
#----------   ------------   ------------------------------
 EKB .F         5195.5000:   Kelly bushing
 EGL .F         5183.2000:   Ground level
 EDF .F         5194.5000:   Drilling floor
 TD  .F         3360.0000:   Total depth
 DATE.        17-JAN-1986:   Date logged
 CLNT.            A2DTECH:   Client Code
 SL  . 2389' FSL & 461'FWL:   Surface Location
 PD  .                 GL:   Permanent Datum
 EPD .F            5183.2:   Elevation Permanent Datum
 LMF .                 KB:   Log Measured From
 DMF .                 KB:   Drilling Measured From
 DAPD.F              12.3:   Feet Above Permanent Datum
 DD  .F              3360:   Depth driller
 DL  .F              3358:   Depth logger
 BLI .F              3356:   Bottom log interval
 TLI .F               575:   Top log interval
 CS1 .IN            8.625:   Casing size
 CBD1.      8.625" @ 575':   Casing driller 1
 CBL1.F               575:   Casing logger 1
 BS1 .IN            7.875:   Bit size
 BSD1.F              3360:   Depth drilled with bit1
 DFT .        POLYMER-KCL:   Type fluid in hole
 DFD .                  9:   Density
 DFV .                 36:   Viscosity
 DFPH.                  9:   pH
 DFL .                9.5:   Fluid loss
 MSS .           FLOWLINE:   Source of sample
 RMS .OHMM           .633:   Rm
 MST .F                68:   Rm Meas. temp.
 RMF .OHMM           .475:   Rmf
 MFST.F                68:   Rmf Meas. temp.
 RMC .OHMM           .791:   Rmc
 MCST.F                68:   Rmc Meas. temp.
 RMB .OHMM            .44:   Rm. at BHT
 BHT .F                98:   BHT.
 TCS .HRS               4:   Time Circ. stopped
 MRT .F                98:   Maximum recorded temp.
 LUN .               6264:   Logging unit number
 LUL .               GLTE:   Logging unit location
 ENGI.             MILLER:   Recorded By
 WITN.             STRONG:   Witnessed by
 ORIG.        2" 5" PRINT:   Origin of data
 UWI .     49025110540000:   Unique Well ID
 DICO. A2D TECHNOLOGIES, INC.:   Digitizing Company
~OTHER INFORMATION
~A   DEPT     TEND        DEN       CORR        CNC       TENR       CALR        SPR         GRR      RFOC       RILD       RILM       TENS         AC   
# ...
 2611.0000   -74.2970     2.3810     0.0700     0.2210  -109.7880     8.4500   -46.2220    75.5440    17.1160    22.2390    17.9810   -93.1270    77.6390
 2611.5000   -74.2970     2.3800     0.0610     0.2180  -108.7340     8.4540   -47.3020    73.5180    17.2980    22.3720    18.1530   -91.8340    77.7820
 2612.0000   -74.2970     2.3890     0.0510     0.2160  -107.6810     8.4580   -48.3690    70.1820    17.4790    22.5000    18.2540   -90.5410    77.8200
 2612.5000   -78.9830     2.4020     0.0420     0.2130  -106.6280     8.4620   -49.4350    66.9370    17.6600    22.6280    18.3540   -89.2470    77.8640
 2613.0000   -85.5690     2.4030     0.0320     0.2110  -105.5750     8.4660   -50.5130    66.9380    17.8420    22.7230    18.4530   -87.9540    77.7800
 2613.5000   -92.1550     2.4000     0.0310     0.2090  -103.7300     8.4690   -50.8850    68.8450    18.0230    22.8090    18.5520   -86.6600    77.6630
 2614.0000   -90.9920     2.3990     0.0420     0.1980   -98.2300     8.4500   -50.8910    72.3810    18.2040    22.8640    18.6510   -85.3670    77.4630
 2614.5000   -85.8810     2.3990     0.0490     0.1960   -96.7640     8.4300   -50.8980    75.4470    18.3210    23.6810    18.7500   -85.4640    77.2170
 2615.0000   -80.7710     2.3990     0.0400     0.1980  -102.5880     8.4110   -50.7060    75.3290    18.3210    24.7560    18.9310   -86.5320    76.9210
 2615.5000   -75.6610     2.3990     0.0560     0.1990  -108.4110     8.3910   -50.4790    73.7910    18.3210    25.8300    19.6020   -87.6010    76.5380
 2616.0000   -70.5510     2.3960     0.0650     0.1980  -114.7290     8.3720   -50.2500    67.7600    18.6280    26.9950    20.2740   -88.6690    75.7550
 2616.5000   -65.4410     2.3910     0.0580     0.1960  -112.8810     8.3730   -50.0210    60.4380    19.5710    28.5500    21.1470   -89.7380    74.6220
 2617.0000   -66.6290     2.3870     0.0630     0.1940  -110.8600     8.3760   -49.7910    57.1930    21.0130    30.2490    22.1010   -90.8060    73.7460
 2617.5000   -69.7160     2.3880     0.0700     0.1900  -108.8400     8.3780   -49.5550    57.4010    22.4550    31.9480    23.0550   -91.8740    73.1310
 2618.0000   -72.8040     2.3870     0.0670     0.1880  -106.8200     8.3800   -49.5990    59.9660    23.5060    33.6460    23.9430   -92.9430    72.5480
 2618.5000   -75.8910     2.3840     0.0360     0.1910  -104.7990     8.3830   -49.7190    62.1000    23.1670    35.9370    23.6880   -94.0110    71.0220
 2619.0000   -78.9780     2.3810     0.0190     0.1940  -102.7790     8.3850   -49.8420    63.3660    22.9000    35.6620    23.4500   -84.8350    69.5740
 2619.5000   -82.0660     2.3830     0.0350     0.1970  -100.7590     8.3870   -50.0580    63.6700    22.6330    35.2410    23.2110   -84.2920    68.1260
 2620.0000   -84.3370     2.3900     0.0540     0.1940   -98.7380     8.3900   -50.3600    62.8120    22.3670    34.8200    22.9720   -83.7580    68.5060
 2620.5000   -84.3370     2.3890     0.0610     0.1920   -96.7180     8.3930   -50.6600    61.1160    22.1000    34.3990    22.7340   -83.2230    70.2440
 2621.0000   -84.3370     2.3860     0.0430     0.1890   -94.6890     8.3990   -50.8490    61.4370    21.8330    33.9780    22.4460   -82.6890    71.9820
 2621.5000   -84.3370     2.3820     0.0220     0.1860   -96.2800     8.4040   -51.0250    62.5260    21.8330    33.3790    22.5950   -82.1550    73.8520
 2622.0000   -84.3370     2.3830     0.0330     0.1810   -97.8760     8.4090   -51.2000    64.0190    22.2490    34.2590    22.7820   -81.6210    74.6540
 2622.5000   -80.2380     2.3870     0.0530     0.1770   -99.4730     8.4140   -51.7660    65.8220    22.6730    36.5970    23.3680   -81.0870    74.7540
 2623.0000   -76.1210     2.4000     0.0720     0.1710  -101.0700     8.4190   -52.8130    66.0460    23.0960    38.9340    24.2570   -80.5520    74.2760
 2623.5000   -72.0050     2.4200     0.0800     0.1630  -102.6670     8.4240   -53.8540    64.2040    24.3660    41.2720    25.6360   -80.0180    73.5620
 2624.0000   -67.8880     2.4720     0.0540     0.1600  -104.2630     8.4300   -54.8740    61.9160    26.5020    43.6100    29.6050   -79.4840    72.4840
 2624.5000   -64.4610     2.5150     0.0130     0.1650  -105.3460     8.4350   -55.8610    60.5440    32.8650    45.7420    28.8400   -78.9500    70.1870
 2625.0000   -66.1950     2.5330     0.0130     0.1740  -106.2300     8.4400   -56.2870    61.5200    38.6900    46.2700    27.3630   -78.4150    67.2320
 2625.5000   -67.9280     2.5090     0.0510     0.1890  -107.1140     8.4450   -56.5790    64.8650    36.6060    46.7980    25.8860   -77.8810    64.2230
 2626.0000   -69.6610     2.4720     0.0790     0.1970  -107.9980     8.4500   -56.9570    68.2680    31.1620    46.9650    24.4100   -77.3470    64.4230
 2626.5000   -71.3940     2.4360     0.0790     0.1980  -108.8820     8.4560   -57.3490    70.8050    27.2460    44.2300    22.9330   -76.8130    68.2000
 2627.0000   -73.1280     2.4230     0.0790     0.2020  -109.7660     8.4610   -57.7470    71.5600    24.8440    42.0920    21.7660   -76.2780    71.4360
 2627.5000   -74.8610     2.4120     0.0690     0.2030  -110.6500     8.4670   -57.9000    71.0300    24.2110    39.9540    21.5070   -75.7440    73.9620
 2628.0000   -76.5940     2.4070     0.0580     0.1990  -111.5340     8.4730   -57.9870    68.3600    23.5060    37.8160    21.2470   -75.2100    74.8490
 2628.5000   -78.3270     2.4060     0.0480     0.1960  -112.4180     8.4780   -58.0730    65.7800    23.5610    35.6780    20.9880   -75.6320    75.4560
 2629.0000   -80.0610     2.4140     0.0500     0.1970  -113.3020     8.4840   -58.1580    64.8180    23.6290    35.2180    20.7280   -78.5230    75.6550
 2629.5000   -81.7940     2.4210     0.0640     0.2010  -114.1860     8.4890   -58.2250    64.1240    23.6970    35.1410    20.4670   -81.4140    75.7890
 2630.0000   -83.5270     2.4150     0.0770     0.2050  -113.3190     8.4950   -58.1540    62.9660    23.7640    35.0650    20.5290   -84.8350    75.8590
 2630.5000   -84.3370     2.4020     0.0660     0.2070  -109.6530     8.5000   -58.0800    60.5670    23.8320    34.9890    20.5910   -81.6240    75.9290
 2631.0000   -84.3370     2.3900     0.0520     0.2070  -105.9860     8.5060   -58.0070    61.1630    23.8990    34.9400    20.6570   -77.6920    75.9820
 2631.5000   -84.3370     2.3800     0.0420     0.2050  -102.3190     8.5100   -57.9340    63.7730    23.9430    34.8950    20.7360   -73.7600    76.0230
 2632.0000   -84.7120     2.3810     0.0460     0.1980   -98.6530     8.5100   -57.8660    66.4890    23.8300    34.8510    20.8180   -69.8280    76.0640
 2632.5000   -86.0470     2.3820     0.0500     0.1920   -94.6890     8.5100   -57.4030    66.3880    23.6980    34.8070    20.9010   -65.8960    76.1050
 2633.0000   -87.3820     2.3840     0.0540     0.1890   -94.6890     8.5100   -56.7600    66.5060    23.4850    34.7630    20.9830   -66.0030    76.1460
 2633.5000   -88.7170     2.3870     0.0580     0.1890   -94.6890     8.5100   -56.3430    68.1350    23.2730    34.7190    21.0410   -67.6410    76.2020
 2634.0000   -90.0520     2.3990     0.0600     0.1940   -94.6890     8.5100   -56.8570    69.9890    23.0610    34.6750    20.8270   -69.2790    76.2590
 2634.5000   -91.3870     2.4120     0.0530     0.1990   -94.6890     8.5100   -57.4530    70.0400    22.8640    34.6350    20.6630   -70.9180    76.0580
 2635.0000   -92.7220     2.4060     0.0340     0.1990   -94.6890     8.5100   -58.4350    70.9680    22.9300    34.4990    20.4980   -72.5560    75.8780
 2635.5000   -94.0570     2.3970     0.0230     0.1980   -94.6890     8.5100   -59.4100    73.5490    22.9910    34.3430    20.3330   -74.1940    75.7700
 2636.0000   -94.3780     2.3940     0.0350     0.2040   -94.6890     8.5100   -60.0250    73.7140    23.0680    34.1870    20.1690   -74.8250    75.8010
 2636.5000   -94.3780     2.3940     0.0470     0.2080   -94.6890     8.5070   -60.6270    71.9940    22.9660    34.0320    20.0040   -74.8250    75.8320
