~VERSION INFORMATION
 VERS.                2.0:   CWLS LOG ASCII STANDARD - VERSION 2.0
 WRAP.                 NO:   ONE LINE PER DEPTH STEP
~WELL INFORMATION
#MNEM.UNIT      DATA TYPE    INFORMATION
#----------   ------------   ------------------------------
 STRT.F          261.0000:   START DEPTH
 STOP.F         2875.0000:   STOP DEPTH
 STEP.F            0.5000:   STEP LENGTH
 NULL.          -999.2500:   NO VALUE
 COMP.   LAWRENCE ALLISON:   COMPANY
 WELL. LAWRENCE ALLISON "X" #85-20:   WELL
 FLD .          N.P.R. #3:   FIELD
 LOC .      S20 T39N R78W:   LOCATION
 CNTY.            NATRONA:   COUNTY
 STAT.            WYOMING:   STATE
 CTRY. UNITED STATES OF AMERICA:   COUNTRY
 SRVC.      DRESSER ATLAS:   SERVICE COMPANY
 DATE.        23-JUL-1986:   LOGDATE
 API .     49025111030000:   API NUMBER
~CURVE INFORMATION
#MNEM.UNIT       API CODE    CURVE DESCRIPTION
#----------   ------------   ------------------------------
 DEPT.F                  :   
 CORR.G/C3   45 356 01 00:   DENSITY CORRECTION
 RHOB.G/C3   45 350 01 00:   BULK DENSITY
 CNC .DEC    42 890 03 00:   NEUTRON POROSITY SANDSTONE
 GRR .GAPI   07 310 01 00:   GAMMA RAY FROM RESISTIVITY
 CALR.IN     07 280 01 00:   CALIPER FROM RESISTIVITY
 SPR .MV     07 010 01 00:   SPONTANEOUS POTENTIAL
 TENR.LBS    07 635 01 00:   TENSION FROM RESISTIVITY
 RILD.OHMM   07 120 46 00:   DEEP INDUCTION RESISTIVITY
 RILM.OHMM   07 120 44 00:   INDUCTION LOG MEDIUM RESISTIVITY
 RFOC.OHMM   07 220 04 00:   RESISTIVITY FOCUSED LOG RES.
~PARAMETER INFORMATION
#MNEM.UNIT          VALUE    DESCRIPTION
#----------   ------------   ------------------------------
 EKB .F         5007.0000:   Kelly bushing
 EGL .F         4995.0000:   Ground level
 EDF .F            0.0000:   Drilling floor
 EPD .F         4995.0000:   Permanent datum
 TD  .F         2874.0000:   Total depth
 CLNT.            A2DTECH:   Client Code
 SL  . 307' FEL & 2237' FSL:   Surface Location
 DATE.        23-JUL-1986:   Date Logged [DD-MMM-YYYY]
 DD  .F              2870:   Depth driller
 DL  .F              2874:   Depth logger
 BLI .F              2872:   Bottom log interval
 TLI .F              2205:   Top log interval
 CS1 .              8.625:   Casing size
 CBD1.      8.625" @ 261':   Casing driller 1
 CBL1.IN              261:   Casing logger 1
 BS1 .IN            7.875:   Bit size
 BSD1.F              2870:   Depth drilled with bit1
 DFT .            KCL-GEL:   Type fluid in hole
 DFD .                9.0:   Density
 DFV .                 37:   Viscosity
 MSS .           MUD TANK:   Source of sample
 RMS .OHMM          0.257:   Rm
 MST .F                89:   Rm Meas. temp.
 RMF .OHMM           0.19:   Rmf
 MFST.F                89:   Rmf Meas. temp.
 MFSS.               CALC:   Source Rmf.
 RMC .OHMM           0.32:   Rmc
 MCST.F                89:   Rmc Meas. temp.
 MCSS.               CALC:   Source Rmc.
 RMB .OHMM           0.20:   Rm. at BHT
 BHT .F               116:   BHT.
 TCS .HRS               4:   Time Circ. stopped
 MRT .F               116:   Maximum recorded temp.
 LUN .            HL 6264:   Logging unit number
 LUL .           GILLETTE:   Logging unit location
 ENGI.      P.M. FAHLSING:   Recorded By
 WITN.           JENNINGS:   Witnessed by
 ORIG.         2.5" PRINT:   Origin of data
 UWI .     49025111030000:   Unique Well ID
 DICO. A2D TECHNOLOGIES, INC.:   Digitizing Company
~OTHER INFORMATION
~A   DEPT     CORR       RHOB        CNC         GRR        CALR      SPR        TENR       RILD      RILM         RFOC 
# ...
  763.5000  -999.2500  -999.2500  -999.2500   102.4678    10.2245   -91.6682  -103.8034     8.6889     7.5867     8.8379
  764.0000  -999.2500  -999.2500  -999.2500    96.4590    10.1946   -91.3686  -104.0668     8.7400     7.5846     8.8349
  764.5000  -999.2500  -999.2500  -999.2500    94.3116    10.2242   -91.0692  -104.3301     8.7910     7.5825     8.8319
  765.0000  -999.2500  -999.2500  -999.2500    94.2533    10.2240   -90.5728  -104.5934     8.8084     7.5805     8.8288
  765.5000  -999.2500  -999.2500  -999.2500    95.7458    10.2239   -90.2830  -104.8568     8.8057     7.5784     8.8258
  766.0000  -999.2500  -999.2500  -999.2500    97.8398    10.2237   -90.2882  -105.1201     8.8033     7.5764     8.8228
  766.5000  -999.2500  -999.2500  -999.2500    98.9841    10.2236   -90.5868  -105.3835     8.8009     7.5743     8.8198
  767.0000  -999.2500  -999.2500  -999.2500    97.1849    10.2234   -91.1596  -105.6468     8.9198     7.5722     8.8168
  767.5000  -999.2500  -999.2500  -999.2500    95.7413    10.2530   -91.9192  -105.9102     8.9170     7.5701     8.8137
  768.0000  -999.2500  -999.2500  -999.2500    93.3644    10.2528   -92.5216  -106.1735     8.9145     7.5677     8.8107
  768.5000  -999.2500  -999.2500  -999.2500    93.3615    10.2823   -92.6632  -106.4368     8.9120     7.5656     8.8078
  769.0000  -999.2500  -999.2500  -999.2500    94.5455    10.3119   -92.6685  -106.7002     8.9096     7.5636     8.8047
  769.5000  -999.2500  -999.2500  -999.2500    95.7295    10.3117   -92.3779  -106.9635     8.9072     7.5616     8.8017
  770.0000  -999.2500  -999.2500  -999.2500    94.5397    10.3412   -92.3831  -107.2269     8.9048     7.5595     8.7987
  770.5000  -999.2500  -999.2500  -999.2500    90.3824    10.3411   -92.0926  -107.4902     8.9024     7.5575     8.7957
  771.0000  -999.2500  -999.2500  -999.2500    89.1926    10.3410   -92.0976  -107.7536     8.8441     7.5554     8.7927
  771.5000  -999.2500  -999.2500  -999.2500    89.7831    10.3408   -91.8074  -108.0169     8.7769     7.5534     8.7896
  772.0000  -999.2500  -999.2500  -999.2500    92.7475    10.3407   -91.8122  -108.2802     8.7745     7.5514     8.7861
  772.5000  -999.2500  -999.2500  -999.2500    96.3054    10.3405   -91.8165  -108.5436     8.7721     7.5493     8.7831
  773.0000  -999.2500  -999.2500  -999.2500    99.2699    10.3700   -91.8209  -108.8069     8.7697     7.5473     8.7801
  773.5000  -999.2500  -999.2500  -999.2500   102.2343    10.3699   -91.8252  -109.0703     8.7674     7.5452     8.7772
  774.0000  -999.2500  -999.2500  -999.2500   105.1987    10.3697   -91.8296  -109.3336     8.7649     7.5432     8.7742
  774.5000  -999.2500  -999.2500  -999.2500   104.6023    10.3696   -91.8339  -109.5970     8.7625     7.5412     8.7712
  775.0000  -999.2500  -999.2500  -999.2500    99.2582    10.3695   -91.8382  -109.8603     8.7602     7.5391     8.7683
  775.5000  -999.2500  -999.2500  -999.2500    93.8672    10.3693   -91.8427  -110.1236     8.7573     7.5371     8.7653
  776.0000  -999.2500  -999.2500  -999.2500    90.3501    10.3692   -91.8667  -110.3870     8.7549     7.5351     8.7623
  776.5000  -999.2500  -999.2500  -999.2500    91.6289    10.3690   -92.1456  -110.6503     8.7525     7.5330     8.7594
  777.0000  -999.2500  -999.2500  -999.2500    92.7183    10.3789   -92.4441  -110.9137     8.7502     7.5310     8.7564
  777.5000  -999.2500  -999.2500  -999.2500    92.9525    10.3984   -92.7427  -111.1770     8.7478     7.5290     8.7535
  778.0000  -999.2500  -999.2500  -999.2500    96.7473    10.3982   -92.8059  -111.4403     8.7454     7.5269     8.7505
  778.5000  -999.2500  -999.2500  -999.2500   100.5351    10.4100   -93.0456  -111.7037     8.7431     7.5248     8.7475
  779.0000  -999.2500  -999.2500  -999.2500   101.0152    10.4276   -93.0500  -111.9670     8.7407     7.5228     8.7446
  779.5000  -999.2500  -999.2500  -999.2500    96.8813    10.4407   -93.0544  -112.2304     8.7383     7.5207     8.7416
  780.0000  -999.2500  -999.2500  -999.2500    93.2942    10.4570   -92.7640  -112.4937     8.7360     7.5187     8.7387
  780.5000  -999.2500  -999.2500  -999.2500    98.1416    10.4569   -92.7691  -112.7571     8.7336     7.5166     8.7357
  781.0000  -999.2500  -999.2500  -999.2500   101.3827    10.4566   -92.4785  -113.0204     8.6129     7.4127     8.7327
  781.5000  -999.2500  -999.2500  -999.2500   101.5940    10.4565   -92.4839  -113.2837     8.6106     7.4107     8.7297
  782.0000  -999.2500  -999.2500  -999.2500    98.5520    10.4400   -92.1941  -113.5471     8.4916     7.4087     8.7149
  782.5000  -999.2500  -999.2500  -999.2500    96.3649    10.4265   -92.1985  -113.8104     8.4893     7.3824     8.6052
  783.0000  -999.2500  -999.2500  -999.2500    94.2096    10.4264   -91.9088  -114.0738     8.3720     7.3043     8.6022
  783.5000  -999.2500  -999.2500  -999.2500    94.4045    10.4262   -91.9132  -114.3371     8.2563     7.2741     8.5993
  784.0000  -999.2500  -999.2500  -999.2500    97.9708    10.4261   -91.9185  -114.6005     8.1422     7.1715     8.5963
  784.5000  -999.2500  -999.2500  -999.2500   101.8843    10.4259   -91.6287  -114.8638     8.0296     7.0703     8.5671
  785.0000  -999.2500  -999.2500  -999.2500   105.1731    10.4258   -91.6331  -115.1271     7.9187     7.0037     8.4737
  785.5000  -999.2500  -999.2500  -999.2500   107.2433    10.4256   -91.6374  -115.3905     7.8092     6.9665     8.3557
  786.0000  -999.2500  -999.2500  -999.2500   109.3847    10.4255   -91.6418  -115.6538     7.8071     6.8682     8.2393
  786.5000  -999.2500  -999.2500  -999.2500   112.2457    10.4254   -91.6461  -115.9172     7.6992     6.8095     8.1245
  787.0000  -999.2500  -999.2500  -999.2500   115.2102    10.3955   -91.6504  -116.1805     7.4899     6.7674     8.1217
  787.5000  -999.2500  -999.2500  -999.2500   118.1746    10.3954   -91.9489  -116.4438     7.3864     6.6719     8.0086
  788.0000  -999.2500  -999.2500  -999.2500   122.9194    10.3656   -92.5415  -116.7072     7.2844     6.6208     8.0058
  788.5000  -999.2500  -999.2500  -999.2500   126.4773    10.3357   -93.4282  -116.9705     7.1837     6.6190     8.0031
  789.0000  -999.2500  -999.2500  -999.2500   122.9136    10.3059   -94.0207  -117.2339     7.0844     6.6172     7.8916
  789.5000  -999.2500  -999.2500  -999.2500   112.8216    10.2761   -94.3192  -117.4972     6.9865     6.6154     7.8889
  790.0000  -999.2500  -999.2500  -999.2500   107.4775    10.2463   -94.6177  -117.7606     6.9846     6.6136     7.7790
  790.5000  -999.2500  -999.2500  -999.2500   106.2876    10.2165   -94.6221  -118.0239     6.9827     6.6118     7.7764
  791.0000  -999.2500  -999.2500  -999.2500   109.2520    10.2163   -94.3322  -118.2872     6.9807     6.6096     7.7737
  791.5000  -999.2500  -999.2500  -999.2500   110.4360    10.2162   -94.0424  -118.5506     6.9789     6.6079     7.6655
  792.0000  -999.2500  -999.2500  -999.2500   108.6527    10.1863   -93.7527  -118.8139     6.9682     6.6061     7.7679
  792.5000  -999.2500  -999.2500  -999.2500   107.3440    10.1862   -93.4142  -119.0773     6.8805     6.6043     7.7653
  793.0000  -999.2500  -999.2500  -999.2500   111.6142    10.1870   -92.8790  -119.3406     6.8787     6.6025     7.7626
  793.5000  -999.2500  -999.2500  -999.2500   110.4243    10.2156   -92.5211  -119.3629     6.8768     6.5113     7.7600
  794.0000  -999.2500  -999.2500  -999.2500   108.6330    10.2154   -92.2994  -119.1395     6.8749     6.5095     7.8643
  794.5000  -999.2500  -999.2500  -999.2500   109.8963    10.2153   -92.0096  -118.9169     6.8730     6.5077     7.8616
  795.0000  -999.2500  -999.2500  -999.2500   112.7894    10.2151   -92.0147  -118.6944     6.8711     6.5060     7.7521
  795.5000  -999.2500  -999.2500  -999.2500   110.8398    10.2150   -92.0191  -118.4718     6.8880     6.5042     7.7495
  796.0000  -999.2500  -999.2500  -999.2500   107.8932    10.2148   -92.0235  -118.2493     6.9620     6.5025     7.7469
  796.5000  -999.2500  -999.2500  -999.2500   108.8873    10.2147   -92.0280  -118.0267     6.9817     6.5007     7.7443
