~VERSION INFORMATION
 VERS.                2.0:   CWLS LOG ASCII STANDARD - VERSION 2.0
 WRAP.                 NO:   ONE LINE PER DEPTH STEP
~WELL INFORMATION
#MNEM.UNIT      DATA TYPE    INFORMATION
#----------   ------------   ------------------------------
 STRT.F          640.0000:   START DEPTH
 STOP.F         2792.0000:   STOP DEPTH
 STEP.F            0.5000:   STEP LENGTH
 NULL.          -999.2500:   NO VALUE
 COMP.    FENIX & SCISSON:   COMPANY
 WELL.   FENIX SHX #41-11:   WELL
 FLD .        TEAPOT DOME:   FIELD
 LOC .      S11 T38N R78W:   LOCATION
 CNTY.            NATRONA:   COUNTY
 STAT.            WYOMING:   STATE
 CTRY. UNITED STATES OF AMERICA:   COUNTRY
 SRVC.           BIRDWELL:   SERVICE COMPANY
 DATE.        07-JUL-1979:   LOGDATE
 API .     49025107880000:   API NUMBER
~CURVE INFORMATION
#MNEM.UNIT       API CODE    CURVE DESCRIPTION
#----------   ------------   ------------------------------
 DEPT.F                  :   
 CALD.IN     45 280 60 00:   CALIPER FROM DENSITY LOG
 RHOB.G/C3   45 350 01 00:   BULK DENSITY
 CORR.G/C3   45 356 01 00:   DENSITY CORRECTION
 GRD .GAPI   45 310 01 00:   GAMMA RAY FROM DENSITY LOG
~PARAMETER INFORMATION
#MNEM.UNIT          VALUE    DESCRIPTION
#----------   ------------   ------------------------------
 EKB .F         5168.0000:   Kelly bushing
 EGL .F         5158.0000:   Ground level
 EDF .F            0.0000:   Drilling floor
 EPD .F            0.0000:   Permanent datum
 TD  .F         2801.0000:   Total depth
 DATE.        07-JUL-1979:   Date logged
 CLNT.            A2DTECH:   Client Code
 SL  . 95' FNL & 2414' FWL:   Surface Location
 PD  .                 GL:   Permanent Datum
 DAPD.F                10:   Feet Above Permanent Datum
 DD  .F              2801:   Depth driller
 DL  .F              2791:   Depth logger
 BLI .F              2790:   Bottom log interval
 TLI .F               640:   Top log interval
 CS1 .IN            9.625:   Casing size
 CBD1.      9.625" @ 909':   Casing driller 1
 CBL1.F               910:   Casing logger 1
 BS1 .IN             8.75:   Bit size
 BSD1.F              2801:   Depth drilled with bit1
 DFT .                AIR:   Type fluid in hole
 LUN .               2959:   Logging unit number
 LUL .             CASPER:   Logging unit location
 ENGI.         B. RULLINS:   Recorded By
 WITN.           GINSMORE:   Witnessed by
 ORIG.           5" PRINT:   Origin of data
 UWI .     49025107880000:   Unique Well ID
 DICO. A2D TECHNOLOGIES, INC.:   Digitizing Company
~OTHER INFORMATION
~A   DEPT     CALD       RHOB       CORR         GRD  
# ...
 1954.0000     9.6950     2.5330     0.0060   120.2920
 1954.5000     9.7280     2.5330     0.0060   122.0720
 1955.0000     9.7610     2.5320     0.0100   125.9050
 1955.5000     9.7940     2.5320     0.0150   128.5870
 1956.0000     9.8270     2.5400     0.0200   128.6400
 1956.5000     9.8450     2.5390     0.0240   131.3760
 1957.0000     9.8550     2.5270     0.0240   131.8270
 1957.5000     9.8650     2.5180     0.0220   130.1490
 1958.0000     9.8750     2.5100     0.0160   128.5060
 1958.5000     9.8850     2.5120     0.0100   126.8790
 1959.0000     9.8940     2.5210     0.0110   125.3510
 1959.5000     9.9040     2.5230     0.0150   125.3550
 1960.0000     9.9450     2.5230     0.0180   125.3390
 1960.5000     9.9850     2.5210     0.0180   126.8780
 1961.0000    10.0250     2.5210     0.0180   130.7160
 1961.5000    10.0650     2.5240     0.0180   131.8510
 1962.0000    10.1050     2.5260     0.0180   134.7100
 1962.5000    10.1450     2.5280     0.0220   137.7090
 1963.0000    10.1850     2.5320     0.0270   134.8120
 1963.5000    10.2250     2.5410     0.0280   131.1010
 1964.0000    10.2620     2.5500     0.0280   127.3500
 1964.5000    10.2610     2.5590     0.0280   126.5690
 1965.0000    10.2600     2.5590     0.0310   128.3170
 1965.5000    10.2580     2.5520     0.0280   130.0310
 1966.0000    10.2570     2.5440     0.0240   131.7330
 1966.5000    10.2550     2.5380     0.0210   133.2230
 1967.0000    10.2530     2.5380     0.0170   132.3810
 1967.5000    10.2520     2.5380     0.0140   129.0190
 1968.0000    10.2500     2.5350     0.0140   127.9800
 1968.5000    10.2490     2.5260     0.0170   129.7290
 1969.0000    10.2470     2.5170     0.0220   131.8910
 1969.5000    10.2460     2.5100     0.0240   134.0480
 1970.0000    10.2440     2.5110     0.0260   135.9650
 1970.5000    10.2420     2.5240     0.0280   131.9910
 1971.0000    10.2170     2.5380     0.0350   126.3500
 1971.5000    10.1900     2.5470     0.0520   120.7510
 1972.0000    10.1630     2.5360     0.0580   120.4740
 1972.5000    10.1620     2.5290     0.0680   122.4750
 1973.0000    10.1770     2.5410     0.0840   127.7110
 1973.5000    10.2730     2.5460     0.0970   132.8830
 1974.0000    10.4410     2.5230     0.0750   138.0390
 1974.5000    10.6080     2.5000     0.0510   140.8030
 1975.0000    10.7810     2.4980     0.0430   140.2640
 1975.5000    10.8440     2.5030     0.0420   139.5400
 1976.0000    10.8210     2.4970     0.0420   138.7910
 1976.5000    10.7750     2.4870     0.0470   138.0120
 1977.0000    10.7310     2.4880     0.0540   137.9520
 1977.5000    10.6860     2.5030     0.0610   139.7330
 1978.0000    10.6410     2.5190     0.0660   142.7110
 1978.5000    10.5970     2.5290     0.0650   143.7940
 1979.0000    10.5630     2.5280     0.0500   142.9230
 1979.5000    10.5400     2.5230     0.0360   142.2850
 1980.0000    10.5120     2.5190     0.0340   146.1690
 1980.5000    10.4840     2.5280     0.0340   143.2150
 1981.0000    10.4900     2.5270     0.0340   137.3700
 1981.5000    10.4990     2.5230     0.0340   131.6010
 1982.0000    10.5070     2.5230     0.0350   131.2670
 1982.5000    10.5160     2.5260     0.0390   135.6480
 1983.0000    10.5200     2.5290     0.0360   138.9000
 1983.5000    10.4510     2.5280     0.0300   140.6000
 1984.0000    10.3800     2.5240     0.0240   137.8640
 1984.5000    10.3090     2.5230     0.0170   133.5000
 1985.0000    10.2370     2.5240     0.0110   130.3030
 1985.5000    10.2030     2.5240     0.0060   131.4380
 1986.0000    10.2020     2.5190     0.0060   133.5990
 1986.5000    10.2020     2.5110     0.0060   133.5130
 1987.0000    10.2020     2.5040     0.0060   139.0060
 1987.5000    10.2020     2.5010     0.0060   146.4500
 1988.0000    10.2020     2.5020     0.0050   146.1470
 1988.5000    10.2020     2.5050     0.0040   137.5500
 1989.0000    10.2020     2.5090     0.0050   137.5590
 1989.5000    10.2020     2.5120     0.0180   138.6480
 1990.0000    10.2020     2.5150     0.0320   139.6800
 1990.5000    10.2020     2.5150     0.0450   140.7000
 1991.0000    10.2020     2.5160     0.0440   141.7320
 1991.5000    10.2020     2.5170     0.0410   142.1600
 1992.0000    10.2020     2.5150     0.0360   141.3410
 1992.5000    10.2020     2.5100     0.0310   140.9960
 1993.0000    10.1980     2.5070     0.0270   141.3230
 1993.5000    10.1780     2.5070     0.0220   142.0850
 1994.0000    10.1570     2.5090     0.0170   142.6380
 1994.5000    10.1370     2.5090     0.0130   133.8840
 1995.0000    10.1160     2.5010     0.0080   136.5360
 1995.5000    10.0960     2.4910     0.0030   143.6200
 1996.0000    10.0840     2.4820     0.0020   145.3700
 1996.5000    10.0900     2.4900     0.0080   146.4610
 1997.0000    10.0960     2.5050     0.0160   148.6600
 1997.5000    10.1010     2.5190     0.0230   151.0120
 1998.0000    10.1070     2.5230     0.0240   152.6340
 1998.5000    10.1130     2.5230     0.0250   152.5660
 1999.0000    10.1190     2.5240     0.0250   150.2500
 1999.5000    10.1250     2.5270     0.0260   144.9510
 2000.0000    10.1300     2.5230     0.0260   139.6830
 2000.5000    10.1360     2.5150     0.0200   134.4180
 2001.0000    10.1420     2.5060     0.0140   129.8240
 2001.5000    10.1420     2.5090     0.0090   129.9320
 2002.0000    10.1420     2.5180     0.0140   131.3060
 2002.5000    10.1420     2.5250     0.0190   137.4690
 2003.0000    10.1420     2.5230     0.0230   138.7680
 2003.5000    10.1420     2.5170     0.0240   137.5700
 2004.0000    10.1680     2.5190     0.0360   135.0440
 2004.5000    10.2040     2.5200     0.0440   133.3750
 2005.0000    10.2410     2.5100     0.0440   135.6190
 2005.5000    10.2780     2.5060     0.0440   141.9530
 2006.0000    10.2820     2.5070     0.0470   143.0290
 2006.5000    10.2510     2.5120     0.0500   139.1300
 2007.0000    10.1800     2.5180     0.0530   134.9730
 2007.5000    10.1090     2.5230     0.0560   134.0490
 2008.0000    10.0380     2.5250     0.0560   138.5730
 2008.5000     9.9670     2.5130     0.0560   139.0430
 2009.0000     9.8970     2.5040     0.0540   139.5090
 2009.5000     9.8260     2.5070     0.0600   142.4920
 2010.0000     9.7550     2.5270     0.0730   147.0020
 2010.5000     9.6840     2.5400     0.0750   149.1410
 2011.0000     9.6200     2.5350     0.0570   145.8610
 2011.5000     9.6220     2.5120     0.0370   140.9380
 2012.0000     9.6240     2.5060     0.0300   135.9110
 2012.5000     9.6250     2.5110     0.0270   131.1120
 2013.0000     9.6260     2.5210     0.0340   131.2520
 2013.5000     9.6270     2.5300     0.0380   138.4280
 2014.0000     9.6280     2.5240     0.0340   141.7790
 2014.5000     9.6290     2.5160     0.0270   138.8860
 2015.0000     9.6300     2.5200     0.0200   134.5670
 2015.5000     9.6310     2.5250     0.0130   134.7850
 2016.0000     9.6330     2.5240     0.0100   133.8740
 2016.5000     9.6340     2.5170     0.0100   132.7910
 2017.0000     9.6350     2.5100     0.0100   133.2110
 2017.5000     9.6360     2.5050     0.0100   137.3390
 2018.0000     9.6370     2.5060     0.0100   141.5380
 2018.5000     9.6380     2.5080     0.0100   145.8650
 2019.0000     9.6390     2.5100     0.0100   146.7790
 2019.5000     9.6400     2.5090     0.0100   143.3380
 2020.0000     9.6550     2.5050     0.0100   138.0180
 2020.5000     9.7310     2.4920     0.0100   132.6960
 2021.0000     9.8050     2.4890     0.0100   132.0560
 2021.5000     9.8790     2.4870     0.0100   138.3900
 2022.0000     9.9530     2.4870     0.0100   143.7720
 2022.5000    10.0280     2.4870     0.0230   144.3120
 2023.0000    10.0990     2.4840     0.0470   150.0110
 2023.5000    10.1270     2.4760     0.0700   152.6700
 2024.0000    10.1570     2.4700     0.0940   146.0850
 2024.5000    10.1870     2.4960     0.1110   141.9040
 2025.0000    10.2180     2.5000     0.1100   141.9870
 2025.5000    10.2490     2.5020     0.0700   149.6750
 2026.0000    10.2580     2.5060     0.0400   151.3020
 2026.5000    10.2450     2.5100     0.0410   144.8850
