~VERSION INFORMATION
 VERS.                2.0:   CWLS LOG ASCII STANDARD - VERSION 2.0
 WRAP.                 NO:   ONE LINE PER DEPTH STEP
~WELL INFORMATION
#MNEM.UNIT      DATA TYPE    INFORMATION
#----------   ------------   ------------------------------
 STRT.F           46.5000:   START DEPTH
 STOP.F         3160.0000:   STOP DEPTH
 STEP.F            0.5000:   STEP LENGTH
 NULL.          -999.2500:   NO VALUE
 COMP. LAWRENCE ALLISON & WEST:   COMPANY
 WELL. LAWRENCE NPR 3 "AX" #42-34:   WELL
 FLD .                NPR:   FIELD
 LOC .      S34 T39N R78W:   LOCATION
 CNTY.            NATRONA:   COUNTY
 STAT.            WYOMING:   STATE
 CTRY. UNITED STATES OF AMERICA:   COUNTRY
 SRVC.      WESTERN ATLAS:   SERVICE COMPANY
 DATE.        19-OCT-1987:   LOGDATE
 API .     49025111830000:   API NUMBER
~CURVE INFORMATION
#MNEM.UNIT       API CODE    CURVE DESCRIPTION
#----------   ------------   ------------------------------
 DEPT.F                  :   
 CALD.IN     45 280 60 00:   CALIPER FROM DENSITY LOG
 DEN .LBS    45 635 01 00:   BUCK DENSITY
 CORR.G/C3   45 356 01 00:   DENSITY CORRECTION
 NPOR.DEC    42 890 03 00:   ALPHA PROCESSED NEUTRON POROSITY
 SPR .MV     07 010 01 00:   SPONTANEOUS POTENTIAL
 GRR .GAPI   07 310 01 00:   GAMMA RAY FROM RESISTIVITY
 RFOC.OHMM   07 220 04 00:   RESISTIVITY FOCUSED LOG RES.
 RILD.OHMM   07 120 46 00:   DEEP INDUCTION RESISTIVITY
 RILM.OHMM   07 120 44 00:   INDUCTION LOG MEDIUM RESISTIVITY
 TENR.LBS    07 635 01 00:   TENSION FROM RESISTIVITY
~PARAMETER INFORMATION
#MNEM.UNIT          VALUE    DESCRIPTION
#----------   ------------   ------------------------------
 EKB .F         5088.0000:   Kelly bushing
 EGL .F         5077.0000:   Ground level
 EDF .F         5087.0000:   Drilling floor
 TD  .F         3151.0000:   Total depth
 DATE.        19-OCT-1987:   Date logged
 CLNT.            A2DTECH:   Client Code
 SL  . 1032' FNL & 2316' FWL:   Surface Location
 PD  .                 GL:   Permanent Datum
 EPD .F              5077:   Elevation Permanent Datum
 LMF .                 KB:   Log Measured From
 DMF .                 KB:   Drilling Measured From
 DAPD.F                11:   Feet Above Permanent Datum
 DD  .F              3151:   Depth driller
 DL  .F              3151:   Depth logger
 BLI .F              3149:   Bottom log interval
 TLI .F                50:   Top log interval
 CS1 .IN            8.625:   Casing size
 CBD1.      8.625" @ 693':   Casing driller 1
 CBL1.F               693:   Casing logger 1
 BS1 .IN            7.875:   Bit size
 BSD1.F              3151:   Depth drilled with bit1
 DFT .        KCL/POLYMER:   Type fluid in hole
 DFD .                9.2:   Density
 DFV .                 53:   Viscosity
 DFPH.                9.5:   pH
 DFL .               11.8:   Fluid loss
 MSS .            MUD/PIT:   Source of sample
 RMS .OHMM           .441:   Rm
 MST .F                66:   Rm Meas. temp.
 RMF .OHMM           .336:   Rmf
 MFST.F                66:   Rmf Meas. temp.
 RMC .OHMM           .711:   Rmc
 MCST.F                66:   Rmc Meas. temp.
 MFSS.               MEAS:   Source Rmf.
 MCSS.               MEAS:   Source Rmc.
 RMB .OHMM           .244:   Rm. at BHT
 BHT .F               119:   BHT.
 TCS .HRS               3:   Time Circ. stopped
 MRT .F               119:   Maximum recorded temp.
 LUN .            HL-6343:   Logging unit number
 LUL .               CODY:   Logging unit location
 ENGI.               JULL:   Recorded By
 WITN.             STRONG:   Witnessed by
 ORIG.           5" PRINT:   Origin of data
 UWI .     49025111830000:   Unique Well ID
 DICO. A2D TECHNOLOGIES, INC.:   Digitizing Company
~OTHER INFORMATION
~A   DEPT     CALD        DEN       CORR       NPOR        SPR         GRR      RFOC       RILD       RILM       TENR   
# ...
 2793.5000     8.3936     2.5606     0.0248     0.1850   -35.1998    97.0185     9.9785     8.2076     7.7877   -60.3115
 2794.0000     8.3723     2.5565     0.0449     0.1862   -34.9272   106.3074     9.0906     7.9805     7.7143   -60.1139
 2794.5000     8.4113     2.5555     0.0206     0.1866   -34.3231   111.5559     8.4373     7.8321     7.6416   -59.9162
 2795.0000     8.4304     2.5564     0.0024     0.1810   -33.9206   113.1681     8.2038     7.6865     7.6405   -69.7909
 2795.5000     8.4499     2.5645     0.0042     0.1786   -33.1149   111.9520     8.6734     7.5437     7.4288   -59.4815
 2796.0000     8.4484     2.5755     0.0143     0.1761   -32.5109   108.7157     9.5176     7.3349     7.4971   -59.2839
 2796.5000     8.4271     2.5976     0.0445     0.1758   -31.7048   101.0350     9.6948     7.4955     7.4260   -59.0862
 2797.0000     8.4260     2.5996     0.0565     0.1802   -31.3027   101.0311     9.8753     7.4948     7.0218   -69.0002
 2797.5000     8.4457     2.5855     0.0625     0.1823   -30.4966   105.4707     9.8738     7.6345     6.8911   -68.8025
 2798.0000     8.4641     2.5794     0.0423     0.1986   -29.8926   107.4870     8.8291     7.6331     6.7000   -68.6049
 2798.5000     8.4429     2.5491     0.0179     0.2090   -28.8848   109.0991     8.2712     7.6319     6.3942   -58.2958
 2799.0000     8.4418     2.5450     0.0063     0.2122   -28.0787   113.1356     7.3964     7.4205     6.1023   -58.0982
 2799.5000     8.4405     2.5429     0.0036     0.2167   -27.4747   114.7510     7.6048     6.7383     5.9888   -57.9006
 2800.0000     8.4396     2.5368     0.0197     0.2199   -26.4666   111.9155     7.4632     6.0819     5.6100   -17.2579
 2800.5000     8.4553     2.5201     0.0389     0.2240   -25.5731   106.7037     7.3371     5.1862     5.1578   -59.7675
 2801.0000     8.4384     2.5102     0.0169     0.2276   -24.6567   108.6659     7.1880     5.0947     4.6985   -67.3774
 2801.5000     8.4372     2.5024    -0.0048     0.2321   -23.4488   116.3340     6.7965     4.4304     4.1620   -57.0675
 2802.0000     8.4365     2.4932    -0.0318     0.2366   -22.2408   123.5982     5.9655     3.8525     3.5190   -56.8689
 2802.5000     8.4964     2.4730    -0.0394     0.2414   -21.2349   130.8625     5.1876     3.3815     2.9754   -66.7815
 2803.0000     8.4955     2.4527    -0.0032     0.2556   -20.4318   136.1067     4.6821     2.6794     2.6112   -66.5828
 2803.5000     8.4948     2.4365     0.0432     0.2593   -18.6168   141.7550     4.1868     2.1230     2.1873   -66.3842
 2804.0000     8.5343     2.4082     0.0431     0.2742   -17.6108   153.0604     3.9956     1.7459     1.8494   -66.1855
 2804.5000     8.5538     2.3920     0.0309     0.2933   -16.4027   176.4849     3.1076     1.4627     1.5348   -65.9869
 2805.0000     8.5531     2.3637     0.0309     0.2973   -15.8016   184.9656     2.9111     1.4224     1.3595   -65.7882
 2805.5000     8.5524     2.3435     0.0065     0.2998   -16.0078   205.1400     2.5791     1.1589     1.2156   -65.5896
 2806.0000     8.4711     2.3172     0.0266     0.2998   -16.4176   221.2955     2.2014     1.1058     1.1386   -65.3512
 2806.5000     8.5105     2.3161     0.0446     0.2946   -16.5528   229.7717     1.9503     1.0555     1.1384   -65.1526
 2807.0000     8.5904     2.3534     0.0284     0.2978   -16.8284   230.1662     2.0617     1.0358     1.1489   -54.8426
 2807.5000     8.5898     2.3634     0.0041     0.3091   -17.8427   222.0746     2.3265     1.0261     1.2260   -54.6440
 2808.0000     8.5890     2.3654     0.0120     0.3070   -19.0592   191.3810     2.9902     1.0451     1.3579   -54.4453
 2808.5000     8.5884     2.3240     0.0624     0.2987   -20.0736   182.0786     3.0458     1.1808     1.3885   -54.2467
 2809.0000     8.5875     2.3219     0.0643     0.2736   -20.6840   182.8787     2.6984     1.2958     1.5611   -64.1593
 2809.5000     8.6271     2.3733     0.0287     0.2529   -21.6984   187.3158     2.1780     1.4487     1.7948   -63.9607
 2810.0000     8.6465     2.4560    -0.0126     0.2283   -22.7129   184.4789     2.5040     1.6655     2.1617   -43.5395
 2810.5000     8.6458     2.5004    -0.0026     0.2215   -23.7282   147.2899     4.1441     1.8796     2.4169   -53.4521
 2811.0000     8.6450     2.5175     0.0135     0.2239   -24.9448   125.8628     6.0012     2.3499     2.8575   -63.3647
 2811.5000     8.6442     2.5255     0.0174     0.2326   -26.9706   110.4972     5.8889     2.8042     3.2246   -63.1263
 2812.0000     8.6233     2.5295     0.0011     0.2389   -28.4196   113.3173     5.3652     3.6386     3.5059   -62.9277
 2812.5000     8.6025     2.5204    -0.0010     0.2389   -29.4030   118.5623     5.4143     3.8117     4.2624   -52.6178
 2813.0000     8.5815     2.5092    -0.0031     0.2339   -29.8102   118.5535     5.6186     4.3015     4.7210   -52.4191
 2813.5000     8.5808     2.5081     0.0069     0.2288   -30.6219   118.5448     6.0511     4.7514     5.1812   -52.2205
 2814.0000     8.5198     2.5263     0.0250     0.2236   -31.4345   119.3443     6.3828     5.3612     5.5809   -52.0218
 2814.5000     8.5794     2.5343     0.0531     0.2119   -32.4491   116.9089     6.5776     6.1059     6.2397   -41.7119
 2815.0000     8.5793     2.5474     0.0611     0.1965   -33.0597   115.6876     7.0843     6.7623     7.6568   -51.6245
 2815.5000     8.5780     2.5594     0.0408     0.1688   -33.4711   112.8497     8.2966     7.7015     8.8030   -51.4259
 2816.0000     8.6175     2.5786     0.0185     0.1412   -33.4754   108.7992    12.0344     9.0505     9.7509   -31.0047
 2816.5000     8.5767     2.5876     0.0184     0.1152   -33.2776    98.2820    13.8350    10.0253    10.9018   -51.0286
 2817.0000     8.5757     2.5986     0.0163     0.1071   -32.8777    90.1895    20.6345    12.7691    12.8890   -50.7902
 2817.5000     8.5750     2.5986     0.0081     0.1084   -32.8795    85.3304    22.8537    13.6272    14.6812   -50.5915
 2818.0000     8.5743     2.5848     0.0000     0.1197   -31.6738    81.6837    22.4284    14.8159    15.8139   -50.3929
 2818.5000     8.5605     2.5692     0.0019     0.1221   -31.2739    80.4620    20.0556    14.9501    15.9590   -50.1942
 2819.0000     8.5527     2.5631     0.0018     0.1270   -31.0761    78.4301    18.2707    14.8105    15.3726   -49.9956
 2819.5000     8.5520     2.5671    -0.0003     0.1295   -30.8783    77.6125    16.3378    14.0030    15.1327   -49.7969
 2820.0000     8.4708     2.5660    -0.0247     0.1372   -30.6805    79.6244    16.3343    12.6368    12.0619   -49.5983
 2820.5000     8.5380     2.5640    -0.0248     0.1441   -30.6847    79.6152    15.8818    11.6187    10.5855   -49.3996
 2821.0000     8.5699     2.5568     0.0054     0.1639   -30.6899    82.0313    14.0701    10.7826     9.8237   -49.2010
 2821.5000     8.5290     2.5376     0.0235     0.1655   -30.6941    88.0854    10.7413     9.3751     8.8656   -49.0023
 2822.0000     8.5886     2.5375     0.0315     0.1833   -30.8729    96.5648     9.9694     8.7004     7.7802   -48.8037
 2822.5000     8.5092     2.5395     0.0334     0.1996   -31.3090   101.8107     8.4305     7.7534     7.4946   -58.6766
 2823.0000     8.5067     2.5415     0.0252     0.2016   -31.3133   105.0356     8.1211     7.3996     7.3549   -58.4779
 2823.5000     8.5061     2.5424     0.0169     0.2008   -31.1155   107.8563     7.7505     7.1280     7.2854   -58.2793
 2824.0000     8.5656     2.5434     0.0210     0.1947   -30.5134   108.6559     8.1940     6.9306     6.6977   -47.9694
 2824.5000     8.4441     2.5403     0.0007     0.1915   -30.5177   105.8174     8.9079     6.6762     6.6105   -47.7707
 2825.0000     8.4836     2.5403     0.0006     0.1899   -29.9156   102.9788     9.4175     6.4312     6.5115   -57.6833
 2825.5000     8.4833     2.5402     0.0045     0.1887   -30.1220   102.1596     9.4155     6.1951     6.0425   -57.4847
 2826.0000     8.4621     2.5401     0.0206     0.1908   -29.5199   100.5337     8.9027     6.0796     6.0416   -57.2860
 2826.5000     8.4613     2.5260     0.0003     0.2020   -29.3221   100.1205     7.8872     6.0224     5.8741   -57.0874
