~VERSION INFORMATION
 VERS.                2.0:   CWLS LOG ASCII STANDARD - VERSION 2.0
 WRAP.                 NO:   ONE LINE PER DEPTH STEP
~WELL INFORMATION
#MNEM.UNIT      DATA TYPE    INFORMATION
#----------   ------------   ------------------------------
 STRT.F         2933.0000:   START DEPTH
 STOP.F         5494.0000:   STOP DEPTH
 STEP.F            0.5000:   STEP LENGTH
 NULL.          -999.2500:   NO VALUE
 COMP.    FENIX & SCISSON:   COMPANY
 WELL. FENIX "TPX" #56-10:   WELL
 FLD .        TEAPOT DOME:   FIELD
 LOC .      S10 T38N R78W:   LOCATION
 CNTY.            NATRONA:   COUNTY
 STAT.            WYOMING:   STATE
 CTRY. UNITED STATES OF AMERICA:   COUNTRY
 SRVC.       SCHLUMBERGER:   SERVICE COMPANY
 DATE.        22-MAY-1978:   LOGDATE
 API .     49025106100000:   API NUMBER
~CURVE INFORMATION
#MNEM.UNIT       API CODE    CURVE DESCRIPTION
#----------   ------------   ------------------------------
 DEPT.F                  :   
 NPHI.DEC    42 890 03 00:   NEUTRON POROSITY SANDSTONE
 GRD .GAPI   45 310 01 00:   GAMMA RAY FROM DENSITY LOG
 CALD.IN     45 280 60 00:   CALIPER FROM DENSITY LOG
 CORR.G/C3   45 356 01 00:   DENSITY CORRECTION
 RHOB.G/C3   45 350 01 00:   BULK DENSITY
 SPR .MV     07 010 01 00:   SPONTANEOUS POTENTIAL
 ILD .OHMM   07 120 46 00:   INDUCTION LOG DEEP RESISTIVITY
 ILM .OHMM   07 120 44 00:   INDUCTION LOG MEDIUM RESISTIVITY
 SFL .OHMM   07 220 01 00:   SHALLOW FOCUSED LOG RESISITIVITY
 DT  .US/F   60 520 00 00:   DELTA TIME
~PARAMETER INFORMATION
#MNEM.UNIT          VALUE    DESCRIPTION
#----------   ------------   ------------------------------
 EKB .F         5212.0000:   Kelly bushing
 EGL .F         5202.0000:   Ground level
 TD  .F         5500.0000:   Total depth
 CLNT.            A2DTECH:   Client Code
 SL  . 1270' FSL & 2130' FEL:   Surface Location
 PD  .                 GL:   Permanent Datum
 EPD .F              5202:   Elevation Permanent Datum
 LMF .                 KB:   Log Measured From
 DMF .                 KB:   Drilling Measured From
 DAPD.F                10:   Feet Above Permanent Datum
 DATE.        22-MAY-1978:   Date Logged [DD-MMM-YYYY]
 DD  .F              5500:   Depth driller
 DL  .F              5499:   Depth logger
 BLI .F              5497:   Bottom log interval
 TLI .F              2971:   Top log interval
 CS1 .IN            8.625:   Casing size
 CBD1.     8.625" @ 2972':   Casing driller 1
 CBL1.F              2971:   Casing logger 1
 BS1 .IN            7.875:   Bit size
 BSD1.F              5500:   Depth drilled with bit1
 DFT .                FGM:   Type fluid in hole
 DFD .                9.3:   Density
 DFV .                 57:   Viscosity
 DFPH.               10.5:   pH
 DFL .                  6:   Fluid loss
 MSS .           MUD TANK:   Source of sample
 RMS .OHMM           0.93:   Rm
 MST .F                58:   Rm Meas. temp.
 RMF .OHMM           0.71:   Rmf
 MFST.F                61:   Rmf Meas. temp.
 MFSS.               MEAS:   Source Rmf.
 RMB .OHMM           0.27:   Rm. at BHT
 BHT .F               198:   BHT.
 TCS .HRS            1500:   Time Circ. stopped
 TLAB.HRS            0100:   Time logger at bottom
 MRT .F               198:   Maximum recorded temp.
 LUN .               8039:   Logging unit number
 LUL .               CSPR:   Logging unit location
 ENGI.          CHALUPSKY:   Recorded By
 WITN.            RHOADES:   Witnessed by
 ORIG.      2.5" 5" PRINT:   Origin of data
 UWI .     49025106100000:   Unique Well ID
 DICO. A2D TECHNOLOGIES, INC.:   Digitizing Company
~OTHER INFORMATION
~A  DEPTH     NPHI        GRD       CALD       CORR       RHOB        SPR        ILD        ILM        SFL         DT
# ...
 5445.5000     0.0746    24.5128     8.0120     0.0040     2.4768   -36.7992   383.8051   380.4272   165.4667    68.9236
 5446.0000     0.0741    25.5905     8.0420     0.0118     2.4915   -37.1050   428.5725   404.6742   200.6414    66.0742
 5446.5000     0.0735    28.7507     8.0420     0.0206     2.5003   -37.1123   446.5521   484.3764   197.0850    65.0294
 5447.0000     0.0735    29.3586     8.0420     0.0248     2.5016   -36.5224   413.5932   474.0730   173.1670    64.7345
 5447.5000     0.0735    29.3623     8.0420     0.0260     2.5001   -35.6344   362.4009   395.5288   140.5676    65.1203
 5448.0000     0.0729    34.1999     8.0881     0.0230     2.5004   -34.8914   324.2368   312.1738   127.4751    65.6544
 5448.5000     0.0717    42.6628     8.1021     0.0171     2.5015   -34.4398   306.6163   229.1172   117.2144    65.8878
 5449.0000     0.0703    43.2708     8.1321     0.0129     2.5056   -34.1638   312.9041   211.1188   105.5635    65.8204
 5449.5000     0.0682    42.6702     8.1321     0.0047     2.5151   -34.1730   335.1812   235.9749   101.8877    65.6501
 5450.0000     0.0645    36.6317     8.1321     0.0037     2.5335   -34.1803   366.5816   286.3993   125.3121    64.4846
 5450.5000     0.0585    28.1761     8.1321     0.0111     2.5499   -33.2921   398.1568   372.5814   167.4767    63.4398
 5451.0000     0.0556    24.5545     8.0721     0.0146     2.5547   -32.9991   409.1939   421.8752   233.3248    62.9213
 5451.5000     0.0564    23.3497     8.0420     0.0169     2.5496   -32.8604   407.0851   407.2092   253.3418    63.4555
 5452.0000     0.0655    26.3746     8.0120     0.0297     2.5488   -32.7101   411.5828   270.2731   237.8343    63.9144
 5452.5000     0.0754    26.3784     7.9820     0.0499     2.5480   -33.3144   375.9701   217.8207   187.3081    64.2230
 5453.0000     0.1045    26.3293     7.9820     0.0620     2.5434   -33.3203   311.7054   174.3337   145.3803    65.2834
 5453.5000     0.1215    25.7072     7.9820     0.0611     2.5159   -33.1754   260.2212   131.9924   113.5082    68.0732
 5454.0000     0.1509    24.5767     7.9820     0.0445     2.4126   -33.3320   214.0087   105.6406    83.8766    70.4119
 5454.5000     0.1544    23.1388     7.9820     0.0233     2.3771   -33.0394   185.8824   105.5775    76.0643    72.8257
 5455.0000     0.1497    20.6829     7.9820     0.0094     2.3933   -33.0453   169.1246   104.0598    74.9722    73.6606
 5455.5000     0.1473    18.5456     7.9820     0.0138     2.4037   -33.3496   164.4261    99.7556    82.5206    72.3462
 5456.0000     0.1456    18.5498     7.9520     0.0227     2.4022   -33.9525   173.7100    99.0064    85.9514    71.6462
 5456.5000     0.1450    18.7566     7.9520     0.0271     2.3948   -34.5554   207.8807   102.4414    88.2935    71.1296
 5457.0000     0.1426    19.3855     7.9219     0.0241     2.3874   -34.8598   277.9226   122.6275    89.4519    70.0096
 5457.5000     0.1357    19.7696     7.9219     0.0211     2.3800   -34.8657   376.7460   157.3416    93.9094    68.6641
 5458.0000     0.1244    19.7734     7.9219     0.0167     2.3814   -34.8716   562.7023   253.8469   105.5630    67.4689
 5458.5000     0.1090    19.4889     7.9219     0.0107     2.4006   -34.8580   858.0868   641.4557   124.5567    66.4241
 5459.0000     0.0928    19.1767     7.9219     0.0107     2.4272   -34.5848  1187.6233  1371.9293   153.2032    65.6048
 5459.5000     0.0857    19.1805     7.9219     0.0107     2.4420   -34.5921  1544.3949  1602.6875   173.4115    64.7856
 5460.0000     0.0822    19.1843     7.9219     0.0136     2.4494   -34.8965  2000.0000  1817.7517   184.4253    64.6303
 5460.5000     0.0797    18.5845     7.9219     0.0106     2.4538   -35.2009  2000.0000  1988.3027   192.1057    65.1020
 5461.0000     0.0742    18.5883     7.9219     0.0076     2.4570   -35.3560  2000.0000  -999.2500   200.1061    64.9469
 5461.5000     0.0667    18.5920     7.9480     0.0047     2.4618   -35.2126  2000.0000  -999.2500   212.8153    64.7288
 5462.0000     0.0599    18.5957     8.0260     0.0046     2.4777   -35.2185  2000.0000  -999.2500   242.6619    64.2251
 5462.5000     0.0585    18.5994     8.0420     0.0046     2.5018   -34.9244  2000.0000  -999.2500   269.2190    63.3307
 5463.0000     0.0593    18.6031     8.0420     0.0047     2.5085   -35.2302  2000.0000  -999.2500   280.7062    62.4363
 5463.5000     0.0602    19.8153     8.0420     0.0076     2.5022   -36.1316  2000.0000  -999.2500   295.7890    61.6922
 5464.0000     0.0615    22.2359     8.0120     0.0105     2.4962   -36.7345  2000.0000  -999.2500   301.8288    61.1737
 5464.5000     0.0581    27.0734     7.9820     0.0105     2.4913   -37.0389  2000.0000  -999.2500   303.6988    61.4071
 5465.0000     0.0556    30.7025     7.9219     0.0104     2.4882   -37.3433  2000.0000  -999.2500   285.0814    62.0164
 5465.5000     0.0572    29.4977     7.9219     0.0089     2.4862   -37.6478  2000.0000  -999.2500   279.0109    62.5506
 5466.0000     0.0586    23.4352     7.9219     0.0109     2.4998   -37.6537  2000.0000  -999.2500   274.9672    62.1824
 5466.5000     0.0598    19.8375     7.9219     0.0211     2.5305   -37.3609  2000.0000  -999.2500   272.8653    61.2755
 5467.0000     0.0599    19.8414     7.9219     0.0414     2.5889   -37.3682  2000.0000  -999.2500   270.7796    59.4412
 5467.5000     0.0599    19.8452     7.9219     0.0364     2.6289   -37.8219  2000.0000  -999.2500   270.5769    55.7417
 5468.0000     0.0605    19.2444     7.9219     0.0094     2.6528   -38.2755  2000.0000  -999.2500   304.1539    54.5452
 5468.5000     0.0819    19.2485     7.9219     0.0088     2.6758   -38.2814  2000.0000  -999.2500   371.5234    54.2470
 5469.0000     0.1210    19.3856     7.9219     0.0182     2.7095   -38.2873  2000.0000  -999.2500   444.4844    53.9594
 5469.5000     0.1335    19.8603     7.9219     0.0494     2.7050   -37.6961  2000.0000  -999.2500   466.4127    55.0969
 5470.0000     0.1335    19.8640     7.9219     0.0706     2.6651   -36.8065  2000.0000  -999.2500   457.7945    58.4882
 5470.5000     0.1274    19.8678     7.9219     0.0711     2.5724   -36.5124  2000.0000  1615.2244   331.5003    60.6013
 5471.0000     0.1183    19.8716     7.9239     0.0594     2.4887   -36.2212  2000.0000   927.7218   239.2245    63.6167
 5471.5000     0.1089    19.8754     7.9520     0.0429     2.4209   -36.2271  1985.9954   497.8054   167.9179    66.8576
 5472.0000     0.0999    19.8792     7.9820     0.0293     2.3939   -36.0837  1930.8214   343.2378   139.1774    70.6248
 5472.5000     0.0961    19.8829     7.9820     0.0278     2.3810   -35.9403  1788.3540   398.0690   134.3402    71.0066
 5473.0000     0.0871    19.8867     8.0120     0.0270     2.3788   -35.6477  1513.7947   488.6486   140.9073    69.9637
 5473.5000  -999.2500    20.5416     8.0190     0.0231     2.3881   -35.6537  1107.3673   458.7838   154.0658    68.6182
 5474.0000  -999.2500    22.0546     8.0420     0.0145     2.4164   -35.6609  1185.2689   367.1895   162.7200    66.2200
 5474.5000  -999.2500    22.3157     8.0420     0.0100     2.4490   -35.9653  1352.9348   364.4862   161.4762    65.0057
 5475.0000  -999.2500    22.3194     8.0420     0.0085     2.4741   -36.7174  1500.3190   477.4359   161.3554    63.7966
 5475.5000  -999.2500    22.3231     8.0420     0.0100     2.4889   -37.6188  1833.1395   473.9210   161.2346    63.0123
 5476.0000  -999.2500    21.7221     8.0420     0.0159     2.4948   -38.3709  2000.0000   674.7012   164.4961    62.1179
 5476.5000  -999.2500    19.9136     8.0420     0.0144     2.5007   -38.6753  2000.0000   987.7324   171.5022    60.1708
 5477.0000  -999.2500    19.3131     8.0420     0.0084     2.5317   -38.6812  2000.0000  1507.4847   197.5795    58.3741
 5477.5000  -999.2500    18.7122     8.0120     0.0054     2.5602   -38.6871  2000.0000  1934.2324   242.7005    57.3293
 5478.0000  -999.2500    17.5078     7.9960     0.0099     2.5938   -38.9914  2000.0000  2000.0000   287.3311    55.4574
 5478.5000  -999.2500  -999.2500     7.9820     0.0217     2.6476   -39.5943  2000.0000  2000.0000   297.2874    53.7359
