~VERSION INFORMATION
 VERS.                2.0:   CWLS LOG ASCII STANDARD - VERSION 2.0
 WRAP.                 NO:   ONE LINE PER DEPTH STEP
~WELL INFORMATION
#MNEM.UNIT      DATA TYPE    INFORMATION
#----------   ------------   ------------------------------
 STRT.F           54.0000:   START DEPTH
 STOP.F         5201.0000:   STOP DEPTH
 STEP.F            0.5000:   STEP LENGTH
 NULL.          -999.2500:   NO VALUE
 COMP.   TESORO PETROLEUM:   COMPANY
 WELL. TESORO DX NPR-3 #51-26:   WELL
 FLD .        TEAPOT DOME:   FIELD
 LOC .      S26 T38N R78W:   LOCATION
 CNTY.            NATRONA:   COUNTY
 STAT.            WYOMING:   STATE
 CTRY. UNITED STATES OF AMERICA:   COUNTRY
 SRVC.      DRESSER ATLAS:   SERVICE COMPANY
 DATE.        27-AUG-1976:   LOGDATE
 API .     49025102680000:   API NUMBER
~CURVE INFORMATION
#MNEM.UNIT       API CODE    CURVE DESCRIPTION
#----------   ------------   ------------------------------
 DEPT.F                  :   
 GRD .GAPI   45 310 01 00:   GAMMA RAY FROM DENSITY LOG
 CALD.IN     45 280 60 00:   CALIPER FROM DENSITY LOG
 CORR.G/C3   45 356 01 00:   DENSITY CORRECTION
 RHOB.G/C3   45 350 01 00:   BULK DENSITY
 SPR .MV     07 010 01 00:   SPONTANEOUS POTENTIAL
 ILD .OHMM   07 120 46 00:   DEEP INDUCTION RESISTIVITY
 ILM .OHMM   07 120 44 00:   INDUCTION LOG MEDIUM RESISTIVITY
 RFOC.OHMM   07 220 04 00:   RESISTIVITY FOCUSED LOG RES.
 TEND.LBS    45 635 01 00:   TENSION FORM DENSITY LOG
 NPHI.DEC    42 890 03 00:   NEUTRON POROSITY SANDSTONE
~PARAMETER INFORMATION
#MNEM.UNIT          VALUE    DESCRIPTION
#----------   ------------   ------------------------------
 EKB .F         5453.5000:   Kelly bushing
 EGL .F         5442.0000:   Ground level
 EDF .F         5452.0000:   Drilling floor
 EPD .F            0.0000:   Permanent datum
 TD  .F         5193.0000:   Total depth
 CLNT.            A2DTECH:   Client Code
 SL  . 2000' FEL & 600' FNL:   Surface Location
 PD  .                 GL:   Permanent Datum
 DAPD.F              11.5:   Feet Above Permanent Datum
 DATE.        27-AUG-1976:   Date Logged [DD-MMM-YYYY]
 DD  .F              5193:   Depth driller
 DL  .F              5193:   Depth logger
 BLI .F              5191:   Bottom log interval
 TLI .F              1726:   Top log interval
 CS1 .IN            8.625:   Casing size
 CBD1.     8.625" @ 1724':   Casing driller 1
 CBL1.F              1726:   Casing logger 1
 BS1 .IN            7.875:   Bit size
 BSD1.F              5193:   Depth drilled with bit1
 DFT .           CHEM GEL:   Type fluid in hole
 DFD .                9.2:   Density
 DFV .                 65:   Viscosity
 DFPH.                 10:   pH
 DFL .                5.8:   Fluid loss
 MSS .           FLOWLINE:   Source of sample
 RMS .OHMM           1.70:   Rm
 MST .F                71:   Rm Meas. temp.
 RMF .OHMM              1:   Rmf
 MFST.F                68:   Rmf Meas. temp.
 MFSS.               MEAS:   Source Rmf.
 RMC .OHMM           1.30:   Rmc
 MCST.F                66:   Rmc Meas. temp.
 MCSS.               MEAS:   Source Rmc.
 RMB .OHMM           0.85:   Rm. at BHT
 BHT .F               142:   BHT.
 TCS .HRS               6:   Time Circ. stopped
 MRT .F               142:   Maximum recorded temp.
 LUN .               6145:   Logging unit number
 LUL .              GLTTE:   Logging unit location
 ENGI.        GOULD-HOYER:   Recorded By
 WITN.        WOLF-CARTER:   Witnessed by
 ORIG.           5" PRINT:   Origin of data
 UWI .     49025102680000:   Unique Well ID
 DICO. A2D TECHNOLOGIES, INC.:   Digitizing Company
~OTHER INFORMATION
~A   DEPT      GRD       CALD       CORR       RHOB        SPR         ILD        ILM      RFOC       TEND       NPHI   
# ...
 2633.5000    83.2430     9.9163    -0.0037     2.5646   -39.5308     6.1754     6.2709     7.2841    49.4375     0.2603
 2634.0000    84.4897     9.9290    -0.0065     2.5602   -39.3587     6.0955     6.2755     7.2377    48.4194     0.2555
 2634.5000    87.6408     9.9309    -0.0078     2.5558   -39.1866     6.1004     6.2801     7.4982    47.4013     0.2497
 2635.0000    89.5960     9.9327    -0.0092     2.5461   -38.9668     6.1478     6.3721     7.5568    46.3832     0.2578
 2635.5000    89.1596     9.9198    -0.0060     2.5636   -38.6349     6.1539     6.4209     7.2534    37.8689     0.2653
 2636.0000    91.1149     9.9217    -0.0028     2.5817   -38.3722     6.1588     6.4256     7.2595    36.8513     0.2601
 2636.5000    93.3093     9.9087     0.0034     2.5781   -38.1997     6.1213     6.3862     7.6241    35.8321     0.2532
 2637.0000    93.1109     9.9106     0.0066     2.5722   -38.0280     6.0409     6.3033     7.8972    34.7828     0.2465
 2637.5000    92.6756     9.9126     0.0082     2.5603   -38.1539     6.0470     6.2215     7.5818    33.5422     0.2475
 2638.0000    86.8772     9.9145     0.0054     2.5611   -38.1282     6.0519     6.1419     7.1298    40.2751     0.2521
 2638.5000    86.5413     9.9168     0.0056     2.5650   -38.2568     6.1411     6.1890     7.4878    39.0022     0.2587
 2639.0000    88.0286     9.9187     0.0057     2.5580   -38.5318     6.2328     6.4109     7.4413    37.9841     0.2599
 2639.5000    87.5922     9.9052     0.0104     2.5404   -38.6528     6.3300     6.5951     7.1936    29.4698     0.2611
 2640.0000    86.1992     9.9073     0.0211     2.5375   -38.7779     6.4180     6.7380     7.3503    43.4441     0.2637
 2640.5000    85.2740     9.9095     0.0273     2.5346   -39.0720     6.5126     6.7896     7.8268    42.4260     0.2657
 2641.0000    85.0768     9.9114     0.0304     2.5317   -39.4712     6.6086     6.7481     8.0513    48.9042     0.2552
 2641.5000    85.3684     9.9134     0.0321     2.5409   -39.6155     6.6140     6.7541     7.8373    55.3823     0.2618
 2642.0000    86.1278     9.8998     0.0217     2.5523   -39.7289     6.5271     6.7591     7.7337    54.1100     0.2564
 2642.5000    89.5145     9.8868     0.0038     2.5621   -39.8548     6.4885     6.7176     7.9569    53.0919     0.2611
 2643.0000    82.1494     9.8892    -0.0006     2.5660   -39.8260     6.4491     6.6292     8.0174    52.0738     0.2551
 2643.5000    80.7557     9.8911    -0.0080     2.5504   -39.7337     6.4098     6.5432     7.7472    51.0556     0.2505
 2644.0000    83.4794     9.8930    -0.0108     2.5452   -39.5509     6.4163     6.5492     7.8636    50.0375     0.2417
 2644.5000    85.6251     9.8949    -0.0046     2.5611   -39.3085     6.4660     6.5540     7.4472    49.0194     0.2342
 2645.0000    87.8283     9.8969     0.0015     2.5700   -38.9827     6.4712     6.5590     7.0518    47.9762     0.2269
 2645.5000    89.7835     9.8988     0.0077     2.5565   -38.8106     6.5214     6.6103     6.7690    39.4870     0.2305
 2646.0000    92.4563     9.8858     0.0154     2.5551   -38.3405     6.5719     6.6610     7.4622    38.2146     0.2380
 2646.5000    87.2366     9.8881     0.0200     2.5522   -38.1684     6.5772     6.7585     8.0564    44.9470     0.2503
 2647.0000    85.3548     9.8897     0.0247     2.5471   -37.9963     6.6742     6.8575     8.0063    43.6746     0.2593
 2647.5000    84.6897     9.8916     0.0249     2.5449   -37.8242     6.6796     6.8625     7.6866    42.6565     0.2496
 2648.0000    84.0141     9.8939     0.0145     2.5706   -37.8003     6.6402     6.9151     7.8719    41.6384     0.2465
 2648.5000    81.6644     9.8803     0.0056     2.5594   -37.7722     6.5984     6.7784     8.2485    48.1258     0.2435
 2649.0000    84.0992     9.8229     0.0057     2.5505   -37.9039     6.5131     6.6406     7.7033    54.5947     0.2429
 2649.5000    82.7154     9.7950     0.0104     2.5544   -38.1789     6.3858     6.4696     7.3945    61.0729     0.2458
 2650.0000    80.7386     9.7969     0.0158     2.5537   -38.4539     6.2585     6.3417     7.5555    52.3043     0.2506
 2650.5000    78.4801     9.7988     0.0243     2.5501   -38.7231     6.1361     6.3016     7.4056    51.2861     0.2581
 2651.0000    79.4887     9.8007     0.0275     2.5574   -38.9981     6.0987     6.3074     7.1098    50.2680     0.2626
 2651.5000    82.9628     9.7876     0.0246     2.5675   -39.1336     6.1037     6.3997     6.9671    49.2499     0.2517
 2652.0000    87.7139     9.7896     0.0215     2.5571   -39.3991     6.1088     6.4934     7.1594    48.2318     0.2450
 2652.5000    86.7988     9.7783     0.0160     2.5527   -39.5250     6.1951     6.5432     7.7408    54.7513     0.2417
 2653.0000    84.9271     9.7662     0.0131     2.5581   -39.6510     6.1993     6.5481     7.8537    61.5564     0.2414
 2653.5000    83.0554     9.7387     0.0103     2.5604   -39.6244     6.2035     6.4630     8.0235    68.3616     0.2368
 2654.0000    85.9669     9.7261     0.0074     2.5568   -39.5991     6.2507     6.3792     7.5451    76.3331     0.2329
 2654.5000    87.4435     9.7135     0.0077     2.5516   -39.4269     6.2984     6.4293     7.0941    72.7015     0.2353
 2655.0000    85.9870     9.7009     0.0093     2.5494   -39.1058     6.3538     6.4893     7.2989    68.3187     0.2325
 2655.5000    82.7539     9.7034     0.0142     2.5510   -38.9131     6.3957     6.5765     7.6655    63.9359     0.2366
 2656.0000    88.0570     9.6906     0.0233     2.5640   -38.3087     6.4444     6.6637     7.8936    59.5531     0.2445
 2656.5000    87.6203     9.6936     0.0265     2.5670   -37.9876     6.4935     6.7682     7.9466    57.7016     0.2408
 2657.0000    83.3465     9.6660     0.0297     2.5574   -37.5174     6.5883     6.8201     7.3704    56.9716     0.2369
 2657.5000    87.7035     9.6432     0.0268     2.5492   -37.4944     6.6846     6.8251     7.5819    56.2218     0.2345
 2658.0000    93.0067     9.6402     0.0270     2.5455   -37.7693     6.7355     6.8302     8.1856    55.3364     0.2339
 2658.5000    92.7873     9.6282     0.0241     2.5366   -38.0447     6.7867     6.8352     8.0232    54.6086     0.2257
 2659.0000    88.7953     9.6156     0.0138     2.5326   -38.3288     6.8908     6.8876     7.8097    53.8808     0.2187
 2659.5000    86.4453     9.6179     0.0032     2.5221   -38.7376     6.9876     6.9884     7.8173    53.1530     0.2186
 2660.0000    86.7260     9.6353    -0.0009     2.5214   -39.0125     7.0897     7.0908     9.0790    52.4252     0.2292
 2660.5000    86.2893     9.6381     0.0038     2.5304   -39.4423     7.2432     7.3006     8.3040    59.1936     0.2316
 2661.0000    83.7001     9.6100     0.0070     2.5379   -39.7173     7.2983     7.5575     7.7542    65.9672     0.2334
 2661.5000    83.7417     9.5974     0.0012     2.5401   -39.6885     7.4049     7.7213     7.6509    65.2174     0.2394
 2662.0000    83.7833     9.6003    -0.0047     2.5173   -39.6662     7.4099     7.7790     9.0359    64.3247     0.2454
 2662.5000    80.8376     9.5874     0.0030     2.5199   -39.6423     7.4149     7.4705     8.6738    63.5969     0.2429
 2663.0000    78.1369     9.5902     0.0137     2.5476   -39.3204     7.4199     7.3215     8.3840    62.8691     0.2381
 2663.5000    77.2115     9.5768     0.0231     2.5634   -38.9943     7.2652     7.2265     8.7445    77.3155     0.2329
 2664.0000    78.9376     9.5648     0.0201     2.5881   -39.3934     7.1291     7.1834     8.8086    83.9022     0.2289
 2664.5000    79.4576     9.5522     0.0098     2.5769   -39.0390     7.0347     7.1370     8.3408    75.6782     0.2265
 2665.0000    80.2166     9.5092     0.0024     2.5679   -38.8302     6.8961     6.9904     7.8969    74.9504     0.2238
 2665.5000    81.2149     9.4821    -0.0004     2.5199   -38.6360     6.7591     6.8612     7.6320    74.2130     0.2256
 2666.0000    82.7635     9.4851     0.0088     2.6032   -38.4570     6.6696     6.8178     7.8510    72.1662     0.2295
 2666.5000    84.4176     9.4569     0.0195     2.5769   -38.1813     6.5835     6.7293     8.5337    65.0889     0.2348
