~VERSION INFORMATION
 VERS.                2.0:   CWLS LOG ASCII STANDARD - VERSION 2.0
 WRAP.                 NO:   ONE LINE PER DEPTH STEP
~WELL INFORMATION
#MNEM.UNIT      DATA TYPE    INFORMATION
#----------   ------------   ------------------------------
 STRT.F           16.0000:   START DEPTH
 STOP.F         2834.0000:   STOP DEPTH
 STEP.F            0.5000:   STEP LENGTH
 NULL.          -999.2500:   NO VALUE
 COMP.    FENIX & SCISSON:   COMPANY
 WELL. FENIX NPR 3 "AX" #14-21:   WELL
 FLD .              N P R:   FIELD
 LOC .      S21 T39N R78W:   LOCATION
 CNTY.            NATRONA:   COUNTY
 STAT.            WYOMING:   STATE
 CTRY. UNITED STATES OF AMERICA:   COUNTRY
 SRVC.           BIRDWELL:   SERVICE COMPANY
 DATE.        26-JUL-1978:   LOGDATE
 API .     49025106740000:   API NUMBER
~CURVE INFORMATION
#MNEM.UNIT       API CODE    CURVE DESCRIPTION
#----------   ------------   ------------------------------
 DEPT.F                  :   
 GRD .GAPI   45 310 01 00:   GAMMA RAY FROM DENSITY LOG
 CALD.IN     45 280 60 00:   CALIPER FROM DENSITY LOG
 RHOB.G/C3   45 350 01 00:   BULK DENSITY
 CORR.G/C3   45 356 01 00:   DENSITY CORRECTION
 SPR .MV     05 010 01 00:   SPONTANEOUS POTENTIAL
 ILD .OHMM   05 120 46 00:   DEEP INDUCTION RESISTIVITY
 SN  .OHMM   05 040 00 00:   SHORT NORMAL
~PARAMETER INFORMATION
#MNEM.UNIT          VALUE    DESCRIPTION
#----------   ------------   ------------------------------
 EKB .F         4998.0000:   Kelly bushing
 EGL .F         4988.0000:   Ground level
 EDF .F            0.0000:   Drilling floor
 EPD .F            0.0000:   Permanent datum
 TD  .F         2850.0000:   Total depth
 DATE.        26-JUL-1978:   Date logged
 CLNT.            A2DTECH:   Client Code
 SL  . 2640' FNL & 500' FWL:   Surface Location
 PD  .                 GL:   Permanent Datum
 DD  .F              2850:   Depth driller
 DL  .F              2838:   Depth logger
 BLI .F              2832:   Bottom log interval
 CS1 .IN            8.625:   Casing size
 CBD1.      8.625" @ 208':   Casing driller 1
 BS1 .IN            7.875:   Bit size
 DFT .            MUD/GEL:   Type fluid in hole
 DFD .                9.4:   Density
 DFV .                 37:   Viscosity
 DFPH.                 11:   pH
 TCS .HRS               4:   Time Circ. stopped
 LUN .               2958:   Logging unit number
 LUL .               CASP:   Logging unit location
 ENGI.             MILLER:   Recorded By
 WITN.           MCGINLEY:   Witnessed by
 ORIG.           5" PRINT:   Origin of data
 UWI .     49025106740000:   Unique Well ID
 DICO. A2D TECHNOLOGIES, INC.:   Digitizing Company
 DAPD.                 12:   Feet Above Permanent Datum
 BSD1.               3950:   Depth drilled with bit1
 MCSS.               CALC:   Source Rmc.
 TLI .F               230:   Top log interval
~OTHER INFORMATION
~A   DEPT       GRD      CALD       RHOB       CORR        SPR        ILD         SN   
# ...
 1563.0000   112.1910     7.9680     2.5590     0.2370   -39.8080     7.2590     8.9750
 1563.5000   111.0380     7.9690     2.5590     0.2370   -39.8310     7.2120     8.8640
 1564.0000   110.4700     7.9700     2.5590     0.2370   -39.8550     7.1650     8.7540
 1564.5000   111.1130     7.9700     2.5610     0.2380   -39.8060     7.1180     8.6380
 1565.0000   111.8730     7.9710     2.5590     0.2380   -39.7210     7.0710     8.6910
 1565.5000   112.3760     7.9720     2.5540     0.2380   -39.6350     7.0250     8.7450
 1566.0000   114.7640     7.9730     2.5500     0.2380   -39.5480     6.9780     8.8000
 1566.5000   116.4160     7.9730     2.5500     0.2380   -39.4620     6.9390     8.8540
 1567.0000   115.1240     7.9740     2.5520     0.2380   -39.3760     6.9390     8.8780
 1567.5000   113.7470     7.9750     2.5530     0.2380   -39.2900     6.9390     8.6710
 1568.0000   114.0850     7.9760     2.5490     0.2380   -39.2040     6.9390     8.4930
 1568.5000   114.7280     7.9760     2.5450     0.2380   -39.1170     6.8440     8.3160
 1569.0000   115.3900     7.9760     2.5420     0.2370   -39.0310     6.7220     8.1380
 1569.5000   115.4990     7.9760     2.5440     0.2360   -38.9460     6.5990     7.9570
 1570.0000   115.4810     7.9760     2.5460     0.2350   -38.8990     6.4770     7.9090
 1570.5000   116.0770     7.9540     2.5480     0.2350   -39.0150     6.4500     7.8590
 1571.0000   117.1940     7.8980     2.5430     0.2370   -39.1280     6.4500     7.8100
 1571.5000   118.4530     7.9000     2.5380     0.2400   -39.2410     6.4500     7.7610
 1572.0000   119.2350     7.9040     2.5370     0.2410   -39.3540     6.4500     7.7120
 1572.5000   119.0840     7.8600     2.5370     0.2400   -39.4660     6.4500     7.6720
 1573.0000   119.2220     7.8170     2.5370     0.2400   -39.5790     6.4500     7.7370
 1573.5000   119.5250     7.8090     2.5330     0.2350   -39.6920     6.4500     7.8040
 1574.0000   119.8150     7.7990     2.5320     0.2300   -39.8050     6.4490     7.8700
 1574.5000   119.8210     8.1380     2.5290     0.2280   -39.9170     6.4970     7.9370
 1575.0000   119.6250     7.7880     2.5240     0.2290   -40.0300     6.6180     8.0030
 1575.5000   119.1460     7.8260     2.5190     0.2260   -40.1440     6.7380     8.1040
 1576.0000   119.3240     7.8450     2.5160     0.2240   -40.2510     6.8590     8.4460
 1576.5000   121.9690     7.9600     2.5180     0.2230   -40.1720     7.0020     8.7170
 1577.0000   123.5230     7.8080     2.5130     0.2230   -40.0860     6.9910     8.7170
 1577.5000   121.1350     7.6200     2.5080     0.2220   -40.0000     6.9760     8.7170
 1578.0000   118.6500     7.6060     2.5130     0.2210   -39.9130     6.9620     8.7170
 1578.5000   113.2260     7.5940     2.5180     0.2210   -39.7530     6.9470     8.7170
 1579.0000   107.7480     7.5830     2.5150     0.2210   -39.4780     6.9390     8.7170
 1579.5000   106.8630     7.6060     2.5110     0.2210   -39.5030     6.9810     8.7180
 1580.0000   107.3350     7.6060     2.5090     0.2210   -39.5420     7.0230     8.7170
 1580.5000   107.8040     7.6090     2.5130     0.2210   -39.5790     7.0640     8.7170
 1581.0000   107.1290     7.6110     2.5120     0.2210   -39.6160     7.1060     8.8050
 1581.5000   106.5700     7.6140     2.5040     0.2220   -39.6530     7.1480     8.9120
 1582.0000   106.3410     7.6160     2.4970     0.2210   -39.6900     7.1970     9.0190
 1582.5000   106.1090     7.6190     2.5030     0.2190   -39.7270     7.1720     9.1260
 1583.0000   105.8710     7.6180     2.5100     0.2140   -39.7650     7.1160     9.2080
 1583.5000   105.2840     7.8830     2.5140     0.2130   -39.8020     7.0590     9.1020
 1584.0000   102.9010     7.6530     2.5090     0.2120   -39.8380     7.0030     8.9340
 1584.5000   100.5310     7.7010     2.5030     0.2130   -39.8240     6.9460     8.7660
 1585.0000    99.0600     7.7360     2.4970     0.2130   -39.7130     6.8900     8.6380
 1585.5000   103.5160     7.7640     2.4940     0.2140   -39.6040     6.8330     8.6380
 1586.0000   109.4090     7.7950     2.4970     0.2140   -39.4950     6.7510     8.6380
 1586.5000   114.9130     7.8370     2.4990     0.2150   -39.3860     6.7510     8.6380
 1587.0000   119.6380     7.8550     2.5020     0.2140   -39.2760     6.7750     8.6380
 1587.5000   119.4810     7.8820     2.5010     0.2140   -39.1680     6.7980     8.6380
 1588.0000   118.6410     7.9110     2.5010     0.2140   -39.0710     6.8220     8.5990
 1588.5000   118.8830     7.9410     2.5040     0.2140   -39.0750     6.8450     8.5610
 1589.0000   119.3120     7.9720     2.5050     0.2140   -39.0750     6.8680     8.5230
 1589.5000   119.6080     8.0020     2.5020     0.2150   -39.0750     6.8760     8.4850
 1590.0000   118.8300     8.0150     2.4990     0.2180   -39.0750     6.9390     8.4470
 1590.5000   118.5360     8.0410     2.4980     0.2210   -39.0750     6.9100     8.4090
 1591.0000   118.9860     8.0570     2.5020     0.2210   -39.0750     6.8830     8.3710
 1591.5000   118.7990     8.0630     2.5040     0.2210   -39.0750     6.8560     8.3330
 1592.0000   118.3040     8.0670     2.5030     0.2210   -39.0750     6.8290     8.2960
 1592.5000   115.7800     8.0720     2.5070     0.2210   -39.0750     6.8020     8.2580
 1593.0000   114.3000     8.0750     2.5100     0.2210   -39.0750     6.7740     8.2310
 1593.5000   115.5560     8.0750     2.5050     0.2210   -39.0750     6.7470     8.1990
 1594.0000   118.0140     8.0760     2.5060     0.2210   -39.0750     6.7200     8.1660
 1594.5000   121.2190     8.0910     2.5040     0.2210   -39.0750     6.6930     8.1330
 1595.0000   124.3560     8.0950     2.5020     0.2210   -39.0750     6.6900     8.1040
 1595.5000   127.2250     8.0940     2.5000     0.2210   -39.0750     6.6900     7.9410
 1596.0000   126.8530     8.0940     2.4990     0.2210   -39.0750     6.3370     7.7900
 1596.5000   125.1920     8.0940     2.5020     0.2210   -39.0800     6.0100     7.5470
 1597.0000   125.1360     8.0940     2.5060     0.2210   -38.8570     5.6830     7.2620
 1597.5000   125.3830     8.0940     2.5020     0.2220   -38.5570     5.3570     7.0020
 1598.0000   122.6470     8.0940     2.4970     0.2240   -38.2900     5.0300     6.5580
 1598.5000   118.9210     8.0940     2.4980     0.2250   -38.2860     4.9050     6.1500
 1599.0000   115.1760     8.0940     2.4940     0.2290   -38.2870     4.7540     5.7810
 1599.5000   112.0560     8.0920     2.4880     0.2350   -38.2870     4.6160     5.7090
 1600.0000   110.4350     8.1220     2.4860     0.2310   -38.2870     4.4780     5.6760
 1600.5000   109.5890     8.1390     2.4990     0.2270   -38.2870     4.3560     5.9360
 1601.0000   109.5360     8.1520     2.5060     0.2260   -38.2870     4.3560     6.0510
 1601.5000   109.4870     8.0860     2.4970     0.2300   -38.2870     4.9150     6.0510
 1602.0000   109.4460     7.9330     2.4960     0.2330   -38.3020     5.1340     6.0510
 1602.5000   110.7510     7.9220     2.4950     0.2380   -38.4180     5.1810     6.1060
 1603.0000   113.3640     7.9120     2.4900     0.2420   -38.5360     5.1530     6.1060
 1603.5000   116.0530     7.9010     2.4970     0.2390   -38.6540     5.1340     6.3720
 1604.0000   118.5350     7.9110     2.5030     0.2330   -38.7720     5.1340     6.6290
 1604.5000   120.3440     8.8780     2.5100     0.2240   -38.8890     5.2800     6.7150
 1605.0000   121.1800     8.1500     2.5120     0.2240   -39.0070     5.4100     6.7640
 1605.5000   120.2400     7.8730     2.5110     0.2240   -39.1250     5.5230     6.8130
 1606.0000   119.3260     7.8760     2.5040     0.2240   -39.2460     5.4970     6.8760
 1606.5000   118.4110     7.8780     2.4970     0.2240   -39.2120     5.4610     6.8660
 1607.0000   117.8230     7.8780     2.4920     0.2250   -39.1360     5.4230     6.8520
 1607.5000   117.7760     7.8780     2.4900     0.2250   -39.0570     5.3740     6.8390
 1608.0000   118.9370     7.8780     2.4880     0.2260   -38.9790     5.3740     6.8250
