~VERSION INFORMATION
 VERS.                2.0:   CWLS LOG ASCII STANDARD - VERSION 2.0
 WRAP.                 NO:   ONE LINE PER DEPTH STEP
~WELL INFORMATION
#MNEM.UNIT      DATA TYPE    INFORMATION
#----------   ------------   ------------------------------
 STRT.F          204.0000:   START DEPTH
 STOP.F         3024.0000:   STOP DEPTH
 STEP.F            0.5000:   STEP LENGTH
 NULL.          -999.2500:   NO VALUE
 COMP.    FENIX & SCISSON:   COMPANY
 WELL. FENIX NPR 3 "AX" #87-33:   WELL
 FLD .      NPR - WILDCAT:   FIELD
 LOC .      S33 T39N R78W:   LOCATION
 CNTY.            NATRONA:   COUNTY
 STAT.            WYOMING:   STATE
 CTRY. UNITED STATES OF AMERICA:   COUNTRY
 SRVC.              WELEX:   SERVICE COMPANY
 DATE.        20-JUN-1977:   LOGDATE
 API .     49025103840000:   API NUMBER
~CURVE INFORMATION
#MNEM.UNIT       API CODE    CURVE DESCRIPTION
#----------   ------------   ------------------------------
 DEPT.F                  :   
 SPR .MV     07 010 01 00:   SPONTANEOUS POTENTIAL
 ILD .OHMM   07 120 46 00:   DEEP INDUCTION RESISTIVITY
 ILM .OHMM   07 120 44 00:   INDUCTION LOG MEDIUM RESISTIVITY
 SGRD.OHMM   07 220 05 00:   SHALLOW SHORT GUARD RESISTIVITY
 CALD.IN     45 280 60 00:   CALIPER FROM DENSITY LOG
 GRD .GAPI   45 310 01 00:   GAMMA RAY FROM DENSITY LOG
 RHOB.G/C3   45 350 01 00:   BULK DENSITY
 CORR.G/C3   45 356 01 00:   DENSITY CORRECTION
~PARAMETER INFORMATION
#MNEM.UNIT          VALUE    DESCRIPTION
#----------   ------------   ------------------------------
 EKB .F         5170.0000:   Kelly bushing
 EGL .F         5160.0000:   Ground level
 TD  .F         3040.0000:   Total depth
 DATE.        20-JUN-1977:   Date logged
 CLNT.            A2DTECH:   Client Code
 SL  . 800' FSL & 100' FEL:   Surface Location
 PD  .                 GL:   Permanent Datum
 EPD .F              5160:   Elevation Permanent Datum
 LMF .                 KB:   Log Measured From
 DMF .                 KB:   Drilling Measured From
 DD  .F              3040:   Depth driller
 DL  .F              3027:   Depth logger
 BLI .F              3025:   Bottom log interval
 TLI .F               200:   Top log interval
 CS1 .IN            8.625:   Casing size
 CBD1.      8.625" @ 230':   Casing driller 1
 CBL1.F               210:   Casing logger 1
 BS1 .IN            7.875:   Bit size
 BSD1.F              3040:   Depth drilled with bit1
 DFT .                KCL:   Type fluid in hole
 DFD .                9.2:   Density
 DFV .                 38:   Viscosity
 DFPH.                7.5:   pH
 DFL .                5.4:   Fluid loss
 MSS .           FLOWLINE:   Source of sample
 RMS .OHMM            .60:   Rm
 MST .F                92:   Rm Meas. temp.
 RMF .OHMM            .29:   Rmf
 MFST.F                92:   Rmf Meas. temp.
 RMC .OHMM            .76:   Rmc
 MCST.F                92:   Rmc Meas. temp.
 MFSS.               MEAS:   Source Rmf.
 MCSS.               MEAS:   Source Rmc.
 RMB .OHMM            .49:   Rm. at BHT
 BHT .F               112:   BHT.
 TCS .HRS               2:   Time Circ. stopped
 MRT .F               112:   Maximum recorded temp.
 LUN .               8611:   Logging unit number
 LUL .           GILLETTE:   Logging unit location
 ENGI.            C. DOAK:   Recorded By
 WITN.      B. HARRINGTON:   Witnessed by
 ORIG.     2.5", 5" PRINT:   Origin of data
 UWI .     49025103840000:   Unique Well ID
 DICO. A2D TECHNOLOGIES, INC.:   Digitizing Company
~OTHER INFORMATION
~A   DEPT      SPR        ILD        ILM       SGRD         CALD       GRD        RHOB      CORR  
# ...
 2634.0000   -30.6520     9.7660    10.0560    12.8940     9.0550   103.7110     2.3610     0.0140
 2634.5000   -31.3080     9.5930     9.9610    10.4260     9.1930   101.9440     2.3640     0.0200
 2635.0000   -31.9170     9.4200     9.8730    10.1060     9.3320   100.2410     2.3700     0.0220
 2635.5000   -32.5170     9.2470     9.7850     9.6980     9.4670   100.1170     2.3780     0.0240
 2636.0000   -33.1180     9.0750     9.6970     8.5440     9.5240   102.0080     2.3890     0.0260
 2636.5000   -33.7740     8.9580     9.6090     8.8730     9.5760   103.3530     2.3940     0.0270
 2637.0000   -34.5700     8.8660     9.5210     9.3500     9.6100   102.1360     2.3930     0.0290
 2637.5000   -35.4610     8.7730     9.4320     9.8750     9.6450   100.2490     2.3890     0.0300
 2638.0000   -36.3410     8.6810     9.3530     9.6770     9.6800   100.1340     2.3790     0.0310
 2638.5000   -37.2240     8.5890     9.0540     9.5240     9.7150   101.8930     2.3760     0.0320
 2639.0000   -38.1040     8.4020     8.7830     9.5240     9.7510   103.9980     2.3730     0.0360
 2639.5000   -38.9930     8.1230     8.5110    13.1910     9.7930   106.1220     2.3670     0.0420
 2640.0000   -39.8640     7.8440     8.2400    11.4550     9.8400   108.2380     2.3530     0.0490
 2640.5000   -40.7930     7.5650     7.9480     8.9940     9.8870   110.3590     2.3390     0.0510
 2641.0000   -41.5990     7.2860     7.7200     8.4010     9.9340   111.2570     2.3240     0.0480
 2641.5000   -42.4610     7.0070     7.4730     6.6100     9.9820   109.9710     2.3060     0.0420
 2642.0000   -43.3010     6.8500     7.2600     4.2140    10.0690   106.0700     2.2960     0.0340
 2642.5000   -44.1610     6.7990     8.2550     5.1200    10.1610   102.1120     2.3450     0.0220
 2643.0000   -44.9980     6.7480     9.1300     6.9880    10.1500   101.1770     2.4220     0.0320
 2643.5000   -45.8700     6.6980     8.4270     8.8200    10.1130   101.7460     2.4480     0.0510
 2644.0000   -46.4510     6.6470     7.1840    10.2390    10.0770   102.7500     2.4430     0.0640
 2644.5000   -47.0510     6.5960     6.8770     8.6720    10.1230   102.2880     2.4250     0.0720
 2645.0000   -47.6290     6.5460     6.8770     7.5280    10.2360   101.4350     2.4070     0.0720
 2645.5000   -48.2260     6.5130     7.0320     7.8680    10.3510   102.1290     2.3870     0.0660
 2646.0000   -48.8060     6.5130     7.2360     8.8760    10.2500   102.9110     2.3470     0.0580
 2646.5000   -49.3960     6.5130     7.4410     8.6070    10.1300   101.6430     2.3290     0.0440
 2647.0000   -49.7590     6.5130     7.5280     7.9700    10.0860   100.1680     2.3230     0.0320
 2647.5000   -50.1210     6.5130     7.5280     8.0110    10.0650   100.1100     2.3620     0.0250
 2648.0000   -50.4710     6.5130     7.5280     8.0930    10.0450   100.6810     2.4300     0.0230
 2648.5000   -50.8370     6.5130     7.5280     8.1750    10.0240   101.4090     2.4550     0.0250
 2649.0000   -50.9840     6.6050     7.6650     8.2410    10.0030   101.4320     2.4610     0.0260
 2649.5000   -50.7200     6.7610     7.7930     8.2410     9.9730    99.6320     2.4660     0.0250
 2650.0000   -50.3930     6.9170     7.9000     8.2410     9.9420    95.9970     2.4670     0.0250
 2650.5000   -50.0670     7.0730     8.0070     8.2410     9.9110    94.5550     2.4630     0.0230
 2651.0000   -49.7410     7.2600     8.0930     8.4260     9.8800    93.8830     2.4550     0.0200
 2651.5000   -49.4140     7.3730     8.4510     8.7360     9.8550    95.0420     2.4470     0.0160
 2652.0000   -49.0910     7.6560     8.7490    10.4260     9.8360    97.0750     2.4320     0.0130
 2652.5000   -48.7600     7.9390     9.0470    10.7390     9.8170    99.5240     2.4260     0.0100
 2653.0000   -48.5840     8.2210     9.3450    11.2090     9.7990   100.4580     2.4220     0.0060
 2653.5000   -48.5230     8.4250     9.5510    11.2090     9.7800   101.0760     2.4250     0.0040
 2654.0000   -48.4510     8.5080     9.6190    11.1110     9.7610   101.5430     2.4230     0.0020
 2654.5000   -48.3800     8.5920     9.6860    10.9480     9.7430   102.2140     2.4220     0.0000
 2655.0000   -48.3160     8.6750     9.7540    10.7850     9.7250   102.8740     2.4210    -0.0020
 2655.5000   -48.2340     8.7590     9.8210    10.6220     9.7010   103.5280     2.4170    -0.0040
 2656.0000   -48.3690     8.8590     9.8750    10.4260     9.6780   105.3060     2.4070    -0.0050
 2656.5000   -48.6190     8.8050     9.8070    10.3770     9.6550   107.6720     2.4010    -0.0040
 2657.0000   -48.8520     8.7380     9.7210    10.3150     9.6320   109.3340     2.4040    -0.0040
 2657.5000   -49.0840     8.6710     9.6360    10.2530     9.6090   110.0300     2.4150    -0.0020
 2658.0000   -49.3200     8.6040     9.5510    10.1910     9.5870   108.8510     2.4260     0.0000
 2658.5000   -49.5550     8.5360     9.4650    10.1300     9.5650   107.7240     2.4350     0.0030
 2659.0000   -49.7880     8.4690     9.3800    10.0560     9.5440   108.4730     2.4430     0.0050
 2659.5000   -50.0230     8.4020     9.2940     9.9150     9.5220   109.6860     2.4520     0.0080
 2660.0000   -50.2620     8.3350     9.2090     9.7400     9.5010   110.8330     2.4600     0.0100
 2660.5000   -50.4740     8.2680     9.1230     9.5640     9.4800   110.2800     2.4690     0.0120
 2661.0000   -50.8380     8.2410     9.0210     9.3530     9.4580   108.8370     2.4750     0.0130
 2661.5000   -51.3150     8.2410     9.0600     9.3530     9.4370   107.6390     2.4720     0.0140
 2662.0000   -51.7650     8.2410     9.1090     9.3530     9.4160   108.6020     2.4610     0.0090
 2662.5000   -52.2160     8.2410     9.1580     9.3530     9.3940   111.2180     2.4510     0.0050
 2663.0000   -52.6730     8.2410     9.2070     9.3530     9.3730   113.8140     2.4560     0.0050
 2663.5000   -53.1250     8.2410     9.2560     9.5770     9.3520   116.3700     2.4650     0.0120
 2664.0000   -53.5780     8.2410     9.3050     9.8750     9.3300   117.6770     2.4750     0.0180
 2664.5000   -54.0330     8.2410     9.3530     9.8460     9.3080   116.6520     2.4840     0.0150
 2665.0000   -54.4850     8.2410     9.4150     9.7720     9.2870   113.9190     2.4870     0.0120
 2665.5000   -54.9370     8.2410     9.4770     9.6980     9.2650   111.1970     2.4890     0.0080
 2666.0000   -55.4060     8.2410     9.5380    10.2390     9.2430   108.7390     2.4900     0.0050
 2666.5000   -55.8550     8.2530     9.6000    10.1310     9.2210   108.5200     2.4910     0.0010
 2667.0000   -56.2830     8.2690     9.6980     9.6980     9.1990   109.2000     2.4890    -0.0020
 2667.5000   -56.7290     8.2850     9.6470     9.7890     9.1770   111.2250     2.4880    -0.0070
 2668.0000   -57.1750     8.3000     9.5190    10.0170     9.1720   111.7270     2.4930    -0.0130
 2668.5000   -57.6160     8.3160     9.3910    10.2440     9.1720   108.9740     2.5030    -0.0080
 2669.0000   -58.0620     8.3330     9.1860    10.4260     9.1720   105.4470     2.5120    -0.0030
 2669.5000   -58.5060     8.3470     9.2340    10.7170     9.1720   101.7970     2.5220    -0.0020
 2670.0000   -58.9460     8.3630     9.3550    11.0080     9.1720   101.0990     2.5280    -0.0040
 2670.5000   -59.3990     8.3790     9.4760    12.3430     9.1710   106.3610     2.5310    -0.0060
 2671.0000   -59.6260     8.3910     9.5240    13.6770     9.1450   112.1280     2.5290    -0.0090
 2671.5000   -59.6940     8.0880     9.4220    16.9940     9.1160   117.2950     2.5230    -0.0110
 2672.0000   -59.7730     7.8360     9.3530    16.5400     9.0870   121.9400     2.5110    -0.0130
 2672.5000   -59.8530     7.5830     8.6900    10.4070     9.0810   125.8200     2.5040    -0.0150
 2673.0000   -59.9290     7.3310     8.1370     9.3990     9.0960   127.9590     2.4990    -0.0150
 2673.5000   -60.0080     7.0790     7.6760     8.3910     9.1110   128.8410     2.4940    -0.0150
 2674.0000   -60.0860     6.8770     7.3530     8.0930     9.1260   128.8670     2.4890    -0.0140
