~VERSION INFORMATION
 VERS.                2.0:   CWLS LOG ASCII STANDARD - VERSION 2.0
 WRAP.                 NO:   ONE LINE PER DEPTH STEP
~WELL INFORMATION
#MNEM.UNIT      DATA TYPE    INFORMATION
#----------   ------------   ------------------------------
 STRT.F          198.0000:   START DEPTH
 STOP.F         3252.0000:   STOP DEPTH
 STEP.F            0.5000:   STEP LENGTH
 NULL.          -999.2500:   NO VALUE
 COMP. FENIX & SCISSON - U.S. NAVY:   COMPANY
 WELL.   FENIX A X #21-33:   WELL
 FLD .              NPR-3:   FIELD
 LOC .      S33 T39N R78W:   LOCATION
 CNTY.            NATRONA:   COUNTY
 STAT.            WYOMING:   STATE
 CTRY. UNITED STATES OF AMERICA:   COUNTRY
 SRVC.              WELEX:   SERVICE COMPANY
 DATE.        06-JUN-1977:   LOGDATE
 API .     49025103750000:   API NUMBER
~CURVE INFORMATION
#MNEM.UNIT       API CODE    CURVE DESCRIPTION
#----------   ------------   ------------------------------
 DEPT.F                  :   
 CALD.IN     45 280 60 00:   CALIPER FROM DENSITY LOG
 GRD .GAPI   45 310 01 00:   GAMMA RAY FROM DENSITY LOG
 RHOB.G/C3   45 350 01 00:   BULK DENSITY
 CORR.G/C3   45 356 01 00:   DENSITY CORRECTION
 NPHI.DEC    42 890 01 00:   NEUTRON POROSITY LIMESTONE
 SPR .MV     07 010 01 00:   SPONTANEOUS POTENTIAL
 GURD.OHMM   07 220 05 00:   GUARD LOG RESISTIVITY
 FORX.OHMM   07 220 00 00:   FORMATION FACTOR
~PARAMETER INFORMATION
#MNEM.UNIT          VALUE    DESCRIPTION
#----------   ------------   ------------------------------
 EKB .F         5147.0000:   Kelly bushing
 EGL .F         5137.0000:   Ground level
 EDF .F            0.0000:   Drilling floor
 EPD .F            0.0000:   Permanent datum
 TD  .F         3254.0000:   Total depth
 CLNT.            A2DTECH:   Client Code
 SL  . 660' FNL & 1320' FWL:   Surface Location
 PD  .                 GL:   Permanent Datum
 DAPD.F                10:   Feet Above Permanent Datum
 DATE.        06-JUN-1977:   Date Logged [DD-MMM-YYYY]
 DD  .F              3249:   Depth driller
 DL  .F              3254:   Depth logger
 BLI .F              3252:   Bottom log interval
 TLI .F               200:   Top log interval
 CS1 .IN            8.625:   Casing size
 CBD1.      8.625" @ 204':   Casing driller 1
 CBL1.F               221:   Casing logger 1
 BS1 .IN            7.875:   Bit size
 BSD1.F              3249:   Depth drilled with bit1
 DFT .            KCL MUD:   Type fluid in hole
 DFD .                  9:   Density
 DFV .                134:   Viscosity
 DFPH.                7.5:   pH
 DFL .                7.8:   Fluid loss
 MSS .           FLOWLINE:   Source of sample
 RMS .OHMM           0.64:   Rm
 MST .F                85:   Rm Meas. temp.
 RMF .OHMM           0.61:   Rmf
 MFST.F                85:   Rmf Meas. temp.
 MFSS.           FANN KIT:   Source Rmf.
 RMC .OHMM              1:   Rmc
 MCST.F                85:   Rmc Meas. temp.
 MCSS.           FANN KIT:   Source Rmc.
 RMB .OHMM           0.46:   Rm. at BHT
 BHT .F               116:   BHT.
 TCS .HRS             2.5:   Time Circ. stopped
 MRT .F               116:   Maximum recorded temp.
 LUN .               8611:   Logging unit number
 LUL .             CASPER:   Logging unit location
 ENGI.            C. DOAK:   Recorded By
 WITN.      B. HARRINGTON:   Witnessed by
 ORIG.           5" PRINT:   Origin of data
 UWI .     49025103750000:   Unique Well ID
 DICO. A2D TECHNOLOGIES, INC.:   Digitizing Company
~OTHER INFORMATION
~A   DEPT     CALD         GRD      RHOB       CORR       NPHI        SPR       GURD       FORX   
# ...
 1615.5000     9.2513   105.5532     2.5318     0.0336     0.3329   -43.3023     9.4380     4.9708
 1616.0000     9.2524   107.9779     2.5394     0.0338     0.3310   -43.2583    10.1961     5.0460
 1616.5000     9.2536   109.5098     2.5470     0.0324     0.3285   -43.2143     9.7789     4.9440
 1617.0000     9.2548   110.7441     2.5545     0.0340     0.3265   -43.1703     8.8598     4.9118
 1617.5000     9.2411   112.6194     2.5516     0.0326     0.3244   -43.1264     8.3753     5.0226
 1618.0000     9.2423   114.4048     2.5271     0.0253     0.3222   -43.0824     9.2637     5.1349
 1618.5000     9.2435   116.2435     2.5098     0.0164     0.3218   -43.0384     9.9564     5.1388
 1619.0000     9.2300   117.1692     2.5033     0.0120     0.3231   -42.9944     9.9657     4.9629
 1619.5000     9.2757   112.4621     2.5102     0.0167     0.3252   -42.9504     9.2898     4.9313
 1620.0000     9.2769   111.8997     2.5162     0.0198     0.3279   -42.9064     8.8383     4.9352
 1620.5000     9.2780   112.2520     2.5126     0.0199     0.3297   -42.8621     8.4147     4.9404
 1621.0000     9.2792   113.1886     2.5097     0.0215     0.3312   -42.8172     8.9285     5.0138
 1621.5000     9.2804   113.2324     2.5150     0.0231     0.3327   -42.8144     8.8735     4.9828
 1622.0000     9.2815   113.2762     2.5278     0.0292     0.3346   -42.7984     8.4501     4.9503
 1622.5000     9.2827   117.1890     2.5309     0.0324     0.3370   -42.7807     8.2207     4.9550
 1623.0000     9.2842   115.1495     2.5333     0.0309     0.3385   -42.7629     8.1681     4.8540
 1623.5000     9.2853   113.3988     2.5221     0.0296     0.3391   -42.7452     8.1777     4.6879
 1624.0000     9.2865   112.5585     2.5178     0.0267     0.3391   -42.7274     8.6035     4.5598
 1624.5000     9.2725   113.4970     2.5109     0.0238     0.3387   -42.7097     9.5139     4.5959
 1625.0000     9.2740   113.2413     2.5014     0.0224     0.3387   -42.6919     9.6593     4.6986
 1625.5000     9.2751   112.4032     2.5046     0.0241     0.3392   -42.6742     9.2642     4.7771
 1626.0000     9.2763   112.7446     2.5122     0.0317     0.3401   -42.6564     9.4752     4.9825
 1626.5000     9.2775   112.7884     2.5145     0.0333     0.3413   -42.6387     9.6201     5.0578
 1627.0000     9.2935   114.9155     2.5146     0.0304     0.3429   -42.6209     9.2924     4.9901
 1627.5000     9.2947   117.6378     2.5207     0.0305     0.3450   -42.6032     9.0401     4.9939
 1628.0000     9.2958   120.0626     2.5141     0.0275     0.3474   -42.5854     8.5477     4.8921
 1628.5000     9.2970   121.5945     2.5022     0.0233     0.3493   -42.5677     8.3136     4.7584
 1629.0000     9.2982   122.2335     2.5008     0.0234     0.3510   -42.5499     8.4427     4.6613
 1629.5000     9.2996   123.7654     2.5099     0.0250     0.3519   -42.5322     8.6947     4.6650
 1630.0000     9.3008   125.6053     2.5294     0.0282     0.3528   -42.5144     9.1024     4.7379
 1630.5000     9.3020   126.2351     2.5355     0.0313     0.3537   -42.4967    11.5829     4.8762
 1631.0000     9.3031   125.0982     2.5325     0.0299     0.3525   -42.4789    10.7972     5.0216
 1631.5000     9.3043   122.4634     2.5334     0.0300     0.3512   -42.4612     8.9815     5.2075
 1632.0000     9.3055   118.0429     2.5350     0.0301     0.3505   -42.4433     8.3722     5.5552
 1632.5000     9.3067   115.1105     2.5269     0.0302     0.3505   -42.4251     8.3187     5.0331
 1633.0000     9.3078   113.9638     2.5337     0.0304     0.3504   -42.4250     8.9429     4.7581
 1633.5000     9.3090   112.8171     2.5308     0.0320     0.3491   -42.4499     9.5434     4.5303
 1634.0000     9.3102   111.3728     2.5257     0.0336     0.3473   -42.4749     9.3506     4.4065
 1634.5000     9.3113   110.2261     2.5348     0.0367     0.3454   -42.4998     8.6545     4.5060
 1635.0000     9.3125   110.5675     2.5513     0.0413     0.3429   -42.5246     8.4057     4.7728
 1635.5000     9.3137   111.8017     2.5574     0.0459     0.3407   -42.5495     8.9232     4.9152
 1636.0000     9.3300   112.1342     2.5635     0.0491     0.3391   -42.5743    10.1524     4.8150
 1636.5000     9.3312   107.1565     2.5751     0.0492     0.3384   -42.5992     9.4638     4.5845
 1637.0000     9.3472   101.5237     2.5816     0.0478     0.3381   -42.6240     8.5134     4.7205
 1637.5000     9.3484    99.4842     2.5705     0.0464     0.3387   -42.6489     7.9360     4.8261
 1638.0000     9.3496    98.3265     2.5624     0.0435     0.3418   -42.6737     8.8384     4.8642
 1638.5000     9.3507    99.8694     2.5550     0.0422     0.3435   -42.6986     8.5374     4.8333
 1639.0000     9.3668   101.4013     2.5506     0.0408     0.3447   -42.7234     8.3647     4.6020
 1639.5000     9.3679   101.4867     2.5559     0.0409     0.3469   -42.7483     8.3728     4.4130
 1640.0000     9.3691    98.5126     2.5523     0.0395     0.3481   -42.7731     8.6286     4.4805
 1640.5000     9.3703    93.1929     2.5427     0.0381     0.3493   -42.7980    10.0937     4.5807
 1641.0000     9.3565    92.6478     2.5398     0.0368     0.3489   -42.8228     8.8273     4.7166
 1641.5000     9.3577    96.4150     2.5399     0.0354     0.3470   -42.8477     8.4662     4.9261
 1642.0000     9.3589    96.0201     2.5467     0.0355     0.3467   -42.8725     8.2931     4.8257
 1642.5000     9.3601    93.9806     2.5368     0.0356     0.3479   -42.8974     8.1855     4.5947
 1643.0000     9.3464    92.5363     2.5271     0.0342     0.3504   -42.9222     8.1332     4.4374
 1643.5000     9.3478    91.9739     2.5133     0.0314     0.3524   -42.9471     8.3778     4.2856
 1644.0000     9.3338    92.9215     2.5045     0.0270     0.3540   -42.9720     9.0686     4.2905
 1644.5000     9.3353    93.2629     2.4993     0.0226     0.3555   -42.9967     9.6091     4.4580
 1645.0000     9.3213    94.1995     2.4979     0.0198     0.3576   -43.0117     9.3953     4.7464
 1645.5000     9.3227    95.4338     2.4995     0.0199     0.3597   -42.9904     8.5928     4.9221
 1646.0000     9.3239    96.3704     2.5026     0.0215     0.3612   -42.9365     8.1248     5.1033
 1646.5000     9.3251    97.3071     2.4989     0.0218     0.3624   -42.8830     8.4873     4.7235
 1647.0000     9.3262    97.9464     2.5148     0.0263     0.3640   -42.8294     9.1219     4.4338
 1647.5000     9.3274    97.3638     2.5298     0.0339     0.3661   -42.7759     9.3942     4.2820
 1648.0000     9.3286    95.6637     2.5396     0.0355     0.3679   -42.7224     9.1390     4.4723
 1648.5000     9.3298    95.3989     2.5359     0.0341     0.3694   -42.6688     8.8908     4.6710
 1649.0000     9.3310    97.5370     2.5298     0.0327     0.3703   -42.6153     8.7112     4.4791
 1649.5000     9.3321    99.6641     2.5212     0.0313     0.3712   -42.5617     8.5351     4.4834
 1650.0000     9.3333   105.0650     2.5124     0.0299     0.3699   -42.5082     8.7288     4.6164
 1650.5000     9.3345   110.1683     2.5057     0.0247     0.3686   -42.4546     9.5848     4.6529
 1651.0000     9.3357   113.7835     2.5035     0.0219     0.3686   -42.4011     9.5938     4.6564
 1651.5000     9.3369   116.2083     2.5044     0.0205     0.3689   -42.3476     9.3999     4.6261
 1652.0000     9.3381   117.7401     2.5060     0.0177     0.3692   -42.2940     9.4759     4.6635
 1652.5000     9.3393   116.2958     2.5076     0.0163     0.3698   -42.2381     9.7587     4.8019
 1653.0000     9.3405   110.3872     2.5099     0.0164     0.3701   -42.2246     9.9079     4.9093
 1653.5000     9.3417   100.4649     2.5130     0.0165     0.3706   -42.2243     9.5026     4.9131
 1654.0000     9.3430    91.3528     2.5041     0.0167     0.3709   -42.2244     9.1790     4.8473
 1654.5000     9.3590    90.8757     2.5059     0.0183     0.3718   -42.2244     8.9247     4.8166
 1655.0000     9.3602    92.4186     2.5128     0.0199     0.3727   -42.2244     8.7492     4.7860
 1655.5000     9.3464    90.6766     2.5224     0.0230     0.3736   -42.2244     8.6953     4.6553
