~VERSION INFORMATION
 VERS.                2.0:   CWLS LOG ASCII STANDARD - VERSION 2.0
 WRAP.                 NO:   ONE LINE PER DEPTH STEP
~WELL INFORMATION
#MNEM.UNIT      DATA TYPE    INFORMATION
#----------   ------------   ------------------------------
 STRT.F           11.0000:   START DEPTH
 STOP.F         3368.0000:   STOP DEPTH
 STEP.F            0.5000:   STEP LENGTH
 NULL.          -999.2500:   NO VALUE
 COMP. LAWRENCE ALLISON AND ASSOC.:   COMPANY
 WELL. LAWRENCE NPR "AX" #3-11:   WELL
 FLD .                NPR:   FIELD
 LOC .      S11 T38N R78W:   LOCATION
 CNTY.            NATRONA:   COUNTY
 STAT.            WYOMING:   STATE
 CTRY. UNITED STATES OF AMERICA:   COUNTRY
 SRVC.      DRESSER ATLAS:   SERVICE COMPANY
 DATE.        17-JAN-1986:   LOGDATE
 API .     49025110540000:   API NUMBER
~CURVE INFORMATION
#MNEM.UNIT       API CODE    CURVE DESCRIPTION
#----------   ------------   ------------------------------
 DEPT.F                  :   
 TEND.LBS    45 635 01 00:   TENSION FROM DENSITY LOG
 DEN .G/C3   45 350 01 00:   BULK DENSITY
 CORR.G/C3   45 356 01 00:   DENSITY CORRECTION
 CNC .DEC    42 890 03 00:   NEUTRON PORISITY SANDSTONE
 TENR.LBS    07 635 01 00:   TENSION FROM RESISTIVITY
 CALR.IN     07 280 01 00:   CALIPER FROM RESISTIVITY
 SPR .MV     07 010 01 00:   SPONTANEOUS POTENTIAL
 GRR .GAPI   07 310 01 00:   GAMMA RAY FROM RESISTIVITY
 RFOC.OHMM   07 220 04 00:   RESISTIVITY FOCUSED LOG RES.
 RILD.OHMM   07 120 46 00:   INDUCTION LOG DEEP RESISTIVITY
 RILM.OHMM   07 120 44 00:   INDUCTION LOG MEDIUM RESISTIVITY
 TENS.LBS    60 635 01 00:   TENSION FROM SONIC
 AC  .US/F   60 250 00 00:   ACCOUSTIC
~PARAMETER INFORMATION
#MNEM.UNIT          VALUE    DESCRIPTION
#----------   ------------   ------------------------------
 EKB .F         5195.5000:   Kelly bushing
 EGL .F         5183.2000:   Ground level
 EDF .F         5194.5000:   Drilling floor
 TD  .F         3360.0000:   Total depth
 DATE.        17-JAN-1986:   Date logged
 CLNT.            A2DTECH:   Client Code
 SL  . 2389' FSL & 461'FWL:   Surface Location
 PD  .                 GL:   Permanent Datum
 EPD .F            5183.2:   Elevation Permanent Datum
 LMF .                 KB:   Log Measured From
 DMF .                 KB:   Drilling Measured From
 DAPD.F              12.3:   Feet Above Permanent Datum
 DD  .F              3360:   Depth driller
 DL  .F              3358:   Depth logger
 BLI .F              3356:   Bottom log interval
 TLI .F               575:   Top log interval
 CS1 .IN            8.625:   Casing size
 CBD1.      8.625" @ 575':   Casing driller 1
 CBL1.F               575:   Casing logger 1
 BS1 .IN            7.875:   Bit size
 BSD1.F              3360:   Depth drilled with bit1
 DFT .        POLYMER-KCL:   Type fluid in hole
 DFD .                  9:   Density
 DFV .                 36:   Viscosity
 DFPH.                  9:   pH
 DFL .                9.5:   Fluid loss
 MSS .           FLOWLINE:   Source of sample
 RMS .OHMM           .633:   Rm
 MST .F                68:   Rm Meas. temp.
 RMF .OHMM           .475:   Rmf
 MFST.F                68:   Rmf Meas. temp.
 RMC .OHMM           .791:   Rmc
 MCST.F                68:   Rmc Meas. temp.
 RMB .OHMM            .44:   Rm. at BHT
 BHT .F                98:   BHT.
 TCS .HRS               4:   Time Circ. stopped
 MRT .F                98:   Maximum recorded temp.
 LUN .               6264:   Logging unit number
 LUL .               GLTE:   Logging unit location
 ENGI.             MILLER:   Recorded By
 WITN.             STRONG:   Witnessed by
 ORIG.        2" 5" PRINT:   Origin of data
 UWI .     49025110540000:   Unique Well ID
 DICO. A2D TECHNOLOGIES, INC.:   Digitizing Company
~OTHER INFORMATION
~A   DEPT     TEND        DEN       CORR        CNC       TENR       CALR        SPR         GRR      RFOC       RILD       RILM       TENS         AC   
# ...
  765.0000  -999.2500  -999.2500  -999.2500  -999.2500   -89.2670     9.2150   -38.0940    99.0340     8.1480     8.6420     8.0950  -102.6920    92.2020
  765.5000  -999.2500  -999.2500  -999.2500  -999.2500   -94.6890     9.2120   -38.5640   100.5750     8.0590     8.5270     7.9690  -102.5110    92.2420
  766.0000  -999.2500  -999.2500  -999.2500  -999.2500   -91.3950     9.2090   -39.0350   100.7520     7.9710     8.4120     7.8430  -102.3300    92.4380
  766.5000  -999.2500  -999.2500  -999.2500  -999.2500   -88.3080     9.2060   -39.5020   100.8830     7.8830     8.2970     7.7170  -102.1500    92.7380
  767.0000  -999.2500  -999.2500  -999.2500  -999.2500   -85.2200     9.2040   -39.7470   100.9950     7.7950     8.1820     7.5900  -101.9690    93.1770
  767.5000  -999.2500  -999.2500  -999.2500  -999.2500   -84.6690     9.2040   -39.9420   100.9830     7.7070     8.0670     7.4640  -101.7880    93.6150
  768.0000  -999.2500  -999.2500  -999.2500  -999.2500   -84.6690     9.2040   -40.1380   100.6610     7.6180     7.9520     7.3380  -101.6080    94.0540
  768.5000  -999.2500  -999.2500  -999.2500  -999.2500   -84.6690     9.2040   -40.3340    98.9020     7.5300     7.8370     7.2120  -101.4270    94.4920
  769.0000  -999.2500  -999.2500  -999.2500  -999.2500   -84.6690     9.2040   -40.5330    97.0310     7.4420     7.7230     7.0820  -101.2470    94.9300
  769.5000  -999.2500  -999.2500  -999.2500  -999.2500   -84.6690     9.2040   -40.5490    98.2640     7.3540     7.6080     7.1320  -101.0660    95.4500
  770.0000  -999.2500  -999.2500  -999.2500  -999.2500   -84.6690     9.2040   -40.5180   101.6250     7.2660     7.4930     7.1850  -100.8850    95.7170
  770.5000  -999.2500  -999.2500  -999.2500  -999.2500   -84.6690     9.2040   -40.4850   104.5190     7.1780     7.3940     7.2370  -100.7050    96.0440
  771.0000  -999.2500  -999.2500  -999.2500  -999.2500   -84.6690     9.2080   -40.4520   104.1050     7.0820     7.3260     7.2900  -100.5240    96.4500
  771.5000  -999.2500  -999.2500  -999.2500  -999.2500   -84.6690     9.2150   -40.4190   101.1670     7.1490     7.2580     7.3480  -100.3430    96.3430
  772.0000  -999.2500  -999.2500  -999.2500  -999.2500   -84.6690     9.2220   -40.3920   100.5610     7.2220     7.1900     7.4160  -100.1630    96.2030
  772.5000  -999.2500  -999.2500  -999.2500  -999.2500   -84.6690     9.2290   -40.0770   100.2040     7.2960     7.1220     7.4850   -99.9820    96.0630
  773.0000  -999.2500  -999.2500  -999.2500  -999.2500   -84.6690     9.2360   -39.6420   100.3700     7.3690     7.0540     7.3280   -99.8010    95.9500
  773.5000  -999.2500  -999.2500  -999.2500  -999.2500   -84.6690     9.2430   -39.2040   100.5430     7.4850     6.9290     7.1470   -99.6210    95.8910
  774.0000  -999.2500  -999.2500  -999.2500  -999.2500   -84.6690     9.2500   -38.7670   100.0640     7.3940     6.7350     6.9870   -99.4400    95.8500
  774.5000  -999.2500  -999.2500  -999.2500  -999.2500   -84.6690     9.2570   -38.3300    99.4720     7.1840     6.5410     6.8370   -99.2600    96.1550
  775.0000  -999.2500  -999.2500  -999.2500  -999.2500   -84.6690     9.2640   -37.8930    99.9280     6.9740     6.3460     6.6880   -99.0790    96.9000
  775.5000  -999.2500  -999.2500  -999.2500  -999.2500   -84.6690     9.2710   -37.4520   100.3260     6.7650     6.1520     6.5390   -98.8980    97.9220
  776.0000  -999.2500  -999.2500  -999.2500  -999.2500   -84.6690     9.2790   -37.0070   101.4830     6.5550     5.9580     6.3900   -98.7180    98.9440
  776.5000  -999.2500  -999.2500  -999.2500  -999.2500   -84.6690     9.2860   -37.4850   101.9560     6.3450     5.8200     6.2410   -98.5370    99.9650
  777.0000  -999.2500  -999.2500  -999.2500  -999.2500   -90.8820     9.2930   -38.1040   105.4730     6.1570     5.7830     6.0920   -98.3560   100.9870
  777.5000  -999.2500  -999.2500  -999.2500  -999.2500   -99.1150     9.3000   -38.7270   109.0740     6.0950     5.7460     5.9430   -98.1760   101.6920
  778.0000  -999.2500  -999.2500  -999.2500  -999.2500  -101.7410     9.3070   -39.3480   112.6920     6.0530     5.7090     5.7940   -97.9950   102.1340
  778.5000  -999.2500  -999.2500  -999.2500  -999.2500   -92.4790     9.3140   -39.8550   110.4400     6.1060     5.6710     5.6450   -97.8140   102.4500
  779.0000  -999.2500  -999.2500  -999.2500  -999.2500   -83.2160     9.3210   -40.0880   107.7420     6.1460     5.6340     5.4960   -97.6340   102.3770
  779.5000  -999.2500  -999.2500  -999.2500  -999.2500   -74.6490     9.3280   -40.3230   105.8470     6.1860     5.5350     5.3470   -97.4530   102.2300
  780.0000  -999.2500  -999.2500  -999.2500  -999.2500   -75.5810     9.3350   -40.5580   106.4740     6.2230     5.4070     5.1970   -97.2730   102.4460
  780.5000  -999.2500  -999.2500  -999.2500  -999.2500   -76.4480     9.3420   -40.7900   107.9950     5.9940     5.2790     5.0480   -97.0920   103.0910
  781.0000  -999.2500  -999.2500  -999.2500  -999.2500   -77.3140     9.3490   -40.9560   108.9780     5.7780     5.1510     4.8990   -96.9110   103.7370
  781.5000  -999.2500  -999.2500  -999.2500  -999.2500   -78.1810     9.3560   -40.8510   107.2360     5.5610     5.0230     4.7500   -96.7310   104.4500
  782.0000  -999.2500  -999.2500  -999.2500  -999.2500   -79.0480     9.3620   -40.7530   102.3100     5.3450     4.8960     4.6320   -96.5500   104.8610
  782.5000  -999.2500  -999.2500  -999.2500  -999.2500   -79.9140     9.3510   -40.6550    99.0280     5.1270     4.9390     4.7780   -96.3690   105.3190
  783.0000  -999.2500  -999.2500  -999.2500  -999.2500   -80.7810     9.3370   -40.5580    96.8630     5.3360     4.9820     4.8990   -96.1890   105.8500
  783.5000  -999.2500  -999.2500  -999.2500  -999.2500   -81.6480     9.3220   -40.4620    94.7580     5.5480     5.0250     5.0200   -96.0080   105.5390
  784.0000  -999.2500  -999.2500  -999.2500  -999.2500   -82.5140     9.3060   -40.3670    95.1900     5.7600     5.0690     5.1410   -95.8270   104.9060
  784.5000  -999.2500  -999.2500  -999.2500  -999.2500   -83.3810     9.2900   -40.0430    97.7700     5.9480     5.1520     5.2620   -95.6470   104.2730
  785.0000  -999.2500  -999.2500  -999.2500  -999.2500   -84.2470     9.2750   -39.6900   101.9870     5.9900     5.2850     5.3500   -95.4660   103.6390
  785.5000  -999.2500  -999.2500  -999.2500  -999.2500   -91.0070     9.2690   -39.3360   105.7170     6.0320     5.4180     5.4080   -95.2860   102.8500
  786.0000  -999.2500  -999.2500  -999.2500  -999.2500  -103.3570     9.2870   -38.9830   105.7810     6.0740     5.5510     5.4660   -95.1050   102.7020
  786.5000  -999.2500  -999.2500  -999.2500  -999.2500   -95.9120     9.3040   -38.6300   106.2520     6.1160     5.7270     5.5200   -94.9240   102.5060
  787.0000  -999.2500  -999.2500  -999.2500  -999.2500   -86.0320     9.3200   -38.2780   108.6410     6.1580     5.7030     5.5480   -94.7440   102.4030
  787.5000  -999.2500  -999.2500  -999.2500  -999.2500   -76.1520     9.3350   -37.9160   111.2580     6.2230     5.6660     5.5740   -96.1400   102.3380
  788.0000  -999.2500  -999.2500  -999.2500  -999.2500   -82.5030     9.3600   -38.0610   110.0890     6.2070     5.6300     5.6010   -98.2120   102.2720
  788.5000  -999.2500  -999.2500  -999.2500  -999.2500   -91.7650     9.3980   -38.4570   106.4000     6.1700     5.5930     5.6270  -100.2850   102.2910
  789.0000  -999.2500  -999.2500  -999.2500  -999.2500  -101.0270     9.4370   -38.8570   105.0990     6.1330     5.5560     5.6530  -102.3570   102.3520
  789.5000  -999.2500  -999.2500  -999.2500  -999.2500  -104.2990     9.4750   -39.2530   106.9750     6.0960     5.5200     5.6840  -104.4300   102.4140
  790.0000  -999.2500  -999.2500  -999.2500  -999.2500  -103.6190     9.5140   -39.6110   113.2440     6.0590     5.5610     5.7340  -106.5020   102.4750
  790.5000  -999.2500  -999.2500  -999.2500  -999.2500  -102.9380     9.5080   -39.7020   116.8960     6.0030     5.6020     5.7830  -108.5750   102.5360
