~VERSION INFORMATION
 VERS.                2.0:   CWLS LOG ASCII STANDARD - VERSION 2.0
 WRAP.                 NO:   ONE LINE PER DEPTH STEP
~WELL INFORMATION
#MNEM.UNIT      DATA TYPE    INFORMATION
#----------   ------------   ------------------------------
 STRT.F         2144.5000:   START DEPTH
 STOP.F         2870.0000:   STOP DEPTH
 STEP.F            0.5000:   STEP LENGTH
 NULL.          -999.2500:   NO VALUE
 COMP. LAWRENCE ALLISON & ASSOCIATES:   COMPANY
 WELL. LAWRENCE "X" #13-21:   WELL
 FLD .        TEAPOT DOME:   FIELD
 LOC .      S21 T39N R78W:   LOCATION
 CNTY.            NATRONA:   COUNTY
 STAT.            WYOMING:   STATE
 CTRY. UNITED STATES OF AMERICA:   COUNTRY
 SRVC.      DRESSER ATLAS:   SERVICE COMPANY
 DATE.        09-FEB-1987:   LOGDATE
 API .     49025111200000:   API NUMBER
~CURVE INFORMATION
#MNEM.UNIT       API CODE    CURVE DESCRIPTION
#----------   ------------   ------------------------------
 DEPT.F                  :   
 MCAL.IN     15 280 01 00:   CALIPER FROM MICRO LOG
 MTEN.LBS    15 635 01 00:   TENSION FROM MICRO LOG
 GRR .GAPI   05 310 01 00:   GAMMA RAY FROM RES.
 R2SL.OHMM   05 120 00 00:   RESISTIVITY
~PARAMETER INFORMATION
#MNEM.UNIT          VALUE    DESCRIPTION
#----------   ------------   ------------------------------
 EKB .F         4986.0000:   Kelly bushing
 EGL .F         4974.0000:   Ground level
 EDF .F            0.0000:   Drilling floor
 EPD .F         4974.0000:   Permanent datum
 TD  .F         2852.0000:   Total depth
 DATE.        09-FEB-1987:   Date logged
 CLNT.            A2DTECH:   Client Code
 SL  . 1962' FNL & 352' FWL:   Surface Location
 DAPD.F                12:   Feet Above Permanent Datum
 DD  .F              2850:   Depth driller
 DL  .F              2852:   Depth logger
 BLI .F              2846:   Bottom log interval
 TLI .F              2150:   Top log interval
 CS1 .IN            8.625:   Casing size
 CBD1.      8.625" @ 282':   Casing driller 1
 BS1 .IN            7.875:   Bit size
 BSD1.F              2850:   Depth drilled with bit1
 DFT .        KCL POLYMER:   Type fluid in hole
 DFD .                8.9:   Density
 DFV .                 40:   Viscosity
 DFPH.                9.7:   pH
 DFL .                8.6:   Fluid loss
 MSS .           FLOWLINE:   Source of sample
 RMS .OHMM          0.287:   Rm
 MST .F                60:   Rm Meas. temp.
 RMF .OHMM          0.203:   Rmf
 MFST.F                60:   Rmf Meas. temp.
 RMC .OHMM          0.358:   Rmc
 MCST.F                60:   Rmc Meas. temp.
 MFSS.               MEAS:   Source Rmf.
 MCSS.               CALC:   Source Rmc.
 RMB .OHMM          0.154:   Rm. at BHT
 BHT .F               112:   BHT.
 TCS .HRS               7:   Time Circ. stopped
 MRT .F               112:   Maximum recorded temp.
 LUN .            HL-6274:   Logging unit number
 LUL .           GILLETTE:   Logging unit location
 ENGI.             RAUTIO:   Recorded By
 WITN.             STRONG:   Witnessed by
 ORIG.           5" PRINT:   Origin of data
 UWI .     49025111200000:   Unique Well ID
 DICO. A2D TECHNOLOGIES, INC.:   Digitizing Company
~OTHER INFORMATION
~A  DEPT      MCAL       MTEN        GRR       R2SL   
# ...
 2363.5000     8.0600   -61.2370    80.7740     9.7470
 2364.0000     8.0590   -62.9820    80.6520     9.8300
 2364.5000     8.0570   -64.7280    81.2830     9.8300
 2365.0000     8.0560   -66.4730    82.2490     8.8310
 2365.5000     8.0540   -68.2190    84.5300     7.7290
 2366.0000     8.0510   -69.9640    84.3890     7.4400
 2366.5000     8.0480   -71.7100    81.5950     7.9980
 2367.0000     8.0440   -73.4550    78.8100     8.4850
 2367.5000     8.0410   -75.2010    76.2470     8.9720
 2368.0000     8.0380   -76.9460    75.7270     9.4590
 2368.5000     8.0350   -78.6920    75.7090     9.6890
 2369.0000     8.0310   -80.4370    75.6760     9.7390
 2369.5000     8.0280   -82.1830    74.5140     9.6120
 2370.0000     8.0250   -83.9280    72.6980     9.4890
 2370.5000     8.0220   -85.6740    76.6560     9.0530
 2371.0000     8.0190   -87.4190    82.2610     8.5660
 2371.5000     8.0150   -89.1650    87.9070     8.0800
 2372.0000     8.0110   -90.9100    90.0940     7.5930
 2372.5000     8.0070   -92.6560    91.5320     7.2280
 2373.0000     8.0020   -92.5740    91.7760     7.9830
 2373.5000     7.9980   -91.6620    90.5480     8.7040
 2374.0000     7.9930   -90.7500    88.7110     8.9160
 2374.5000     7.9890   -89.8380    87.6480     8.9590
 2375.0000     7.9840   -88.9270    87.4480     8.1640
 2375.5000     7.9800   -88.0150    86.6100     8.6380
 2376.0000     7.9750   -87.1030    82.8360     9.1110
 2376.5000     7.9660   -86.1920    78.2360     9.5600
 2377.0000     7.9560   -85.2800    76.4260     9.9290
 2377.5000     7.9460   -84.3680    77.4150    10.2980
 2378.0000     7.9360   -83.4570    82.2490    10.5600
 2378.5000     7.9260   -82.5450    87.3620     9.4450
 2379.0000     7.9160   -81.6330    92.5500     8.3840
 2379.5000     7.9050   -80.7210    94.6450     8.0140
 2380.0000     7.8950   -79.8100    90.9870     8.4810
 2380.5000     7.8850   -78.8980    86.6940     9.2160
 2381.0000     7.8750   -77.9860    82.6020     9.9220
 2381.5000     7.8650   -77.0750    81.5830     9.6170
 2382.0000     7.8540   -76.1630    81.3460     8.9550
 2382.5000     7.8520   -75.2510    82.7950     8.0890
 2383.0000     7.8510   -74.3400    84.4800     8.3760
 2383.5000     7.8500   -73.4280    84.8420     9.2980
 2384.0000     7.8480   -71.9780    84.3830     9.5600
 2384.5000     7.8470   -69.6570    87.1090     9.4040
 2385.0000     7.8450   -67.3370    90.5520     8.4730
 2385.5000     7.8440   -65.0160    90.6540     8.7940
 2386.0000     7.8420   -62.8140    86.2680    10.6460
 2386.5000     7.8410   -68.6300    82.2270    12.0580
 2387.0000     7.8400   -75.4370    81.6440    11.5320
 2387.5000     7.8380   -82.9150    83.8910    10.2830
 2388.0000     7.8370   -82.5500    90.4310     9.0330
 2388.5000     7.8350   -79.3590    96.3990     7.7830
 2389.0000     7.8340   -76.1680    97.4470     7.4080
 2389.5000     7.8320   -72.8640    92.9340     7.3030
 2390.0000     7.8310   -73.2610    89.3680     7.9480
 2390.5000     7.8300   -73.6710    85.8350     8.8760
 2391.0000     7.8280   -74.0820    84.3750     8.5760
 2391.5000     7.8270   -74.4930    85.2850     8.1290
 2392.0000     7.8250   -74.9040    84.3460     8.3920
 2392.5000     7.8240   -75.3150    83.3950     8.7130
 2393.0000     7.8220   -75.7250    83.9000     8.7130
 2393.5000     7.8210   -76.1360    87.1530     7.6650
 2394.0000     7.8200   -76.5470    91.1370     7.1620
 2394.5000     7.8180   -76.9580    94.5820     6.9080
 2395.0000     7.8170   -77.3690    93.0520     7.3650
 2395.5000     7.8150   -77.7790    89.5230     8.0750
 2396.0000     7.8140   -78.1900    84.7040     8.7940
 2396.5000     7.8160   -78.6010    85.1900     8.2350
 2397.0000     7.8180   -79.0120    92.7750     7.4340
 2397.5000     7.8210   -79.4230    98.3650     6.9330
 2398.0000     7.8240   -79.8340   100.1800     6.8440
 2398.5000     7.8260   -80.2440   101.1090     6.4920
 2399.0000     7.8290   -80.6550   101.2910     6.1790
 2399.5000     7.8320   -81.0660    99.2370     6.1790
 2400.0000     7.8350   -81.4770    97.2150     6.0690
 2400.5000     7.8370   -81.8880    95.1820     5.6810
 2401.0000     7.8400   -82.2980    95.2890     5.1700
 2401.5000     7.8430   -82.7090    97.3850     4.6590
 2402.0000     7.8450   -83.1200    99.4720     4.2020
 2402.5000     7.8480   -83.5310   101.5670     4.1070
 2403.0000     7.8510   -83.9420   103.6440     4.1480
 2403.5000     7.8530   -84.3520   105.5850     4.1840
 2404.0000     7.8560   -84.7630   105.1780     4.1600
 2404.5000     7.8590   -85.1740   104.0870     4.1290
 2405.0000     7.8610   -85.5850   103.0470     4.0990
 2405.5000     7.8640   -85.9960   103.0930     4.0690
 2406.0000     7.8670   -86.4060   103.1810     4.1410
 2406.5000     7.8690   -86.8170   103.2660     4.2110
 2407.0000     7.8720   -87.2280   103.3460     4.2620
 2407.5000     7.8750   -87.6390   103.4430     4.1750
 2408.0000     7.8780   -88.0500   104.1140     4.0690
 2408.5000     7.8800   -88.4610   104.6000     4.1030
 2409.0000     7.8830   -88.8710   104.0070     4.1510
 2409.5000     7.8860   -89.2820   102.8210     4.1840
 2410.0000     7.8880   -89.6930   101.3500     4.1520
 2410.5000     7.8910   -90.1040   101.7360     4.1450
 2411.0000     7.8940   -90.5150   103.9220     4.1450
 2411.5000     7.8950   -90.9250   105.4350     4.2380
 2412.0000     7.8970   -91.3360   105.0690     4.3580
 2412.5000     7.8990   -91.7470   102.4750     4.3830
 2413.0000     7.9000   -92.1580    99.9370     4.3830
 2413.5000     7.9020   -92.5690    99.6820     4.1830
 2414.0000     7.9030   -92.9650   100.0020     3.9570
 2414.5000     7.9050   -88.6660   100.8800     3.9920
 2415.0000     7.9070   -84.5140   102.7010     4.0720
 2415.5000     7.9080   -80.3630   102.2450     4.1450
 2416.0000     7.9100   -76.2120   101.3540     4.0540
 2416.5000     7.9110   -72.0600   101.1000     3.9480
 2417.0000     7.9130   -67.9090   103.5650     3.8130
 2417.5000     7.9150   -63.7580   105.9880     3.8790
 2418.0000     7.9160   -59.6060   108.4020     3.9710
 2418.5000     7.9180   -55.4550   110.4920     4.0310
 2419.0000     7.9190   -53.6160   108.1330     4.0310
 2419.5000     7.9210   -56.0370   104.0190     4.0310
 2420.0000     7.9230   -58.4590   101.3970     4.0310
 2420.5000     7.9240   -60.8810   100.6310     4.0680
 2421.0000     7.9260   -63.3020   100.6050     4.2580
 2421.5000     7.9270   -65.7240   100.6280     4.4490
 2422.0000     7.9290   -68.1450   101.8630     4.6340
 2422.5000     7.9310   -70.5670   103.2200     4.5610
 2423.0000     7.9320   -72.8640   104.5600     4.3930
 2423.5000     7.9340   -69.9740   104.4940     4.3020
 2424.0000     7.9350   -67.2250   104.3550     4.3420
 2424.5000     7.9370   -64.4760   104.2150     4.2680
 2425.0000     7.9390   -61.7280   104.1920     4.1130
 2425.5000     7.9400   -58.9790   105.0050     3.9590
 2426.0000     7.9420   -56.2300   106.9300     3.7610
 2426.5000     7.9430   -53.4810   108.8500     3.5070
 2427.0000     7.9450   -54.3980   110.7610     3.4820
 2427.5000     7.9470   -56.6090   111.8380     3.4550
 2428.0000     7.9480   -58.8200   111.8340     3.4280
 2428.5000     7.9500   -61.0310   111.8380     3.3510
 2429.0000     7.9510   -63.2420   111.9250     3.3000
 2429.5000     7.9530   -65.4530   113.5370     3.2400
 2430.0000     7.9550   -67.6640   115.1180     3.1250
 2430.5000     7.9560   -69.8750   116.6950     3.0100
 2431.0000     7.9580   -72.0870   117.4490     2.8590
 2431.5000     7.9600   -69.8680   117.4560     2.8670
 2432.0000     7.9610   -65.2440   116.3670     2.8840
 2432.5000     7.9630   -60.6210   114.3120     2.9010
 2433.0000     7.9640   -55.9980   113.3540     2.9130
 2433.5000     7.9660   -51.3750   116.5990     2.7810
 2434.0000     7.9680   -46.7520   120.4910     2.7240
 2434.5000     7.9690   -42.7510   119.0830     2.6610
 2435.0000     7.9710   -43.0440   117.4350     2.5980
 2435.5000     7.9720   -43.3360   116.6900     2.5820
 2436.0000     7.9740   -43.6290   117.7990     2.6980
