~VERSION INFORMATION
 VERS.                2.0:   CWLS LOG ASCII STANDARD - VERSION 2.0
 WRAP.                 NO:   ONE LINE PER DEPTH STEP
~WELL INFORMATION
#MNEM.UNIT      DATA TYPE    INFORMATION
#----------   ------------   ------------------------------
 STRT.F            0.0000:   START DEPTH
 STOP.F         1071.5000:   STOP DEPTH
 STEP.F            0.5000:   STEP LENGTH
 NULL.          -999.2500:   NO VALUE
 COMP.       FLUOR DANIEL:   COMPANY
 WELL.     FLUOR X #82-22:   WELL
 FLD .                NPR:   FIELD
 LOC .      S22 T38N R78W:   LOCATION
 CNTY.            NATRONA:   COUNTY
 STAT.            WYOMING:   STATE
 CTRY. UNITED STATES OF AMERICA:   COUNTRY
 SRVC.      WESTERN ATLAS:   SERVICE COMPANY
 DATE.        19-SEP-1994:   LOGDATE
 API .     49025226520000:   API NUMBER
~CURVE INFORMATION
#MNEM.UNIT       API CODE    CURVE DESCRIPTION
#----------   ------------   ------------------------------
 DEPT.F                  :   
 GRR .GAPI   07 310 01 00:   GAMMA RAY FROM RESISTIVITY
 TENR.LBS    07 635 01 00:   TENSION
 ILD .OHMM   07 120 46 00:   INDUCTION LOG DEEP RESISTIVITY
 ILM .OHMM   07 120 44 00:   INDUCTION LOG MEDIUM RESISTIVITY
~PARAMETER INFORMATION
#MNEM.UNIT          VALUE    DESCRIPTION
#----------   ------------   ------------------------------
 EKB .F         5288.0000:   Kelly bushing
 EGL .F         5278.0000:   Ground level
 EDF .F         5287.0000:   Drilling floor
 EPD .F         5278.0000:   Permanent datum
 TD  .F         1062.0000:   Total depth
 DATE.        19-SEP-1994:   Date logged
 CLNT.            A2DTECH:   Client Code
 SL  . 937' FNL & 347' FEL:   Surface Location
 PD  .                 GL:   Permanent Datum
 LMF .                 KB:   Log Measured From
 DMF .                 KB:   Drilling Measured From
 DAPD.F                10:   Feet Above Permanent Datum
 DD  .F              1060:   Depth driller
 DL  .F              1062:   Depth logger
 BLI .F              1054:   Bottom log interval
 CS1 .IN            9.625:   Casing size
 CBD1.       9.625" @ 77':   Casing driller 1
 CBL1.F                78:   Casing logger 1
 BS1 .IN             8.75:   Bit size
 BSD1.F              1060:   Depth drilled with bit1
 DFT .                AIR:   Type fluid in hole
 LUN .            HL 6530:   Logging unit number
 LUL .             CASPER:   Logging unit location
 ENGI.      PAT RASMUSSEN:   Recorded By
 WITN.        GARY STRONG:   Witnessed by
 ORIG.           5" PRINT:   Origin of data
 UWI .     49025226520000:   Unique Well ID
 DICO. A2D TECHNOLOGIES, INC.:   Digitizing Company
~OTHER INFORMATION
~A    DEPT      GRR      TENR        ILD        ILM   
# ...
  511.0000   138.6650   -23.6420     6.0610     6.1840
  511.5000   138.7110   -23.6420     6.0740     6.2550
  512.0000   132.5990   -23.6420     6.1220     6.3360
  512.5000   127.9510   -23.6420     6.1960     6.4180
  513.0000   125.4010   -23.6420     6.2700     6.4990
  513.5000   125.7670   -23.6420     6.3440     6.6090
  514.0000   126.6440   -23.6420     6.4280     6.5350
  514.5000   127.5250   -23.6420     6.3540     6.4200
  515.0000   128.9550   -23.6420     6.2680     6.3060
  515.5000   131.3460   -23.6420     6.1820     6.1910
  516.0000   133.8440   -23.6420     6.0970     6.1230
  516.5000   133.3750   -23.6420     6.0220     6.0970
  517.0000   129.3310   -23.6420     6.0070     6.0710
  517.5000   125.2970   -23.6420     5.9920     6.0450
  518.0000   121.4310   -23.6420     5.9770     6.0240
  518.5000   124.1590   -23.6420     5.9690     6.0240
  519.0000   127.5820   -23.6420     5.9690     6.0240
  519.5000   128.9860   -23.6420     5.9930     6.0930
  520.0000   129.4630   -23.6420     6.0830     6.1960
  520.5000   129.9180   -23.6420     6.1720     6.2980
  521.0000   129.9760   -23.6420     6.2620     6.4010
  521.5000   127.3550   -23.6420     6.3510     6.5000
  522.0000   126.3520   -23.6420     6.4410     6.5750
  522.5000   129.1890   -23.6420     6.5300     6.6510
  523.0000   132.2560   -23.6420     6.6200     6.7270
  523.5000   132.0600   -22.0170     6.6870     6.8020
  524.0000   131.2750   -20.0430     6.7240     6.8780
  524.5000   129.5320   -18.0700     6.7620     6.9530
  525.0000   127.7510   -16.0970     6.8080     7.0290
  525.5000   126.5720   -14.1230     6.9310     7.1050
  526.0000   126.2360   -14.0250     7.0550     7.1800
  526.5000   123.4460   -14.6350     7.1840     7.2560
  527.0000   120.3510   -15.2460     7.1590     7.3180
  527.5000   120.3750   -15.8570     7.1330     7.2450
  528.0000   123.7500   -16.4680     7.0830     7.1840
  528.5000   127.6890   -17.0790     6.9980     7.0770
  529.0000   129.0400   -17.6890     6.9140     6.9720
  529.5000   128.0200   -18.3000     6.8300     6.8680
  530.0000   126.9240   -18.9110     6.7450     6.7630
  530.5000   126.6670   -19.5220     6.6680     6.6710
  531.0000   126.9340   -20.1330     6.6450     6.6820
  531.5000   128.4230   -20.7440     6.6220     6.6920
  532.0000   131.2160   -21.3540     6.5990     6.7020
  532.5000   132.3950   -21.9650     6.5750     6.7110
  533.0000   128.8410   -22.5760     6.5520     6.7210
  533.5000   124.5170   -23.1870     6.5480     6.7310
  534.0000   123.1500   -22.7080     6.5480     6.7330
  534.5000   123.9100   -19.0430     6.5480     6.7330
  535.0000   125.5390   -15.3780     6.5480     6.7330
  535.5000   128.1220   -11.7130     6.5480     6.7330
  536.0000   129.0390    -8.0480     6.5480     6.7330
  536.5000   126.2200    -4.3830     6.5480     6.7400
  537.0000   123.4130    -5.9730     6.5480     6.7500
  537.5000   123.6950    -9.1800     6.5910     6.7590
  538.0000   124.5510   -12.3870     6.6280     6.7690
  538.5000   125.0590   -14.2380     6.6650     6.7790
  539.0000   125.0220   -15.2860     6.7020     6.7880
  539.5000   124.3950   -16.3330     6.7390     6.8100
  540.0000   123.8470   -17.3800     6.7760     6.8610
  540.5000   124.4010   -18.4270     6.8120     6.9120
  541.0000   126.2730   -19.4740     6.8490     6.9640
  541.5000   127.4600   -20.5210     6.8860     7.0150
  542.0000   124.0490   -21.5680     6.9220     7.0660
  542.5000   120.1490   -22.6150     6.9580     7.1180
  543.0000   119.0140   -23.6420     6.9870     6.9900
  543.5000   122.1390   -17.6060     6.8300     6.8630
  544.0000   123.9170   -11.6850     6.7010     6.7360
  544.5000   124.1150    -5.7650     6.5710     6.6080
  545.0000   125.0840     0.1550     6.4420     6.4810
  545.5000   128.4990     6.5390     6.3130     6.3540
  546.0000   130.6870    -4.5860     6.1840     6.2270
  546.5000   127.0120   -16.6590     6.0240     6.1940
  547.0000   122.9790   -28.7310     6.0360     6.1940
  547.5000   122.9670   -32.2610     6.0510     6.1940
  548.0000   127.9710   -29.8100     6.0660     6.1940
  548.5000   132.2490   -27.3590     6.0800     6.1940
  549.0000   131.1030   -24.9080     6.0600     6.1940
  549.5000   127.2550   -22.4570     6.0400     6.1940
  550.0000   123.4700   -20.0060     6.0200     6.1850
  550.5000   125.3350   -17.5550     6.0010     6.0880
  551.0000   127.1220   -15.1040     5.9810     5.9690
  551.5000   127.3930   -14.3170     5.9690     6.0100
  552.0000   126.5620   -18.3020     6.0180     6.0830
  552.5000   127.3160   -22.2880     6.1100     6.1560
  553.0000   128.9910   -26.2730     6.2140     6.2290
  553.5000   128.5340   -30.2580     6.3180     6.3290
  554.0000   125.4660   -33.0420     6.4220     6.4400
  554.5000   121.6560   -28.1850     6.5250     6.5520
  555.0000   120.1180   -23.3270     6.6210     6.6640
  555.5000   118.6750   -18.4700     6.6810     6.7750
  556.0000   120.2850   -13.6130     6.7410     6.8590
  556.5000   122.0170    -8.7560     6.7950     6.8590
  557.0000   121.5770    -3.5210     6.7950     6.8590
  557.5000   120.7820    -8.0720     6.7950     6.8590
  558.0000   123.3570   -13.0070     6.7960     6.8590
  558.5000   127.6550   -17.9410     6.7960     6.8600
  559.0000   129.4010   -22.8750     6.7630     6.8600
  559.5000   127.6860   -23.6420     6.7090     6.7910
  560.0000   124.2410   -23.6420     6.6410     6.6870
  560.5000   120.7740   -23.6420     6.5390     6.5840
  561.0000   120.2020   -23.6420     6.4370     6.4800
  561.5000   123.1870   -23.6420     6.3360     6.3760
  562.0000   127.3370   -23.6420     6.2340     6.2730
  562.5000   130.4860   -23.6420     6.1370     6.1940
  563.0000   131.9640   -23.6420     6.1930     6.2600
  563.5000   134.2280   -23.6420     6.2520     6.3130
  564.0000   136.5270   -23.6420     6.3850     6.3690
  564.5000   136.7580   -23.6420     6.5300     6.5390
  565.0000   133.6720   -23.6420     6.6760     6.7200
  565.5000   130.1820   -23.6420     6.8040     6.9000
  566.0000   129.3620   -23.6420     6.9200     7.0810
  566.5000   129.1610   -23.6420     7.0360     7.2620
  567.0000   127.9560   -23.6420     7.1520     7.4380
  567.5000   125.3450   -23.6420     7.2590     7.6060
  568.0000   122.7810   -23.6420     7.3170     7.8090
  568.5000   120.7230   -23.6420     7.3860     7.6470
  569.0000   121.3870   -23.6420     7.3050     7.4420
  569.5000   122.4500   -23.6420     7.1690     7.2370
  570.0000   121.8780   -23.6420     6.9900     7.0520
  570.5000   120.9050   -23.6420     6.8100     6.8380
  571.0000   121.9140   -23.6420     6.6310     6.6420
  571.5000   123.8440   -23.6420     6.4520     6.4460
  572.0000   125.7840   -18.4440     6.2730     6.2970
  572.5000   127.4520    -9.8090     6.1370     6.1370
  573.0000   127.3570    -1.1740     6.1610     6.1670
  573.5000   126.4880     5.2370     6.1810     6.2120
  574.0000   125.6430    -6.9530     6.2310     6.2700
  574.5000   123.2840   -19.1440     6.3410     6.4050
  575.0000   120.7680   -31.3350     6.4510     6.5410
  575.5000   119.2420   -28.6420     6.5620     6.6770
  576.0000   120.2250   -22.3610     6.6720     6.8140
  576.5000   119.3130   -16.0810     6.7830     6.8590
  577.0000   117.0860    -9.8010     6.8640     6.8590
  577.5000   115.0180    -3.5210     6.8790     6.8590
  578.0000   116.3540     2.7590     6.8950     6.8590
  578.5000   119.4760     1.3830     6.9110     6.8590
  579.0000   120.7320   -11.5690     6.9360     6.8570
  579.5000   123.1510   -24.5220     6.9920     6.9840
  580.0000   126.0550   -33.4030     7.0480     7.0720
  580.5000   126.9900   -32.3770     7.1040     7.1600
  581.0000   124.2110   -31.3510     7.1840     7.2510
  581.5000   121.1680   -30.3260     7.1430     7.2510
  582.0000   119.3110   -29.3000     7.0720     7.2510
  582.5000   118.0650   -28.2740     7.0000     7.1110
  583.0000   122.1470   -27.2480     6.9290     6.9420
  583.5000   129.3120   -26.2220     6.8570     6.8750
