~VERSION INFORMATION
 VERS.                2.0:   CWLS LOG ASCII STANDARD - VERSION 2.0
 WRAP.                 NO:   ONE LINE PER DEPTH STEP
~WELL INFORMATION
#MNEM.UNIT      DATA TYPE    INFORMATION
#----------   ------------   ------------------------------
 STRT.F          200.0000:   START DEPTH
 STOP.F         3124.0000:   STOP DEPTH
 STEP.F            0.5000:   STEP LENGTH
 NULL.          -999.2500:   NO VALUE
 COMP.    FENIX & SCISSON:   COMPANY
 WELL. FENIX SCISSON #18-27:   WELL
 FLD .                NPR:   FIELD
 LOC .      S27 T39N R78W:   LOCATION
 CNTY.            NATRONA:   COUNTY
 STAT.            WYOMING:   STATE
 CTRY. UNITED STATES OF AMERICA:   COUNTRY
 SRVC.              WELEX:   SERVICE COMPANY
 DATE.        26-SEP-1977:   LOGDATE
 API .     49025104210000:   API NUMBER
~CURVE INFORMATION
#MNEM.UNIT       API CODE    CURVE DESCRIPTION
#----------   ------------   ------------------------------
 DEPT.F                  :   
 CALD.IN     45 280 60 00:   CALIPER FROM DENSITY LOG
 GRD .GAPI   45 310 01 00:   GAMMA RAY FROM DENSITY LOG
 RHOB.G/C3   45 350 01 00:   BULK DENSITY
 CORR.G/C3   45 356 01 00:   DENSITY CORRECTION
 NPHI.DEC    42 890 03 00:   NEUTRON POROSITY SANDSTONE
 SPR .MV     07 010 01 00:   SPONTANEOUS POTENTIAL
 GURD.OHMM   07 220 05 00:   GUARD LOG RESISTIVITY
 ILD .OHMM   07 120 46 00:   DEEP INDUCTION RESISTIVITY
 ILM .OHMM   07 120 44 00:   INDUCTION LOG MEDIUM RESISTIVITY
 TENR.LBS    07 635 01 00:   TENSION FROM RESISTIVITY
~PARAMETER INFORMATION
#MNEM.UNIT          VALUE    DESCRIPTION
#----------   ------------   ------------------------------
 EKB .F         5080.0000:   Kelly bushing
 EGL .F         5070.0000:   Ground level
 EDF .F            0.0000:   Drilling floor
 EPD .F            0.0000:   Permanent datum
 TD  .F         3117.0000:   Total depth
 DATE.        26-SEP-1977:   Date logged
 CLNT.            A2DTECH:   Client Code
 SL  . 330' FSL & 1650' FWL:   Surface Location
 PD  .                 GL:   Permanent Datum
 DAPD.F                10:   Feet Above Permanent Datum
 DD  .F              3115:   Depth driller
 DL  .F              3117:   Depth logger
 BLI .F              3115:   Bottom log interval
 TLI .F               200:   Top log interval
 CS1 .IN            8.625:   Casing size
 CBD1.      8.625" @ 219':   Casing driller 1
 CBL1.F               220:   Casing logger 1
 BS1 .IN            7.875:   Bit size
 BSD1.F              3115:   Depth drilled with bit1
 DFT .            KCL MUD:   Type fluid in hole
 DFD .                9.1:   Density
 DFV .                 35:   Viscosity
 DFPH.                 11:   pH
 DFL .               17.2:   Fluid loss
 MSS .           FLOWLINE:   Source of sample
 RMS .OHMM            .59:   Rm
 MST .F                98:   Rm Meas. temp.
 RMF .OHMM            .56:   Rmf
 MFST.F                98:   Rmf Meas. temp.
 RMC .OHMM            .24:   Rmc
 MCST.F                98:   Rmc Meas. temp.
 MFSS.               MEAS:   Source Rmf.
 MCSS.               MEAS:   Source Rmc.
 RMB .OHMM            .48:   Rm. at BHT
 BHT .F               116:   BHT.
 TCS .HRS               4:   Time Circ. stopped
 MRT .F               116:   Maximum recorded temp.
 LUN .               8611:   Logging unit number
 LUL .             CASPER:   Logging unit location
 ENGI.            C. DOAK:   Recorded By
 WITN.         PETTINGILL:   Witnessed by
 ORIG.           5" PRINT:   Origin of data
 UWI .     49025104210000:   Unique Well ID
 DICO. A2D TECHNOLOGIES, INC.:   Digitizing Company
~OTHER INFORMATION
~A   DEPT     CALD        GRD       RHOB       CORR         NPHI      SPR       GURD        ILD        ILM        TENR  
# ...
  970.5000     8.9775    97.4311     2.4973     0.0456     0.3004   -65.9017     8.5292     6.5367     7.5942   465.8130
  971.0000     8.9785    96.3459     2.4973     0.0436     0.3020   -65.9032     8.5287     6.3036     7.5240   465.8682
  971.5000     8.9795    99.0254     2.4904     0.0401     0.3131   -65.9047     9.6080     6.2421     7.5232   465.9123
  972.0000     8.9805   100.0205     2.4884     0.0358     0.3151   -65.9062     9.8755     6.2415     7.5224   465.9785
  972.5000     8.9815   102.1049     2.4845     0.0339     0.3151   -65.9077     9.8746     6.2984     7.5217   485.9822
  973.0000     8.9825   101.7129     2.4795     0.0279     0.3151   -65.9092     9.8738     6.4144     7.5209   476.0632
  973.5000     8.9835    98.4512     2.4756     0.0280     0.3151   -65.7136     9.7824     6.4728     7.5897   476.1185
  974.0000     8.9843    97.0699     2.4756     0.0280     0.3131   -65.7151     9.7814     6.6528     7.6590   476.1738
  974.5000     8.9849    96.7749     2.4766     0.0281     0.3115   -65.7166     9.7805     6.8378     7.7288   466.2433
  975.0000     8.9853    96.7819     2.4786     0.0261     0.3092   -65.7181     9.7795     6.9640     7.7994   466.2985
  975.5000     8.9858    98.4712     2.4806     0.0275     0.3072   -65.5222    10.1441     7.0920     7.8705   466.3544
  976.0000     9.0061    99.8614     2.4816     0.0262     0.3084   -65.5237    10.8163     7.4244     8.3157   476.3845
  976.5000     9.0066   101.3507     2.4817     0.0243     0.3135   -65.5252    10.4254     7.8438     8.4691   476.4398
  977.0000     9.0071   108.4851     2.4817     0.0263     0.3147   -65.5268    10.4244     8.1363     8.6252   476.4951
  977.5000     9.0076   110.4694     2.4797     0.0244     0.3187   -65.5283    10.4234     8.2862     8.6244   466.5751
  978.0000     9.0081    99.4853     2.4758     0.0224     0.3187   -64.9384    10.3271     8.2855     8.6237   476.6056
  978.5000     8.9690    99.0942     2.4728     0.0165     0.3163   -65.7284    10.4213     8.0852     8.7022   466.6855
  979.0000     8.9695   100.3865     2.4688     0.0086     0.3123   -65.5328    10.6133     7.8649     8.7015   466.7406
  979.5000     8.9699   106.9277     2.4589     0.0046     0.3092   -65.5344    10.7101     7.2400     8.7005   466.7958
  980.0000     8.9704   103.3660     2.4619     0.0027     0.3068   -65.9301    10.7090     6.8510     8.3855   476.8268
  980.5000     9.0105   100.7965     2.4689     0.0047     0.3056   -65.5374    10.7080     6.6031     8.0823   476.8821
  981.0000     9.0110   100.9986     2.4689     0.0068     0.3187   -65.3418    10.6091     6.9766     7.9343   476.9373
  981.5000     9.0115   108.1359     2.4689     0.0048     0.3223   -65.3434    10.1323     7.3713     7.7890   467.0055
  982.0000     9.0120   110.7124     2.4699     0.0009     0.3243   -65.1478    10.1313     7.3705     7.7170   477.0479
  982.5000     9.0125   113.2919     2.4700     0.0069     0.3235   -65.3464    10.2237     7.1694     7.9316   477.1032
  983.0000     9.0130   112.1076     2.4730     0.0089     0.3195   -65.3479    10.2226     7.2348     7.7612   477.1585
  983.5000     9.0135   102.0147     2.4790     0.0110     0.3163   -65.3495    10.2216     8.0035     7.9787   467.2373
  984.0000     9.0140   101.2256     2.4810     0.0110     0.3151   -65.3510    10.7995     7.0367     8.2728   477.2691
  984.5000     9.0145   106.3805     2.4800     0.0210     0.3147   -65.5496    10.6996     7.1967     9.2246   477.3133
  985.0000     9.0150   107.9698     2.4800     0.0211     0.3143   -65.5511    10.6985     7.1663    11.5449   477.3686
  985.5000     9.0155   108.1718     2.4840     0.0231     0.3107   -65.5526    30.7420     7.0129    32.6650   467.4478
  986.0000     9.0160   105.2073     2.4920     0.0311     0.3020   -65.3571    33.6950     6.9481    20.6293   467.5030
  986.5000     9.0165   102.2407     2.4930     0.0311     0.2996   -65.5556    15.7265     7.0115     9.1610   467.5582
  987.0000     9.0170    97.0007     2.4930     0.0312     0.2988   -65.5572    12.8495     7.0754     8.0897   467.6134
  987.5000     9.0175    95.8174     2.4930     0.0332     0.2976   -65.5587    10.8913     7.1399     7.9787   477.6459
  988.0000     9.0180   107.2076     2.4901     0.0313     0.2976   -65.5602    10.3067     7.1392     7.8692   477.7012
  988.5000     9.0185   112.3606     2.4861     0.0293     0.2976   -65.5617    10.2115     7.1384     7.8692   477.7565
  989.0000     9.0190   113.7518     2.4851     0.0294     0.2984   -65.5632    10.2105     7.2699     7.8150   477.8118
  989.5000     9.0195   113.9549     2.4852     0.0294     0.2984   -65.5648    10.1162     7.4039     7.8150   467.8673
  990.0000     9.0200   102.2766     2.4832     0.0275     0.2996   -65.1723    10.1152     7.6100     7.8150   457.9669
  990.5000     9.0205   103.2718     2.4733     0.0235     0.3016   -65.7648    10.1142     7.8938     7.8150   468.0109
  991.0000     9.0210   108.8219     2.4683     0.0196     0.3020   -65.7663    10.2064     8.1134     7.8692   468.0550
  991.5000     9.0214   106.6484     2.4693     0.0216     0.3036   -65.7678    10.0198     8.1876     7.9787   468.1103
  992.0000     9.0219   103.0887     2.4793     0.0257     0.3012   -65.3754    10.0188     8.1866     8.0897   468.1655
  992.5000     9.0224    98.6389     2.4823     0.0257     0.2984   -65.5739    10.2973     8.1857     8.7285   478.1989
  993.0000     9.0229    93.9900     2.4833     0.0257     0.2976   -65.5754    10.2965     8.1851    13.4595   478.2542
  993.5000     9.0234    94.7871     2.4813     0.0238     0.2976   -65.7739    24.4023     7.8890    24.2690   468.3201
  994.0000     9.0239    99.0499     2.4784     0.0278     0.3000   -65.5784    10.6791     7.4655    15.5203   468.3753
  994.5000     8.9850   100.5402     2.4784     0.0259     0.3044   -65.7769    10.2936     7.0646     9.6150   468.4305
  995.0000     8.9852   103.5148     2.4764     0.0259     0.3107   -65.7785     9.9215     6.9994     9.3354   468.4857
  995.5000     8.9855   105.5001     2.4774     0.0240     0.3147   -65.7800     9.9205     7.1283     8.9151   468.5409
  996.0000     8.9861   108.2777     2.4784     0.0260     0.3151   -65.7815     9.9195     7.3942     8.7518   468.5961
  996.5000     8.9868   109.2738     2.4785     0.0281     0.3084   -65.7830     9.9185     7.7408     8.5916   468.6514
  997.0000     8.9870   105.9102     2.4755     0.0301     0.2972   -65.9824    10.1013     8.0554     8.5907   468.7066
  997.5000     8.9878   101.5613     2.4755     0.0282     0.2968   -65.9830    10.5748     8.2798     8.7492   468.7618
  998.0000     8.9883   102.5555     2.4755     0.0262     0.2948   -65.9845    10.6715     8.3554     9.8588   468.8170
  998.5000     8.9887   104.3409     2.4756     0.0243     0.2928   -65.9860    10.2855     8.3545     9.8578   468.8723
  999.0000     8.9893   104.5439     2.4806     0.0263     0.2920   -65.7906    10.0051     8.2773     9.5888   468.9275
  999.5000     8.9865     0.0064     2.4925     0.0303     0.2920   -65.7921    10.2837     7.9777     8.9905   468.9827
 1000.0000     8.9838    98.8719     2.4935     0.0204     0.2912   -65.7936    10.2824     7.6889     8.3510   469.0379
 1000.5000     8.9810   132.7972     2.4915     0.0361     0.2920   -65.7953    10.9552     7.3788     8.3495   469.0954
 1001.0000     8.9802   109.7148     2.4876     0.0344     0.2920   -65.8098    13.1666     7.0744     8.3471   479.5130
 1001.5000     8.9794   109.7196     2.4846     0.0324     0.2932   -65.8182    10.4639     7.0076     8.3446   479.7667
 1002.0000     8.9786   108.1425     2.4757     0.0246     0.2952   -65.4329    10.1767     6.9414     8.3421   470.0412
 1002.5000     8.9778   107.3552     2.4847     0.0246     0.2960   -65.6383    10.1737     6.9393     8.3396   470.2948
 1003.0000     8.9769   110.1324     2.4877     0.0246     0.2941   -65.8437    10.3580     7.0442     8.3372   470.5484
 1003.5000     8.9761   106.7762     2.4927     0.0287     0.2945   -65.8521    10.3556     7.1071     8.3347   470.8020
