~VERSION INFORMATION
 VERS.                2.0:   CWLS LOG ASCII STANDARD - VERSION 2.0
 WRAP.                 NO:   ONE LINE PER DEPTH STEP
~WELL INFORMATION
#MNEM.UNIT      DATA TYPE    INFORMATION
#----------   ------------   ------------------------------
 STRT.F           40.0000:   START DEPTH
 STOP.F         3326.0000:   STOP DEPTH
 STEP.F            0.5000:   STEP LENGTH
 NULL.          -999.2500:   NO VALUE
 COMP.    FENIX & SCISSON:   COMPANY
 WELL.  FENIX "AX" #53-15:   WELL
 FLD .              NPR-3:   FIELD
 LOC .      S15 T38N R78W:   LOCATION
 CNTY.            NATRONA:   COUNTY
 STAT.            WYOMING:   STATE
 CTRY. UNITED STATES OF AMERICA:   COUNTRY
 SRVC.              WELEX:   SERVICE COMPANY
 DATE.        02-MAR-1977:   LOGDATE
 API .     49025102640000:   API NUMBER
~CURVE INFORMATION
#MNEM.UNIT       API CODE    CURVE DESCRIPTION
#----------   ------------   ------------------------------
 DEPT.F                  :   
 CALD.IN     42 280 60 00:   CALIPER
 TEND.LBS    42 635 01 00:   TENSION FROM NEUTRON POROSITY LOG
 GRD .GAPI   42 310 30 00:   GAMMA RAY
 NPHI.DEC    42 890 03 00:   NEUTRON POROSITY SANDSTONE
 DPHI.DEC    45 890 12 00:   DENSITY POROSITY SANDSTONE
 SPR .MV     07 010 01 00:   SPONTANEOUS POTENTIAL
 ILD .OHMM   07 120 46 00:   DEEP INDUCTION RESISTIVITY
 ILM .OHMM   07 120 44 00:   INDUCTION LOG MEDIUM RESISTIVITY
 SGRD.OHMM   07 220 05 00:   SHALLOW SHORT GUARD RESISTIVITY
~PARAMETER INFORMATION
#MNEM.UNIT          VALUE    DESCRIPTION
#----------   ------------   ------------------------------
 EKB .F            0.0000:   Kelly bushing
 EGL .F         5251.0000:   Ground level
 EDF .F            0.0000:   Drilling floor
 TD  .F          750.0000:   Total depth
 DATE.        02-MAR-1977:   Date logged
 CLNT.            A2DTECH:   Client Code
 SL  . 1650' FNL & 2360' FEL:   Surface Location
 PD  .                 GL:   Permanent Datum
 EPD .F              5253:   Elevation Permanent Datum
 LMF .                 GL:   Log Measured From
 DMF .                 GL:   Drilling Measured From
 DD  .F               750:   Depth driller
 DL  .F               747:   Depth logger
 BLI .F               745:   Bottom log interval
 CS1 .IN            8.625:   Casing size
 CBD1.       8.625" @ 40':   Casing driller 1
 CBL1.F                44:   Casing logger 1
 BS1 .IN            7.875:   Bit size
 BSD1.F               750:   Depth drilled with bit1
 DFT .           CHEM-GEL:   Type fluid in hole
 MSS .           FLOWLINE:   Source of sample
 RMS .OHMM          0.425:   Rm
 MST .F                56:   Rm Meas. temp.
 RMF .OHMM          0.466:   Rmf
 MFST.F                56:   Rmf Meas. temp.
 RMC .OHMM          0.712:   Rmc
 MCST.F                56:   Rmc Meas. temp.
 MFSS.               MEAS:   Source Rmf.
 MCSS.               MEAS:   Source Rmc.
 RMB .OHMM          0.350:   Rm. at BHT
 BHT .F                68:   BHT.
 TCS .HRS               2:   Time Circ. stopped
 MRT .F                68:   Maximum recorded temp.
 LUN .               8611:   Logging unit number
 LUL .            GILLETH:   Logging unit location
 ENGI.          D. LAWSON:   Recorded By
 WITN.           S. BURKL:   Witnessed by
 ORIG.           5" PRINT:   Origin of data
 UWI .     49025102640000:   Unique Well ID
 DICO. A2D TECHNOLOGIES, INC.:   Digitizing Company
~OTHER INFORMATION
~A   DEPT     CALD       TEND         GRD        NPHI     DPHI        SPR        ILD        ILM       SGRD   
# ...
  259.0000    12.4290    53.6200    88.7960     0.3120     0.1040   -28.9500     8.0420     9.8230    12.0510
  259.5000    12.2570    52.2980    91.3430     0.3090     0.1130   -28.9650     8.0280     9.8230    11.9050
  260.0000    12.2220    50.9750    91.9360     0.3130     0.1160   -28.9800     8.0280     9.8230    11.6070
  260.5000    12.1570    49.6530    90.7320     0.3020     0.1050   -28.9950     8.0280     9.8230    11.4810
  261.0000    12.0760    48.3310    89.5030     0.2970     0.1120   -29.0110     8.2220     9.8230    11.6370
  261.5000    11.9960    47.0080    88.8730     0.3000     0.1240   -29.0260     8.4730     9.8240    11.8020
  262.0000    11.9120    45.6860    90.1790     0.3100     0.1360   -29.0410     8.7240     9.8250    11.6500
  262.5000    11.8900    49.4510    95.5680     0.3200     0.1160   -29.0420     8.9750     9.8310    11.4810
  263.0000    11.9530    59.5000    96.1260     0.3270     0.1000   -29.0420     9.2270     9.8150    12.4500
  263.5000    12.0410    62.3710    95.1030     0.3330     0.0900   -29.0420     9.4780    10.2620    13.2970
  264.0000    12.1300    56.7880    90.6460     0.3330     0.0910   -29.0420     9.9140    10.7770    12.8170
  264.5000    12.1900    51.2040    90.7380     0.3250     0.0960   -29.0420    10.0050    11.2920    12.9790
  265.0000    12.1830    45.6210    88.8410     0.3070     0.0910   -29.0420     9.5950    11.8070    13.2850
  265.5000    12.1680    40.0380    91.0690     0.3090     0.0900   -29.0420     9.2120    12.3210    13.5910
  266.0000    12.0590    34.9650    93.3180     0.3180     0.0850   -29.0420     9.2120    12.4700    13.8970
  266.5000    11.9130    37.6840    93.1800     0.3290     0.0760   -29.0420     9.6100    12.2380    14.1780
  267.0000    11.7710    40.7290    93.0820     0.3320     0.0820   -29.0420     9.8230    11.9830    14.1780
  267.5000    11.6470    43.7740    93.5830     0.3270     0.0950   -29.0420     9.8230    11.8020    13.9480
  268.0000    11.6410    46.8200    96.1990     0.3300     0.1020   -29.0420     9.7350    12.1560    13.6900
  268.5000    11.6420    49.8650    94.3160     0.3380     0.1040   -29.0420     9.6060    13.2970    13.4320
  269.0000    11.9460    52.9110    95.8970     0.3440     0.0980   -29.0420     9.4770    13.2970    13.1750
  269.5000    12.2850    54.0180    92.5630     0.3410     0.0960   -29.0420     9.3830    13.0440    12.9360
  270.0000    12.3420    51.2270    89.3170     0.3360     0.0990   -29.0420     9.3830    12.8450    13.0980
  270.5000    12.1620    48.4350    92.1140     0.3320     0.0860   -29.0420     9.5450    12.7000    13.2260
  271.0000    12.2670    45.6430    87.7370     0.3370     0.0840   -29.0420     9.7330    12.7000    13.2970
  271.5000    12.3840    71.9990    87.9090     0.3330     0.0800   -29.0420     9.9140    12.7000    13.2310
  272.0000    12.5000    94.9050    89.4920     0.3380     0.0820   -29.0420     9.8240    12.0870    13.0830
  272.5000    12.6080    44.7850    89.7830     0.3430     0.0810   -29.0420     9.6190    11.3590    12.9340
  273.0000    12.6190    43.7800    87.2210     0.3320     0.0820   -29.0420     9.4140    10.6300    12.7860
  273.5000    12.6280    42.7750    88.8020     0.2970     0.0770   -29.0420     9.2120     9.9140    12.7000
  274.0000    12.6750    41.7700    90.5070     0.2980     0.0870   -29.0420     9.1960     9.8950    12.8170
  274.5000    12.8560    40.7650    86.6960     0.2880     0.0810   -29.0420     9.1570     9.8230    12.8170
  275.0000    13.0320    39.7600    85.4160     0.2980     0.0770   -29.0420     9.1180    10.2410    12.6800
  275.5000    13.1860    38.7550    89.4830     0.3180     0.0970   -29.0420     9.0780    10.6560    12.3390
  276.0000    13.1350    37.7500    92.7840     0.3410     0.1250   -29.0420     9.0390    11.0710    11.9110
  276.5000    12.6970    36.7450    93.4810     0.3330     0.1140   -29.0420     9.0000    11.4860    12.5130
  277.0000    12.2250    35.7400    91.0510     0.3210     0.0980   -29.0420     8.9610    11.9110    13.0200
  277.5000    11.7500    42.6240    88.2170     0.3260     0.1060   -29.0420     8.9210    11.9110    13.5430
  278.0000    11.7110    74.9250    88.4160     0.3350     0.1130   -29.0420     8.8810    11.1260    12.7000
  278.5000    11.7760    70.2520    88.8960     0.3210     0.1170   -29.0420     8.8810    10.7670    12.7660
  279.0000    11.8640    64.6690    92.2170     0.3250     0.1160   -29.0420     8.7580    10.7670    12.8170
  279.5000    11.9520    59.0850    92.8130     0.3170     0.1140   -29.0420     8.6840    10.7670    12.5330
  280.0000    12.0730    54.9450    91.8980     0.3210     0.0980   -29.0430     8.6100    10.6690    12.1310
  280.5000    12.2470    54.9450    95.0500     0.3290     0.0960   -29.0570     8.5610    10.5720    12.1310
  281.0000    12.3980    54.9450    91.1170     0.3320     0.1010   -29.1100     8.4820    10.2710    12.1310
  281.5000    12.4130    54.9450    94.5200     0.3250     0.0920   -29.1620     8.3920     9.9500    12.1310
  282.0000    12.4310    54.9450    87.4260     0.3190     0.0900   -29.2130     8.2910     9.6280    12.4650
  282.5000    12.4480    54.9450    90.4920     0.3220     0.1110   -29.2640     8.1890     9.3060    13.1090
  283.0000    12.4130    54.9450    92.6960     0.3260     0.1130   -29.3160     8.0870     9.1780    13.4190
  283.5000    12.3760    54.9450    94.3150     0.3160     0.1100   -29.3670     7.9850     9.1090    12.0100
  284.0000    12.3740    54.9450    91.3560     0.3020     0.1110   -29.4180     7.8830     9.0410    10.7340
  284.5000    12.3920    54.9450    89.3220     0.3050     0.1000   -29.4690     7.8100     8.9730     9.4580
  285.0000    12.4100    54.9450    87.2650     0.3130     0.0850   -29.5200     7.7390     8.9040     8.1820
  285.5000    12.3780    54.9450    85.0370     0.3090     0.0790   -29.5720     7.6680     8.8360     6.9060
  286.0000    12.3370    54.9450    87.0350     0.3020     0.0860   -29.6300     7.7060     8.7990     6.7440
  286.5000    12.2960    54.9450    88.8870     0.3050     0.0950   -29.3540     7.7360     8.7190     7.5480
  287.0000    12.2540    54.9450    88.0710     0.3090     0.1040   -28.9300     7.7650     8.8120     9.2770
  287.5000    12.2340    54.9450    90.0840     0.3100     0.1000   -28.5040     7.7950     8.9540    10.8400
  288.0000    12.2300    54.9450    91.2930     0.3070     0.1050   -28.5880     7.8250     9.0950    11.9080
  288.5000    12.2300    54.9450    89.8820     0.2910     0.1090   -28.7500     7.8540     9.2370    13.0550
  289.0000    12.2300    54.9450    88.3190     0.2880     0.1110   -28.9140     7.8840     9.3780    12.8360
  289.5000    12.2300    54.9450    85.3340     0.2940     0.1140   -29.0790     7.9140     9.5190    12.3310
  290.0000    12.2300    54.9450    84.0950     0.2910     0.1060   -29.2440     7.9430     9.6610    12.2180
  290.5000    12.2300    54.9450    88.3730     0.2820     0.1110   -29.4090     7.9550     9.8020    12.1780
  291.0000    12.2300    54.9450    89.9710     0.2770     0.1160   -29.5760     7.9550     9.9140    12.1390
  291.5000    12.2300    54.9450    87.1660     0.2880     0.1130   -29.5620     8.0070     9.7640    12.1310
  292.0000    12.2300    54.9450    90.7410     0.2990     0.1200   -29.4400     8.0580     9.6450    11.8430
  292.5000    12.2300    54.9450    91.7330     0.3110     0.1100   -29.3170     8.1090     9.6450    11.3630
  293.0000    12.2310    54.9450    90.9340     0.3190     0.1080   -29.1940     8.1610     9.8440    11.0680
  293.5000    12.2550    54.9450    93.2030     0.3250     0.1170   -29.0700     8.2120    10.0970    10.8670
  294.0000    12.3940    54.9450    93.3790     0.3320     0.1220   -28.9460     8.2630    10.3490    11.1310
  294.5000    12.5310    54.9450    94.9110     0.3380     0.1070   -28.8220     8.3150    10.6020    11.3770
  295.0000    12.4580    54.9450    93.2720     0.3350     0.0930   -28.6980     8.3660    10.8550    11.3770
