~VERSION INFORMATION
 VERS.                2.0:   CWLS LOG ASCII STANDARD - VERSION 2.0
 WRAP.                 NO:   ONE LINE PER DEPTH STEP
~WELL INFORMATION
#MNEM.UNIT      DATA TYPE    INFORMATION
#----------   ------------   ------------------------------
 STRT.F          748.0000:   START DEPTH
 STOP.F         2734.0000:   STOP DEPTH
 STEP.F            0.5000:   STEP LENGTH
 NULL.          -999.2500:   NO VALUE
 COMP.    FENIX & SCISSON:   COMPANY
 WELL. FENIX NPR 3 "SHX" #84-4:   WELL
 FLD .             TEAPOT:   FIELD
 LOC .       S4 T38N R78W:   LOCATION
 CNTY.            NATRONA:   COUNTY
 STAT.            WYOMING:   STATE
 CTRY. UNITED STATES OF AMERICA:   COUNTRY
 SRVC.              WELEX:   SERVICE COMPANY
 DATE.        08-MAY-1980:   LOGDATE
 API .     49025108050000:   API NUMBER
~CURVE INFORMATION
#MNEM.UNIT       API CODE    CURVE DESCRIPTION
#----------   ------------   ------------------------------
 DEPT.F                  :   
 CALD.IN     45 280 60 00:   CALIPER FROM DENSITY LOG
 GRD .GAPI   45 310 01 00:   GAMMA RAY FROM DENSITY LOG
 RHOB.G/C3   45 350 01 00:   BULK DENSITY
 CORR.G/C3   45 356 01 00:   DENSITY CORRECTION
~PARAMETER INFORMATION
#MNEM.UNIT          VALUE    DESCRIPTION
#----------   ------------   ------------------------------
 EKB .F         5244.0000:   Kelly bushing
 EGL .F         5234.0000:   Ground level
 EDF .F            0.0000:   Drilling floor
 TD  .F         2733.0000:   Total depth
 DATE.        08-MAY-1980:   Date logged
 CLNT.            A2DTECH:   Client Code
 SL  . 7461' FNL & 383' FEL:   Surface Location
 PD  .                 GL:   Permanent Datum
 EPD .F              5234:   Elevation Permanent Datum
 LMF .                 KB:   Log Measured From
 DMF .                 KB:   Drilling Measured From
 DAPD.F                10:   Feet Above Permanent Datum
 DD  .F              2700:   Depth driller
 DL  .F              2733:   Depth logger
 BLI .F              2731:   Bottom log interval
 TLI .F               752:   Top log interval
 CS1 .IN            9.625:   Casing size
 CBD1.      9.625" @ 260':   Casing driller 1
 BS1 .IN              8.5:   Bit size
 BSD1.F              2700:   Depth drilled with bit1
 DFT .                AIR:   Type fluid in hole
 MRT .F               118:   Maximum recorded temp.
 LUN .                  2:   Logging unit number
 ENGI.           TORTILLE:   Recorded By
 WITN.              AMEND:   Witnessed by
 ORIG.           5" PRINT:   Origin of data
 UWI .     49025108050000:   Unique Well ID
 DICO. A2D TECHNOLOGIES, INC.:   Digitizing Company
~OTHER INFORMATION
~A   DEPT       CALD       GRD        RHOB       CORR 
# ...
 1478.0000     9.0200    82.4470     2.4760     0.0720
 1478.5000     9.0200    81.9480     2.4900     0.0810
 1479.0000     9.0200    82.6830     2.4980     0.0810
 1479.5000     9.0200    82.7700     2.5060     0.0830
 1480.0000     9.0200    82.9950     2.5050     0.0840
 1480.5000     9.0200    83.1410     2.5040     0.0890
 1481.0000     9.0200    82.7980     2.5040     0.0960
 1481.5000     9.0200    82.2240     2.5190     0.1040
 1482.0000     9.0200    81.6830     2.5320     0.0980
 1482.5000     9.0200    81.1280     2.5090     0.0920
 1483.0000     9.0200    80.7140     2.5050     0.0850
 1483.5000     9.0200    80.7300     2.4980     0.0780
 1484.0000     9.0200    81.1300     2.4820     0.0720
 1484.5000     9.0200    81.5590     2.4870     0.0660
 1485.0000     9.0200    81.8940     2.5040     0.0770
 1485.5000     9.0200    81.9110     2.5120     0.0930
 1486.0000     9.0200    81.9640     2.5160     0.0970
 1486.5000     9.0200    82.0010     2.5190     0.0980
 1487.0000     9.0200    82.0450     2.5220     0.0880
 1487.5000     9.0200    82.0890     2.5030     0.0670
 1488.0000     9.0200    82.1310     2.4690     0.0480
 1488.5000     9.0200    82.1740     2.4510     0.0260
 1489.0000     9.0200    82.2170     2.4680     0.0240
 1489.5000     9.0200    82.2600     2.4840     0.0400
 1490.0000     9.0200    82.3050     2.5050     0.0630
 1490.5000     9.0200    82.3440     2.5010     0.0740
 1491.0000     9.0200    82.3910     2.4830     0.0620
 1491.5000     9.0200    82.4340     2.4630     0.0450
 1492.0000     9.0200    82.4540     2.4680     0.0460
 1492.5000     9.0200    82.8280     2.4760     0.0500
 1493.0000     9.0200    83.6920     2.4840     0.0540
 1493.5000     9.0200    84.6040     2.4900     0.0610
 1494.0000     9.0200    84.6230     2.4870     0.0570
 1494.5000     9.0200    84.1770     2.4640     0.0480
 1495.0000     9.0200    84.1150     2.4700     0.0410
 1495.5000     9.0200    83.9960     2.4830     0.0460
 1496.0000     9.0200    83.8970     2.4920     0.0570
 1496.5000     9.0200    83.7830     2.4890     0.0570
 1497.0000     9.0200    83.6400     2.4850     0.0590
 1497.5000     9.0200    82.9710     2.4820     0.0600
 1498.0000     9.0200    82.3840     2.4810     0.0610
 1498.5000     9.0200    81.7730     2.4950     0.0630
 1499.0000     9.0200    81.3610     2.4950     0.0640
 1499.5000     9.0190    81.9240     2.4800     0.0650
 1500.0000     9.0180    82.3890     2.4720     0.0590
 1500.5000     9.0180    82.9130     2.4850     0.0540
 1501.0000     9.0170    83.4020     2.4950     0.0550
 1501.5000     9.0160    83.9110     2.5060     0.0750
 1502.0000     9.0150    84.4070     2.5070     0.0810
 1502.5000     9.0140    84.8670     2.4990     0.0720
 1503.0000     9.0130    84.9510     2.4920     0.0640
 1503.5000     9.0120    85.0690     2.4850     0.0550
 1504.0000     9.0120    85.1600     2.4780     0.0500
 1504.5000     9.0110    85.2640     2.4710     0.0460
 1505.0000     9.0100    85.3640     2.4690     0.0490
 1505.5000     9.0090    85.4640     2.4760     0.0560
 1506.0000     9.0080    85.5650     2.4910     0.0630
 1506.5000     9.0070    85.6650     2.4940     0.0650
 1507.0000     9.0060    85.7660     2.4820     0.0640
 1507.5000     9.0050    85.8650     2.4810     0.0620
 1508.0000     9.0050    85.9640     2.4840     0.0600
 1508.5000     9.0040    86.0720     2.4790     0.0580
 1509.0000     9.0030    86.0250     2.4700     0.0570
 1509.5000     9.0020    85.7370     2.4680     0.0550
 1510.0000     9.0010    85.4590     2.4720     0.0530
 1510.5000     9.0000    85.1780     2.4760     0.0490
 1511.0000     8.9990    84.8890     2.4800     0.0580
 1511.5000     8.9990    84.6180     2.4840     0.0690
 1512.0000     8.9980    84.3220     2.4920     0.0730
 1512.5000     8.9970    84.3030     2.5060     0.0810
 1513.0000     8.9960    84.2970     2.5190     0.0960
 1513.5000     8.9950    84.3020     2.5300     0.1050
 1514.0000     8.9940    84.3000     2.5220     0.1040
 1514.5000     8.9930    84.3000     2.5220     0.0990
 1515.0000     8.9920    84.2990     2.5180     0.0910
 1515.5000     8.9920    84.3050     2.5040     0.0840
 1516.0000     8.9910    84.2200     2.4910     0.0760
 1516.5000     8.9900    83.9640     2.4770     0.0680
 1517.0000     8.9890    83.7150     2.4660     0.0610
 1517.5000     8.9880    83.4700     2.4690     0.0590
 1518.0000     8.9870    83.2030     2.4860     0.0720
 1518.5000     8.9860    82.9750     2.4860     0.0780
 1519.0000     8.9860    82.7160     2.4790     0.0720
 1519.5000     8.9850    82.3800     2.4770     0.0670
 1520.0000     8.9840    81.9540     2.4860     0.0620
 1520.5000     8.9830    82.3680     2.4950     0.0650
 1521.0000     8.9820    82.6500     2.5050     0.0690
 1521.5000     8.9810    82.9900     2.5150     0.0730
 1522.0000     8.9800    83.2980     2.5200     0.0770
 1522.5000     8.9820    83.6160     2.5210     0.0810
 1523.0000     8.9880    83.3260     2.5210     0.0810
 1523.5000     8.9920    82.7730     2.5020     0.0730
 1524.0000     8.9970    82.4740     2.4910     0.0660
 1524.5000     9.0020    82.5160     2.4950     0.0650
 1525.0000     9.0070    82.7210     2.4970     0.0670
 1525.5000     9.0110    83.0050     2.5000     0.0690
 1526.0000     9.0160    83.2930     2.4980     0.0610
 1526.5000     9.0200    83.5720     2.4920     0.0520
 1527.0000     9.0140    83.8500     2.4860     0.0490
 1527.5000     9.0060    84.1540     2.4890     0.0500
 1528.0000     8.9980    84.3210     2.4920     0.0580
 1528.5000     8.9910    84.4260     2.4920     0.0630
 1529.0000     8.9830    84.5530     2.4930     0.0690
 1529.5000     8.9750    84.6800     2.5030     0.0730
 1530.0000     8.9670    84.8060     2.5150     0.0810
 1530.5000     8.9600    84.9010     2.5270     0.0910
 1531.0000     8.9520    84.9510     2.5350     0.1010
 1531.5000     8.9440    85.0160     2.5360     0.1020
 1532.0000     8.9430    85.0780     2.5360     0.1080
 1532.5000     8.9520    85.1410     2.5480     0.1130
 1533.0000     8.9610    85.2040     2.5400     0.1180
 1533.5000     8.9690    85.2670     2.5140     0.1080
 1534.0000     8.9770    85.3290     2.4990     0.0890
 1534.5000     8.9860    85.3920     2.5120     0.0800
 1535.0000     8.9940    85.4560     2.5230     0.0960
 1535.5000     9.0020    85.5000     2.5260     0.0930
 1536.0000     9.0110    85.4990     2.5170     0.0810
 1536.5000     9.0190    85.5000     2.5000     0.0680
 1537.0000     9.0190    85.4990     2.4910     0.0600
 1537.5000     9.0180    85.5010     2.4930     0.0650
 1538.0000     9.0160    85.4980     2.5000     0.0690
 1538.5000     9.0140    85.5010     2.4910     0.0690
 1539.0000     9.0120    85.5080     2.4930     0.0670
 1539.5000     9.0110    85.3650     2.4930     0.0640
 1540.0000     9.0090    84.9440     2.5020     0.0620
 1540.5000     9.0070    84.4640     2.5290     0.0860
 1541.0000     9.0060    84.5970     2.5340     0.1060
 1541.5000     9.0040    85.3470     2.5270     0.0960
 1542.0000     9.0020    85.9750     2.5180     0.0810
 1542.5000     9.0010    86.6270     2.5240     0.0810
 1543.0000     8.9990    86.2230     2.5390     0.0830
 1543.5000     8.9970    85.7400     2.5420     0.0890
 1544.0000     8.9960    85.2670     2.5360     0.0910
 1544.5000     8.9940    84.8720     2.5160     0.0800
 1545.0000     8.9920    84.4460     2.5260     0.0800
 1545.5000     8.9910    84.0430     2.5300     0.0850
 1546.0000     8.9890    83.7450     2.5260     0.0820
 1546.5000     8.9870    84.1540     2.4990     0.0690
 1547.0000     8.9860    84.5070     2.4720     0.0560
 1547.5000     8.9840    84.8970     2.4790     0.0410
 1548.0000     8.9820    85.2680     2.4900     0.0440
 1548.5000     8.9810    85.6450     2.5020     0.0630
 1549.0000     8.9800    86.0120     2.5050     0.0660
 1549.5000     8.9800    86.0810     2.5070     0.0670
 1550.0000     8.9800    85.7010     2.5090     0.0680
 1550.5000     8.9800    85.3130     2.5090     0.0690
