~VERSION INFORMATION
 VERS.                2.0:   CWLS LOG ASCII STANDARD - VERSION 2.0
 WRAP.                 NO:   ONE LINE PER DEPTH STEP
~WELL INFORMATION
#MNEM.UNIT      DATA TYPE    INFORMATION
#----------   ------------   ------------------------------
 STRT.F          148.0000:   START DEPTH
 STOP.F         3394.0000:   STOP DEPTH
 STEP.F            0.5000:   STEP LENGTH
 NULL.          -999.2500:   NO VALUE
 COMP.    FENIX & SCISSON:   COMPANY
 WELL.  FENIX "AX" #28-10:   WELL
 FLD .        TEAPOT DOME:   FIELD
 LOC .      S10 T38N R78W:   LOCATION
 CNTY.            NATRONA:   COUNTY
 STAT.            WYOMING:   STATE
 CTRY. UNITED STATES OF AMERICA:   COUNTRY
 SRVC.       SCHLUMBERGER:   SERVICE COMPANY
 DATE.        03-MAR-1981:   LOGDATE
 API .     49025108680000:   API NUMBER
~CURVE INFORMATION
#MNEM.UNIT       API CODE    CURVE DESCRIPTION
#----------   ------------   ------------------------------
 DEPT.F                  :   
 SFL .OHMM   07 220 01 00:   SHALLOW FOCUSED LOG RESISTIVITY
 ILD .OHMM   07 120 46 00:   INDUCTION LOG DEEP RESISTIVITY
 ILM .OHMM   07 120 44 00:   INDUCTION LOG MEDIUM RESISTIVITY
 TENR.LBS    07 635 01 00:   TENSION
 SPR .MV     07 010 01 00:   SPONTANEOUS POTENTIAL
 CALD.IN     45 280 60 00:   CALIPER FROM DENSITY LOG
 GRD .GAPI   45 310 01 00:   GAMMA RAY FROM DENSITY LOG
 TEND.LBS    45 635 01 00:   TENSION FROM DENSITY LOG
 CORR.G/C3   45 356 01 00:   DENSITY CORRECTION
 RHOB.G/C3   45 350 01 00:   BULK DENSITY
~PARAMETER INFORMATION
#MNEM.UNIT          VALUE    DESCRIPTION
#----------   ------------   ------------------------------
 EKB .F         5241.0000:   Kelly bushing
 EGL .F         5231.0000:   Ground level
 EDF .F            0.0000:   Drilling floor
 TD  .F         3381.0000:   Total depth
 DATE.        03-MAR-1981:   Date logged
 CLNT.            A2DTECH:   Client Code
 SL  . 640' FSL & 720' FWL:   Surface Location
 PD  .                 GL:   Permanent Datum
 EPD .F              5231:   Elevation Permanent Datum
 LMF .                 KB:   Log Measured From
 DMF .                 KB:   Drilling Measured From
 DAPD.F                10:   Feet Above Permanent Datum
 DD  .F              3361:   Depth driller
 DL  .F              3381:   Depth logger
 BLI .F              3375:   Bottom log interval
 TLI .F               233:   Top log interval
 CS1 .IN            8.625:   Casing size
 CBD1.      8.625" @ 224':   Casing driller 1
 CBL1.F               233:   Casing logger 1
 BS1 .IN            7.875:   Bit size
 BSD1.F              3361:   Depth drilled with bit1
 DFT .           CHEM/GEL:   Type fluid in hole
 DFD .                  9:   Density
 DFV .                 40:   Viscosity
 DFPH.                8.5:   pH
 DFL .                 11:   Fluid loss
 MSS .           MUD/TANK:   Source of sample
 RMS .OHMM           2.52:   Rm
 MST .F                66:   Rm Meas. temp.
 RMF .OHMM            1.8:   Rmf
 MFST.F                67:   Rmf Meas. temp.
 MFSS.               MEAS:   Source Rmf.
 RMB .OHMM           1.47:   Rm. at BHT
 BHT .F               118:   BHT.
 TCS .HRS            0500:   Time Circ. stopped
 TLAB.HRS            0830:   Time logger at bottom
 MRT .F               118:   Maximum recorded temp.
 LUN .               8035:   Logging unit number
 LUL .               CSPR:   Logging unit location
 ENGI.            BEATTLE:   Recorded By
 WITN.              FIVAS:   Witnessed by
 ORIG.           5" PRINT:   Origin of data
 UWI .     49025108680000:   Unique Well ID
 DICO. A2D TECHNOLOGIES, INC.:   Digitizing Company
~OTHER INFORMATION
~A   DEPT      SFL        ILD        ILM       TENR        SPR         CALD       GRD      TEND       CORR       RHOB   
# ...
 1253.5000    11.3000    10.6920     9.8950   368.2320   -28.5420     9.0230   109.5920   451.3930     0.0060     2.5160
 1254.0000    11.3000    10.8840    10.0010   368.4240   -28.5430     9.0240   108.0830   451.5930     0.0150     2.5240
 1254.5000    11.3000    10.8650    10.1070   368.6160   -28.5420     9.0250   106.0650   451.7930     0.0190     2.5290
 1255.0000    11.3000    10.8020    10.2130   368.8080   -28.5430     9.0250   104.1460   451.9930     0.0140     2.5230
 1255.5000    11.4800    10.7380    10.2900   369.0000   -28.5420     9.0260   102.0800   452.1930     0.0090     2.5170
 1256.0000    11.7310    10.6740    10.2670   369.1920   -28.5420     9.0270   102.0670   452.3930     0.0060     2.5110
 1256.5000    11.6510    10.6100    10.2180   369.3830   -28.5560     9.0270   104.7170   452.5930     0.0100     2.5090
 1257.0000    11.3270    10.5460    10.1690   369.5750   -28.6090     9.0280   106.5760   452.7930     0.0140     2.5110
 1257.5000    11.0030    10.4820    10.1200   369.7670   -28.6600     9.0290   105.7230   452.9930     0.0180     2.5160
 1258.0000    10.6820    10.4190    10.0710   369.9590   -28.7130     9.0290   103.8490   453.1930     0.0220     2.5200
 1258.5000    10.8360    10.3550    10.0210   370.1510   -28.7660     9.0300   102.3180   453.3940     0.0230     2.5250
 1259.0000    11.0900    10.2900     9.9720   370.3430   -28.8190     9.0310   102.9500   453.5940     0.0230     2.5310
 1259.5000    11.3000    10.1500     9.9230   370.5350   -28.8710     9.0310   105.9980   453.7940     0.0300     2.5390
 1260.0000    11.0600    10.0080     9.7930   370.7270   -28.9240     9.0320   107.7830   453.9940     0.0320     2.5430
 1260.5000    10.7480     9.8670     9.6380   370.9180   -28.9770     9.0330   107.8510   454.1940     0.0280     2.5370
 1261.0000    10.4370     9.7250     9.4830   371.1100   -29.0290     9.0330   107.8860   454.3940     0.0250     2.5310
 1261.5000    10.1250     9.5830     9.3280   371.3020   -29.0820     9.0340   107.8590   454.5940     0.0270     2.5330
 1262.0000     9.9120     9.4410     9.1740   371.4940   -29.1350     9.0350   107.8630   454.7940     0.0340     2.5400
 1262.5000     9.6810     9.2990     9.0190   371.6860   -29.1860     9.0350   107.8800   454.9940     0.0400     2.5470
 1263.0000     9.5870     9.1570     8.8640   371.8780   -29.2420     9.0360   107.8550   455.1940     0.0410     2.5530
 1263.5000     9.4930     9.0260     8.7090   372.0700   -29.2900     9.0370   107.7770   455.3940     0.0340     2.5480
 1264.0000     9.3990     8.9630     8.5330   372.2610   -29.3440     9.0370   106.1860   455.5940     0.0200     2.5420
 1264.5000     9.3060     8.9030     8.5160   372.4530   -29.2490     9.0380   105.4330   455.7940     0.0100     2.5370
 1265.0000     9.1970     8.8590     8.4960   372.6450   -29.1300     9.0390   105.3680   455.9940     0.0140     2.5420
 1265.5000     9.1970     8.8590     8.4750   372.8370   -29.0080     9.0390   104.9250   456.1950     0.0210     2.5520
 1266.0000     9.3600     8.8590     8.4550   373.0290   -28.8890     9.0400   105.1600   456.3950     0.0270     2.5620
 1266.5000     9.7280     8.8590     8.4350   373.2210   -28.7690     9.0410   105.4200   456.5950     0.0340     2.5650
 1267.0000     9.6130     8.8590     8.4150   373.4130   -28.6490     9.0410   105.7120   456.7950     0.0350     2.5590
 1267.5000     9.4200     8.8590     8.3950   373.6040   -28.5290     9.0420   105.8910   456.9950     0.0330     2.5480
 1268.0000     9.2270     8.8480     8.3740   373.7960   -28.4080     9.0430   106.9610   457.1950     0.0300     2.5350
 1268.5000     9.0260     8.8370     8.3540   373.9880   -28.2890     9.0430   108.7120   457.3950     0.0340     2.5240
 1269.0000     9.1470     8.8250     8.3340   374.1800   -28.1690     9.0440   110.5100   457.5950     0.0430     2.5300
 1269.5000     9.3650     8.8140     8.3140   374.3720   -28.0980     9.0450   109.5960   457.7950     0.0530     2.5410
 1270.0000     9.5840     8.8030     8.2940   374.5640   -28.0460     9.0450   105.6620   457.9950     0.0510     2.5530
 1270.5000     9.8030     8.7910     8.2730   374.7560   -27.9940     9.0460   101.7970   458.1950     0.0440     2.5530
 1271.0000    10.2670     8.7800     8.2530   374.9470   -27.9410     9.0470    98.1860   458.3950     0.0380     2.5530
 1271.5000    10.4840     8.7690     8.2330   375.1390   -27.8880     9.0470    97.6040   458.5950     0.0420     2.5520
 1272.0000    10.2100     8.7570     8.2130   375.3310   -27.8360     9.0480   101.4160   458.7950     0.0520     2.5520
 1272.5000     9.6370     8.7460     8.1930   375.5230   -27.7830     9.0490   105.3760   458.9960     0.0630     2.5470
 1273.0000     8.8590     8.7350     8.1730   375.7150   -27.7330     9.0490   107.1860   459.1960     0.0610     2.5360
 1273.5000     8.9230     8.7240     8.1520   375.9070   -27.6890     9.0500   106.0940   459.3960     0.0510     2.5260
 1274.0000     9.1910     8.7120     8.1320   376.0160   -27.6470     9.0510   105.3090   459.5960     0.0430     2.5270
 1274.5000     9.4600     8.7000     8.1110   376.0160   -27.6060     9.0510   104.3650   459.7960     0.0340     2.5360
 1275.0000     9.7280     8.6940     8.0910   376.0160   -27.5640     9.0520   104.2990   459.9960     0.0270     2.5430
 1275.5000     9.7280     8.6940     8.0640   376.0160   -27.5230     9.0530   104.2640   460.1960     0.0230     2.5430
 1276.0000     9.3840     8.6950     8.0690   376.0160   -27.4800     9.0530   104.8760   460.3960     0.0220     2.5440
 1276.5000     9.0410     8.6940     8.1460   376.0160   -27.4390     9.0540   105.6060   460.5960     0.0310     2.5540
 1277.0000     9.0690     8.7490     8.2260   376.0160   -27.3980     9.0550   107.1970   460.7960     0.0330     2.5610
 1277.5000     9.1260     8.8210     8.3070   376.0160   -27.3530     9.0550   108.6510   460.9960     0.0240     2.5510
 1278.0000     9.1830     8.8920     8.3870   376.0160   -27.3260     9.0560   108.0100   461.1960     0.0150     2.5360
 1278.5000     9.2390     8.9640     8.4670   376.0160   -27.3270     9.0570   106.5250   461.3960     0.0060     2.5250
 1279.0000     9.2960     9.0350     8.5480   376.0160   -27.3610     9.0580   105.0960   461.5960     0.0050     2.5280
 1279.5000     9.3530     9.1070     8.6280   376.0160   -27.4740     9.0580   107.5570   461.7960     0.0050     2.5330
 1280.0000     9.5240     9.1780     8.7090   376.0160   -27.5860     9.0590   110.3660   461.9970     0.0050     2.5310
 1280.5000     9.7470     9.2500     8.7890   376.0160   -27.6860     9.0600   110.6120   462.1970     0.0030     2.5310
 1281.0000     9.9530     9.3220     8.8700   376.0160   -27.8400     9.0600   108.2600   462.3970     0.0040     2.5310
 1281.5000    10.1100     9.3930     8.9500   376.0160   -28.0280     9.0610   105.6860   462.5970     0.0050     2.5310
 1282.0000    10.2670     9.4650     9.0300   376.0160   -28.2030     9.0620   105.6260   462.7970     0.0060     2.5230
 1282.5000    10.4240     9.5360     9.1110   376.0160   -28.3780     9.0620   107.9560   462.9970     0.0070     2.5250
 1283.0000    10.4840     9.6080     9.1910   376.0160   -28.5580     9.0630   110.8740   463.1970     0.0140     2.5340
 1283.5000    10.4420     9.6800     9.2720   376.0160   -28.7290     9.0640   113.8710   463.3970     0.0220     2.5430
 1284.0000    10.3360     9.7510     9.3520   376.0160   -28.9050     9.0640   114.9940   463.5970     0.0280     2.5440
 1284.5000    10.2310     9.8230     9.4330   376.0160   -28.8700     9.0650   112.4670   463.7970     0.0160     2.5330
 1285.0000    10.1250     9.8940     9.5130   376.0160   -28.7640     9.0660   108.2150   463.9970     0.0100     2.5220
 1285.5000    10.3390    10.0990     9.5930   376.0160   -28.6590     9.0660   103.6660   464.1970     0.0080     2.5190
 1286.0000    10.6570    10.2900     9.6740   376.0160   -28.5570     9.0670    98.6590   464.3970     0.0200     2.5330
 1286.5000    10.9740    10.2900     9.7280   376.0160   -28.4530     9.0680    95.6190   464.5970     0.0330     2.5500
