~VERSION INFORMATION
 VERS.                2.0:   CWLS LOG ASCII STANDARD - VERSION 2.0
 WRAP.                 NO:   ONE LINE PER DEPTH STEP
~WELL INFORMATION
#MNEM.UNIT      DATA TYPE    INFORMATION
#----------   ------------   ------------------------------
 STRT.F          218.0000:   START DEPTH
 STOP.F         2860.0000:   STOP DEPTH
 STEP.F            0.5000:   STEP LENGTH
 NULL.          -999.2500:   NO VALUE
 COMP.    FENIX & SCISSON:   COMPANY
 WELL.  FENIX "AX" #76-20:   WELL
 FLD . TEAPOT DOME NPR -3:   FIELD
 LOC .      S20 T39N R78W:   LOCATION
 CNTY.            NATRONA:   COUNTY
 STAT.            WYOMING:   STATE
 CTRY. UNITED STATES OF AMERICA:   COUNTRY
 SRVC.           BIRDWELL:   SERVICE COMPANY
 DATE.        21-AUG-1978:   LOGDATE
 API .     49025106920000:   API NUMBER
~CURVE INFORMATION
#MNEM.UNIT       API CODE    CURVE DESCRIPTION
#----------   ------------   ------------------------------
 DEPT.F                  :   
 SPR .MV     05 010 01 00:   SPONTANEOUS POTENTIAL FROM RES.
 ILD .OHMM   05 120 46 00:   INDUCTION LOG DEEP
 SN  .OHMM   05 040 16 00:   SHORT NORMAL 16"
 RHOB.G/C3   45 350 01 00:   BULK DENSITY
 CALD.IN     45 280 60 00:   CALIPER FROM DENSITY LOG
 DCOR.G/C3   45 356 01 00:   DENSITY CORRECTION
 GRD .GAPI   45 310 01 00:   GAMMA RAY FROM DENSITY LOG
~PARAMETER INFORMATION
#MNEM.UNIT          VALUE    DESCRIPTION
#----------   ------------   ------------------------------
 EKB .F         5062.0000:   Kelly bushing
 EGL .F         5052.0000:   Ground level
 EDF .F            0.0000:   Drilling floor
 EPD .F            0.0000:   Permanent datum
 TD  .F         2854.0000:   Total depth
 DATE.        21-AUG-1978:   Date logged
 CLNT.            A2DTECH:   Client Code
 SL  . 1500' FNL & 1200' FEL:   Surface Location
 PD  .                 GL:   Permanent Datum
 DD  .F              2850:   Depth driller
 DL  .F              2854:   Depth logger
 BLI .F              2848:   Bottom log interval
 CS1 .IN            8.625:   Casing size
 CBD1.      8.625" @ 200':   Casing driller 1
 CBL1.F               235:   Casing logger 1
 BS1 .IN            7.875:   Bit size
 DFT .                KCL:   Type fluid in hole
 DFD .                9.2:   Density
 DFV .                 30:   Viscosity
 DFL .                8.4:   Fluid loss
 MSS .           FLOWLINE:   Source of sample
 RMS .OHMM            1.2:   Rm
 MST .F                86:   Rm Meas. temp.
 RMF .OHMM            0.8:   Rmf
 MFST.F                68:   Rmf Meas. temp.
 RMC .OHMM            1.6:   Rmc
 MCST.F                70:   Rmc Meas. temp.
 MFSS.              PRESS:   Source Rmf.
 BHT .F               102:   BHT.
 TCS .HRS               3:   Time Circ. stopped
 MRT .F               102:   Maximum recorded temp.
 LUN .               2968:   Logging unit number
 LUL .             CASPER:   Logging unit location
 ENGI.           REYNOLDS:   Recorded By
 ORIG.           5" PRINT:   Origin of data
 UWI .     49025106920000:   Unique Well ID
 DICO. A2D TECHNOLOGIES, INC.:   Digitizing Company
 DAPD.                 12:   Feet Above Permanent Datum
 BSD1.               2850:   Depth drilled with bit1
 MCSS.               MEAS:   Source Rmc.
 TLI .                230:   Top log interval
~OTHER INFORMATION
~A   DEPT      SPR        ILD         SN       RHOB       CALD       DCOR          GRD 
# ...
  718.5000   -82.5090     9.3420    10.0550     2.5060     9.4320     0.1310    81.9540
  719.0000   -82.5290     9.3250    10.0340     2.5010     9.4180     0.1300    73.4970
  719.5000   -82.5480     9.3070    10.0140     2.5010     9.4130     0.1300    75.2580
  720.0000   -82.5670     9.2900     9.9940     2.5010     9.4120     0.1300    76.0460
  720.5000   -82.5870     9.2730     9.9740     2.4920     9.4550     0.1300    75.9480
  721.0000   -82.6060     9.2560     9.9530     2.4810     9.4980     0.1330    75.3000
  721.5000   -82.6260     9.2390     9.9440     2.4770     9.4910     0.1360    75.2820
  722.0000   -82.6310     9.2220     9.9440     2.4820     9.4860     0.1390    79.8940
  722.5000   -82.6270     9.2050     9.9050     2.4790     9.4810     0.1420    85.3360
  723.0000   -82.6120     9.1880     9.8710     2.4780     9.4780     0.1420    90.5520
  723.5000   -82.8340     9.1710     9.8350     2.4970     9.4860     0.1420    87.3040
  724.0000   -82.9090     9.1540     9.8000     2.5000     9.4940     0.1430    82.4900
  724.5000   -83.0440     9.1400     9.7650     2.4970     9.5040     0.1440    77.5960
  725.0000   -83.1780     9.1420     9.7300     2.4940     9.5160     0.1440    76.4320
  725.5000   -83.3110     9.1440     9.6950     2.4910     9.5280     0.1470    78.2260
  726.0000   -83.4430     9.1470     9.6680     2.4880     9.5400     0.1530    80.0490
  726.5000   -83.5780     9.1490     9.6900     2.4960     9.5520     0.1650    80.2080
  727.0000   -83.5750     9.1520     9.7960     2.4940     9.5640     0.1760    77.7870
  727.5000   -83.4760     9.1550     9.9010     2.4930     9.5770     0.1870    75.4490
  728.0000   -83.3760     9.1570    10.0380     2.4910     9.5890     0.1860    73.6640
  728.5000   -83.2760     9.1600    10.0150     2.4990     9.6000     0.1800    79.5570
  729.0000   -83.1760     9.1620     9.9820     2.5080     9.6110     0.1750    78.8510
  729.5000   -83.0760     9.1650     9.9500     2.5040     9.6410     0.1700    77.3560
  730.0000   -82.9760     9.1670     9.9170     2.5000     9.6500     0.1630    79.5240
  730.5000   -82.8760     9.1700     9.8840     2.4990     9.6600     0.1760    78.7060
  731.0000   -82.7760     9.1730     9.8510     2.5020     9.6690     0.1850    77.8620
  731.5000   -82.6760     9.1750     9.8190     2.4950     9.6760     0.1870    77.2680
  732.0000   -82.5760     9.1780     9.7860     2.4830     9.6740     0.1870    77.2890
  732.5000   -82.4760     9.1800     9.7530     2.4720     9.7200     0.1850    77.6210
  733.0000   -82.4300     9.1830     9.7200     2.4600     9.7360     0.2010    78.9900
  733.5000   -82.4300     9.1860     9.6880     2.4510     9.7960     0.2200    82.9770
  734.0000   -82.4300     9.1880     9.6550     2.4570     9.8160     0.2420    87.2150
  734.5000   -82.4300     9.1910     9.6220     2.4630     9.8170     0.2890    85.0690
  735.0000   -82.4300     9.1930     9.5890     2.4600     9.8170     0.3320    78.1980
  735.5000   -82.4300     9.1960     9.5780     2.4570     9.8130     0.3620    75.4640
  736.0000   -82.4300     9.1990     9.5780     2.4550     9.8600     0.3450    77.1770
  736.5000   -82.4300     9.2010     9.5860     2.4680     9.9050     0.3130    79.2180
  737.0000   -82.4300     9.2040     9.5980     2.4840     9.9320     0.2810    81.2250
  737.5000   -82.4300     9.2060     9.6110     2.4950     9.8620     0.2540    78.9850
  738.0000   -82.4300     9.2090     9.6240     2.4670     9.7980     0.2720    75.6720
  738.5000   -82.4300     9.2120     9.6370     2.4440     9.7360     0.2940    73.0560
  739.0000   -82.4300     9.2140     9.6500     2.4420     9.7370     0.2940    76.5310
  739.5000   -82.4300     9.2170     9.6630     2.4570     9.7380     0.2840    78.3110
  740.0000   -82.4300     9.2190     9.6760     2.4750     9.7130     0.2750    75.0120
  740.5000   -82.4300     9.2220     9.6890     2.4940     9.6840     0.2650    74.0400
  741.0000   -82.4300     9.2240     9.7020     2.5100     9.6770     0.2650    80.6180
  741.5000   -82.4300     9.3130     9.7150     2.5070     9.6320     0.2780    88.1360
  742.0000   -82.4290     9.3120     9.7270     2.4940     9.5950     0.2570    87.0530
  742.5000   -82.4310     9.3120     9.7400     2.4850     9.5250     0.2960    85.9640
  743.0000   -82.4330     9.2230     9.7580     2.5050     9.4790     0.2750    88.4900
  743.5000   -82.3870     9.1080     9.6810     2.5260     9.4380     0.2390    90.9240
  744.0000   -81.0850     8.9930     9.5340     2.5300     9.5560     0.2030    92.5270
  744.5000   -81.1830     8.8770     9.3870     2.5210     9.6830     0.1790    79.7560
  745.0000   -81.4110     8.7620     9.2400     2.5060     9.8080     0.1850    81.4340
  745.5000   -81.6400     8.6470     9.0930     2.4910     9.7420     0.1910    84.5120
  746.0000   -81.8630     8.5310     8.9690     2.4770     9.6650     0.1950    82.8470
  746.5000   -82.0910     8.4770     8.9950     2.4810     9.6600     0.1910    80.3200
  747.0000   -82.3440     8.4610     9.0170     2.4900     9.7740     0.1840    82.9930
  747.5000   -82.9070     8.4450     9.0400     2.5010     9.8180     0.1800    84.9730
  748.0000   -82.9730     8.4290     9.0620     2.4950     9.7610     0.1920    83.3260
  748.5000   -82.9060     8.4130     9.0840     2.4810     9.6930     0.2070    80.2920
  749.0000   -82.8370     8.3970     9.1060     2.4660     9.6900     0.2210    81.8230
  749.5000   -82.7740     8.3810     9.1280     2.4500     9.7510     0.2360    84.4430
  750.0000   -82.7100     8.3650     9.1420     2.4320     9.8140     0.2520    86.1910
  750.5000   -82.6470     8.3490     9.1430     2.4150     9.7920     0.2580    81.5700
  751.0000   -82.5810     8.3330     9.0500     2.3980     9.7550     0.2540    86.8340
  751.5000   -82.5100     8.3210     9.0240     2.3810     9.7210     0.2500    93.7910
  752.0000   -82.4630     8.2990     8.9960     2.3830     9.6560     0.2720    99.2700
  752.5000   -81.7590     8.2780     8.9670     2.3800     9.5930     0.2960    98.9190
  753.0000   -81.7470     8.2570     8.9390     2.3730     9.5290     0.3160    97.8960
  753.5000   -81.6980     8.2360     8.9100     2.3860     9.4640     0.2840    96.9200
  754.0000   -81.6360     8.2140     8.8820     2.4520     9.4740     0.2510    96.0810
  754.5000   -81.6300     8.1930     8.8530     2.4700     9.4700     0.2180    96.7160
  755.0000   -81.7030     8.1720     8.8250     2.4910     9.4660     0.1860    98.3430
  755.5000   -81.7790     8.1510     8.7960     2.5110     9.4610     0.1850   100.0080
  756.0000   -81.8540     8.1300     8.7680     2.4850     9.4560     0.1830    99.1400
  756.5000   -81.9280     8.1080     8.7390     2.4520     9.4350     0.1810    98.0230
  757.0000   -82.0030     8.0920     8.7200     2.4740     9.4000     0.1800    96.9810
  757.5000   -82.0780     8.3540     9.0630     2.4630     9.3650     0.1740    98.9150
  758.0000   -82.1530     8.5850     9.3640     2.4890     9.3300     0.1600   101.6770
  758.5000   -82.2280     8.8160     9.6650     2.5080     9.2950     0.1460   102.9810
  759.0000   -82.3030     9.0480     9.9650     2.5010     9.2600     0.1390   103.8340
  759.5000   -82.3780     9.2790    10.2660     2.4960     9.2240     0.1360   104.7720
  760.0000   -82.4530     9.5110    10.5670     2.5260     9.2110     0.1390    98.9880
  760.5000   -82.5280     9.7420    10.8680     2.5170     9.2090     0.1420    92.3990
  761.0000   -82.6030     9.9730    11.1270     2.5190     9.2070     0.1330    88.0440
  761.5000   -82.6300    10.4220    11.1110     2.5270     9.2060     0.1230    91.0840
  762.0000   -82.6300    10.5200    11.0940     2.5350     9.2040     0.1170    95.1870
  762.5000   -82.6310    10.5130    11.0780     2.5320     9.2020     0.1170   101.3740
  763.0000   -82.6060    10.4980    11.0620     2.5270     9.2000     0.1160    91.7340
  763.5000   -82.5740    10.4840    11.0460     2.5220     9.1990     0.1130    82.8640
