~VERSION INFORMATION
 VERS.                2.0:   CWLS LOG ASCII STANDARD - VERSION 2.0
 WRAP.                 NO:   ONE LINE PER DEPTH STEP
~WELL INFORMATION
#MNEM.UNIT      DATA TYPE    INFORMATION
#----------   ------------   ------------------------------
 STRT.F          290.0000:   START DEPTH
 STOP.F         2884.0000:   STOP DEPTH
 STEP.F            0.5000:   STEP LENGTH
 NULL.          -999.2500:   NO VALUE
 COMP.   FENNIX & SCISSON:   COMPANY
 WELL. FENIX & SCISSON AX #22-28:   WELL
 FLD .             NPR #3:   FIELD
 LOC .      S28 T39N R78W:   LOCATION
 CNTY.            NATRONA:   COUNTY
 STAT.            WYOMING:   STATE
 CTRY. UNITED STATES OF AMERICA:   COUNTRY
 SRVC.              WELEX:   SERVICE COMPANY
 DATE.        29-DEC-1979:   LOGDATE
 API .     49025107930000:   API NUMBER
~CURVE INFORMATION
#MNEM.UNIT       API CODE    CURVE DESCRIPTION
#----------   ------------   ------------------------------
 DEPT.F                  :   
 GRD .GAPI   45 310 01 00:   GAMMA RAY FROM DENSITY LOG
 CALD.IN     45 280 60 00:   CALIPER FROM DENSITY LOG
 CORR.G/C3   45 356 01 00:   DENSITY CORRECTION
 RHOB.G/C3   45 350 01 00:   BULK DENSITY
 NPHI.DEC    42 890 03 00:   NEUTRON POROSITY SANDSTONE
 SPR .MV     07 010 01 00:   SPONTANEOUS POTENTIAL
 TENR.LBS    07 635 01 00:   TENSION FROM RESISTIVITY
 ILD .OHMM   07 120 46 00:   DEEP INDUCTION RESISTIVITY
 ILM .OHMM   07 120 44 00:   INDUCTION LOG MEDIUM RESISTIVITY
 SGRD.OHMM   07 220 08 00:   LATEROLOG-8 RES.
~PARAMETER INFORMATION
#MNEM.UNIT          VALUE    DESCRIPTION
#----------   ------------   ------------------------------
 EKB .F         4988.0000:   Kelly bushing
 EGL .F         4978.0000:   Ground level
 EPD .F         4978.0000:   Permanent datum
 TD  .F         2872.0000:   Total depth
 CLNT.            A2DTECH:   Client Code
 SL  . 803' FNL & 938' FWL:   Surface Location
 DATE.        29-DEC-1979:   Date Logged [DD-MMM-YYYY]
 DD  .F              2868:   Depth driller
 DL  .F              2872:   Depth logger
 BLI .F              2870:   Bottom log interval
 TLI .F               300:   Top log interval
 CS1 .              8.625:   Casing size
 CBD1.      8.625" @ 318':   Casing driller 1
 CBL1.IN              318:   Casing logger 1
 BS1 .IN            7.875:   Bit size
 BSD1.F              2868:   Depth drilled with bit1
 DFT .          GEL-BENEX:   Type fluid in hole
 DFD .                8.8:   Density
 TCS .HRS              10:   Time Circ. stopped
 MRT .F               109:   Maximum recorded temp.
 ENGI.               REIN:   Recorded By
 WITN.          MR. AMEND:   Witnessed by
 ORIG.      2.5" 5" PRINT:   Origin of data
 UWI .     49025107930000:   Unique Well ID
 DICO. A2D TECHNOLOGIES, INC.:   Digitizing Company
 PD  .                 GL:   Permanent Datum
 LMF .                 KB:   Log Measured From
 DMF .                 KB:   Drilling Measured From
~OTHER INFORMATION
~A   DEPT       GRD        CALD     CORR         RHOB       NPHI      SPR       TENR        ILD        ILM       SGRD   
# ...
 2668.5000   130.5361     9.2962     0.0204     2.5728     0.2651   -64.3392  1923.4736     5.4950     6.6513     7.1654
 2669.0000   126.6648     9.2818     0.0236     2.5887     0.2660   -64.3143  1923.1790     5.5723     6.6526     7.5240
 2669.5000   123.6931     9.2674     0.0330     2.5910     0.2685   -64.2895  1922.8844     5.6508     6.6540     8.0653
 2670.0000   120.7214     9.2212     0.0347     2.5813     0.2771   -64.2866  1922.5897     5.7303     6.6553     8.1161
 2670.5000   120.4417     9.1770     0.0255     2.5784     0.2830   -64.3195  1922.2950     5.8110     6.6567     7.7923
 2671.0000   122.5741     9.1472     0.0147     2.5762     0.2855   -64.3524  1922.0002     5.8126     6.6580     8.0121
 2671.5000   125.2996     9.1328     0.0117     2.5748     0.2873   -64.3854  1921.7056     5.8142     6.6291     7.6430
 2672.0000   128.0251     9.1185     0.0211     2.5847     0.2888   -64.4183  1921.4109     5.7366     6.5700     7.1615
 2672.5000   128.6516     9.1041     0.0337     2.5870     0.2901   -64.4512  1921.1162     5.5070     6.5716     6.9945
 2673.0000   127.4790     9.1054     0.0431     2.5863     0.2900   -64.4841  1920.8215     5.5085     6.5730     8.2487
 2673.5000   126.6057     9.0908     0.0448     2.5751     0.2894   -64.5170  1920.5269     5.5100     6.5743     7.9652
 2674.0000   125.7335     9.0921     0.0200     2.5488     0.2875   -64.5463  1920.2323     5.5115     6.5757     7.5720
 2674.5000   125.4602     9.0932     0.0030     2.5233     0.2847   -64.5430  1919.9376     5.5130     6.5770     7.3689
 2675.0000   125.1874     9.0943    -0.0109     2.5166     0.2797   -64.5400  1919.6429     5.5145     6.5784     7.4729
 2675.5000   125.5143     9.0953    -0.0217     2.5159     0.2759   -64.5371  1919.3453     5.5160     6.6704     8.1196
 2676.0000   125.8411     9.0964    -0.0247     2.5198     0.2747   -64.5341  1919.0476     5.5175     6.7122     8.1559
 2676.5000   126.1679     9.0975    -0.0261     2.5259     0.2793   -64.5312  1918.7500     5.5191     6.7651     7.8990
 2677.0000   126.4947     9.0985    -0.0213     2.5282     0.2839   -64.5282  1918.4524     5.5206     6.7664     7.6871
 2677.5000   126.8216     9.0996    -0.0181     2.5291     0.2864   -64.5252  1918.1549     5.5983     6.8611     7.5213
 2678.0000   127.1485     9.1007    -0.0133     2.5299     0.2857   -64.5223  1917.8573     5.5998     6.9085     7.4226
 2678.5000   127.4753     9.1017    -0.0101     2.5292     0.2854   -64.5193  1917.5596     5.6013     7.0063     7.4694
 2679.0000   127.2010     9.1028    -0.0085     2.5293     0.2860   -64.5163  1922.0415     5.6802     7.0559     7.7761
 2679.5000   126.6281     9.1039    -0.0084     2.5264     0.2850   -64.5134  1946.7527     5.6838     7.0573     8.1192
 2680.0000   125.4622     9.0895    -0.0145     2.5174     0.2791   -64.5104  1946.4285     5.7617     7.0588     8.3498
 2680.5000   124.2896     9.0752    -0.0206     2.5121     0.2818   -64.5074  1946.1310     5.7633     7.0602     8.5304
 2681.0000   123.1170     9.0608    -0.0237     2.5069     0.2850   -64.5045  1945.8334     5.7649     7.0616     8.4766
 2681.5000   122.2443     9.0464    -0.0297     2.5026     0.2877   -64.5015  1945.5358     5.7664     7.0086     8.1927
 2682.0000   122.2711     9.0629    -0.0327     2.5091     0.2833   -64.4986  1945.2380     5.8476     6.9136     7.9752
 2682.5000   122.5977     9.0463    -0.0326     2.5125     0.2842   -64.4956  1944.9404     5.7696     6.8199     7.8127
 2683.0000   123.5241     9.0188    -0.0325     2.5036     0.2864   -64.4926  1944.6428     5.7713     6.6912     7.7082
 2683.5000   124.7503     8.9892    -0.0355     2.4984     0.2870   -64.4897  1944.3452     5.6876     6.5119     7.6634
 2684.0000   126.5762     8.9903    -0.0400     2.5015     0.2817   -64.4867  1944.0476     5.6111     6.4244     7.6666
 2684.5000   128.4021     8.9760    -0.0290     2.5099     0.2813   -64.4837  1943.7500     5.5357     6.3387     7.7318
 2685.0000   130.5279     8.9616    -0.0165     2.5107     0.2866   -64.4808  1943.4524     5.3870     6.1688     7.7794
 2685.5000   132.6536     8.9627    -0.0257     2.4995     0.2878   -64.4778  1943.1548     5.2504     6.0862     7.5721
 2686.0000   134.7727     8.9637    -0.0334     2.4898     0.2881   -64.4748  1942.8572     5.2519     6.0874     7.4715
 2686.5000   130.9081     8.9648    -0.0457     2.4823     0.2890   -64.4719  1942.5594     5.1725     6.0886     7.2731
 2687.0000   130.6284     8.9659    -0.0347     2.4945     0.2908   -64.4689  1942.2618     5.1031     6.0069     7.0793
 2687.5000   133.0607     8.9669    -0.0206     2.5172     0.2908   -64.4659  1941.9642     4.9757     6.0083     6.9853
 2688.0000   135.4863     8.9680    -0.0065     2.5278     0.2923   -64.4629  1941.6666     4.9772     5.8473     6.8931
 2688.5000   137.3122     8.9691     0.0030     2.5309     0.2938   -64.4600  1941.3690     4.9107     5.6906     6.9915
 2689.0000   138.2386     8.9701     0.0077     2.5310     0.2944   -64.4570  1941.0714     4.8451     5.5381     7.0909
 2689.5000   140.0645     8.9712     0.0078     2.5378     0.2913   -64.4540  1940.7738     4.8350     5.5392     7.1208
 2690.0000   138.8919     8.9723     0.0079     2.5409     0.2909   -64.4511  1940.4174     4.7818     5.5403     6.8108
 2690.5000   135.3205     8.9733     0.0065     2.5342     0.2925   -64.4481  1940.1227     4.7958     5.5415     6.4501
 2691.0000   132.0490     8.9744     0.0066     2.5524     0.2940   -64.4451  1939.8279     4.8638     5.5426     6.6320
 2691.5000   128.4776     8.9755     0.0098     2.5570     0.2995   -64.4422  1939.5332     4.9188     5.5437     7.1054
 2692.0000   124.0066     8.9766     0.0130     2.5586     0.3039   -64.4392  1939.2385     4.9881     5.6213     7.2064
 2692.5000   124.9330     8.9776     0.0194     2.5579     0.2992   -64.4359  1938.9438     5.0047     5.6999     7.2093
 2693.0000   126.7589     8.9787     0.0241     2.5535     0.2984   -64.4512  1938.6492     5.0756     5.7796     7.3118
 2693.5000   126.1860     8.9798     0.0258     2.5551     0.2963   -64.4684  1938.3545     5.1310     5.8605     7.2149
 2694.0000   124.7095     8.9808     0.0259     2.5574     0.2913   -64.4856  1938.0598     5.2032     6.0243     7.2181
 2694.5000   123.2296     8.9820     0.0276     2.5613     0.2884   -64.5028  1937.7651     5.2226     6.0255     7.5242
 2695.0000   122.0489     8.9832     0.0308     2.5666     0.2869   -64.5200  1937.4706     5.2779     6.1098     7.6311
 2695.5000   120.5690     8.9997     0.0325     2.5720     0.2934   -64.5372  1937.1759     5.2987     6.1111     7.5303
 2696.0000   119.6882     9.0162     0.0342     2.5759     0.2943   -64.5544  1936.8812     5.3536     6.1123     7.2299
 2696.5000   119.4503     9.0173     0.0373     2.5774     0.2890   -64.5716  1966.3691     5.3759     6.1978     7.1343
 2697.0000   120.4297     9.0338     0.0390     2.5775     0.2862   -64.5888  1966.0538     5.4305     6.2845     7.2358
 2697.5000   122.2093     9.0503     0.0376     2.5766     0.2862   -64.6060  1965.7592     5.5069     6.4602     7.7523
 2698.0000   122.8358     9.0668     0.0315     2.5679     0.2874   -64.6232  1965.4645     5.5084     6.5505     7.6499
 2698.5000   121.6632     9.0679     0.0207     2.5574     0.2874   -64.6404  1965.1697     5.5336     6.7337     7.4461
 2699.0000   120.1907     9.0689     0.0037     2.5485     0.2895   -64.6577  1964.8750     5.5876     6.8279     7.8689
 2699.5000   119.6111     9.0543    -0.0086     2.5342     0.2935   -64.6749  1964.5804     5.6274     6.8293     8.3157
 2700.0000   119.0382     9.0556    -0.0194     2.5198     0.2907   -64.6018  1964.2858     5.8252     6.8310     7.8753
 2700.5000   118.7652     9.0567    -0.0115     2.5198     0.2911   -64.5941  1963.9880     5.7470     6.7400     8.2092
 2701.0000   120.8977     9.0578    -0.0037     2.5263     0.2930   -64.2950  1963.6515     5.7492     6.4706     7.7635
 2701.5000   123.3233     9.0589     0.0042     2.5358     0.2940   -64.2890  1961.4089     5.5173     6.1276     7.1598
