~VERSION INFORMATION
 VERS.                2.0:   CWLS LOG ASCII STANDARD - VERSION 2.0
 WRAP.                 NO:   ONE LINE PER DEPTH STEP
~WELL INFORMATION
#MNEM.UNIT      DATA TYPE    INFORMATION
#----------   ------------   ------------------------------
 STRT.F           15.0000:   START DEPTH
 STOP.F         2952.5000:   STOP DEPTH
 STEP.F            0.5000:   STEP LENGTH
 NULL.          -999.2500:   NO VALUE
 COMP.    FENIX & SCISSON:   COMPANY
 WELL.  FENIX "AX" #64-29:   WELL
 FLD .  TEAPOT DOME NPR-3:   FIELD
 LOC .      S29 T39N R78W:   LOCATION
 CNTY.            NATRONA:   COUNTY
 STAT.            WYOMING:   STATE
 CTRY. UNITED STATES OF AMERICA:   COUNTRY
 SRVC.           BIRDWELL:   SERVICE COMPANY
 DATE.        02-MAY-1978:   LOGDATE
 API .     49025106460000:   API NUMBER
~CURVE INFORMATION
#MNEM.UNIT       API CODE    CURVE DESCRIPTION
#----------   ------------   ------------------------------
 DEPT.F                  :   
 SPR .MV     05 010 01 00:   SPONTANEOUS POTENTIAL
 IL  .OHMM   05 120 00 00:   INDUCTION RESISTIVITY
 SN  .OHMM   05 040 16 00:   SHORT NORMAL 16"
 CALD.IN     45 280 60 00:   CALIPER FROM DENSITY LOG
 GRD .GAPI   45 310 01 00:   GAMMA RAY FROM DENSITY LOG
 CORR.G/C3   45 356 01 00:   DENSITY CORRECTION
 RHOB.G/C3   45 350 01 00:   BULK DENSITY
~PARAMETER INFORMATION
#MNEM.UNIT          VALUE    DESCRIPTION
#----------   ------------   ------------------------------
 EKB .F         4993.0000:   Kelly bushing
 EGL .F         4983.0000:   Ground level
 EDF .F            0.0000:   Drilling floor
 TD  .F         2952.0000:   Total depth
 DATE.        02-MAY-1978:   Date logged
 CLNT.            A2DTECH:   Client Code
 SL  . 2150' FNL & 1560' FEL:   Surface Location
 PD  .                 GL:   Permanent Datum
 DD  .F              2950:   Depth driller
 DL  .F              2952:   Depth logger
 BLI .F              2947:   Bottom log interval
 CBL1.F               150:   Casing logger 1
 BS1 .IN            7.875:   Bit size
 DFT .                GEL:   Type fluid in hole
 DFD .                8.7:   Density
 DFV .                 30:   Viscosity
 DFPH.                 10:   pH
 DFL .                7.6:   Fluid loss
 MSS .            MUD PIT:   Source of sample
 RMS .OHMM            1.3:   Rm
 MST .F                62:   Rm Meas. temp.
 RMF .OHMM            .95:   Rmf
 MFST.F                64:   Rmf Meas. temp.
 RMC .OHMM              1:   Rmc
 MCST.F                64:   Rmc Meas. temp.
 MFSS.               MEAS:   Source Rmf.
 RMB .OHMM            .73:   Rm. at BHT
 BHT .F               110:   BHT.
 TCS .HRS               3:   Time Circ. stopped
 MRT .F               110:   Maximum recorded temp.
 LUN .               2958:   Logging unit number
 LUL .               CASP:   Logging unit location
 ENGI.             MILLER:   Recorded By
 WITN.           MCGINLEY:   Witnessed by
 ORIG.         2.5" PRINT:   Origin of data
 UWI .     49025106460000:   Unique Well ID
 DICO. A2D TECHNOLOGIES, INC.:   Digitizing Company
 DAPD.                 10:   Feet Above Permanent Datum
 BSD1.F              2950:   Depth drilled with bit1
 EPD .F              4983:   Elevation Permanent Datum
 LMF .                 KB:   Log Measured From
 DMF .                 KB:   Drilling Measured From
 TLI .F               150:   Top log interval
~OTHER INFORMATION
~A   DEPT      SPR         IL         SN       CALD        GRD       CORR       RHOB   
# ...
 2017.0000   -56.7730     5.6530     7.0790     7.7860    81.6480     0.0730     2.5490
 2017.5000   -56.7730     5.8780     7.1040     7.7830    82.6050     0.0780     2.5490
 2018.0000   -56.7730     6.0070     7.1290     7.7810    83.2820     0.0880     2.5480
 2018.5000   -56.7730     6.1360     7.5290     7.7780    80.1160     0.0980     2.5610
 2019.0000   -56.7730     6.2810     8.5850     7.7760    76.7620     0.0960     2.5790
 2019.5000   -56.7730     6.2930     8.5010     7.7730    76.6370     0.0860     2.5920
 2020.0000   -56.7730     6.3060     8.3290     7.7710    76.8080     0.0760     2.5860
 2020.5000   -56.7730     6.3190     8.1250     7.7700    77.0180     0.0660     2.5790
 2021.0000   -56.7730     6.3320     8.1480     7.7840    77.1040     0.0630     2.5700
 2021.5000   -56.7730     6.3460     8.2020     7.7970    74.0050     0.0630     2.5600
 2022.0000   -56.7730     6.3590     8.2550     7.8110    70.6490     0.0680     2.5590
 2022.5000   -56.7730     6.3720     8.3090     7.8240    68.0680     0.0730     2.5690
 2023.0000   -56.7730     6.3850     8.3630     7.8370    68.1340     0.0780     2.5780
 2023.5000   -56.7730     6.3980     8.4170     7.8510    67.9840     0.0740     2.5840
 2024.0000   -56.7730     6.4560     8.4700     7.8640    68.1010     0.0700     2.5850
 2024.5000   -56.7730     6.5420     8.5240     7.8780    68.5400     0.0660     2.5830
 2025.0000   -56.7730     6.6280     8.5780     7.8880    75.6720     0.0630     2.5750
 2025.5000   -56.7730     6.7150     8.6320     7.8880    82.5010     0.0650     2.5670
 2026.0000   -56.7730     6.7880     8.6850     7.8890    86.0830     0.0660     2.5630
 2026.5000   -56.7730     6.8490     8.7390     7.8880    91.6930     0.0670     2.5630
 2027.0000   -56.7730     6.9090     8.7930     7.8880    88.1620     0.0680     2.5620
 2027.5000   -56.7730     6.9990     8.8470     7.8880    84.9460     0.0700     2.5610
 2028.0000   -56.7730     6.9670     8.9000     7.8880    83.9600     0.0710     2.5610
 2028.5000   -56.7730     6.7810     8.9540     7.8880    84.0240     0.0700     2.5600
 2029.0000   -56.7730     6.5960     9.0080     7.8880    84.2120     0.0690     2.5560
 2029.5000   -56.7730     6.3500     9.0720     7.8880    86.3500     0.0680     2.5520
 2030.0000   -56.7730     6.0600     8.6550     7.8880    88.0170     0.0680     2.5470
 2030.5000   -56.7730     5.7690     8.1360     7.8890    85.8460     0.0670     2.5410
 2031.0000   -56.7730     5.6120     7.6170     7.8880    80.8710     0.0700     2.5360
 2031.5000   -56.7730     5.5850     6.8860     7.8880    82.1620     0.0820     2.5390
 2032.0000   -56.7730     5.5580     6.9460     7.8900    89.9400     0.0940     2.5460
 2032.5000   -56.7730     5.5230     7.0480     7.8840    99.7160     0.1050     2.5820
 2033.0000   -56.7730     5.5380     7.1500     7.9300    95.1020     0.0720     2.5760
 2033.5000   -56.7730     5.5600     7.2520     8.0090    90.4960     0.0580     2.5610
 2034.0000   -56.7730     5.5820     7.2880     8.0540    93.0180     0.0590     2.5480
 2034.5000   -56.7730     5.6050     7.3030     8.0540    98.3260     0.0590     2.5340
 2035.0000   -56.7730     5.6250     7.3190     8.0610   105.2450     0.0620     2.5280
 2035.5000   -56.7730     5.6750     7.3340     8.0670   104.3760     0.0700     2.5160
 2036.0000   -56.7730     5.7210     7.3490     8.0730   102.0270     0.0780     2.5160
 2036.5000   -56.7730     5.7670     7.3640     8.0790    95.0110     0.0830     2.5250
 2037.0000   -56.7730     5.8140     7.3800     8.0820    88.8620     0.0820     2.5340
 2037.5000   -56.7730     5.8600     7.3950     8.1160    82.6410     0.0810     2.5450
 2038.0000   -56.7730     5.9060     7.4110     8.1950    83.9010     0.0800     2.5400
 2038.5000   -56.7730     5.9440     7.5710     8.2720    88.1110     0.0790     2.5290
 2039.0000   -56.7730     5.8930     7.7410     8.3480    97.3120     0.0810     2.5170
 2039.5000   -56.7730     5.8500     7.9100     8.4260    93.5310     0.0870     2.5080
 2040.0000   -56.7730     5.8070     8.1250     8.4430    88.8780     0.0930     2.4970
 2040.5000   -56.7730     5.7640     8.0220     8.4350    83.9560     0.1000     2.5170
 2041.0000   -56.7730     5.6970     7.7280     8.4280    79.4440     0.1060     2.5370
 2041.5000   -56.7730     5.5330     7.4340     8.4210    78.6610     0.1120     2.5580
 2042.0000   -56.7730     5.3680     7.1400     8.4140    77.9550     0.1220     2.5810
 2042.5000   -56.7730     5.2260     6.8860     8.4080    76.3980     0.1070     2.5910
 2043.0000   -56.7730     5.2260     6.9070     8.3910    74.6400     0.1000     2.5750
 2043.5000   -56.7730     5.2260     6.9340     8.3570    72.8400     0.0960     2.5790
 2044.0000   -56.7730     5.2260     6.9620     8.3260    70.8890     0.0940     2.5860
 2044.5000   -56.7730     5.2260     6.9900     8.2950    70.8110     0.0900     2.5920
 2045.0000   -56.7730     5.2260     7.0140     8.2620    73.0080     0.0870     2.5910
 2045.5000   -56.7730     5.2260     6.9320     8.2410    75.0170     0.0830     2.5840
 2046.0000   -56.7730     5.2200     6.8610     8.2330    75.5730     0.0800     2.5780
 2046.5000   -56.7730     5.1920     6.7900     8.2240    75.3860     0.0760     2.5730
 2047.0000   -56.7730     5.1650     6.7200     8.2120    81.0430     0.0760     2.5680
 2047.5000   -56.7730     5.1370     6.6490     8.2070    88.6960     0.0790     2.5630
 2048.0000   -56.7730     5.1100     6.5780     8.1450    96.2290     0.0820     2.5570
 2048.5000   -56.7730     5.0830     6.5070     8.0860   102.8470     0.0750     2.5520
 2049.0000   -56.7730     5.0560     6.4360     8.0300   107.2380     0.0770     2.5470
 2049.5000   -56.7730     5.0380     6.3650     7.9680   111.3750     0.0790     2.5420
 2050.0000   -56.7730     5.0090     6.2810     8.0230   114.5970     0.0920     2.5370
 2050.5000   -56.7790     4.9790     6.3190     7.9350   107.8030     0.1060     2.5310
 2051.0000   -56.7870     4.9460     6.3670     9.3220   102.3170     0.1200     2.5380
 2051.5000   -56.7950     4.9460     6.4140     8.0700    96.4090     0.1270     2.5500
 2052.0000   -56.8030     5.0370     6.4610     8.2920    95.4840     0.1200     2.5370
 2052.5000   -56.8100     5.1310     6.5160     8.3970    96.9500     0.1120     2.5680
 2053.0000   -56.8180     5.4240     6.7920     8.0240    97.6700     0.1030     2.5560
 2053.5000   -56.8260     5.7770     7.1260     7.8780    97.6030     0.0980     2.5290
 2054.0000   -56.8340     6.0100     7.4590     7.9270   100.5780     0.0930     2.5410
 2054.5000   -56.8420     6.1340     7.7930     7.9920   106.5260     0.0890     2.5500
 2055.0000   -56.8500     6.2590     8.1270     8.0090   112.4970     0.0840     2.5430
 2055.5000   -56.8570     6.3830     8.4600     8.0290   116.7030     0.0830     2.5320
 2056.0000   -56.8650     6.5160     8.7940     8.0460   116.7760     0.0830     2.5300
 2056.5000   -56.8730     6.5050     9.0720     8.0470   112.5500     0.0830     2.5360
 2057.0000   -56.8810     6.4840     8.9620     8.0480   108.5820     0.0830     2.5390
 2057.5000   -56.8890     6.4640     8.8660     8.0480   103.8320     0.0830     2.5400
 2058.0000   -56.8970     6.4430     8.7710     8.0470    98.9580     0.0850     2.5340
 2058.5000   -56.9040     6.4220     8.6760     8.0480    92.5390     0.0870     2.5250
 2059.0000   -56.9120     6.4020     8.5810     8.0480    90.9190     0.0900     2.5220
 2059.5000   -56.9200     6.2990     8.4860     8.0450    93.8770     0.0920     2.5190
 2060.0000   -56.9280     5.9440     8.3910     8.0540    96.3620     0.0950     2.5160
 2060.5000   -56.9360     5.9700     8.2960     8.0420    98.8940     0.0970     2.5140
 2061.0000   -56.9430     6.0220     8.1530     8.0540   101.5150     0.0980     2.5130
 2061.5000   -56.9510     6.0740     8.1560     8.4930   103.4820     0.0860     2.5420
 2062.0000   -56.9590     6.1250     8.3110     8.3390   105.3380     0.0770     2.5340
