~VERSION INFORMATION
 VERS.                2.0:   CWLS LOG ASCII STANDARD - VERSION 2.0
 WRAP.                 NO:   ONE LINE PER DEPTH STEP
~WELL INFORMATION
#MNEM.UNIT      DATA TYPE    INFORMATION
#----------   ------------   ------------------------------
 STRT.F          450.0000:   START DEPTH
 STOP.F         3070.0000:   STOP DEPTH
 STEP.F            0.5000:   STEP LENGTH
 NULL.          -999.2500:   NO VALUE
 COMP. LAWRENCE ALLISON & ASSOCIATES:   COMPANY
 WELL. LAWRENCE "X" #86-28:   WELL
 FLD .             NPR #3:   FIELD
 LOC .      S28 T39N R78W:   LOCATION
 CNTY.            NATRONA:   COUNTY
 STAT.            WYOMING:   STATE
 CTRY. UNITED STATES OF AMERICA:   COUNTRY
 SRVC.      WESTERN ATLAS:   SERVICE COMPANY
 DATE.        03-JAN-1988:   LOGDATE
 API .     49025111920000:   API NUMBER
~CURVE INFORMATION
#MNEM.UNIT       API CODE    CURVE DESCRIPTION
#----------   ------------   ------------------------------
 DEPT.F                  :   
 TEND.LBS    45 635 01 00:   TENSION FROM DENSITY LOG
 CALD.IN     45 280 60 00:   CALIPER FROM DENSITY LOG
 NPHI.DEC    42 890 03 00:   NEUTRON POROSITY SANDSTONE
 DEN .G/C3   45 350 01 00:   BULK DENSITY
 CORR.G/C3   45 356 01 00:   DENSITY CORRECTION
 TENR.LBS    07 635 01 00:   TENSION FROM RESISTIVITY
 RFOC.OHMM   07 220 04 00:   RESISTIVITY FOCUSED LOG RES.
 RILD.OHMM   07 120 46 00:   DEEP INDUCTION RESISTIVITY
 RILM.OHMM   07 120 44 00:   INDUCTION LOG MEDIUM RESISTIVITY
 SPR .MV     07 010 01 00:   SPONTANEOUS POTENTIAL
 GRR .GAPI   07 310 01 00:   GAMMA RAY FROM RESISTIVITY
~PARAMETER INFORMATION
#MNEM.UNIT          VALUE    DESCRIPTION
#----------   ------------   ------------------------------
 EKB .F         5072.0000:   Kelly bushing
 EGL .F         5061.0000:   Ground level
 EDF .F         5071.0000:   Drilling floor
 TD  .F         3062.0000:   Total depth
 DATE.        03-JAN-1988:   Date logged
 CLNT.            A2DTECH:   Client Code
 SL  . 1721' FSL & 556' FEL:   Surface Location
 PD  .                 GL:   Permanent Datum
 DD  .F              3060:   Depth driller
 DL  .F              3062:   Depth logger
 BLI .F              3060:   Bottom log interval
 CS1 .IN            8.625:   Casing size
 CBD1.      8.625" @ 480':   Casing driller 1
 CBL1.F               480:   Casing logger 1
 BS1 .IN            7.875:   Bit size
 DFT .        KCL-POLYMER:   Type fluid in hole
 DFD .                8.9:   Density
 DFV .                 36:   Viscosity
 DFPH.                9.5:   pH
 DFL .                8.4:   Fluid loss
 MSS .               TANK:   Source of sample
 RMS .OHMM           0.45:   Rm
 MST .F                80:   Rm Meas. temp.
 RMF .OHMM           0.41:   Rmf
 MFST.F                60:   Rmf Meas. temp.
 RMC .OHMM           0.65:   Rmc
 MCST.F                60:   Rmc Meas. temp.
 MFSS.               MEAS:   Source Rmf.
 RMB .OHMM           0.31:   Rm. at BHT
 BHT .F               110:   BHT.
 TCS .HRS               4:   Time Circ. stopped
 MRT .F               110:   Maximum recorded temp.
 LUN .            HL 6343:   Logging unit number
 LUL .               CODY:   Logging unit location
 ENGI.               RALL:   Recorded By
 WITN.              FIVRS:   Witnessed by
 ORIG.     2.5", 5" PRINT:   Origin of data
 UWI .     49025111920000:   Unique Well ID
 DICO. A2D TECHNOLOGIES, INC.:   Digitizing Company
 DAPD.                 11:   Feet Above Permanent Datum
 BSD1.               3060:   Depth drilled with bit1
 MCSS.               CALC:   Source Rmc.
 EPD .               5061:   Elevation Permanent Datum
 LMF .                 KB:   Log Measured From
 DMF .                 KB:   Drilling Measured From
 TLI .                480:   Top log interval
~OTHER INFORMATION
~A   DEPT     TEND       CALD       NPHI        DEN       CORR       TENR       RFOC       RILD       RILM        SPR         GRR  
# ...
 1670.0000  -999.2500  -999.2500  -999.2500  -999.2500  -999.2500   -82.6570     8.0840     6.8390     7.2090   -16.1940   135.3490
 1670.5000  -999.2500  -999.2500  -999.2500  -999.2500  -999.2500   -82.6570     8.2950     6.9210     7.3900   -16.2340   134.3930
 1671.0000  -999.2500  -999.2500  -999.2500  -999.2500  -999.2500   -82.6570     8.5060     7.0030     7.5720   -16.1390   130.2240
 1671.5000  -999.2500  -999.2500  -999.2500  -999.2500  -999.2500   -82.6570     8.7160     7.1100     7.7340   -16.0290   125.4260
 1672.0000  -999.2500  -999.2500  -999.2500  -999.2500  -999.2500   -82.6570     8.9250     7.0700     7.5000   -16.0230   120.6130
 1672.5000  -999.2500  -999.2500  -999.2500  -999.2500  -999.2500   -82.6570     8.9840     7.0150     7.2870   -16.0670   115.8240
 1673.0000  -999.2500  -999.2500  -999.2500  -999.2500  -999.2500   -82.6570     8.7440     6.9600     7.0740   -16.3040   114.1270
 1673.5000  -999.2500  -999.2500  -999.2500  -999.2500  -999.2500   -82.6570     8.2820     6.9050     6.9780   -16.5000   116.5370
 1674.0000  -999.2500  -999.2500  -999.2500  -999.2500  -999.2500   -82.6570     7.8070     6.8490     6.9780   -16.6840   122.7730
 1674.5000  -999.2500  -999.2500  -999.2500  -999.2500  -999.2500   -82.6570     7.7340     6.7940     6.9780   -16.8670   126.9640
 1675.0000  -999.2500  -999.2500  -999.2500  -999.2500  -999.2500   -82.6570     7.7620     6.7390     6.9800   -17.0460   126.7330
 1675.5000  -999.2500  -999.2500  -999.2500  -999.2500  -999.2500   -82.6570     7.8080     6.6830     6.9850   -17.3060   125.2250
 1676.0000  -999.2500  -999.2500  -999.2500  -999.2500  -999.2500   -82.6570     7.8550     6.5970     6.9060   -17.5550   120.8250
 1676.5000  -999.2500  -999.2500  -999.2500  -999.2500  -999.2500   -82.6570     7.9020     6.6230     6.9110   -17.8030   117.8890
 1677.0000  -999.2500  -999.2500  -999.2500  -999.2500  -999.2500   -82.6570     7.9480     6.6830     6.9150   -18.0510   118.7300
 1677.5000  -999.2500  -999.2500  -999.2500  -999.2500  -999.2500   -82.6570     8.0190     6.7430     7.0250   -18.2950   120.1530
 1678.0000  -999.2500  -999.2500  -999.2500  -999.2500  -999.2500   -82.6570     8.1170     6.8030     7.1320   -18.5430   120.8360
 1678.5000  -999.2500  -999.2500  -999.2500  -999.2500  -999.2500   -82.6570     8.2150     6.8630     7.2390   -18.3480   120.9800
 1679.0000  -999.2500  -999.2500  -999.2500  -999.2500  -999.2500   -82.8050     8.3130     6.9230     7.3460   -17.8430   121.1270
 1679.5000  -999.2500  -999.2500  -999.2500  -999.2500  -999.2500   -83.2860     8.4110     6.9830     7.4530   -17.3340   120.9860
 1680.0000  -999.2500  -999.2500  -999.2500  -999.2500  -999.2500   -83.7660     8.5090     7.0430     7.5600   -16.8260   119.9840
 1680.5000  -999.2500  -999.2500  -999.2500  -999.2500  -999.2500   -84.2470     8.6220     7.1030     7.6660   -16.4000   116.1240
 1681.0000  -999.2500  -999.2500  -999.2500  -999.2500  -999.2500   -84.7270     8.7610     7.1630     7.7550   -16.3170   115.8320
 1681.5000  -999.2500  -999.2500  -999.2500  -999.2500  -999.2500   -85.2080     8.9690     7.1760     7.8120   -16.2300   114.5740
 1682.0000  -999.2500  -999.2500  -999.2500  -999.2500  -999.2500   -85.6880     8.9010     7.1760     7.8810   -16.1870   112.6780
 1682.5000  -999.2500  -999.2500  -999.2500  -999.2500  -999.2500   -86.1690     8.6890     7.1760     7.7390   -16.1460   112.4510
 1683.0000  -999.2500  -999.2500  -999.2500  -999.2500  -999.2500   -86.6500     8.4770     7.0940     7.5620   -16.1050   116.3740
 1683.5000  -999.2500  -999.2500  -999.2500  -999.2500  -999.2500   -87.1300     8.2640     6.9920     7.3860   -16.0650   119.3500
 1684.0000  -999.2500  -999.2500  -999.2500  -999.2500  -999.2500   -87.6110     8.1050     6.8900     7.2090   -16.0290   121.4730
 1684.5000  -999.2500  -999.2500  -999.2500  -999.2500  -999.2500   -88.0910     8.1050     6.7890     7.0430   -16.1260   121.2970
 1685.0000  -999.2500  -999.2500  -999.2500  -999.2500  -999.2500   -88.5720     8.0730     6.6870     6.9460   -16.3110   120.3860
 1685.5000  -999.2500  -999.2500  -999.2500  -999.2500  -999.2500   -89.0520     7.9550     6.5850     6.8990   -16.4960   119.9770
 1686.0000  -999.2500  -999.2500  -999.2500  -999.2500  -999.2500   -89.5330     7.8380     6.4740     6.8480   -16.6800   119.9750
 1686.5000  -999.2500  -999.2500  -999.2500  -999.2500  -999.2500   -90.0130     7.7340     6.4610     6.7840   -16.8410   121.3620
 1687.0000  -999.2500  -999.2500  -999.2500  -999.2500  -999.2500   -90.4940     7.7700     6.4460     6.7750   -16.8900   126.5360
 1687.5000  -999.2500  -999.2500  -999.2500  -999.2500  -999.2500   -90.9750     7.8090     6.4320     6.7610   -16.9500   131.5930
 1688.0000  -999.2500  -999.2500  -999.2500  -999.2500  -999.2500   -91.4550     7.8480     6.4170     6.7480   -17.0030   131.9740
 1688.5000  -999.2500  -999.2500  -999.2500  -999.2500  -999.2500   -91.9360     7.8810     6.4020     6.7350   -17.2590   122.9150
 1689.0000  -999.2500  -999.2500  -999.2500  -999.2500  -999.2500   -92.4160     7.8050     6.3880     6.7210   -17.2400   118.1270
 1689.5000  -999.2500  -999.2500  -999.2500  -999.2500  -999.2500   -92.7990     7.7090     6.3730     6.7210   -17.2370   119.1040
 1690.0000  -999.2500  -999.2500  -999.2500  -999.2500  -999.2500   -92.7990     7.6130     6.3580     6.7210   -17.2380   125.0970
 1690.5000  -999.2500  -999.2500  -999.2500  -999.2500  -999.2500   -92.7990     7.5200     6.3440     6.7210   -17.2410   123.0070
 1691.0000  -999.2500  -999.2500  -999.2500  -999.2500  -999.2500   -92.7990     7.5670     6.3290     6.7210   -17.0830   119.2320
 1691.5000  -999.2500  -999.2500  -999.2500  -999.2500  -999.2500   -92.7990     7.6220     6.3140     6.7210   -16.8670   117.1940
 1692.0000  -999.2500  -999.2500  -999.2500  -999.2500  -999.2500   -92.7990     7.6620     6.2990     6.7220   -16.5080   119.1570
 1692.5000  -999.2500  -999.2500  -999.2500  -999.2500  -999.2500   -92.7990     7.6920     6.2700     6.7220   -16.0470   122.7190
 1693.0000  -999.2500  -999.2500  -999.2500  -999.2500  -999.2500   -92.7990     7.7250     6.1990     6.6880   -15.6740   125.6330
 1693.5000  -999.2500  -999.2500  -999.2500  -999.2500  -999.2500   -92.7990     7.7550     5.8320     6.3670   -15.3820   128.8690
 1694.0000  -999.2500  -999.2500  -999.2500  -999.2500  -999.2500   -92.7990     7.7830     5.4660     6.0450   -15.0950   127.3830
 1694.5000  -999.2500  -999.2500  -999.2500  -999.2500  -999.2500   -92.7990     7.8040     5.0990     5.7230   -14.6670   124.8380
 1695.0000  -999.2500  -999.2500  -999.2500  -999.2500  -999.2500   -92.7990     6.7770     4.8950     5.4010   -14.2040   123.2860
 1695.5000  -999.2500  -999.2500  -999.2500  -999.2500  -999.2500   -92.7990     5.5040     4.7820     5.0790   -13.7420   120.8350
 1696.0000  -999.2500  -999.2500  -999.2500  -999.2500  -999.2500   -92.7990     4.4520     4.6700     4.7540   -13.2860   117.5960
 1696.5000  -999.2500  -999.2500  -999.2500  -999.2500  -999.2500   -92.7990     4.7370     4.5370     4.7100   -13.1430   114.3440
 1697.0000  -999.2500  -999.2500  -999.2500  -999.2500  -999.2500   -92.7990     5.4940     4.6290     5.0820   -13.5460   111.3340
 1697.5000  -999.2500  -999.2500  -999.2500  -999.2500  -999.2500   -92.7990     6.7770     4.8550     5.5440   -14.0870   111.1310
 1698.0000  -999.2500  -999.2500  -999.2500  -999.2500  -999.2500   -92.7990     8.2580     5.1660     5.9780   -14.6540   119.8760
 1698.5000  -999.2500  -999.2500  -999.2500  -999.2500  -999.2500   -92.7990     8.2370     5.5880     6.3200   -14.9900   126.1220
 1699.0000  -999.2500  -999.2500  -999.2500  -999.2500  -999.2500   -92.7990     8.2130     6.0100     6.6630   -15.3800   128.4030
 1699.5000  -999.2500  -999.2500  -999.2500  -999.2500  -999.2500   -92.7990     8.1880     6.4310     7.0050   -15.7610   128.0650
 1700.0000  -999.2500  -999.2500  -999.2500  -999.2500  -999.2500   -92.7990     8.1630     6.8530     7.1080   -16.1430   125.9070
