~VERSION INFORMATION
 VERS.                2.0:   CWLS LOG ASCII STANDARD - VERSION 2.0
 WRAP.                 NO:   ONE LINE PER DEPTH STEP
~WELL INFORMATION
#MNEM.UNIT      DATA TYPE    INFORMATION
#----------   ------------   ------------------------------
 STRT.F          172.0000:   START DEPTH
 STOP.F         3376.0000:   STOP DEPTH
 STEP.F            0.5000:   STEP LENGTH
 NULL.          -999.2500:   NO VALUE
 COMP.    FENIX & SCISSON:   COMPANY
 WELL. FENIX NPR 3 "AX" #23-2:   WELL
 FLD .                NPR:   FIELD
 LOC .       S2 T38N R78W:   LOCATION
 CNTY.            NATRONA:   COUNTY
 STAT.            WYOMING:   STATE
 CTRY. UNITED STATES OF AMERICA:   COUNTRY
 SRVC.              WELEX:   SERVICE COMPANY
 DATE.        02-DEC-1980:   LOGDATE
 API .     49025108740000:   API NUMBER
~CURVE INFORMATION
#MNEM.UNIT       API CODE    CURVE DESCRIPTION
#----------   ------------   ------------------------------
 DEPT.F                  :   
 CALD.IN     45 280 60 00:   CALIPER FROM DENSITY LOG
 CORR.G/C3   45 356 01 00:   DENSITY CORRECTION
 GRD .GAPI   45 310 01 00:   GAMMA RAY FROM DENSITY LOG
 RHOB.G/C3   45 350 01 00:   BULK DENSITY
 TENR.LBS    07 635 01 00:   TENSION
 SPR .MV     07 010 01 00:   SPONTANEOUS POTENTIAL
 SGRD.OHMM   07 220 05 00:   SHALLOW GUARD
 ILD .OHMM   07 120 46 00:   INDUCTION LOG DEEP RESISTIVITY
 ILM .OHMM   07 120 44 00:   INDUCTION LOG MEDIUM RESISTIVITY
~PARAMETER INFORMATION
#MNEM.UNIT          VALUE    DESCRIPTION
#----------   ------------   ------------------------------
 EKB .F         5133.0000:   Kelly bushing
 EGL .F         5123.0000:   Ground level
 EDF .F            0.0000:   Drilling floor
 TD  .F         3375.0000:   Total depth
 DATE.        02-DEC-1980:   Date logged
 CLNT.            A2DTECH:   Client Code
 SL  . 3800' FSL & 827' FWL:   Surface Location
 PD  .                 GL:   Permanent Datum
 EPD .F              5123:   Elevation Permanent Datum
 LMF .                 KB:   Log Measured From
 DMF .                 KB:   Drilling Measured From
 DAPD.F                10:   Feet Above Permanent Datum
 DD  .F              3375:   Depth driller
 DL  .F              3373:   Depth logger
 BLI .F              3371:   Bottom log interval
 TLI .F               181:   Top log interval
 CS1 .IN            8.625:   Casing size
 CBD1.      8.625" @ 181':   Casing driller 1
 CBL1.F               181:   Casing logger 1
 BS1 .IN            7.875:   Bit size
 BSD1.F              3375:   Depth drilled with bit1
 DFT .           CHEM/GEL:   Type fluid in hole
 DFD .                8.8:   Density
 DFV .                 45:   Viscosity
 DFPH.                  9:   pH
 DFL .                 16:   Fluid loss
 MSS .           FLOWLINE:   Source of sample
 RMS .OHMM           1.25:   Rm
 MST .F                64:   Rm Meas. temp.
 RMF .OHMM           1.17:   Rmf
 MFST.F                64:   Rmf Meas. temp.
 RMC .OHMM            1.1:   Rmc
 MCST.F                64:   Rmc Meas. temp.
 MFSS.               MEAS:   Source Rmf.
 MCSS.               MEAS:   Source Rmc.
 RMB .OHMM            .67:   Rm. at BHT
 BHT .F               120:   BHT.
 TCS .HRS               2:   Time Circ. stopped
 MRT .F               120:   Maximum recorded temp.
 LUN .               1892:   Logging unit number
 LUL .             CASPER:   Logging unit location
 ENGI.  PFRIMMER/MONNAHAN:   Recorded By
 WITN.              FIVAS:   Witnessed by
 ORIG.           5" PRINT:   Origin of data
 UWI .     49025108740000:   Unique Well ID
 DICO. A2D TECHNOLOGIES, INC.:   Digitizing Company
~OTHER INFORMATION
~A   DEPT     CALD       CORR         GRD      RHOB       TENR        SPR       SGRD        ILD        ILM   
# ...
 1230.5000     9.6710     0.0130   114.1040     2.5340   390.7530   -21.1840    10.6130     9.2830     9.6320
 1231.0000     9.6650     0.0120   115.6960     2.5150   392.0520   -21.2970    10.5400     9.2190     9.5650
 1231.5000     9.6590     0.0100   117.2430     2.5050   393.3510   -21.3770    10.4670     9.1550     9.4980
 1232.0000     9.6560     0.0090   118.7670     2.4990   394.6500   -21.1330    10.4000     9.0900     9.4320
 1232.5000     9.6520     0.0090   120.3030     2.4940   395.9490   -20.9180    10.4870     9.0260     9.3650
 1233.0000     9.6480     0.0100   119.4710     2.5040   397.2480   -20.6840    10.5930     8.9620     9.2980
 1233.5000     9.6440     0.0110   116.8020     2.5140   398.5470   -20.4630    10.5480     8.8980     9.2320
 1234.0000     9.6390     0.0120   116.0850     2.5230   399.8460   -20.2320    10.4800     8.8110     9.1420
 1234.5000     9.6350     0.0130   117.6630     2.5230   401.1450   -20.0100    10.4120     8.8250     9.1570
 1235.0000     9.6300     0.0140   119.2340     2.5230   402.4450   -19.7870    10.3440     8.8490     9.1810
 1235.5000     9.6260     0.0130   120.3950     2.5230   403.7440   -19.5240    10.2760     8.8730     9.2060
 1236.0000     9.6210     0.0130   120.9090     2.5210   405.0430   -19.5470    10.0240     8.8960     9.2300
 1236.5000     9.6170     0.0110   121.3920     2.5250   406.3420   -20.0550    10.1080     8.9200     9.2550
 1237.0000     9.6140     0.0120   121.3410     2.5280   407.6410   -20.5640    10.2440     8.9430     9.2790
 1237.5000     9.6120     0.0150   120.9360     2.5320   408.9400   -20.6850    10.3800     8.9670     9.3040
 1238.0000     9.6100     0.0190   119.2430     2.5390   410.2390   -20.7960    10.5150     8.9900     9.3280
 1238.5000     9.6080     0.0220   120.6580     2.5470   411.5380   -20.8850    10.6510     9.0140     9.3520
 1239.0000     9.6060     0.0220   122.5840     2.5430   412.8370   -20.9910    10.7900     9.0370     9.3760
 1239.5000     9.6040     0.0230   124.5110     2.5510   414.1370   -21.0860    10.7900     9.0600     9.4000
 1240.0000     9.6020     0.0240   126.4360     2.5550   415.4360   -21.1920    10.5430     9.0840     9.4250
 1240.5000     9.6000     0.0240   126.9830     2.5400   416.7350   -21.2820    10.3320     9.1080     9.4500
 1241.0000     9.5980     0.0250   126.1760     2.5280   418.0340   -21.3820    10.1210     9.1400     9.4830
 1241.5000     9.5960     0.0260   125.3690     2.5250   419.3330   -21.1260    10.0240     9.1280     9.4700
 1242.0000     9.5980     0.0270   123.6200     2.5390   420.6320   -20.8140    10.1220     9.0970     9.4380
 1242.5000     9.6050     0.0270   121.0810     2.5490   421.9310   -20.4950    10.2550     9.0680     9.4080
 1243.0000     9.6120     0.0280   118.5300     2.5520   423.2300   -20.1820    10.4000     9.0390     9.3780
 1243.5000     9.6190     0.0290   115.9360     2.5460   424.5290   -19.8690    10.2100     9.0100     9.3480
 1244.0000     9.6260     0.0290   115.1690     2.5450   425.8290   -19.5530    10.2100     8.9810     9.3180
 1244.5000     9.6320     0.0300   115.2610     2.5530   427.1280   -19.2340    10.2100     8.9520     9.2880
 1245.0000     9.6390     0.0310   115.7130     2.5610   428.4270   -19.0160    10.0400     8.9230     9.2580
 1245.5000     9.6460     0.0310   116.1690     2.5690   429.7260   -19.0690    10.0990     8.8940     9.2280
 1246.0000     9.6530     0.0320   116.5600     2.5750   431.0250   -19.1160    10.1570     8.8650     9.1980
 1246.5000     9.6600     0.0330   115.4820     2.5660   432.2250   -19.1710    10.2150     8.8360     9.1670
 1247.0000     9.6660     0.0330   114.3160     2.5790   433.3070   -19.2220    10.2730     8.8070     9.1370
 1247.5000     9.6730     0.0340   115.4740     2.5800   434.3900   -19.2750    10.3320     8.7780     9.1070
 1248.0000     9.6800     0.0340   116.7970     2.5710   435.4720   -19.3270    10.4000     8.7490     9.0770
 1248.5000     9.6870     0.0350   117.7830     2.5730   436.5550   -19.3800    10.3020     8.7200     9.0470
 1249.0000     9.6940     0.0350   117.5790     2.5790   437.6380   -19.4020    10.0240     8.6910     9.0170
 1249.5000     9.7000     0.0360   117.4010     2.5860   438.7200   -19.4000    10.0240     8.6620     8.9870
 1250.0000     9.7070     0.0360   117.2260     2.5840   439.8030   -19.4000    10.0590     8.6430     8.9670
 1250.5000     9.7140     0.0360   117.0690     2.5790   440.8850   -19.4000    10.1160     8.6310     8.9540
 1251.0000     9.7210     0.0360   115.9740     2.5790   441.9680   -19.4000    10.1740     8.6180     8.9420
 1251.5000     9.7280     0.0360   114.5850     2.5940   443.0500   -19.3990    10.2100     8.6060     8.9290
 1252.0000     9.7340     0.0360   113.4970     2.6220   444.1330   -19.4030    10.1620     8.5940     8.9160
 1252.5000     9.7410     0.0360   114.4520     2.6030   445.2160   -19.3600    10.0790     8.5810     8.9030
 1253.0000     9.7470     0.0350   115.9620     2.5760   446.2980   -19.2460     9.9960     8.5690     8.8910
 1253.5000     9.7540     0.0340   118.4830     2.5430   447.3810   -19.1370     9.9130     8.5570     8.8780
 1254.0000     9.7600     0.0330   121.0770     2.5470   448.4630   -19.0250     9.8410     8.5440     8.8650
 1254.5000     9.7660     0.0310   118.8680     2.5550   449.5460   -18.9170     9.7860     8.5320     8.8520
 1255.0000     9.7730     0.0300   116.5530     2.5620   450.6290   -18.8010     9.7120     8.5200     8.8390
 1255.5000     9.7790     0.0290   116.6050     2.5710   451.7110   -18.6950     9.6610     8.5070     8.8270
 1256.0000     9.7850     0.0280   116.6070     2.5630   452.7940   -18.6210     9.6610     8.4950     8.8140
 1256.5000     9.7920     0.0260   117.4460     2.5480   453.8760   -18.8350     9.4470     8.4830     8.8010
 1257.0000     9.7980     0.0250   119.1250     2.5390   454.9590   -19.0250     9.3880     8.4700     8.7880
 1257.5000     9.7890     0.0240   120.8030     2.5440   456.0420   -19.2310     9.3360     8.4580     8.7750
 1258.0000     9.7780     0.0230   122.4850     2.5390   457.1240   -19.3960     9.3090     8.4460     8.7630
 1258.5000     9.7670     0.0210   124.1720     2.5250   458.2070   -19.4360     9.3260     8.4330     8.7500
 1259.0000     9.7570     0.0200   125.8850     2.5310   459.2890   -19.4720     9.3410     8.4210     8.7370
 1259.5000     9.7460     0.0200   126.1760     2.5380   460.3720   -19.5030     9.3550     8.4090     8.7240
 1260.0000     9.7360     0.0190   124.1630     2.5420   461.4550   -19.5370     9.3700     8.3960     8.7120
 1260.5000     9.7250     0.0190   122.2410     2.5310   462.5370   -19.5710     9.3840     8.3840     8.6990
 1261.0000     9.7150     0.0180   122.2690     2.5390   463.6200   -19.6030     9.3990     8.3720     8.6860
 1261.5000     9.7040     0.0180   122.3750     2.5490   464.7020   -19.6370     9.4130     8.3600     8.6730
 1262.0000     9.6940     0.0170   122.4770     2.5580   465.7850   -19.6710     9.4270     8.3470     8.6600
 1262.5000     9.6830     0.0160   122.5710     2.5540   466.8670   -19.7010     9.4420     8.3370     8.6500
 1263.0000     9.6720     0.0140   122.9990     2.5530   467.9500   -19.7400     9.4540     8.3270     8.6390
 1263.5000     9.6620     0.0130   122.9620     2.5550   469.0330   -19.7670     9.4710     8.3190     8.6310
 1264.0000     9.6510     0.0120   121.3550     2.5550   470.1150   -19.7770     9.4890     8.3100     8.6220
 1264.5000     9.6410     0.0160   119.8650     2.5500   471.1980   -19.4860     9.4010     8.3010     8.6130
 1265.0000     9.6300     0.0190   120.8360     2.5490   472.4520   -19.2090     9.3020     8.2930     8.6040
 1265.5000     9.6200     0.0230   121.9420     2.5550   474.0090   -18.9190     9.3140     8.2840     8.5950
 1266.0000     9.6090     0.0290   123.7650     2.5610   475.5650   -18.6420     9.3090     8.2760     8.5860
 1266.5000     9.5980     0.0310   126.7670     2.5740   477.1210   -18.3340     9.3110     8.2670     8.5770
