~VERSION INFORMATION
 VERS.                2.0:   CWLS LOG ASCII STANDARD - VERSION 2.0
 WRAP.                 NO:   ONE LINE PER DEPTH STEP
~WELL INFORMATION
#MNEM.UNIT      DATA TYPE    INFORMATION
#----------   ------------   ------------------------------
 STRT.F          200.0000:   START DEPTH
 STOP.F         3058.0000:   STOP DEPTH
 STEP.F            0.5000:   STEP LENGTH
 NULL.          -999.2500:   NO VALUE
 COMP.    FENIX & SCISSON:   COMPANY
 WELL. FENIX & SCISSON "A" #45-34:   WELL
 FLD .              N P R:   FIELD
 LOC .      S34 T39N R78W:   LOCATION
 CNTY.            NATRONA:   COUNTY
 STAT.            WYOMING:   STATE
 CTRY. UNITED STATES OF AMERICA:   COUNTRY
 SRVC.              WELEX:   SERVICE COMPANY
 DATE.        11-MAY-1977:   LOGDATE
 API .     49025103760000:   API NUMBER
~CURVE INFORMATION
#MNEM.UNIT       API CODE    CURVE DESCRIPTION
#----------   ------------   ------------------------------
 DEPT.F                  :   
 GRD .GAPI   45 310 01 00:   GAMMA RAY FROM DENSITY LOG
 CALD.IN     45 280 60 00:   CALIPER FROM DENSITY LOG
 RHOB.G/C3   45 350 01 00:   BULK DENSITY
 CORR.G/C3   45 356 01 00:   DENSITY CORRECTION
 SPR .MV     07 010 01 00:   SPONTANEOUS POTENTIAL
 ILD .OHMM   07 120 46 00:   DEEP INDUCTION RESISTIVITY
 ILM .OHMM   07 120 44 00:   INDUCTION LOG MEDIUM RESISTIVITY
 GURD.OHMM   07 220 05 00:   GUARD LOG RESISTIVITY
~PARAMETER INFORMATION
#MNEM.UNIT          VALUE    DESCRIPTION
#----------   ------------   ------------------------------
 EKB .F         5123.0000:   Kelly bushing
 EGL .F         5113.0000:   Ground level
 EDF .F            0.0000:   Drilling floor
 EPD .F            0.0000:   Permanent datum
 TD  .F         3060.0000:   Total depth
 DATE.        11-MAY-1977:   Date logged
 CLNT.            A2DTECH:   Client Code
 SL  . 2310' FSL & 2310' FWL:   Surface Location
 PD  .                 GL:   Permanent Datum
 DD  .F              3060:   Depth driller
 DL  .F              3060:   Depth logger
 BLI .F              3058:   Bottom log interval
 CS1 .IN            8.625:   Casing size
 CBD1.      8.625" @ 205':   Casing driller 1
 CBL1.F               214:   Casing logger 1
 BS1 .IN            7.875:   Bit size
 DFT .            KCL/MUD:   Type fluid in hole
 DFD .                8.8:   Density
 DFV .                 45:   Viscosity
 MSS .           FLOWLINE:   Source of sample
 RMS .OHMM            3.2:   Rm
 MST .F                85:   Rm Meas. temp.
 RMF .OHMM            2.7:   Rmf
 MFST.F                85:   Rmf Meas. temp.
 RMC .OHMM            3.6:   Rmc
 MCST.F                85:   Rmc Meas. temp.
 MFSS.               CALC:   Source Rmf.
 RMB .OHMM           2.44:   Rm. at BHT
 BHT .F               112:   BHT.
 TCS .HRS             2.5:   Time Circ. stopped
 MRT .F               112:   Maximum recorded temp.
 LUN .               8611:   Logging unit number
 LUL .           GILLETTE:   Logging unit location
 ENGI.            C. DOAK:   Recorded By
 WITN.      B. HARRINGTON:   Witnessed by
 ORIG.           5" PRINT:   Origin of data
 UWI .     49025103760000:   Unique Well ID
 DICO. A2D TECHNOLOGIES, INC.:   Digitizing Company
 DAPD.F                10:   Feet Above Permanent Datum
 BSD1.F              3060:   Depth drilled with bit1
 MCSS.               CALC:   Source Rmc.
 TLI .F               200:   Top log interval
~OTHER INFORMATION
~A   DEPT       GRD      CALD         RHOB      CORR       SPR        ILD        ILM       GURD   
# ...
 1536.5000   114.9910     9.7010     2.4770     0.0230   -44.0090     7.1420     7.2050     9.6250
 1537.0000   115.6850     9.7070     2.4790     0.0260   -44.0020     7.1370     7.2010     9.6120
 1537.5000   116.3850     9.7140     2.4840     0.0270   -43.9950     7.1170     7.1970     9.5990
 1538.0000   117.1850     9.7210     2.4810     0.0270   -43.9890     7.0980     7.1940     9.5860
 1538.5000   117.2470     9.7270     2.4730     0.0270   -43.9820     7.0790     7.1900     9.5730
 1539.0000   117.2660     9.7350     2.4660     0.0270   -43.9750     7.0600     7.1870     9.5600
 1539.5000   117.2470     9.7350     2.4590     0.0270   -43.9680     7.0410     7.1830     9.5470
 1540.0000   117.2580     9.7340     2.4530     0.0270   -43.9620     7.0220     7.1790     9.5340
 1540.5000   117.2540     9.7300     2.4570     0.0270   -43.9550     7.0030     7.1760     9.5210
 1541.0000   117.2550     9.7280     2.4610     0.0270   -43.9480     6.9840     7.1720     9.5080
 1541.5000   117.2560     9.7250     2.4600     0.0230   -43.9410     6.9650     7.1680     9.4940
 1542.0000   117.2510     9.7220     2.4520     0.0190   -43.9350     6.9460     7.1650     9.4810
 1542.5000   117.3130     9.7190     2.4450     0.0150   -43.9280     6.9270     7.1610     9.4690
 1543.0000   117.4880     9.7160     2.4450     0.0120   -43.9210     6.9080     7.1570     9.4550
 1543.5000   117.6480     9.7130     2.4470     0.0080   -43.9140     6.8890     7.1540     9.4420
 1544.0000   117.7920     9.7100     2.4400     0.0040   -43.9080     6.8700     7.1500     9.4310
 1544.5000   118.0280     9.7070     2.4360     0.0000   -43.9010     6.8510     7.1460     9.4170
 1545.0000   117.5150     9.7040     2.4460     0.0000   -43.8940     6.8320     7.1440     9.4050
 1545.5000   116.4560     9.7010     2.4530     0.0020   -43.8880     6.8130     7.1440     9.4220
 1546.0000   115.4920     9.6980     2.4490     0.0040   -43.8810     6.7930     7.1440     9.3890
 1546.5000   114.5090     9.6960     2.4480     0.0060   -43.8740     6.7650     7.1440     9.5870
 1547.0000   113.5310     9.6910     2.4550     0.0090   -43.8670     6.7690     7.1440     9.7730
 1547.5000   112.5870     9.6810     2.4590     0.0110   -43.8610     6.8040     7.1440     9.7550
 1548.0000   112.2360     9.6720     2.4620     0.0130   -43.8540     6.8390     7.1440     9.7720
 1548.5000   111.8710     9.6630     2.4670     0.0150   -43.8470     6.8740     7.1440     9.7680
 1549.0000   111.8770     9.6560     2.4720     0.0150   -43.8400     6.9090     7.1440     9.7680
 1549.5000   112.1180     9.6670     2.4760     0.0150   -43.8340     6.9440     7.1440     9.7730
 1550.0000   112.3290     9.6800     2.4770     0.0140   -43.8270     6.9780     7.1440     9.7540
 1550.5000   112.5510     9.6930     2.4640     0.0130   -43.8200     7.0120     7.1440     9.5900
 1551.0000   112.7660     9.7060     2.4530     0.0130   -43.8130     7.0030     7.1440     9.5790
 1551.5000   112.9730     9.7190     2.4410     0.0120   -43.8070     6.9930     7.1440     9.3940
 1552.0000   113.2470     9.7330     2.4330     0.0110   -43.8000     6.9830     7.1440     9.4330
 1552.5000   112.9720     9.7460     2.4470     0.0120   -43.7930     6.9730     7.1440     9.2270
 1553.0000   111.9440     9.7590     2.4580     0.0170   -43.7870     6.9620     7.1440     9.2520
 1553.5000   110.9940     9.7720     2.4710     0.0210   -43.7800     6.9520     7.1440     9.2450
 1554.0000   109.9780     9.7860     2.4800     0.0250   -43.7730     6.9420     7.1440     9.2410
 1554.5000   109.0550     9.7980     2.4880     0.0290   -43.7660     6.9320     7.1440     9.2410
 1555.0000   107.9510     9.8130     2.4880     0.0310   -43.7600     6.9210     7.1440     9.2410
 1555.5000   108.4040     9.8060     2.4880     0.0280   -43.7530     6.9110     7.1440     9.2410
 1556.0000   109.0910     9.7960     2.4880     0.0240   -43.7460     6.9010     7.1430     9.4120
 1556.5000   109.8110     9.7870     2.4880     0.0190   -43.7390     6.8900     7.1460     9.4120
 1557.0000   110.5040     9.7750     2.4870     0.0150   -43.7330     6.8000     7.1160     9.4120
 1557.5000   111.2100     9.7780     2.4800     0.0110   -43.7260     6.6440     7.0600     9.4120
 1558.0000   111.7260     9.7850     2.4740     0.0110   -43.7190     6.4880     7.0040     9.4310
 1558.5000   111.4110     9.7920     2.4800     0.0160   -43.7120     6.3310     6.9490     9.2720
 1559.0000   111.1590     9.8000     2.4930     0.0190   -43.7060     6.1750     6.8940     9.1060
 1559.5000   110.8630     9.8070     2.4960     0.0230   -43.6990     5.9440     6.8400     8.8880
 1560.0000   110.5880     9.8140     2.4920     0.0280   -43.6920     5.9600     6.7850     8.9200
 1560.5000   110.3130     9.8210     2.4890     0.0310   -43.6850     5.9910     6.7300     8.9000
 1561.0000   110.0190     9.8290     2.4840     0.0280   -43.6790     6.0220     6.6370     8.9100
 1561.5000   109.7620     9.8360     2.4800     0.0250   -43.6720     6.0530     6.6420     8.9060
 1562.0000   109.4470     9.8430     2.4660     0.0210   -43.6650     6.0830     6.6580     8.9070
 1562.5000   109.7720     9.8530     2.4500     0.0180   -43.6590     6.1140     6.6740     8.9070
 1563.0000   110.2210     9.8340     2.4370     0.0150   -43.6520     6.1450     6.6900     8.9070
 1563.5000   110.6830     9.7940     2.4400     0.0110   -43.6450     6.1760     6.7060     8.9070
 1564.0000   111.1290     9.7570     2.4440     0.0110   -43.6380     6.2070     6.7220     8.9070
 1564.5000   111.5850     9.7210     2.4460     0.0120   -43.6320     6.2380     6.7370     8.9070
 1565.0000   112.0350     9.6830     2.4450     0.0130   -43.6250     6.2680     6.7530     8.9070
 1565.5000   112.4910     9.6460     2.4330     0.0140   -43.6180     6.2990     6.7690     8.9720
 1566.0000   112.9380     9.6190     2.4210     0.0150   -43.6110     6.3300     6.7850     9.0670
 1566.5000   113.3910     9.6420     2.4140     0.0140   -43.6050     6.3610     6.8010     9.1620
 1567.0000   113.8700     9.6610     2.4220     0.0110   -43.5980     6.3920     6.8170     9.2570
 1567.5000   114.1240     9.6830     2.4290     0.0090   -43.5910     6.4220     6.8330     9.3520
 1568.0000   113.8120     9.7030     2.4260     0.0070   -43.5840     6.4530     6.8490     9.4480
 1568.5000   113.5340     9.7240     2.4230     0.0050   -43.5780     6.4840     6.8650     9.5430
 1569.0000   113.2350     9.7440     2.4320     0.0030   -43.5710     6.5150     6.8800     9.6380
 1569.5000   112.9380     9.7650     2.4430     0.0010   -43.5640     6.5460     6.8960     9.7330
 1570.0000   112.6570     9.7860     2.4550    -0.0010   -43.5580     6.5770     6.9120     9.8280
 1570.5000   112.3360     9.8060     2.4660     0.0020   -43.5510     6.6070     6.9280     9.9230
 1571.0000   112.0770     9.8120     2.4780     0.0070   -43.5440     6.6370     6.9440    10.0190
 1571.5000   111.8380     9.7740     2.4810     0.0120   -43.5370     6.6570     6.9600    10.1300
 1572.0000   112.9050     9.7420     2.4770     0.0170   -43.5310     6.6760     6.9760    10.0570
 1572.5000   113.9990     9.7090     2.4760     0.0220   -43.5240     6.6950     6.9910     9.9680
 1573.0000   114.8640     9.6760     2.4790     0.0270   -43.5170     6.7150     7.0120     9.8800
 1573.5000   114.5420     9.6430     2.4790     0.0320   -43.5100     6.7350     7.0010     9.7910
 1574.0000   114.2990     9.6170     2.4770     0.0350   -43.5040     6.7600     6.9760     9.7030
 1574.5000   114.0000     9.6170     2.4740     0.0310   -43.4970     6.7280     6.9520     9.6140
 1575.0000   113.7250     9.6200     2.4700     0.0280   -43.4900     6.6730     6.9290     9.5250
 1575.5000   113.4510     9.6570     2.4660     0.0240   -43.4830     6.6180     6.9050     9.4370
 1576.0000   113.1550     9.6880     2.4620     0.0200   -43.4770     6.5630     6.8820     9.3480
 1576.5000   112.9020     9.7220     2.4580     0.0190   -43.4700     6.5080     6.8590     9.2590
