~VERSION INFORMATION
 VERS.                2.0:   CWLS LOG ASCII STANDARD - VERSION 2.0
 WRAP.                 NO:   ONE LINE PER DEPTH STEP
~WELL INFORMATION
#MNEM.UNIT      DATA TYPE    INFORMATION
#----------   ------------   ------------------------------
 STRT.F            0.0000:   START DEPTH
 STOP.F         3474.0000:   STOP DEPTH
 STEP.F            0.5000:   STEP LENGTH
 NULL.          -999.2500:   NO VALUE
 COMP. LAWRENCE ALLISON & ASSOCIATES:   COMPANY
 WELL. LAWRENCE ALLISON #13-AX-14:   WELL
 FLD .            WILDCAT:   FIELD
 LOC .      S14 T38N R78W:   LOCATION
 CNTY.            NATRONA:   COUNTY
 STAT.            WYOMING:   STATE
 CTRY. UNITED STATES OF AMERICA:   COUNTRY
 SRVC.      DRESSER ATLAS:   SERVICE COMPANY
 DATE.        31-MAR-1986:   LOGDATE
 API .     49025110640000:   API NUMBER
~CURVE INFORMATION
#MNEM.UNIT       API CODE    CURVE DESCRIPTION
#----------   ------------   ------------------------------
 DEPT.F                  :   
 TEND.LBS    45 635 01 00:   TENSION FROM DENSITY LOG
 RHOB.G/C3   45 350 01 00:   BULK DENSITY
 CORR.G/C3   45 356 01 00:   DENSITY CORRECTION
 CALD.IN     45 280 60 00:   CALIPER FROM DENSITY LOG
 NPHI.DEC    42 890 00 00:   NEUTRON POROSITY
 TENR.LBS    07 635 01 00:   TENSION FROM RESISTIVITY
 RFOC.OHMM   07 220 01 00:   RESISTIVITY FOCUSED LOG RES.
 RILD.OHMM   07 120 46 00:   DEEP INDUCTION RESISTIVITY
 RILM.OHMM   07 120 44 00:   INDUCTION LOG MEDIUM RESISTIVITY
 GRR .GAPI   07 310 01 00:   GAMMA RAY FROM RESISTIVITY
 SPR .MV     07 010 01 00:   SPONTANEOUS POTENTIAL
 TENS.LBS    60 635 01 00:   TENSION FROM SONIC LOG
 DT  .US/F   60 520 00 00:   DELTA TIME
~PARAMETER INFORMATION
#MNEM.UNIT          VALUE    DESCRIPTION
#----------   ------------   ------------------------------
 EKB .F         5251.0000:   Kelly bushing
 EGL .F         5239.2000:   Ground level
 EDF .F         5248.1000:   Drilling floor
 TD  .F         3456.0000:   Total depth
 DATE.        31-MAR-1986:   Date logged
 CLNT.            A2DTECH:   Client Code
 SL  . 238' FWL & 1739' FNL:   Surface Location
 PD  .                 GL:   Permanent Datum
 EPD .F            5239.2:   Elevation Permanent Datum
 LMF .                 KB:   Log Measured From
 DMF .                 KB:   Drilling Measured From
 DAPD.F              11.8:   Feet Above Permanent Datum
 DD  .F              3450:   Depth driller
 DL  .F              3456:   Depth logger
 BLI .F              3450:   Bottom log interval
 CS1 .IN            8.625:   Casing size
 CBD1.      8.625" @ 689':   Casing driller 1
 CBL1.F               692:   Casing logger 1
 BS1 .IN            7.875:   Bit size
 BSD1.F              3450:   Depth drilled with bit1
 DFT .        POLYMER/KCL:   Type fluid in hole
 DFD .                9.1:   Density
 DFV .                 38:   Viscosity
 DFPH.                8.5:   pH
 DFL .               11.2:   Fluid loss
 MSS .           FLOWLINE:   Source of sample
 RMS .OHMM            .29:   Rm
 MST .F                65:   Rm Meas. temp.
 RMF .OHMM           .235:   Rmf
 MFST.F                65:   Rmf Meas. temp.
 RMC .OHMM           .378:   Rmc
 MCST.F                65:   Rmc Meas. temp.
 MFSS.               MEAS:   Source Rmf.
 MCSS.               MEAS:   Source Rmc.
 RMB .OHMM           .163:   Rm. at BHT
 BHT .F               115:   BHT.
 TCS .HRS               3:   Time Circ. stopped
 MRT .F               115:   Maximum recorded temp.
 LUN .            HL-6274:   Logging unit number
 LUL .           GILLETTE:   Logging unit location
 ENGI.             RAUTIO:   Recorded By
 WITN.             STRONG:   Witnessed by
 ORIG.           5" PRINT:   Origin of data
 UWI .     49025110640000:   Unique Well ID
 DICO. A2D TECHNOLOGIES, INC.:   Digitizing Company
~OTHER INFORMATION
~A    DEPT    TEND       RHOB       CORR       CALD       NPHI       TENR       RFOC       RILD       RILM          GRR      SPR       TENS         DT   
# ...
 3094.0000   -54.8050     2.4890     0.0040     8.9090     0.2460   -64.4430     3.7350     2.5920     3.3340   154.8640   -20.8960   -54.8050    96.1730
 3094.5000   -54.8050     2.5320     0.0050     8.8980     0.2330   -64.4430     5.6940     2.8210     3.7430   126.6710   -21.8220   -54.8050    90.6000
 3095.0000   -54.8050     2.5420     0.0070     8.9020     0.2240   -64.4430     5.6410     3.3080     4.1510   110.9200   -22.7370   -54.8050    85.0270
 3095.5000   -54.8050     2.5440     0.0080     8.9070     0.2210   -64.4430     6.4800     3.8510     4.5590   107.3030   -23.3480   -54.8050    81.3780
 3096.0000   -54.8050     2.5410     0.0120     8.9060     0.2210   -64.4430     6.4320     4.3940     4.8660   108.3640   -23.0480   -54.8050    80.0670
 3096.5000   -54.8050     2.5250     0.0310     8.8770     0.2350   -64.4430     6.3600     4.9370     5.3880   112.6290   -23.3770   -54.8050    79.9900
 3097.0000   -54.8050     2.5080     0.0500     8.8480     0.2520   -64.4430     6.3030     5.3400     5.6070   115.3760   -23.8230   -54.8050    80.1480
 3097.5000   -54.8050     2.5020     0.0420     8.8200     0.2680   -64.4430     6.2950     5.6570     5.8270   117.5440   -24.7140   -54.8050    80.3930
 3098.0000   -54.8050     2.5070     0.0190     8.7910     0.2690   -65.3270     6.1960     5.8440     5.9550   121.4350   -25.6150   -54.8050    80.6670
 3098.5000   -54.8050     2.5100    -0.0020     8.7620     0.2670   -70.3730     6.2380     5.7550     5.8810   124.8150   -26.1690   -56.2220    81.1010
 3099.0000   -54.8050     2.5110    -0.0030     8.7590     0.2610   -75.4200     6.3030     5.6940     5.8540   125.1590   -26.4730   -58.6700    81.2910
 3099.5000   -54.8050     2.5120    -0.0040     8.7700     0.2570   -80.4660     6.3930     5.7580     6.0180   123.6330   -26.7790   -61.1180    81.2910
 3100.0000   -54.8050     2.5050    -0.0050     8.7810     0.2620   -85.5120     6.5660     5.8810     6.1300   122.1420   -27.0010   -63.5660    81.1190
 3100.5000   -54.8050     2.4990    -0.0140     8.7930     0.2670   -90.5580     6.7240     6.0040     6.2690   122.4350   -26.9500   -64.8150    80.9330
 3101.0000   -54.8050     2.4980    -0.0230     8.7770     0.2610   -95.6040     6.8330     6.1270     6.3940   123.7070   -26.0470   -74.8250    80.7460
 3101.5000   -54.8050     2.4970    -0.0250     8.7400     0.2480  -100.6500     6.9570     6.2450     6.5870   125.0340   -25.2140   -69.0010    80.5590
 3102.0000   -54.8050     2.4960    -0.0190     8.7380     0.2360  -103.0930     7.2350     6.2750     6.5360   125.8760   -25.0680   -60.0830    80.0250
 3102.5000   -54.8050     2.5020    -0.0130     8.7420     0.2360   -96.5400     7.5430     6.3610     6.4340   124.3590   -24.8030   -51.1650    79.2890
 3103.0000   -54.8050     2.5030    -0.0100     8.7460     0.2460   -89.9870     7.7950     6.2220     6.3320   122.7410   -24.3130   -42.2470    79.0980
 3103.5000   -54.8050     2.5020    -0.0090     8.7500     0.2540   -84.2870     7.5050     6.0850     6.2300   122.5760   -23.8250   -34.7850    79.3890
 3104.0000   -54.8050     2.4960    -0.0090     8.7530     0.2540   -82.9580     7.0370     5.9480     6.1280   124.4710   -23.3400   -41.0580    80.4560
 3104.5000   -55.1850     2.4930    -0.0070     8.7750     0.2560   -81.6300     6.5690     5.8000     6.0180   128.8140   -23.0020   -47.5980    81.5680
 3105.0000   -55.6680     2.4950     0.0020     8.7620     0.2570   -80.3020     6.2450     5.8000     6.1200   130.7670   -23.0090   -54.8050    82.7930
 3105.5000   -56.1520     2.4990     0.0020     8.7410     0.2590   -78.9730     6.3890     5.8000     6.2310   130.9560   -23.0160   -54.8050    82.9410
 3106.0000   -56.6360     2.5020    -0.0020     8.7150     0.2570   -77.6450     6.5400     5.8000     6.1870   129.2150   -23.1870   -54.8050    82.9930
 3106.5000   -57.1200     2.5090    -0.0070     8.7850     0.2480   -76.3170     6.5400     5.8000     6.1870   125.5440   -23.6780   -54.8050    82.5250
 3107.0000   -57.6040     2.5180    -0.0120     8.7310     0.2390   -74.9880     6.5400     5.9810     6.2450   122.5380   -24.1230   -54.4350    82.0920
 3107.5000   -58.0870     2.5240    -0.0140     8.7100     0.2350   -73.6600     6.8290     6.1550     6.5100   119.0230   -24.5660   -53.8510    81.3060
 3108.0000   -58.5710     2.5250    -0.0080     8.7670     0.2350   -72.3320     7.3430     6.3290     6.8350   113.6480   -25.0090   -53.2680    80.1560
 3108.5000   -59.0550     2.5250    -0.0030     8.7240     0.2350   -71.0040     7.8570     6.5030     7.1600   111.2100   -25.4500   -52.6840    78.6890
 3109.0000   -59.5390     2.5250     0.0000     8.7140     0.2320   -69.6750     8.1630     6.6780     7.3420   111.2300   -25.8900   -52.1000    77.9490
 3109.5000   -60.0230     2.5310     0.0020     8.7100     0.2300   -68.3470     8.3150     6.8560     7.5280   112.1140   -26.2410   -51.5160    77.5490
 3110.0000   -60.5070     2.5360     0.0040     8.7060     0.2330   -67.0190     8.3930     7.0370     7.7230   112.9670   -26.3870   -50.9320    77.4750
 3110.5000   -60.9900     2.5430     0.0060     8.7020     0.2420   -65.6900     8.3930     7.2170     7.8030   113.6860   -26.3730   -50.3480    77.4010
 3111.0000   -61.4740     2.5420     0.0120     8.6980     0.2420   -64.3620     8.3930     7.2830     7.8920   112.6440   -25.9230   -49.7640    77.3280
 3111.5000   -61.9580     2.5360     0.0120     8.6950     0.2410   -63.0340     8.3700     7.3320     7.9810   111.3520   -25.4800   -49.1800    77.2870
 3112.0000   -62.4420     2.5240     0.0000     8.6910     0.2460   -61.7050     8.3360     7.3820     8.0210   112.1710   -25.0380   -48.5960    77.2870
 3112.5000   -62.9260     2.5130    -0.0130     8.6870     0.2480   -60.3770     8.3150     7.4310     8.0390   116.1820   -24.6180   -48.0120    77.5650
 3113.0000   -63.4090     2.5030    -0.0150     8.6830     0.2390   -59.0490     8.2390     7.4810     8.0560   116.3840   -24.7170   -47.4280    77.7880
 3113.5000   -63.8930     2.5000    -0.0170     8.6790     0.2270   -57.7200     8.2390     7.5390     8.0730   115.0090   -24.7990   -46.8440    77.7280
 3114.0000   -64.3770     2.5020    -0.0090     8.6760     0.2190   -56.3920     8.3930     7.6120     8.0880   113.0630   -24.4630   -46.2610    77.3600
 3114.5000   -64.8610     2.5100    -0.0080     8.6420     0.2220   -55.0640     9.1200     7.6850     8.0880   112.1610   -23.8610   -45.6770    76.9920
 3115.0000   -65.3450     2.5170    -0.0080     8.6320     0.2250   -58.9720     8.9880     7.7580     8.0880   112.1760   -23.2380   -45.0930    76.7290
 3115.5000   -65.8290     2.5220    -0.0060     8.6250     0.2280   -67.9080     8.8020     7.7950     8.0880   112.5550   -23.2040   -47.4640    76.5090
 3116.0000   -66.3120     2.5270     0.0030     8.6180     0.2230   -74.4730     8.6280     7.6330     8.0880   113.7950   -23.2060   -52.9140    76.2880
 3116.5000   -66.7960     2.5310     0.0130     8.6040     0.2190   -74.4730     8.8400     7.5120     8.0220   116.1330   -23.2060   -51.2460    76.0670
 3117.0000   -67.2800     2.5380     0.0170     8.5880     0.2200   -74.4730     8.9530     7.4770     7.8750   117.4550   -23.2090   -45.7960    76.0640
 3117.5000   -67.7640     2.5390     0.0210     8.5810     0.2270   -74.4730     8.8920     7.3230     7.7270   119.2000   -22.8670   -40.3460    76.4060
 3118.0000   -68.2480     2.5340     0.0180     8.5880     0.2340   -74.4730     8.4820     7.1680     7.5800   120.9680   -22.3950   -34.7850    77.4470
 3118.5000   -68.7310     2.5280     0.0140     8.5940     0.2380   -74.4730     7.9930     7.0140     7.4330   123.6340   -22.4100   -54.8050    78.6550
 3119.0000   -69.2150     2.5240     0.0090     8.5920     0.2380   -74.4730     7.5040     6.8590     7.3070   126.9510   -22.4120   -54.8050    79.7900
 3119.5000   -69.6990     2.5230     0.0010     8.5740     0.2380   -74.4730     7.3740     6.7240     7.2690   129.5480   -22.4100   -54.8050    79.7900
