~VERSION INFORMATION
 VERS.                2.0:   CWLS LOG ASCII STANDARD - VERSION 2.0
 WRAP.                 NO:   ONE LINE PER DEPTH STEP
~WELL INFORMATION
#MNEM.UNIT      DATA TYPE    INFORMATION
#----------   ------------   ------------------------------
 STRT.F          590.0000:   START DEPTH
 STOP.F         3428.0000:   STOP DEPTH
 STEP.F            0.5000:   STEP LENGTH
 NULL.          -999.2500:   NO VALUE
 COMP.    FENIX & SCISSON:   COMPANY
 WELL. FENIX NPR 3 "AX" #25-27:   WELL
 FLD .                NPR:   FIELD
 LOC .      S27 T39N R78W:   LOCATION
 CNTY.            NATRONA:   COUNTY
 STAT.            WYOMING:   STATE
 CTRY. UNITED STATES OF AMERICA:   COUNTRY
 SRVC.       SCHLUMBERGER:   SERVICE COMPANY
 DATE.        13-AUG-1981:   LOGDATE
 API .     49025108780000:   API NUMBER
~CURVE INFORMATION
#MNEM.UNIT       API CODE    CURVE DESCRIPTION
#----------   ------------   ------------------------------
 DEPT.F                  :   
 CALD.IN     45 280 60 00:   CALIPER FROM DENSITY LOG
 GRD .GAPI   45 310 01 00:   GAMMA RAY FROM DENSITY LOG
 CORR.G/C3   45 356 01 00:   DENSITY CORRECTION
 RHOB.G/C3   45 350 01 00:   BULK DENSITY
 NPHI.DEC    42 890 03 00:   NEUTRON POROSITY SANDSTONE
 TENR.LBS    07 635 01 00:   TENSION
 SPR .MV     07 010 01 00:   SPONTANEOUS POTENTIAL
 ILD .OHMM   07 120 46 00:   INDUCTION LOG DEEP RESISTIVITY
 ILM .OHMM   07 120 44 00:   INDUCTION LOG MEDIUM RESISTIVITY
 SFL .OHMM   07 220 01 00:   SHALLOW FOCUSED LOG RESISTIVITY
 TEND.LBS    45 635 01 00:   TENSION FROM DENSITY LOG
~PARAMETER INFORMATION
#MNEM.UNIT          VALUE    DESCRIPTION
#----------   ------------   ------------------------------
 EKB .F         5057.0000:   Kelly bushing
 EGL .F         5047.0000:   Ground level
 EDF .F            0.0000:   Drilling floor
 TD  .F         3415.0000:   Total depth
 DATE.        13-AUG-1981:   Date logged
 CLNT.            A2DTECH:   Client Code
 SL  . 2100' FSL & 1050' FWL:   Surface Location
 PD  .                 GL:   Permanent Datum
 EPD .F              5047:   Elevation Permanent Datum
 LMF .                 KB:   Log Measured From
 DMF .                 KB:   Drilling Measured From
 DAPD.F                10:   Feet Above Permanent Datum
 DD  .F              3400:   Depth driller
 DL  .F              3415:   Depth logger
 BLI .F              3409:   Bottom log interval
 TLI .F               603:   Top log interval
 CS1 .IN            9.625:   Casing size
 CBD1.      9.625" @ 607':   Casing driller 1
 CBL1.F               603:   Casing logger 1
 BS1 .IN            7.875:   Bit size
 BSD1.F              3400:   Depth drilled with bit1
 DFT .                FGM:   Type fluid in hole
 DFD .                8.7:   Density
 DFV .                 36:   Viscosity
 DFPH.                  9:   pH
 DFL .                 13:   Fluid loss
 MSS .           MUD/TANK:   Source of sample
 RMS .OHMM           1.69:   Rm
 MST .F                75:   Rm Meas. temp.
 RMF .OHMM           1.34:   Rmf
 MFST.F                75:   Rmf Meas. temp.
 MFSS.               MEAS:   Source Rmf.
 RMB .OHMM           1.09:   Rm. at BHT
 BHT .F               120:   BHT.
 TCS .HRS            2145:   Time Circ. stopped
 TLAB.HRS            0200:   Time logger at bottom
 MRT .F               120:   Maximum recorded temp.
 LUN .               8039:   Logging unit number
 LUL .               CSPR:   Logging unit location
 ENGI.            PURPICH:   Recorded By
 WITN.              FIVAS:   Witnessed by
 ORIG.           5" PRINT:   Origin of data
 UWI .     49025108780000:   Unique Well ID
 DICO. A2D TECHNOLOGIES, INC.:   Digitizing Company
~OTHER INFORMATION
~A   DEPT     CALD         GRD      CORR       RHOB         NPHI     TENR        SPR        ILD        ILM        SFL       TEND   
# ...
 3182.5000     8.1670   118.7780     0.0570     2.5460     0.2520  1098.3920   -61.3420     3.6810     3.5280     4.5100  1126.6670
 3183.0000     8.1660   119.6490     0.0500     2.5320     0.2580  1099.2910   -61.6360     3.6620     3.5080     4.5730  1127.6940
 3183.5000     8.1650   120.5250     0.0390     2.5170     0.2650  1100.1899   -62.0340     3.6560     3.4880     4.6420  1128.7209
 3184.0000     8.1650   121.4020     0.0290     2.5070     0.2620  1101.0890   -62.2730     3.6410     3.4680     4.4080  1129.7480
 3184.5000     8.1640   122.4660     0.0220     2.5060     0.2550  1101.9880   -62.3980     3.6260     3.4480     4.1230  1130.7740
 3185.0000     8.1630   124.2510     0.0230     2.5080     0.2470  1102.8870   -62.5220     3.6110     3.4280     4.2900  1131.8010
 3185.5000     8.1630   125.6780     0.0240     2.5090     0.2450  1103.7860   -62.5760     3.5950     3.4080     4.6420  1132.8280
 3186.0000     8.1620   125.2940     0.0210     2.5070     0.2500  1104.6860   -62.5070     3.5950     3.4040     4.4820  1133.8550
 3186.5000     8.1610   124.9490     0.0170     2.5040     0.2640  1105.0551   -62.4380     3.5950     3.4040     4.2770  1134.8820
 3187.0000     8.1610   125.3290     0.0140     2.5020     0.2790  1105.0551   -62.1440     3.6620     3.4350     4.0720  1135.9130
 3187.5000     8.1600   125.9640     0.0130     2.5020     0.2870  1105.0551   -61.4690     3.8790     3.6140     3.8680  1135.9130
 3188.0000     8.1590   126.3260     0.0150     2.5030     0.2840  1105.0551   -61.3000     4.1860     3.9050     4.1680  1135.9130
 3188.5000     8.1590   125.0960     0.0170     2.5040     0.2730  1105.0551   -61.4390     4.4930     4.1960     4.6090  1135.9130
 3189.0000     8.1580   120.7930     0.0160     2.5050     0.2610  1105.0551   -61.5800     4.8000     4.4860     5.0500  1135.9130
 3189.5000     8.1570   115.7550     0.0140     2.5060     0.2370  1105.0551   -61.6580     5.1070     4.7770     6.1170  1135.9130
 3190.0000     8.1570   110.7520     0.0120     2.5120     0.2140  1105.0551   -61.7200     5.4140     5.0680     7.3280  1135.9130
 3190.5000     8.1590   105.5530     0.0110     2.5200     0.2050  1105.0551   -61.7840     5.7220     5.3590     8.4030  1135.9130
 3191.0000     8.1600   102.0250     0.0230     2.5390     0.2030  1105.0551   -61.6920     6.0290     5.6490     8.5930  1135.9130
 3191.5000     8.1620   100.8230     0.0360     2.5520     0.2050  1105.0551   -61.5130     6.4350     6.1050     8.7780  1135.9130
 3192.0000     8.1630    99.7160     0.0420     2.5560     0.2070  1105.0551   -61.4100     6.3830     6.0620     8.9570  1135.9130
 3192.5000     8.1640    99.4520     0.0270     2.5370     0.2100  1105.0551   -61.4100     6.2800     5.9650     8.8170  1135.9130
 3193.0000     8.1660   102.5990     0.0180     2.5190     0.2180  1105.0551   -61.4080     6.1770     5.8670     8.3560  1135.9130
 3193.5000     8.1670   107.1840     0.0120     2.5060     0.2250  1105.0551   -61.3930     6.0250     5.7340     7.8340  1135.9130
 3194.0000     8.1690   111.5670     0.0100     2.5050     0.2250  1105.0551   -61.3200     5.8640     5.5820     7.3120  1135.9130
 3194.5000     8.1700   114.0540     0.0150     2.5210     0.2230  1105.0551   -61.2490     5.7030     5.4300     6.7900  1135.9130
 3195.0000     8.1710   113.5830     0.0320     2.5370     0.2210  1105.0551   -61.1690     5.5430     5.2780     6.5080  1135.9130
 3195.5000     8.1730   113.7350     0.0440     2.5540     0.2190  1105.0551   -61.0800     5.3820     5.1250     6.8740  1135.9130
 3196.0000     8.1740   114.3630     0.0470     2.5550     0.2190  1105.0551   -61.0440     5.2210     4.9730     6.6710  1135.9130
 3196.5000     8.1750   114.8290     0.0420     2.5460     0.2280  1105.0551   -61.1920     5.0600     4.8210     6.2350  1135.9130
 3197.0000     8.1770   111.9430     0.0290     2.5310     0.2360  1105.0551   -61.4470     5.0400     4.7710     5.8320  1135.9130
 3197.5000     8.1780   108.9870     0.0220     2.5170     0.2370  1105.0551   -61.7300     4.9890     4.7280     5.7790  1135.9130
 3198.0000     8.1800   107.4590     0.0210     2.5160     0.2310  1105.0551   -61.7180     4.9730     4.6980     5.9250  1135.9130
 3198.5000     8.1810   109.4900     0.0250     2.5170     0.2260  1105.0551   -61.5970     4.9560     4.6700     6.1380  1135.9130
 3199.0000     8.1820   111.5020     0.0240     2.5150     0.2220  1105.0551   -61.4720     4.9400     4.6430     6.3320  1135.9130
 3199.5000     8.1840   113.5140     0.0220     2.5040     0.2250  1105.0551   -61.3430     4.9230     4.6150     6.1610  1135.9130
 3200.0000     8.1850   115.5250     0.0200     2.5010     0.2290  1105.0551   -61.2110     4.9060     4.5870     6.1050  1135.9130
 3200.5000     8.1860   117.6810     0.0250     2.5190     0.2240  1105.0551   -61.0780     4.8900     4.5600     6.4060  1135.9130
 3201.0000     8.1880   122.4490     0.0290     2.5260     0.2200  1105.0551   -61.0120     4.8730     4.5320     6.6880  1135.9130
 3201.5000     8.1890   127.6540     0.0260     2.5210     0.2190  1105.0551   -61.0110     4.8560     4.5040     6.4550  1135.9130
 3202.0000     8.1910   131.8970     0.0210     2.5090     0.2170  1105.0551   -60.9380     4.8400     4.4760     6.1250  1135.9130
 3202.5000     8.1920   133.4820     0.0210     2.5070     0.2260  1105.0551   -60.8020     4.8150     4.4350     5.7950  1135.9130
 3203.0000     8.1930   130.0820     0.0220     2.5050     0.2370  1105.0551   -60.7110     4.8240     4.4550     5.4640  1135.9130
 3203.5000     8.1950   124.6450     0.0150     2.5020     0.2460  1105.0551   -60.6210     4.8420     4.4930     5.0400  1135.9130
 3204.0000     8.1960   119.1840     0.0090     2.4990     0.2450  1105.0551   -60.7560     4.8610     4.5320     5.2680  1135.9130
 3204.5000     8.1970   113.5620     0.0050     2.4930     0.2400  1105.0551   -60.9090     4.8790     4.5700     5.7120  1135.9130
 3205.0000     8.1970   111.6020     0.0020     2.4960     0.2350  1105.0551   -61.0140     4.8970     4.6090     6.1560  1135.9130
 3205.5000     8.1970   113.0150     0.0070     2.5030     0.2300  1105.0551   -61.0120     4.9150     4.6430     6.6000  1135.9130
 3206.0000     8.1970   115.3060     0.0120     2.5100     0.2270  1105.0551   -61.0120     4.9330     4.6500     6.9370  1135.9130
 3206.5000     8.1970   117.6050     0.0180     2.5190     0.2350  1105.0551   -61.0120     4.9510     4.6560     6.6640  1135.9130
 3207.0000     8.1970   115.8810     0.0260     2.5250     0.2470  1105.0551   -61.0120     4.9700     4.6630     6.3690  1135.9130
 3207.5000     8.1970   113.8510     0.0350     2.5370     0.2510  1105.0551   -61.0120     4.9880     4.6700     6.0740  1135.9130
 3208.0000     8.1970   114.4960     0.0420     2.5490     0.2560  1105.0551   -61.0460     5.0060     4.6760     5.9400  1135.9130
 3208.5000     8.1970   115.7010     0.0380     2.5480     0.2570  1105.0551   -61.1040     5.0240     4.6830     5.8980  1135.9130
 3209.0000     8.1970   115.6720     0.0230     2.5290     0.2560  1105.0551   -61.1620     5.0590     4.7570     5.8860  1135.9130
 3209.5000     8.1970   112.6650     0.0110     2.5090     0.2500  1105.0551   -61.2120     5.2010     4.8920     6.0580  1135.9130
 3210.0000     8.1970   112.8710     0.0060     2.5040     0.2400  1105.0760   -61.2110     5.3430     5.0280     6.5670  1135.9130
 3210.5000     8.1970   115.5700     0.0080     2.5110     0.2280  1105.2271   -61.2100     5.4850     5.1630     7.0770  1135.9130
 3211.0000     8.1970   116.0850     0.0220     2.5330     0.2150  1105.3770   -61.1700     5.6260     5.2980     7.5860  1135.9130
 3211.5000     8.1970   113.6960     0.0320     2.5470     0.2110  1105.5280   -60.9420     5.7680     5.4330     8.0960  1135.9130
 3212.0000     8.1970   114.4710     0.0300     2.5480     0.2170  1105.6790   -60.7150     5.8860     5.5720     8.4030  1135.9130
 3212.5000     8.1970   116.4440     0.0270     2.5310     0.2280  1105.8300   -60.4880     5.7170     5.4410     7.8940  1135.9130
