~VERSION INFORMATION
 VERS.                2.0:   CWLS LOG ASCII STANDARD - VERSION 2.0
 WRAP.                 NO:   ONE LINE PER DEPTH STEP
~WELL INFORMATION
#MNEM.UNIT      DATA TYPE    INFORMATION
#----------   ------------   ------------------------------
 STRT.F           32.0000:   START DEPTH
 STOP.F         2998.0000:   STOP DEPTH
 STEP.F            0.5000:   STEP LENGTH
 NULL.          -999.2500:   NO VALUE
 COMP.   TESORO PETROLEUM:   COMPANY
 WELL. TESORO N.P.R. #3-34:   WELL
 FLD .        TEAPOT DOME:   FIELD
 LOC .      S34 T39N R78W:   LOCATION
 CNTY.            NATRONA:   COUNTY
 STAT.            WYOMING:   STATE
 CTRY. UNITED STATES OF AMERICA:   COUNTRY
 SRVC.       SCHLUMBERGER:   SERVICE COMPANY
 DATE.        08-AUG-1969:   LOGDATE
 API .     49025100250000:   API NUMBER
~CURVE INFORMATION
#MNEM.UNIT       API CODE    CURVE DESCRIPTION
#----------   ------------   ------------------------------
 DEPT.F                  :   
 SPR .MV     05 010 01 00:   SPONTANEOUS POTENTIAL FROM RES.
 ASN .OHMM   05 040 16 00:   AMPLIFIED SHORT NORMAL 16"
 ILD .OHMM   05 120 46 00:   INDUCTION LOG DEEP
 CORR.G/C3   45 356 01 00:   DENSITY CORRECTION
 GRD .GAPI   45 310 01 00:   GAMMA RAY FROM DENSITY LOG
 CALD.IN     45 280 60 00:   CALIPER FROM DENSITY LOG
 RHOB.G/C3   45 350 01 00:   BULK DENSITY
~PARAMETER INFORMATION
#MNEM.UNIT          VALUE    DESCRIPTION
#----------   ------------   ------------------------------
 EKB .F         5185.0000:   Kelly bushing
 EGL .F         5172.0000:   Ground level
 TD  .F         2999.0000:   Total depth
 CLNT.            A2DTECH:   Client Code
 SL  . 465' FWL & 1075' FSL':   Surface Location
 DATE.        08-AUG-1969:   Date Logged [DD-MMM-YYYY]
 DD  .F              2998:   Depth driller
 DL  .F              2999:   Depth logger
 BLI .F              2998:   Bottom log interval
 TLI .F               615:   Top log interval
 CS1 .              10.75:   Casing size
 CBD1.      10.75" @ 615':   Casing driller 1
 CBL1.IN              615:   Casing logger 1
 BS1 .IN                9:   Bit size
 BSD1.F              2998:   Depth drilled with bit1
 DFT .      FRESH GEL MUD:   Type fluid in hole
 DFD .                9.6:   Density
 DFV .                 55:   Viscosity
 DFPH.                9.5:   pH
 DFL .                7.0:   Fluid loss
 MSS .           FLOWLINE:   Source of sample
 RMS .OHMM           0.75:   Rm
 MST .F                87:   Rm Meas. temp.
 RMF .OHMM           1.09:   Rmf
 MFST.F                87:   Rmf Meas. temp.
 MFSS.               MEAS:   Source Rmf.
 RMB .OHMM           0.59:   Rm. at BHT
 BHT .F               111:   BHT.
 TCS .HRS               3:   Time Circ. stopped
 MRT .F               111:   Maximum recorded temp.
 LUN .               4507:   Logging unit number
 LUL .               CSPR:   Logging unit location
 ENGI.            ED MIXA:   Recorded By
 WITN.                MAY:   Witnessed by
 ORIG.   1" 2.5" 5" PRINT:   Origin of data
 UWI .     49025100250000:   Unique Well ID
 DICO. A2D TECHNOLOGIES, INC.:   Digitizing Company
~OTHER INFORMATION
~A   DEPT      SPR        ASN        ILD       CORR        GRD       CALD       RHOB   
# ...
 2944.0000   -49.6067    57.6071    77.3529     0.0350    34.5850     8.8061     2.3540
 2944.5000   -49.1795    59.8227    82.5207     0.0281    34.1155     8.8373     2.3658
 2945.0000   -49.1728    61.2999    86.2108     0.0228    34.8114     8.8685     2.3938
 2945.5000   -49.0414    61.2999    89.1629     0.0183    35.3639     8.9303     2.4100
 2946.0000   -49.0448    60.5613    88.4222     0.0183    34.6868     8.9615     2.4499
 2946.5000   -49.0475    59.0842    86.2044     0.0195    34.0843     8.9621     2.5369
 2947.0000   -48.9068    56.0510    82.5095     0.0268    33.5649     8.9933     2.6180
 2947.5000   -49.0536    51.6987    77.2757     0.0345    34.3633     8.9939     2.6283
 2948.0000   -49.0563    47.7843    69.9494     0.0346    36.2162     8.9639     2.5796
 2948.5000   -49.0591    46.5288    63.3003     0.0182    39.1998     8.9645     2.4381
 2949.0000   -48.9182    45.1256    49.7825     0.0112    41.0500     8.9346     2.3820
 2949.5000   -48.9211    43.9825    48.8941     0.0176    42.4861     8.9046     2.3422
 2950.0000   -48.9244    42.4668    48.2273     0.0264    46.1770     8.8746     2.3245
 2950.5000   -48.9240    41.6544    47.7082     0.0312    49.3608     8.8752     2.3340
 2951.0000   -48.7805    41.1374    47.4106     0.0298    54.3887     8.8453     2.3451
 2951.5000   -48.7805    40.6942    47.4819     0.0204    60.1981     8.8459     2.3598
 2952.0000   -48.6370    40.2511    48.4399     0.0257    64.1128     8.8159     2.3760
 2952.5000   -48.3501    39.8818    49.3979     0.0358    68.4207     8.8165     2.3937
 2953.0000   -47.9197    39.5126    50.4912     0.0426    72.9766     8.7865     2.4054
 2953.5000   -47.4892    39.1433    56.2144     0.0394    74.0905     8.7886     2.4157
 2954.0000   -46.9154    38.7710    60.5437     0.0195    69.0439     8.8183     2.4275
 2954.5000   -46.4849    38.1818    60.5411     0.0164    56.4732     8.7848     2.4452
 2955.0000   -45.9110    37.2954    58.3233     0.0279    50.3573     8.6341     2.4879
 2955.5000   -45.7676    36.0860    47.3906     0.0472    46.0762     8.6061     2.5174
 2956.0000   -46.0545    33.6762    42.6919     0.0638    41.1816     8.6067     2.5336
 2956.5000   -46.1980    31.8297    40.4435     0.0638    39.3013     8.6738     2.5276
 2957.0000   -46.1980    30.6478    38.0701     0.0399    42.8062     8.7665     2.4583
 2957.5000   -46.1980    29.3183    35.1957     0.0265    45.1277     8.8532     2.3875
 2958.0000   -46.1980    28.4319    32.1058     0.0272    46.8297     8.8844     2.3343
 2958.5000   -46.1980    27.5338    29.3068     0.0319    48.0682     8.8510     2.3520
 2959.0000   -46.1980    26.5852    27.5816     0.0389    48.6957     8.8208     2.3682
 2959.5000   -45.9110    26.0681    26.6932     0.0418    49.1621     8.7907     2.3505
 2960.0000   -45.7676    25.6987    26.0264     0.0467    49.1743     8.7645     2.3637
 2960.5000   -45.6241    25.1815    25.3596     0.0506    49.9641     8.7345     2.3563
 2961.0000   -45.6241    24.8121    24.9095     0.0498    51.2030     8.7351     2.3415
 2961.5000   -45.3372    24.5144    24.4686     0.0389    52.6138     8.7404     2.3418
 2962.0000   -45.1937    23.9994    24.2449     0.0329    54.4661     8.7718     2.3090
 2962.5000   -45.1937    23.8515    24.0951     0.0322    56.1418     8.7982     2.3119
 2963.0000   -45.1937    23.7775    24.0191     0.0353    56.5853     8.8347     2.3340
 2963.5000   -45.1937    23.7035    24.0958     0.0376    53.9686     8.8606     2.3488
 2964.0000   -45.1718    23.7034    24.6052     0.0403    52.1424     8.8669     2.3536
 2964.5000   -45.0502    23.8510    25.1940     0.0413    51.3491     8.9289     2.3443
 2965.0000   -45.0502    24.0821    25.7827     0.0418    50.5179     8.9542     2.3560
 2965.5000   -45.0502    24.5892    26.6668     0.0418    51.5371     8.9178     2.3663
 2966.0000   -45.0502    25.1799    28.7025     0.0463    53.8024     8.8635     2.3471
 2966.5000   -45.0502    25.9183    31.3150     0.0493    55.2437     8.8643     2.3206
 2967.0000   -45.0502    26.5090    32.7161     0.0512    54.2319     8.8649     2.3058
 2967.5000   -45.0502    26.9520    33.7480     0.0511    51.8022     8.8655     2.2822
 2968.0000   -45.0511    27.1803    34.4844     0.0462    53.8635     8.9040     2.2644
 2968.5000   -45.1937    27.3948    34.3884     0.0177    56.5398     8.9584     2.2659
 2969.0000   -45.1937    27.3947    33.1503     0.0087    57.3434     8.9284     2.2806
 2969.5000   -44.9067    27.3207    32.2619     0.0131    48.6898     8.8984     2.3012
 2970.0000   -44.4763    27.2467    32.1859     0.0240    44.5238     8.8684     2.3248
 2970.5000   -43.9024    27.1727    32.2578     0.0359    45.8316     8.8691     2.3469
 2971.0000   -43.4720    27.4019    32.2507     0.0544    49.0622     8.8697     2.3631
 2971.5000   -42.8981    27.9109    31.5144     0.0594    52.2241     8.8703     2.3807
 2972.0000   -42.3242    28.1324    30.4783     0.0553    54.3585     8.8799     2.4058
 2972.5000   -41.7504    27.6152    28.6298     0.0468    50.8358     8.9021     2.4810
 2973.0000   -41.6069    26.9504    27.8153     0.0374    49.4899     8.9028     2.5724
 2973.5000   -41.6069    26.0640    26.6015     0.0351    51.4639     8.9034     2.5827
 2974.0000   -41.6069    24.5822    24.2655     0.0345    54.6587     8.8733     2.5753
 2974.5000   -41.7504    22.0755    22.4909     0.0345    56.0049     8.8640     2.5133
 2975.0000   -42.0373    20.6721    20.7901     0.0345    53.4159     8.8033     2.4292
 2975.5000   -42.3242    19.2687    19.3847     0.0345    50.2604     8.7834     2.3333
 2976.0000   -42.7547    18.2346    17.8073     0.0321    50.4383     8.7841     2.3318
 2976.5000   -43.1851    17.2004    16.0565     0.0270    52.0244     8.7847     2.3377
 2977.0000   -43.6155    16.2402    14.9465     0.0260    53.5271     8.8159     2.3453
 2977.5000   -44.0459    15.0927    14.2059     0.0305    55.6474     8.8165     2.3675
 2978.0000   -44.3329    14.0242    13.1698     0.0377    56.6810     8.8285     2.3879
 2978.5000   -43.9024    13.3594    12.3403     0.0483    54.5797     8.8483     2.3906
 2979.0000   -43.3138    12.9161    11.5402     0.0561    52.1383     8.8489     2.3814
 2979.5000   -42.0373    12.4728    11.2427     0.0606    50.8279     8.8375     2.3666
 2980.0000   -40.7461    11.9557    11.0929     0.0575    52.3952     8.8194     2.3735
 2980.5000   -40.0287    11.6532    10.9431     0.0413    53.6343     8.7896     2.3861
 2981.0000   -40.3200    11.5122    10.7884     0.0307    54.5810     8.7902     2.3796
 2981.5000   -41.6069    11.4382    10.4952     0.0286    55.2049     8.7908     2.3634
 2982.0000   -42.1808    11.4381    10.2715     0.0338    54.6055     8.7914     2.3580
 2982.5000   -42.3242    11.3641    10.0478     0.0432    54.3170     8.7920     2.3675
 2983.0000   -41.8938    11.2901     9.9719     0.0521    51.5761     8.7926     2.3897
 2983.5000   -39.8852    11.2121     9.8959     0.0286    47.6059     8.7932     2.4022
 2984.0000   -38.5940    10.9944     9.8933     0.0257    18.0242     8.7939     2.3860
 2984.5000   -37.4462    10.9204     9.9650     0.0209     0.2324     8.8250     2.3617
 2985.0000   -35.8680    10.9941     9.9629     0.0154     0.2446     8.8257     2.3549
 2985.5000   -34.8305    11.2155     9.9608     0.0107     0.2569     8.8263     2.3649
 2986.0000   -33.5725    11.3631     9.8848     0.0066     0.2691     8.8575     2.3936
 2986.5000   -32.4247    11.5106     9.9566     0.0056     0.0000     8.8581     2.3910
 2987.0000   -31.5638    11.5843    10.0278     0.0037     0.0000     8.8738     2.3901
 2987.5000   -31.2769    11.5842    10.0257     0.0042     0.0254     8.8899     2.4071
 2988.0000   -31.7073    11.4363    10.0236     0.0106     0.3180     8.8906     2.4792
 2988.5000   -33.2855    11.2885     9.7949     0.0242     0.3303     8.8912     2.5098
 2989.0000   -35.0072    10.9190     9.2803     0.0282     0.0000     8.8918     2.5125
