~VERSION INFORMATION
 VERS.                2.0:   CWLS LOG ASCII STANDARD - VERSION 2.0
 WRAP.                 NO:   ONE LINE PER DEPTH STEP
~WELL INFORMATION
#MNEM.UNIT      DATA TYPE    INFORMATION
#----------   ------------   ------------------------------
 STRT.F            5.0000:   START DEPTH
 STOP.F         5604.0000:   STOP DEPTH
 STEP.F            0.5000:   STEP LENGTH
 NULL.          -999.2500:   NO VALUE
 COMP.   LAWRENCE ALLISON:   COMPANY
 WELL. LAWRENCE 62 TPX #10-10:   WELL
 FLD .           NPR NO 3:   FIELD
 LOC .      S10 T38N R78W:   LOCATION
 CNTY.            NATRONA:   COUNTY
 STAT.            WYOMING:   STATE
 CTRY. UNITED STATES OF AMERICA:   COUNTRY
 SRVC.      DRESSER ATLAS:   SERVICE COMPANY
 DATE.        08-NOV-1985:   LOGDATE
 API .     49025110490000:   API NUMBER
~CURVE INFORMATION
#MNEM.UNIT       API CODE    CURVE DESCRIPTION
#----------   ------------   ------------------------------
 DEPT.F                  :   
 TEND.LBS    45 635 01 00:   TENSION FORM DENSITY LOG
 CNC .DEC    42 890 03 00:   NEUTRON POROSITY SANDSTONE
 CORR.G/C3   45 356 01 00:   DENSITY CORRECTION
 RHOB.G/C3   45 350 01 00:   BULK DENSITY
 TENR.LBS    11 635 01 00:   TENSION FROM RESISTIVITY
 GRR .GAPI   11 310 01 00:   GAMMA RAY FROM RESISTIVITY
 SPR .MV     11 010 01 00:   SPONTANEOUS POTENTIAL FROM RES.
 CALR.IN     11 280 01 00:   CALIPER FROM RESISTIVITY
 RD  .OHMM   11 220 10 00:   RESISTIVITY DEEP
 RS  .OHMM   11 220 09 00:   RESISTIVITY SHALLOW
 RMLL.OHMM   11 270 04 00:   MICRO LATEROLOG
 TENS.LBS    60 635 01 00:   TENSION FROM SONIC
 DT  .US/F   60 520 00 00:   DELTA TIME
~PARAMETER INFORMATION
#MNEM.UNIT          VALUE    DESCRIPTION
#----------   ------------   ------------------------------
 EKB .F         5167.0000:   Kelly bushing
 EGL .F         5155.0000:   Ground level
 EDF .F            0.0000:   Drilling floor
 TD  .F         5600.0000:   Total depth
 CLNT.            A2DTECH:   Client Code
 PD  .                 GL:   Permanent Datum
 EPD .F              5155:   Elevation Permanent Datum
 LMF .                 KB:   Log Measured From
 DMF .                 KB:   Drilling Measured From
 DAPD.F                12:   Feet Above Permanent Datum
 DATE.        08-NOV-1985:   Date Logged [DD-MMM-YYYY]
 DD  .F              5600:   Depth driller
 DL  .F              5600:   Depth logger
 BLI .F              5597:   Bottom log interval
 TLI .F               467:   Top log interval
 CS1 .IN            9.625:   Casing size
 CBD1.      9.625" @ 467':   Casing driller 1
 CBL1.F               465:   Casing logger 1
 BS1 .IN             8.75:   Bit size
 BSD1.F              5600:   Depth drilled with bit1
 DFT .        KCL POLYMER:   Type fluid in hole
 DFD .                9.2:   Density
 DFV .                 38:   Viscosity
 DFPH.                8.5:   pH
 DFL .                8.6:   Fluid loss
 MSS .           FLOWLINE:   Source of sample
 RMS .OHMM           0.28:   Rm
 MST .F                75:   Rm Meas. temp.
 RMF .OHMM           0.21:   Rmf
 MFST.F                75:   Rmf Meas. temp.
 MFSS.               CALC:   Source Rmf.
 RMC .OHMM           0.35:   Rmc
 MCST.F                75:   Rmc Meas. temp.
 MCSS.               CALC:   Source Rmc.
 RMB .OHMM           0.13:   Rm. at BHT
 BHT .F               168:   BHT.
 TCS .HRS               7:   Time Circ. stopped
 MRT .F               168:   Maximum recorded temp.
 LUN .               6274:   Logging unit number
 LUL .               GLTE:   Logging unit location
 ENGI.               MACK:   Recorded By
 WITN.             STRONG:   Witnessed by
 ORIG.      2.5" 5" PRINT:   Origin of data
 UWI .     49025110490000:   Unique Well ID
 DICO. A2D TECHNOLOGIES, INC.:   Digitizing Company
~OTHER INFORMATION
~A  DEPTH     TEND        CNC       CORR       RHOB       TENR        GRR        SPR       CALR         RD         RS       RMLL       TENS         DT
# ...
 4555.0000   -42.3976     0.0880     0.0195     2.6437   -71.6420    78.0268   -63.1287    10.1139    40.4686    34.9805    31.4826   -58.7554    60.5523
 4555.5000   -56.7404     0.0856     0.0107     2.6318   -72.5413    74.4821   -62.9587    10.1160    40.5138    34.2984    32.1759   -43.7485    60.2521
 4556.0000   -71.0737     0.0839    -0.0040     2.6347   -73.7751    71.2369   -62.9391    10.1184    40.5590    33.3972    32.2073   -36.2268    60.4027
 4556.5000   -70.7603     0.0839     0.0077     2.6369   -67.0096    71.5845   -62.9196    10.1205    39.7682    32.9739    31.5671   -36.1901    60.6285
 4557.0000   -70.4678     0.0840     0.0311     2.6421   -68.3427    74.0279   -62.7504    10.1226    38.7232    32.5559    30.5284   -43.6384    60.7791
 4557.5000   -70.1755     0.0914     0.0574     2.6497   -61.5783    77.6689   -62.4314    10.1092    37.4452    30.8332    29.1101   -43.6003    61.0061
 4558.0000   -69.8830     0.1044     0.0840     2.6640   -62.9104    82.2081   -62.4119    10.0963    34.9752    28.6003    27.9508   -43.5558    61.6129
 4558.5000   -69.5907     0.1165     0.1077     2.6625   -63.9769    86.7473   -62.0929    10.0990    32.8954    26.3457    27.0245   -43.5190    62.0698
 4559.0000   -69.2982     0.1217     0.1250     2.6493   -64.8264    86.4961   -61.7740    10.1011    32.0222    25.4761    26.1289   -43.4823    62.5087
 4559.5000   -69.0059     0.1099     0.1276     2.6493   -65.8848    85.0473   -61.6047    10.1028    32.9689    25.3212    27.0773   -43.4456    62.8096
 4560.0000   -68.7134     0.1008     0.0502     2.6551   -66.9439    82.4008   -61.2858    10.1053    34.1703    26.0699    28.8494   -43.4089    62.9602
 4560.5000   -68.4210     0.1011     0.0338     2.6595   -68.0032    80.0538   -61.1166    10.1074    34.9276    27.0199    30.7375   -43.3722    63.0357
 4561.0000   -68.1286     0.1011     0.0308     2.6639   -69.0625    77.6947   -61.3964    10.1095    35.9503    28.7923    32.5228   -43.3355    63.1112
 4561.5000   -67.8362     0.0987     0.0308     2.6580   -70.1208    78.6532   -61.6811    10.1116    36.7471    30.6810    34.6514   -50.7929    63.0365
 4562.0000   -67.4902     0.0922     0.0297     2.6477   -71.1800    80.1984   -62.2555    10.1133    37.0357    31.1355    34.2074   -58.2321    62.7363
 4562.5000   -67.2037     0.0958     0.0237     2.6388   -72.2392    80.2466   -62.5354    10.1158    37.3783    29.9081    33.3039   -65.6804    62.2108
 4563.0000   -66.9172     0.0999     0.0161     2.6316   -65.7342    79.6839   -62.6655    10.1030    38.2012    30.3597    33.8020   -58.1586    61.9106
 4563.5000   -66.6667     0.0988     0.0190     2.6364   -59.2282    79.1333   -62.7957    10.1051    39.0077    31.0326    34.5463   -50.6362    61.6105
 4564.0000   -66.3743     0.0964     0.0355     2.6404   -60.3091    77.9959   -62.7762    10.0957    39.9012    31.5012    35.3002   -34.5254    61.3836
 4564.5000   -66.0819     0.0941     0.0563     2.6403   -53.7824    76.8344   -62.6069    10.0938    40.7808    32.1994    35.3345   -20.6141    61.1526
 4565.0000   -65.7704     0.0917     0.0716     2.6403   -54.8768    77.4935   -62.4377    10.0959    41.3707    33.1421    36.6595   -28.0716    60.8465
 4565.5000   -65.4838     0.0888     0.0833     2.6384   -55.9423    79.0387   -62.1187    10.0773    41.4166    33.8766    38.5153   -42.9958    60.4850
 4566.0000   -65.1970     0.0857     0.0803     2.6353   -57.0088    81.1826   -61.9495    10.0701    41.4626    34.1505    39.9088   -42.9590    60.2599
 4566.5000   -64.9105     0.0847     0.0686     2.6350   -50.5110    81.5182   -61.7802    10.0722    41.2216    34.1886    40.4682   -42.9223    60.1101
 4567.0000   -64.6199     0.0850     0.0510     2.6373   -59.1408    79.7820   -61.4613    10.0579    40.9825    33.9807    40.2266   -42.8856    60.1105
 4567.5000   -64.3274     0.0887     0.0451     2.6410   -60.2073    79.2193   -61.4418    10.0464    40.7442    33.5500    40.2667   -42.8489    60.1109
 4568.0000   -65.6077     0.0930     0.0480     2.6463   -61.2738    81.4608   -61.8713    10.0335    40.5076    33.1248    40.0266   -50.3064    60.0360
 4568.5000   -78.3836     0.0987     0.0538     2.6519   -62.3392    83.2096   -62.0064    10.0207    39.9947    33.4018    40.0661   -50.2605    59.9612
 4569.0000   -78.0702     0.1058     0.0567     2.6563   -70.9701    84.4889   -62.4310    10.0228    39.4868    33.8967    40.1047   -57.7096    59.9617
 4569.5000   -81.0754     0.1191     0.0596     2.6636   -72.0355    86.9250   -62.5612    10.0249    39.5319    32.5605    39.3172   -50.1870    60.0372
 4570.0000   -92.1435     0.1322     0.0596     2.6747   -73.1020    89.4007   -62.5416    10.0270    38.4931    31.4356    38.5451   -50.1497    60.2630
 4570.5000   -91.8130     0.1401     0.0524     2.6769   -74.1685    92.6954   -62.8215    10.0291    36.4562    29.9463    36.7544   -50.1123    60.5710
 4571.0000   -91.5204     0.1443     0.0226     2.6501   -75.2340    95.1316   -62.9566    10.0312    35.0093    28.3691    34.3251   -50.0677    61.2683
 4571.5000   -96.8781     0.1352    -0.0049     2.6431   -76.3005    95.4731   -63.0818    10.0399    33.3875    27.0882    32.0590   -50.0310    62.2927
 4572.0000  -105.5555     0.1225     0.0059     2.6474   -77.3670    95.5213   -63.2120    10.0554    33.6574    26.5634    40.0644   -57.4793    62.8190
 4572.5000   -98.4484     0.1149     0.0201     2.6474   -70.6016    94.6713   -63.3470    10.0710    34.6428    26.6337    42.6865   -57.4425    62.7442
 4573.0000   -90.3508     0.1119     0.0262     2.6489   -71.9347    93.2224   -63.3226    10.0865    35.9052    28.0181    45.7968   -57.4058    62.2187
 4573.5000   -90.0585     0.1113     0.0381     2.6489   -73.0002    91.1748   -63.4576    10.1005    37.9960    31.1220    44.5872   -57.3691    61.3926
 4574.0000   -75.1461     0.1131     0.0464     2.6503   -74.0667    88.8278   -63.4371    10.0585    42.2088    34.5158    42.2219   -57.3324    60.6417
 4574.5000   -60.1805     0.1172     0.0319     2.6532   -75.1332    82.5885   -63.4177    10.0610    39.9752    35.2854    40.5404   -64.7899    60.2664
 4575.0000   -59.8937     0.1285     0.0154     2.6547   -76.1987    85.0319   -63.3982    10.0478    38.9140    35.3198    40.0210   -64.7440    60.1915
 4575.5000   -59.6071     0.1450     0.0020     2.6576   -77.2652    92.8646   -63.3787    10.0358    37.9021    31.8655    38.6946   -64.7073    60.4925
 4576.0000   -59.3203     0.1408    -0.0023     2.6620   -78.3306    99.4996   -63.5096    10.0382    35.6483    28.5505    35.3930   -64.6707    60.9437
 4576.5000   -59.0338     0.1252     0.0094     2.6545   -71.5662   102.8412   -63.4895    10.0406    32.3858    26.2998    31.7065   -72.1188    61.4699
 4577.0000   -58.7472     0.1150     0.0123     2.6488   -72.8993   100.7935   -63.6349    10.0430    27.6415    25.6082    29.2030   -72.0808    62.3111
 4577.5000   -58.4604     0.1043     0.0152     2.6485   -73.7519    94.5543   -63.9001    10.0300    29.8633    25.8158    32.4363   -79.5304    62.5977
 4578.0000   -58.1738     0.1001     0.0181     2.6423   -74.8108    88.9139   -64.0303    10.0329    36.3045    29.4849    37.5585   -79.4845    61.7717
 4578.5000   -57.8870     0.0990     0.0122     2.6339   -75.8696    85.6686   -64.0105    10.0348    38.6859    34.1457    40.5755   -71.9628    60.9026
 4579.0000   -72.2203     0.0984     0.0005     2.6245   -76.9287    80.6270   -63.9910    10.0372    41.7994    36.3855    43.5319   -71.9261    60.0600
 4579.5000   -57.3099     0.0998    -0.0112     2.6095   -77.9880    77.0824   -63.8195    10.0396    44.5945    37.4508    42.3822   -71.8893    59.3686
 4580.0000   -57.0176     0.1123    -0.0230     2.6170   -79.0472    76.5197   -63.3533    10.0420    40.4649    34.9804    41.8289   -64.3676    58.9933
 4580.5000   -56.7251     0.1425    -0.0347     2.6401   -80.0952    80.7716   -62.8847    10.0444    35.7557    30.4838    41.8799   -49.3608    58.9184
