~VERSION INFORMATION
 VERS.                2.0:   CWLS LOG ASCII STANDARD - VERSION 2.0
 WRAP.                 NO:   ONE LINE PER DEPTH STEP
~WELL INFORMATION
#MNEM.UNIT      DATA TYPE    INFORMATION
#----------   ------------   ------------------------------
 STRT.F          705.5000:   START DEPTH
 STOP.F         3212.0000:   STOP DEPTH
 STEP.F            0.5000:   STEP LENGTH
 NULL.          -999.2500:   NO VALUE
 COMP.    FENIX & SCISSON:   COMPANY
 WELL. FENIX 41 "AX" #1-15:   WELL
 FLD .             NPR #3:   FIELD
 LOC .      S15 T38N R78W:   LOCATION
 CNTY.            NATRONA:   COUNTY
 STAT.            WYOMING:   STATE
 CTRY. UNITED STATES OF AMERICA:   COUNTRY
 SRVC.              WELEX:   SERVICE COMPANY
 DATE.        18-NOV-1980:   LOGDATE
 API .     49025108530000:   API NUMBER
~CURVE INFORMATION
#MNEM.UNIT       API CODE    CURVE DESCRIPTION
#----------   ------------   ------------------------------
 DEPT.F                  :   
 SPR .MV     07 010 01 00:   SPONTANEOUS POTENTIAL
 ILD .OHMM   07 120 46 00:   INDUCTION LOG DEEP RESISTIVITY
 ILM .OHMM   07 120 44 00:   INDUCTION LOG MEDIUM RESISTIVITY
 SGRD.OHMM   07 220 05 00:   SHORT GUARD RESISTIVITY
 GRD .GAPI   45 310 01 00:   GAMMA RAY FROM DENSITY LOG
 CALD.IN     45 280 60 00:   CALIPER FROM DENSITY LOG
 RHOB.G/C3   45 350 01 00:   BULK DENSITY
 NPHI.DEC    42 890 03 00:   NEUTRON POROSITY SANDSTONE
~PARAMETER INFORMATION
#MNEM.UNIT          VALUE    DESCRIPTION
#----------   ------------   ------------------------------
 EKB .F         5252.0000:   Kelly bushing
 EGL .F         5242.0000:   Ground level
 EDF .F            0.0000:   Drilling floor
 TD  .F         3214.0000:   Total depth
 CLNT.            A2DTECH:   Client Code
 SL  . 2150' FWL & 550' FNL:   Surface Location
 PD  .                 GL:   Permanent Datum
 EPD .F              5242:   Elevation Permanent Datum
 LMF .                 KB:   Log Measured From
 DMF .                 KB:   Drilling Measured From
 DATE.        18-NOV-1980:   Date Logged [DD-MMM-YYYY]
 DD  .F              3210:   Depth driller
 DL  .F              3214:   Depth logger
 BLI .F              3212:   Bottom log interval
 TLI .F               734:   Top log interval
 CS1 .IN            8.625:   Casing size
 CBD1.      8.625" @ 709':   Casing driller 1
 CBL1.F               734:   Casing logger 1
 BS1 .IN            7.875:   Bit size
 BSD1.F              3210:   Depth drilled with bit1
 DFT .          FRESH MUD:   Type fluid in hole
 DFD .                8.8:   Density
 DFV .                 45:   Viscosity
 DFPH.               10.5:   pH
 DFL .                 12:   Fluid loss
 MSS .           FLOWLINE:   Source of sample
 RMS .OHMM           1.25:   Rm
 MST .F                70:   Rm Meas. temp.
 RMF .OHMM           1.25:   Rmf
 MFST.F                70:   Rmf Meas. temp.
 MFSS.               MEAS:   Source Rmf.
 RMB .OHMM           0.78:   Rm. at BHT
 BHT .F               112:   BHT.
 TCS .HRS               7:   Time Circ. stopped
 MRT .F               112:   Maximum recorded temp.
 LUN .               1892:   Logging unit number
 LUL .             CASPER:   Logging unit location
 ENGI.               REIN:   Recorded By
 WITN.              SCOTT:   Witnessed by
 ORIG.      2.5" 5" PRINT:   Origin of data
 UWI .     49025108530000:   Unique Well ID
 DICO. A2D TECHNOLOGIES, INC.:   Digitizing Company
 DAPD.                 10:   Feet Above Permanent Datum
~OTHER INFORMATION
~A   DEPT      SPR        ILD        ILM       SGRD         GRD      CALD       RHOB       NPHI   
# ...
 2528.0000   -33.0235     5.4513     7.0446     8.8010    90.3097     8.9951     2.6397     0.3269
 2528.5000   -33.0250     5.4785     7.0412     8.5597    90.7300     8.9980     2.6275     0.3238
 2529.0000   -33.0265     5.5251     7.0384     9.6862    91.1503     9.0009     2.6206     0.3210
 2529.5000   -33.0279     5.5244     7.0355    10.6633    91.5654     9.0034     2.6190     0.3185
 2530.0000   -33.0294     5.4809     7.0327    10.6605    91.7829     9.0036     2.6181     0.3207
 2530.5000   -33.0311     5.4473     7.0299    10.3682    92.1802     9.0038     2.6165     0.3295
 2531.0000   -32.7385     5.3722     7.0271    10.2237    92.3852     9.0039     2.6066     0.3321
 2531.5000   -32.7399     5.3715     7.0242    10.0801    92.3591     9.0041     2.5917     0.3315
 2532.0000   -32.7413     5.3708     7.0213     9.7780    92.1176     9.0043     2.5701     0.3290
 2532.5000   -32.7427     5.3701     7.0184     8.9793    91.8710     9.0045     2.5579     0.3211
 2533.0000   -32.7441     5.3694     6.9195     8.5176    91.8501     9.0047     2.5684     0.3234
 2533.5000   -32.7456     5.3670     6.9166     8.4201    91.8292     9.0049     2.5751     0.3303
 2534.0000   -32.7471     5.2946     6.9137     9.2978    91.1466     9.0050     2.5780     0.3354
 2534.5000   -32.7485     5.2216     6.8769     9.5257    89.7369     9.0052     2.5651     0.3367
 2535.0000   -32.7500     5.2055     6.8134     8.8606    87.5703     9.0054     2.5544     0.3364
 2535.5000   -32.7515     5.1291     6.8106     8.2417    86.4465     9.0056     2.5641     0.3339
 2536.0000   -32.6510     5.0779     6.8078     8.1881    85.5433     9.0058     2.5792     0.3314
 2536.5000   -32.4600     5.0772     6.8044     8.7599    85.9773     9.0060     2.5934     0.3299
 2537.0000   -32.4618     4.9746     6.7085     9.0021    87.2610     9.0061     2.5994     0.3277
 2537.5000   -32.4632     4.9382     6.6140     8.9997    88.3431     9.0064     2.5902     0.3253
 2538.0000   -32.4647     4.8035     6.6114     8.5152    89.6458     9.0066     2.5795     0.3225
 2538.5000   -32.4664     4.8028     6.5182     8.0568    90.0661     9.0069     2.5748     0.3248
 2539.0000   -32.1737     4.6720     6.4264     7.8176    88.9371     9.0072     2.5733     0.3310
 2539.5000   -32.1750     4.6713     6.2491     7.5562    87.1515     9.0075     2.5769     0.3370
 2540.0000   -32.0073     4.5441     6.1610     7.2947    87.3512     9.0079     2.5806     0.3411
 2540.5000   -31.8838     4.4814     6.0693     7.2091    88.6539     9.0082     2.5836     0.3354
 2541.0000   -31.8853     4.4197     5.9065     7.5010    89.9837     9.0085     2.5812     0.3305
 2541.5000   -31.8868     4.2956     5.7297     7.6664    91.2540     9.0088     2.5750     0.3258
 2542.0000   -31.8882     4.1820     5.5671     7.8231    92.1155     9.0091     2.5651     0.3371
 2542.5000   -31.8897     4.0627     5.3877     7.6081    92.3204     9.0094     2.5567     0.3465
 2543.0000   -31.8912     3.9979     5.1836     7.3995    92.9650     9.0097     2.5619     0.3516
 2543.5000   -31.8926     3.8494     4.9675     7.0012    94.0330     9.0100     2.5595     0.3545
 2544.0000   -31.8941     3.7445     4.8576     6.5337    93.5709     9.0103     2.5466     0.3523
 2544.5000   -31.8956     3.6424     4.7235     5.9318    91.1236     9.0107     2.5472     0.3483
 2545.0000   -31.8971     3.5669     4.5931     5.1675    88.6763     9.0110     2.5600     0.3439
 2545.5000   -32.0696     3.5145     4.4660     4.8893    86.8907     9.0113     2.5823     0.3396
 2546.0000   -32.4885     3.4460     4.4642     5.2437    89.0705     9.0116     2.6044     0.3345
 2546.5000   -32.4899     3.4456     4.5872     5.7792    89.9320     9.0119     2.6081     0.3293
 2547.0000   -32.7855     3.3981     4.6490     6.1146    90.1323     9.0122     2.5989     0.3274
 2547.5000   -32.7869     3.3512     4.7118     6.4507    89.6691     9.0125     2.5852     0.3325
 2548.0000   -33.0824     3.3508     4.8415     6.6101    89.4282     9.0128     2.5759     0.3306
 2548.5000   -33.0838     3.2595     4.9405     5.4015    89.8433     9.0131     2.5812     0.3263
 2549.0000   -33.0853     3.2607     5.0453     5.7216    89.1607     9.0135     2.5985     0.3282
 2549.5000   -33.0868     3.3494     5.1135     6.4069    87.1499     9.0156     2.6128     0.3276
 2550.0000   -33.0393     3.3567     5.1787     6.8810    88.4520     9.0178     2.6127     0.3245
 2550.5000   -32.7954     3.4529     5.2485     6.9324    89.3187     9.0200     2.5831     0.3251
 2551.0000   -32.5027     3.5518     5.2461     6.9726    88.8514     9.0219     2.5664     0.3284
 2551.5000   -32.5044     3.6721     5.2439     7.1649    89.9335     9.0188     2.5504     0.3334
 2552.0000   -32.3803     3.7807     5.3440     7.1630    92.5545     9.0160     2.5352     0.3359
 2552.5000   -32.0687     3.8924     5.4203     7.1611    92.5336     9.0133     2.5489     0.3363
 2553.0000   -31.9206     4.0076     5.5343     7.1592    91.8510     9.0105     2.5660     0.3373
 2553.5000   -31.9223     4.1687     5.6867     7.1573    91.6095     9.0077     2.5727     0.3376
 2554.0000   -31.9238     4.2844     5.8433     7.2546    91.8271     9.0049     2.5711     0.3381
 2554.5000   -31.9252     4.4032     6.0038     7.3531    93.5479     9.0021     2.5627     0.3320
 2555.0000   -31.9266     4.5253     6.0850     7.3682    95.5123     9.0005     2.5548     0.3255
 2555.5000   -31.9280     4.6509     6.1670     7.6740    95.2709     8.9995     2.5526     0.3227
 2556.0000   -31.9294     4.7799     6.3366     8.1355    93.4853     8.9985     2.5699     0.3221
 2556.5000   -31.9309     4.9133     6.3341     8.6077    91.2533     8.9976     2.5842     0.3237
 2557.0000   -31.9324     5.0487     6.5085     9.2333    90.1295     8.9966     2.5962     0.3250
 2557.5000   -31.9338     5.1888     6.5059     9.7691    89.4469     8.9956     2.6089     0.3263
 2558.0000   -31.9353     5.2029     6.6851     9.6653    89.1872     8.9946     2.6119     0.3264
 2558.5000   -31.9368     5.2592     6.6822     9.2746    90.7917     8.9936     2.5936     0.3258
 2559.0000   -31.9382     5.2584     6.7725     9.0737    93.1291     8.9927     2.5966     0.3249
 2559.5000   -31.9397     5.2576     6.8638     9.1399    94.6523     8.9917     2.6048     0.3221
 2560.0000   -31.9412     5.2569     6.8606     9.1370    96.6168     8.9907     2.6024     0.3157
 2560.5000   -31.9426     5.1844     6.8577     9.3899    97.6989     8.9897     2.5917     0.3112
 2561.0000   -32.1944     5.1836     6.8549     9.5171    98.3345     8.9886     2.5855     0.3125
 2561.5000   -32.0440     5.1829     6.9472     9.6467    98.0931     8.9890     2.5867     0.3110
 2562.0000   -31.9471     5.1822     7.0407     9.6439    95.6458     8.9895     2.6007     0.3066
 2562.5000   -31.9487     5.1815     7.1350     9.6469    93.1984     8.9900     2.6218     0.3028
 2563.0000   -31.9500     5.2526     7.2316     9.5004    90.9665     8.9905     2.6383     0.3000
 2563.5000   -31.9515     5.3246     7.4303     8.8363    84.7691     8.9911     2.6513     0.2986
 2564.0000   -31.9529     5.4722     7.6350     9.0250    77.6894     8.9916     2.6654     0.2880
 2564.5000   -31.9544     5.7890     7.8453    11.8048    75.0215     8.9921     2.6600     0.2742
 2565.0000   -31.9559     6.2321     8.2868    13.0380    72.7941     8.9926     2.6372     0.2670
 2565.5000   -31.9574     6.8859     8.6333    18.2638    74.3128     8.9931     2.6159     0.2790
 2566.0000   -31.9588     7.6591     8.2726    33.8727    85.9831     8.9936     2.5962     0.3007
 2566.5000   -31.9603     7.7113     7.6967    35.4355    93.0211     8.9880     2.5863     0.3083
 2567.0000   -31.9618     7.2231     7.1783    26.1677   100.9793     8.9822     2.5794     0.3177
 2567.5000   -31.9632     6.8235     6.8181    14.8906   102.6852     8.9765     2.5800     0.3234
 2568.0000   -31.9647     6.5352     6.8153    10.0170   100.0121     8.9708     2.5905     0.3310
