~VERSION INFORMATION
 VERS.                2.0:   CWLS LOG ASCII STANDARD - VERSION 2.0
 WRAP.                 NO:   ONE LINE PER DEPTH STEP
~WELL INFORMATION
#MNEM.UNIT      DATA TYPE    INFORMATION
#----------   ------------   ------------------------------
 STRT.F           20.0000:   START DEPTH
 STOP.F         4128.0000:   STOP DEPTH
 STEP.F            0.5000:   STEP LENGTH
 NULL.          -999.2500:   NO VALUE
 COMP. LAWRENCE-ALLISON & ASSOCIATES:   COMPANY
 WELL. LAWRENCE "X" #53-3:   WELL
 FLD .             NPR #3:   FIELD
 LOC .       S3 T38N R78W:   LOCATION
 CNTY.            NATRONA:   COUNTY
 STAT.            WYOMING:   STATE
 CTRY. UNITED STATES OF AMERICA:   COUNTRY
 SRVC.      DRESSER ATLAS:   SERVICE COMPANY
 DATE.        18-SEP-1983:   LOGDATE
 API .     49025109370000:   API NUMBER
~CURVE INFORMATION
#MNEM.UNIT       API CODE    CURVE DESCRIPTION
#----------   ------------   ------------------------------
 DEPT.F                  :   
 NPHI.DEC    42 890 03 00:   NEUTRON POROSITY SANDSTONE
 TEND.LBS    45 635 01 00:   TENSION FORM DENSITY LOG
 CORR.G/C3   45 356 01 00:   DENSITY CORRECTION
 RHOB.G/C3   45 350 01 00:   BULK DENSITY
 CALD.IN     45 280 60 00:   CALIPER FROM DENSITY LOG
 GRR .GAPI   07 310 01 00:   GAMMA RAY FROM RESISTIVITY
 TENR.LBS    06 635 01 00:   TENSION FROM RESISTIVITY
 SPR .MV     07 010 01 00:   SPONTANEOUS POTENTIAL
 RILD.OHMM   07 120 46 00:   DEEP INDUCTION RESISTIVITY
 RILM.OHMM   07 120 44 00:   INDUCTION LOG MEDIUM RESISTIVITY
 RSFL.OHMM   07 220 01 00:   SPHERICALLY FOCUSED RESISTIVITY
 TENS.LBS    60 635 01 00:   TENSION FROM SONIC
 DT  .US/F   60 520 00 00:   DELTA TIME
~PARAMETER INFORMATION
#MNEM.UNIT          VALUE    DESCRIPTION
#----------   ------------   ------------------------------
 EKB .F         5214.0000:   Kelly bushing
 EGL .F         5204.0000:   Ground level
 EDF .F            0.0000:   Drilling floor
 TD  .F         4117.0000:   Total depth
 CLNT.            A2DTECH:   Client Code
 PD  .                 GL:   Permanent Datum
 EPD .F              5204:   Elevation Permanent Datum
 LMF .                 KB:   Log Measured From
 DMF .                 KB:   Drilling Measured From
 DAPD.F                10:   Feet Above Permanent Datum
 DATE.        18-SEP-1983:   Date Logged [DD-MMM-YYYY]
 DD  .F              4117:   Depth driller
 DL  .F              4113:   Depth logger
 BLI .F              4110:   Bottom log interval
 TLI .F                 0:   Top log interval
 CS1 .IN            9.625:   Casing size
 CBD1.      9.625" @ 523':   Casing driller 1
 CBL1.F               523:   Casing logger 1
 BS1 .IN            7.875:   Bit size
 BSD1.F              4117:   Depth drilled with bit1
 DFT .            GEL KCL:   Type fluid in hole
 DFD .                9.0:   Density
 DFV .                 42:   Viscosity
 DFPH.                8.5:   pH
 DFL .                 10:   Fluid loss
 MSS .               TANK:   Source of sample
 RMS .OHMM           0.35:   Rm
 MST .F                68:   Rm Meas. temp.
 RMF .OHMM          0.266:   Rmf
 MFST.F                68:   Rmf Meas. temp.
 MFSS.               MEAS:   Source Rmf.
 RMC .OHMM          0.443:   Rmc
 MCST.F                68:   Rmc Meas. temp.
 MCSS.               CALC:   Source Rmc.
 RMB .OHMM          0.185:   Rm. at BHT
 BHT .F               130:   BHT.
 TCS .HRS               4:   Time Circ. stopped
 MRT .F               130:   Maximum recorded temp.
 LUN .               6270:   Logging unit number
 LUL .              WLSTN:   Logging unit location
 ENGI.             REEVES:   Recorded By
 WITN.             STRONG:   Witnessed by
 ORIG.           5" PRINT:   Origin of data
 UWI .     49025109370000:   Unique Well ID
 DICO. A2D TECHNOLOGIES, INC.:   Digitizing Company
~OTHER INFORMATION
~A   DEPT     NPHI       TEND       CORR       RHOB       CALD         GRR      TENR        SPR       RILD       RILM       RSFL       TENS         DT   
# ...
 2646.0000     0.1723   -50.1508     0.0579     2.4852     9.1061   108.0224   -74.0215   -73.3082     6.8267     7.0552     9.6971   -43.7796    76.9219
 2646.5000     0.1660   -46.3801     0.0595     2.4939     9.0896   106.7922   -74.9080   -73.3124     6.7266     6.8531     9.9772   -47.3107    75.9363
 2647.0000     0.1654   -42.6094     0.0640     2.5018     9.0864   106.7779   -75.7945   -73.3272     6.6281     6.6093     9.6481   -47.0455    75.2317
 2647.5000     0.1777   -42.6094     0.0580     2.5048     9.0839   111.0153   -76.6810   -73.4691     6.5309     6.4667     8.7572   -46.7803    75.9590
 2648.0000     0.1903   -42.6094     0.0398     2.5041     9.0813   115.5602   -77.5675   -73.1787     6.5286     6.3271     7.8012   -46.5110    77.6042
 2648.5000     0.1976   -42.6094     0.0173     2.4988     9.0786   119.8011   -78.4540   -72.8873     6.7169     6.1889     7.0005   -46.2003    78.5140
 2649.0000     0.1954   -42.5329     0.0083     2.4981     9.0760   120.0912   -79.3405   -72.4508     7.0115     6.1446     7.9090   -45.9517    78.7415
 2649.5000     0.1927   -42.6094     0.0068     2.5005     9.0733   117.5841   -80.2270   -72.1604     7.4253     6.1433     8.5749   -45.7032    78.5140
 2650.0000     0.1903   -53.9216     0.0173     2.5025     9.0707   114.2586   -81.1135   -72.1656     7.8635     6.1868     8.2524   -45.4546    78.4382
 2650.5000     0.1870   -53.9654     0.0294     2.4922     9.0680   110.9243   -81.5430   -72.6138     7.9821     6.1411     6.3194   -37.6302    78.2108
 2651.0000     0.1834   -54.0005     0.0415     2.4825     9.0654   109.3902   -81.5430   -72.7666     8.0942     6.2742     6.2215   -41.1695    78.1349
 2651.5000     0.1795   -50.2649     0.0354     2.4743     9.0627   109.0719   -81.5430   -72.9195     8.2078     6.4563     6.2692   -44.7088    78.0591
 2652.0000     0.1784   -50.3088     0.0083     2.4714     9.0601   109.0575   -81.5430   -72.9251     8.2078     6.6919     6.6388   -44.3939    77.8317
 2652.5000     0.1859   -50.3439    -0.0038     2.4745     9.0575   111.1672   -81.5430   -73.0781     8.2078     6.8864     6.9303   -44.0874    77.6042
 2653.0000     0.1883   -54.1498     0.0038     2.4783     9.0548   113.2805   -81.5430   -73.3795     8.2078     7.0862     7.0278   -44.5406    77.4526
 2653.5000     0.1859   -54.1855     0.0038     2.4807     9.0522   116.9136   -81.5430   -73.5324     8.2078     7.2919     7.2302   -45.0778    77.2206
 2654.0000     0.1822   -57.9995    -0.0023     2.4815     9.0521   118.1558   -81.5430   -73.9798     8.2078     7.2906     7.9372   -45.6150    76.8461
 2654.5000     0.1791   -61.8053    -0.0083     2.4815     9.0521   111.9937   -81.5430   -74.1327     8.1508     7.2371     9.0982   -46.1521    76.3154
 2655.0000     0.1779   -61.8404    -0.0113     2.4838     9.0521   101.9733   -81.5430   -74.6000     8.0942     7.0809     9.5060   -46.6893    76.0121
 2655.5000     0.1797   -61.8843    -0.0098     2.4914     9.0521    99.2234   -81.5430   -75.1762     7.9821     7.0289     8.7697   -47.2265    76.6223
 2656.0000     0.1791   -58.1399    -0.0008     2.4998     9.0521   104.9841   -81.5430   -75.4763     7.7087     6.9776     8.3356   -47.7636    76.9977
 2656.5000     0.1764   -58.1838     0.0068     2.5104     9.0521   108.9411   -81.5430   -75.7765     7.3930     7.1801     7.9230   -48.3008    76.7703
 2657.0000     0.1728   -58.2276     0.0128     2.5210     9.0521   110.7269   -76.6602   -75.7821     6.9886     6.8749     7.8635   -48.8380    76.3154
 2657.5000     0.1713   -54.4832     0.0205     2.5263     9.0521   111.3240   -71.7773   -75.7890     6.3419     5.9516     8.1568   -49.3751    75.7064
 2658.0000     0.1717   -54.5271     0.0339     2.5286     9.0521   111.3060   -71.7773   -75.7946     5.5166     5.2829     8.7540   -49.9123    75.1023
 2658.5000     0.1741   -50.7915     0.0234     2.5233     9.0521   110.6838   -71.7773   -75.9475     4.3830     4.5905     8.4414   -50.4495    74.9507
 2659.0000     0.1783   -47.0646    -0.0038     2.5115     9.0521   107.6263   -71.7773   -75.9531     3.6311     3.9097     7.5200   -50.9866    76.0121
 2659.5000     0.1863   -47.0997     0.0143     2.5003     9.0521   108.8278   -71.7773   -75.9588     2.8625     2.8888     6.2335   -51.5238    77.4605
 2660.0000     0.2182   -47.1348     0.0219     2.4869     9.0519   111.8529   -71.7773   -75.8170     1.9800     1.9053     5.3949   -52.0610    80.1061
 2660.5000     0.2512   -47.1719    -0.0068     2.4623     9.0532   116.0939   -71.7773   -75.5294     1.6176     1.5238     4.6027   -52.5981    86.7020
 2661.0000     0.2842   -50.9845    -0.0023     2.4346     9.0315   123.8819   -71.7773   -75.2391     1.3974     1.3002     4.0416   -53.1353    95.9929
 2661.5000     0.3437   -54.7904     0.0053     2.3977     9.0328   136.7302   -71.7773   -74.5097     1.2326     1.1838     3.2085   -53.6725   101.3809
 2662.0000     0.3843   -54.8265     0.0159     2.3549     9.0325   152.8253   -71.7773   -73.6142     1.1180     1.1921     2.7406   -54.2096   108.6642
 2662.5000     0.3927   -54.8694    -0.0023     2.2486     9.0327   173.1757   -71.7773   -72.4604     1.1904     1.2902     2.2364   -54.7468   114.2291
 2663.0000     0.3480   -51.1337    -0.0324     2.1440     9.0467   181.6720   -71.7773   -71.5824     1.3033     1.6011     2.0358   -55.2840   113.5279
 2663.5000     0.2629   -47.3981    -0.0053     2.0921     9.0620   174.9671   -71.7773   -70.8516     1.4369     2.0304     1.9918   -55.8211   108.6809
 2664.0000     0.2043   -43.6625     0.0701     2.1181     9.0570   163.0986   -71.7773   -70.2681     1.6214     2.8480     2.3359   -56.3583    89.9597
 2664.5000     0.1542   -43.7063     0.0777     2.2179     9.0197   139.3761   -71.7773   -69.9791     2.0078     3.4836     4.1194   -56.8955    71.1627
 2665.0000     0.1389   -43.7414     0.0128     2.3514     8.9828   108.9642   -71.7773   -70.1334     2.5096     4.4496    12.2194   -57.4326    66.9221
 2665.5000     0.1299   -43.7783    -0.0234     2.4682     8.9457   100.1352   -71.7773   -70.2863     3.3631     6.3777    18.5499   -57.9698    67.0789
 2666.0000     0.1317   -43.8160    -0.0157     2.5088     8.9144    93.4339   -71.7773   -70.4391     4.2035     8.6436    20.2179   -58.5070    70.3393
 2666.5000     0.1446   -43.8555    -0.0008     2.5203     8.9170    96.4992   -71.7773   -70.7393     6.8961    10.1821    16.1821   -59.0441    71.7151
 2667.0000     0.1559   -47.6621     0.0113     2.5225     8.9192   101.6083   -71.7773   -71.0408    11.7116    10.4032    14.8277   -59.5813    72.3267
 2667.5000     0.1630   -47.7053     0.0249     2.5188     8.9215   102.5094   -71.7773   -71.3410    13.9412    10.4010    14.0608   -60.1185    73.0900
 2668.0000     0.1666   -47.7404     0.0385     2.5181     8.9237   100.6677   -71.3493   -71.4938    14.1369    10.3242    13.1034   -60.6061    74.4598
 2668.5000     0.1702   -51.5462     0.0204     2.5197     8.9259   100.3494   -70.9294   -71.6467    11.7063    10.4723    12.7269   -60.6061    74.8440
 2669.0000     0.1721   -51.5901     0.0189     2.5160     8.9281   103.3710   -70.5094   -71.7997    10.5489    10.8595    12.4506   -60.6061    75.0008
 2669.5000     0.1691   -55.3959     0.0204     2.5071     8.9303   103.6642   -70.0895   -71.8065    10.9231    11.6628    12.3570   -60.6061    74.7038
 2670.0000     0.1676   -59.2018     0.0143     2.4959     8.9326   103.9538   -69.6696   -71.8121    11.7116    10.8740    12.2641   -60.6061    74.4802
 2670.5000     0.1721   -63.0164    -0.0083     2.4869     8.9347    98.7686   -69.2497   -71.5232    12.4699    10.5167    12.3486   -60.6061    74.6383
 2671.0000     0.1796   -63.0515    -0.0219     2.4855     8.9318    96.6261   -68.8298   -71.2342    12.9213    10.2327    12.5235   -64.3939    75.0983
 2671.5000     0.1854   -63.0866    -0.0189     2.4856     8.9286    97.8245   -68.4098   -70.6521    12.7334    10.0817    12.2505   -64.3939    75.7099
