~VERSION INFORMATION
 VERS.                2.0:   CWLS LOG ASCII STANDARD - VERSION 2.0
 WRAP.                 NO:   ONE LINE PER DEPTH STEP
~WELL INFORMATION
#MNEM.UNIT      DATA TYPE    INFORMATION
#----------   ------------   ------------------------------
 STRT.F          200.0000:   START DEPTH
 STOP.F         3120.0000:   STOP DEPTH
 STEP.F            0.5000:   STEP LENGTH
 NULL.          -999.2500:   NO VALUE
 COMP.    FENIX & SCISSON:   COMPANY
 WELL. FENIX NPR 3 "AX" #83-28:   WELL
 FLD .                NPR:   FIELD
 LOC .      S28 T39N R78W:   LOCATION
 CNTY.            NATRONA:   COUNTY
 STAT.            WYOMING:   STATE
 CTRY. UNITED STATES OF AMERICA:   COUNTRY
 SRVC.              WELEX:   SERVICE COMPANY
 DATE.        29-SEP-1977:   LOGDATE
 API .     49025104240000:   API NUMBER
~CURVE INFORMATION
#MNEM.UNIT       API CODE    CURVE DESCRIPTION
#----------   ------------   ------------------------------
 DEPT.F                  :   
 CALD.IN     45 280 60 00:   CALIPER FROM DENSITY LOG
 GRD .GAPI   45 310 01 00:   GAMMA RAY FROM DENSITY LOG
 RHOB.G/C3   45 350 01 00:   BULK DENSITY
 CORR.G/C3   45 356 01 00:   DENSITY CORRECTION
 SPR .MV     07 010 01 00:   SPONTANEOUS POTENTIAL
 SGRD.MV     07 220 05 00:   SHLLOW GUARD
 ILD .OHMM   07 120 46 00:   DEEP INDUCTION RESISTIVITY
 ILM .OHMM   07 120 44 00:   INDUCTION LOG MEDIUM RESISTIVITY
~PARAMETER INFORMATION
#MNEM.UNIT          VALUE    DESCRIPTION
#----------   ------------   ------------------------------
 EKB .F         5034.0000:   Kelly bushing
 EGL .F         5024.0000:   Ground level
 TD  .F         3110.0000:   Total depth
 DATE.        29-SEP-1977:   Date logged
 CLNT.            A2DTECH:   Client Code
 SL  . 1650' FNL & 330' FEL:   Surface Location
 PD  .                 GL:   Permanent Datum
 EPD .F              5024:   Elevation Permanent Datum
 LMF .                 KB:   Log Measured From
 DMF .                 KB:   Drilling Measured From
 DAPD.F                10:   Feet Above Permanent Datum
 DD  .F              3110:   Depth driller
 DL  .F              3110:   Depth logger
 BLI .F              3108:   Bottom log interval
 TLI .F               210:   Top log interval
 CS1 .IN            8.625:   Casing size
 CBD1.      8.625" @ 201':   Casing driller 1
 CBL1.F               210:   Casing logger 1
 BS1 .IN            7.875:   Bit size
 BSD1.F              3110:   Depth drilled with bit1
 DFT .          KCL/WATER:   Type fluid in hole
 DFD .                  9:   Density
 DFV .                 40:   Viscosity
 DFPH.                 11:   pH
 DFL .                6.4:   Fluid loss
 MSS .            MUD/PIT:   Source of sample
 RMS .OHMM            .56:   Rm
 MST .F                60:   Rm Meas. temp.
 RMF .OHMM            .34:   Rmf
 MFST.F                60:   Rmf Meas. temp.
 RMC .OHMM            .61:   Rmc
 MCST.F                60:   Rmc Meas. temp.
 MFSS.               MEAS:   Source Rmf.
 MCSS.               MEAS:   Source Rmc.
 RMB .OHMM            .28:   Rm. at BHT
 BHT .F               120:   BHT.
 TCS .HRS               3:   Time Circ. stopped
 MRT .F               120:   Maximum recorded temp.
 LUN .               9685:   Logging unit number
 LUL .             CASPER:   Logging unit location
 ENGI. G. BENTSEN/T. JOYNER:   Recorded By
 WITN.         PETTINGILL:   Witnessed by
 ORIG.   1" 2.5" 5" PRINT:   Origin of data
 UWI .     49025104240000:   Unique Well ID
 DICO. A2D TECHNOLOGIES, INC.:   Digitizing Company
~OTHER INFORMATION
~A   DEPT     CALD         GRD      RHOB       CORR        SPR       SGRD        ILD        ILM   
# ...
 2508.5000     9.1603   111.0053     2.5284     0.0243   -62.1469     9.0071     7.2840     7.9152
 2509.0000     9.1617   110.2084     2.5244     0.0203   -62.1803     8.7602     7.2834     7.9145
 2509.5000     9.1630   110.2068     2.5145     0.0203   -62.2136     8.5201     7.2827     7.9138
 2510.0000     9.1644   109.4131     2.5085     0.0123   -62.2470     8.5194     7.2821     7.9130
 2510.5000     9.1657   110.1989     2.5065     0.0089   -62.2803     8.5186     7.2813     7.9123
 2511.0000     9.1671   111.7768     2.5065     0.0004   -62.3136     8.7569     7.2806     7.9115
 2511.5000     9.1685   110.1910     2.5085     0.0004   -62.3470     8.8375     7.2800     7.9108
 2512.0000     9.1698   111.7688     2.5184     0.0003   -62.3803     8.8369     7.2793     7.9101
 2512.5000     9.1712   113.3451     2.5203     0.0003   -62.4136     8.8364     7.2787     7.9094
 2513.0000     9.1725   114.1324     2.5243     0.0042   -62.4470     8.9174     7.2780     7.9087
 2513.5000     9.1739   116.4992     2.5262     0.0121   -62.4803     8.9163     7.2773     7.9080
 2514.0000     9.1752   114.9150     2.5183     0.0240   -62.5137     8.9154     7.2766     7.9071
 2514.5000     9.1766   116.4913     2.5222     0.0279   -62.5470     8.9972     7.2760     7.9064
 2515.0000     9.1779   114.9071     2.5242     0.0318   -62.5803     8.9963     7.2753     7.9057
 2515.5000     9.1793   113.3213     2.5242     0.0255   -62.6137     8.9955     7.2747     7.6889
 2516.0000     9.1807   112.5276     2.5182     0.0238   -62.6470     8.9947     7.2740     7.6885
 2516.5000     9.1820   111.7323     2.5182     0.0238   -62.6655     8.8293     7.2732     7.7590
 2517.0000     9.1834   113.3102     2.5162     0.0238   -62.6678     8.5872     7.2726     7.7584
 2517.5000     9.1847   113.3054     2.5063     0.0277   -62.6693     8.5077     7.2719     7.7576
 2518.0000     9.1861   113.3022     2.5023     0.0316   -62.6717     8.5067     7.2713     7.8290
 2518.5000     9.1874   113.2975     2.5023     0.0356   -62.6740     8.5060     7.2706     7.9006
 2519.0000     9.1888   113.2943     2.5022     0.0355   -62.4759     8.5054     7.2700     7.9001
 2519.5000     9.1902   112.4990     2.5062     0.0355   -62.4775     8.5046     7.2692     7.9723
 2520.0000     9.1915   115.6579     2.5141     0.0355   -62.4794     8.7422     7.2686     7.9718
 2520.5000     9.1740   116.4437     2.5141     0.0355   -62.4814     8.7418     7.0691     7.9712
 2521.0000     9.1738   114.8595     2.5160     0.0355   -62.4833     8.7289     7.0687     7.9705
 2521.5000     9.1736   114.0642     2.5200     0.0394   -62.2852     8.7161     7.0683     7.9696
 2522.0000     9.1736   114.0610     2.5239     0.0394   -62.2879     8.7032     7.0675     7.9692
 2522.5000     9.1733   113.2657     2.5279     0.0433   -62.2899     8.6904     7.0670     7.9681
 2523.0000     9.1530   112.4720     2.5378     0.0433   -62.2918     8.6776     7.0662     7.9674
 2523.5000     9.1133   110.8863     2.5457     0.0512   -62.2938     8.6649     7.0658     7.9665
 2524.0000     9.1150   108.5115     2.5456     0.0472   -62.2949     8.6559     7.0653     8.0397
 2524.5000     9.1167   107.7162     2.5436     0.0472   -62.2976     8.6551     7.0647     8.0391
 2525.0000     9.1183   109.2941     2.5397     0.0471   -62.4996     8.7347     7.1291     8.1130
 2525.5000     9.1200   110.0799     2.5377     0.0471   -62.5015     8.7337     7.1283     8.1119
 2526.0000     9.1217   111.6577     2.5376     0.0471   -62.5034     8.8139     7.1279     8.1112
 2526.5000     9.1234   111.6546     2.5376     0.0431   -62.7054     8.8129     7.1273     8.1106
 2527.0000     9.1250   110.8593     2.5376     0.0430   -62.7077     8.8121     7.1264     8.1099
 2527.5000     9.1267   110.0656     2.5356     0.0430   -62.7108     8.8115     7.1259     8.0347
 2528.0000     9.1284   110.0608     2.5356     0.0430   -62.7120     8.4131     7.1253     8.0338
 2528.5000     9.1300   110.0576     2.5356     0.0509   -62.7139     8.4122     7.1244     7.9591
 2529.0000     9.1317   111.6339     2.5375     0.0508   -62.7158     8.5682     7.1240     7.8131
 2529.5000     9.1334   113.2118     2.5395     0.0508   -62.7178     8.5676     7.0577     7.5987
 2530.0000     9.1351   113.2070     2.5395     0.0508   -62.7197     8.4879     6.9923     7.4590
 2530.5000     9.1367   113.2038     2.5395     0.0508   -62.7216     7.8829     6.9274     7.3218
 2531.0000     9.1384   114.7801     2.5394     0.0507   -62.7240     7.3211     6.4928     7.2539
 2531.5000     9.1401   114.7769     2.5394     0.0467   -62.7259     6.9899     6.4328     7.1204
 2532.0000     9.1418   117.1437     2.5374     0.0427   -62.7278     7.3874     6.3145     6.9254
 2532.5000     9.1434   117.1406     2.5354     0.0388   -62.7298     8.5628     6.1985     6.7980
 2533.0000     9.1451   117.1358     2.5314     0.0387   -62.7317     7.9524     6.1411     6.5510
 2533.5000     9.1468   117.9231     2.5314     0.0387   -62.7337     7.3854     6.0840     6.4306
 2534.0000     9.1484   117.9184     2.5294     0.0426   -62.7360     7.2495     5.9171     6.3708
 2534.5000     9.1501   117.9152     2.5334     0.0426   -62.7379     7.5915     5.8622     6.1961
 2535.0000     9.1518   117.1199     2.5353     0.0465   -62.7399     7.4519     5.8618     6.0822
 2535.5000     9.1535   117.1168     2.5393     0.0505   -62.7418     7.0496     5.8073     6.0258
 2536.0000     9.1551   117.1120     2.5392     0.0505   -62.7437     6.6078     5.8068     6.0253
 2536.5000     9.1568   117.1088     2.5432     0.0544   -62.7457     6.1367     5.8599     6.0248
 2537.0000     9.1585   116.3135     2.5452     0.0583   -62.7480     6.5458     5.8594     6.0800
 2537.5000     9.1602   113.9388     2.5471     0.0543   -62.7499     7.3799     5.8589     6.2501
 2538.0000     9.1618   115.5151     2.5511     0.0583   -62.7519     7.6568     5.9127     6.3660
 2538.5000     9.1635   114.7214     2.5570     0.0582   -62.7538     7.8712     6.0783     6.6049
 2539.0000     9.1652   113.1356     2.5570     0.0582   -62.7557     7.9438     6.1911     6.6658
 2539.5000     9.1668   111.5514     2.5629     0.0582   -62.7577     8.4728     6.3059     6.7895
 2540.0000     9.1685   109.9656     2.5629     0.0542   -62.7600     8.3946     6.4823     6.9792
 2540.5000     9.1702   108.3814     2.5569     0.0502   -62.7619     8.3167     6.6027     7.0433
 2541.0000     9.1719   108.3766     2.5529     0.0502   -62.7639     8.1635     6.6629     7.1738
 2541.5000     9.1735   108.3734     2.5529     0.0501   -62.1654     8.1628     6.6625     7.1731
 2542.0000     9.1752   107.5782     2.5529     0.0501   -61.7678     8.2379     6.6619     7.1726
 2542.5000     9.1769   108.3655     2.5529     0.0540   -61.7693     8.3135     6.6616     7.1720
 2543.0000     9.1786   109.1513     2.5529     0.0500   -61.7716     8.3127     6.7225     7.1715
 2543.5000     9.1802   109.9386     2.5528     0.0500   -61.5740     8.4669     6.7843     7.1706
 2544.0000     9.1819   111.5149     2.5489     0.0460   -61.5759     8.4660     6.7835     7.1702
 2544.5000     9.1839   111.5117     2.5429     0.0420   -61.5774     8.4654     6.8460     7.2360
 2545.0000     9.1838   111.5070     2.5329     0.0420   -61.5790     8.3096     6.9087     7.2353
 2545.5000     9.1837   109.9227     2.5270     0.0340   -61.5809     8.1568     6.9726     7.3019
 2546.0000     9.1835   110.7085     2.5250     0.0379   -61.5836     8.0067     7.1015     7.3685
 2546.5000     9.1833   111.4958     2.5250     0.0379   -60.9856     8.0060     7.1667     7.4365
 2547.0000     9.1831   111.4911     2.5289     0.0379   -61.1879     8.2304     7.2324     7.6445
 2547.5000     9.1829   110.6974     2.5309     0.0379   -61.1895     8.8603     7.2318     7.7862
 2548.0000     9.1827   110.6926     2.5289     0.0378   -61.3914     9.0246     7.2983     7.7855
 2548.5000     9.1825   109.8989     2.5288     0.0378   -61.5937     9.0241     7.2977     7.7849
