~VERSION INFORMATION
 VERS.                2.0:   CWLS LOG ASCII STANDARD - VERSION 2.0
 WRAP.                 NO:   ONE LINE PER DEPTH STEP
~WELL INFORMATION
#MNEM.UNIT      DATA TYPE    INFORMATION
#----------   ------------   ------------------------------
 STRT.F           11.0000:   START DEPTH
 STOP.F         4154.0000:   STOP DEPTH
 STEP.F            0.5000:   STEP LENGTH
 NULL.          -999.2500:   NO VALUE
 COMP.   LAWRENCE ALLISON:   COMPANY
 WELL. ALLISON NPR 3 "LX" #14-22:   WELL
 FLD .                NPR:   FIELD
 LOC .      S22 T38N R78W:   LOCATION
 CNTY.            NATRONA:   COUNTY
 STAT.            WYOMING:   STATE
 CTRY. UNITED STATES OF AMERICA:   COUNTRY
 SRVC.       DRESER ATLAS:   SERVICE COMPANY
 DATE.        14-APR-1985:   LOGDATE
 API .     49025110230000:   API NUMBER
~CURVE INFORMATION
#MNEM.UNIT       API CODE    CURVE DESCRIPTION
#----------   ------------   ------------------------------
 DEPT.F                  :   
 TEND.LBS    45 635 01 00:   TENSION FROM DENSITY LOG
 RHOB.G/C3   45 350 01 00:   BULK DENSITY
 DRHO.G/C3   45 356 01 00:   DENSITY CORRECTION
 CALD.IN     45 280 60 00:   CALIPER FROM DENSITY LOG
 NPHI.DEC    42 890 03 00:   NEUTRON POROSITY SANDSTONE
 TENR.LBS    07 635 01 00:   TENSION FROM RESISTIVITY
 SPR .MV     07 010 01 00:   SPONTANEOUS POTENTIAL
 GRR .GAPI   07 310 01 00:   GAMMA RAY FROM RESISTIVITY
 RFOC.OHMM   07 220 01 00:   RESISTIVITY FOCUSED LOG RES.
 RILD.OHMM   07 120 46 00:   DEEP INDUCTION RESISTIVITY
 RILM.OHMM   07 120 44 00:   INDUCTION LOG MEDIUM RESISTIVITY
~PARAMETER INFORMATION
#MNEM.UNIT          VALUE    DESCRIPTION
#----------   ------------   ------------------------------
 EKB .F         5230.4000:   Kelly bushing
 EGL .F         5220.4000:   Ground level
 EDF .F            0.0000:   Drilling floor
 TD  .F         4150.0000:   Total depth
 DATE.        14-APR-1985:   Date logged
 CLNT.            A2DTECH:   Client Code
 SL  . 905' FNL & 824' FWL:   Surface Location
 PD  .                 GL:   Permanent Datum
 EPD .F            5220.4:   Elevation Permanent Datum
 LMF .                 KB:   Log Measured From
 DMF .                 KB:   Drilling Measured From
 DAPD.F                10:   Feet Above Permanent Datum
 DD  .F              4150:   Depth driller
 DL  .F              4140:   Depth logger
 BLI .F              4138:   Bottom log interval
 CS1 .IN            8.625:   Casing size
 CBD1.      8.625" @ 738':   Casing driller 1
 CBL1.F               738:   Casing logger 1
 BS1 .IN            7.875:   Bit size
 BSD1.F              4150:   Depth drilled with bit1
 DFT .            KCL/GEL:   Type fluid in hole
 DFD .                9.1:   Density
 DFV .                 48:   Viscosity
 DFPH.                8.5:   pH
 DFL .                 10:   Fluid loss
 MSS .           FLOWLINE:   Source of sample
 RMS .OHMM            .35:   Rm
 MST .F                62:   Rm Meas. temp.
 RMF .OHMM            .26:   Rmf
 MFST.F                62:   Rmf Meas. temp.
 RMC .OHMM            .43:   Rmc
 MCST.F                62:   Rmc Meas. temp.
 MFSS.               CALC:   Source Rmf.
 MCSS.               CALC:   Source Rmc.
 RMB .OHMM            .16:   Rm. at BHT
 BHT .F               140:   BHT.
 TCS .HRS               6:   Time Circ. stopped
 MRT .F               140:   Maximum recorded temp.
 LUN .               6274:   Logging unit number
 LUL .               GLTE:   Logging unit location
 ENGI.               MACK:   Recorded By
 WITN.             STRONG:   Witnessed by
 ORIG.           5" PRINT:   Origin of data
 UWI .     49025110230000:   Unique Well ID
 DICO. A2D TECHNOLOGIES, INC.:   Digitizing Company
~OTHER INFORMATION
~A   DEPT     TEND       RHOB       DRHO       CALD       NPHI       TENR        SPR        GRR       RFOC       RILD       RILM   
# ...
 1200.5000  -999.2500  -999.2500  -999.2500  -999.2500  -999.2500   -87.1380   -64.1440    91.5850     9.0120    10.2720     9.4720
 1201.0000  -999.2500  -999.2500  -999.2500  -999.2500  -999.2500   -87.3770   -64.1970    91.3220     8.9860    10.2200     9.3910
 1201.5000  -999.2500  -999.2500  -999.2500  -999.2500  -999.2500   -87.6160   -64.2200    90.3070     8.9320    10.1670     9.4200
 1202.0000  -999.2500  -999.2500  -999.2500  -999.2500  -999.2500   -87.8550   -64.0350    89.2960     8.8200    10.1140     9.4600
 1202.5000  -999.2500  -999.2500  -999.2500  -999.2500  -999.2500   -88.0940   -63.8480    89.3720     8.7230    10.0620     9.5000
 1203.0000  -999.2500  -999.2500  -999.2500  -999.2500  -999.2500   -88.3330   -63.6620    90.4930     8.7230    10.0170     9.5600
 1203.5000  -999.2500  -999.2500  -999.2500  -999.2500  -999.2500   -88.5720   -63.4800    91.5960     8.7660     9.9410     9.5390
 1204.0000  -999.2500  -999.2500  -999.2500  -999.2500  -999.2500   -88.8110   -63.2870    91.5070     8.8430     9.8610     9.4630
 1204.5000  -999.2500  -999.2500  -999.2500  -999.2500  -999.2500   -89.0500   -63.4820    90.7900     8.9200     9.7810     9.3870
 1205.0000  -999.2500  -999.2500  -999.2500  -999.2500  -999.2500   -89.2900   -63.5510    91.0080     8.9680     9.7010     9.3110
 1205.5000  -999.2500  -999.2500  -999.2500  -999.2500  -999.2500   -89.5290   -63.6370    91.2440     8.8830     9.6210     9.2350
 1206.0000  -999.2500  -999.2500  -999.2500  -999.2500  -999.2500   -89.7680   -63.7270    91.7440     8.7970     9.5410     9.1320
 1206.5000  -999.2500  -999.2500  -999.2500  -999.2500  -999.2500   -90.0070   -63.8150    93.4070     8.7110     9.4750     9.1200
 1207.0000  -999.2500  -999.2500  -999.2500  -999.2500  -999.2500   -90.2460   -63.9040    95.0700     8.6430     9.4600     9.1080
 1207.5000  -999.2500  -999.2500  -999.2500  -999.2500  -999.2500   -90.4850   -63.9940    96.7100     8.5570     9.4440     9.0960
 1208.0000  -999.2500  -999.2500  -999.2500  -999.2500  -999.2500   -90.7240   -64.2130    97.5210     8.4710     9.4290     9.0840
 1208.5000  -999.2500  -999.2500  -999.2500  -999.2500  -999.2500   -90.9630   -64.6150    97.8400     8.3860     9.4140     9.0720
 1209.0000  -999.2500  -999.2500  -999.2500  -999.2500  -999.2500   -91.2020   -65.0140    96.4880     8.3010     9.3990     9.0600
 1209.5000  -999.2500  -999.2500  -999.2500  -999.2500  -999.2500   -91.4410   -65.3220    95.2160     8.2540     9.3910     9.0510
 1210.0000  -999.2500  -999.2500  -999.2500  -999.2500  -999.2500   -91.6810   -65.5120    92.6180     8.2540     9.3910     9.1040
 1210.5000  -999.2500  -999.2500  -999.2500  -999.2500  -999.2500   -91.9200   -65.7020    91.5270     8.7980     9.3910     9.1460
 1211.0000  -999.2500  -999.2500  -999.2500  -999.2500  -999.2500   -92.1590   -65.8300    91.6340     9.0510     9.3910     9.1890
 1211.5000  -999.2500  -999.2500  -999.2500  -999.2500  -999.2500   -92.3980   -65.5690    91.8410     9.1350     9.3910     9.2190
 1212.0000  -999.2500  -999.2500  -999.2500  -999.2500  -999.2500   -92.6370   -65.3160    94.0360     9.0090     9.3910     9.1410
 1212.5000  -999.2500  -999.2500  -999.2500  -999.2500  -999.2500   -92.8760   -65.0650    95.6650     8.8250     9.3910     9.0810
 1213.0000  -999.2500  -999.2500  -999.2500  -999.2500  -999.2500   -93.1150   -64.8140    94.8770     8.6420     9.3960     9.0350
 1213.5000  -999.2500  -999.2500  -999.2500  -999.2500  -999.2500   -93.3540   -64.5630    94.1460     8.4590     9.4450     8.9680
 1214.0000  -999.2500  -999.2500  -999.2500  -999.2500  -999.2500   -93.5930   -64.3110    91.3690     8.4070     9.4940     9.0260
 1214.5000  -999.2500  -999.2500  -999.2500  -999.2500  -999.2500   -93.8320   -64.0600    89.1140     8.8360     9.5440     9.1070
 1215.0000  -999.2500  -999.2500  -999.2500  -999.2500  -999.2500   -94.0720   -63.8460    89.5650     9.0510     9.5930     9.1870
 1215.5000  -999.2500  -999.2500  -999.2500  -999.2500  -999.2500   -94.3110   -63.9030    90.0490     9.0080     9.6540     9.3050
 1216.0000  -999.2500  -999.2500  -999.2500  -999.2500  -999.2500   -94.5500   -64.1050    90.5420     8.7140     9.6280     9.2860
 1216.5000  -999.2500  -999.2500  -999.2500  -999.2500  -999.2500   -94.7890   -64.2980    90.3270     8.5640     9.5930     9.2530
 1217.0000  -999.2500  -999.2500  -999.2500  -999.2500  -999.2500   -94.8450   -64.4910    89.9000     8.6010     9.5580     9.2190
 1217.5000  -999.2500  -999.2500  -999.2500  -999.2500  -999.2500   -94.8450   -64.6830    90.2920     8.6330     9.5240     9.1850
 1218.0000  -999.2500  -999.2500  -999.2500  -999.2500  -999.2500   -94.8450   -64.8450    92.9150     8.6650     9.4890     9.1520
 1218.5000  -999.2500  -999.2500  -999.2500  -999.2500  -999.2500   -94.8450   -64.7940    92.4620     8.6970     9.4540     9.1180
 1219.0000  -999.2500  -999.2500  -999.2500  -999.2500  -999.2500   -94.8450   -64.7460    91.2900     8.7230     9.4190     9.0850
 1219.5000  -999.2500  -999.2500  -999.2500  -999.2500  -999.2500   -94.8450   -64.6970    90.0020     8.7660     9.3840     9.0510
 1220.0000  -999.2500  -999.2500  -999.2500  -999.2500  -999.2500   -94.8450   -64.6430    92.8870     8.8090     9.3500     9.0180
 1220.5000  -999.2500  -999.2500  -999.2500  -999.2500  -999.2500   -94.8450   -64.8250    95.5760     8.8520     9.3150     8.9840
 1221.0000  -999.2500  -999.2500  -999.2500  -999.2500  -999.2500   -94.8450   -65.0410    93.5470     8.8850     9.2800     8.9510
 1221.5000  -999.2500  -999.2500  -999.2500  -999.2500  -999.2500   -94.8450   -65.2470    91.2700     8.5190     9.2450     8.9170
 1222.0000  -999.2500  -999.2500  -999.2500  -999.2500  -999.2500   -94.8450   -65.4490    94.0630     8.1780     9.2190     8.8850
 1222.5000  -999.2500  -999.2500  -999.2500  -999.2500  -999.2500   -94.8450   -65.6360    96.6310     8.1030     9.2070     8.8760
 1223.0000  -999.2500  -999.2500  -999.2500  -999.2500  -999.2500   -94.8450   -65.6740    96.4230     8.2470     9.1960     8.8650
 1223.5000  -999.2500  -999.2500  -999.2500  -999.2500  -999.2500   -94.8450   -65.7070    96.2750     8.3830     9.1850     8.8550
 1224.0000  -999.2500  -999.2500  -999.2500  -999.2500  -999.2500   -94.8450   -65.7400    94.8710     8.5190     9.1740     8.8440
 1224.5000  -999.2500  -999.2500  -999.2500  -999.2500  -999.2500   -94.8450   -65.7730    93.0130     8.6430     9.1630     8.8330
 1225.0000  -999.2500  -999.2500  -999.2500  -999.2500  -999.2500   -94.8450   -65.8070    93.5340     8.6430     9.1510     8.8220
 1225.5000  -999.2500  -999.2500  -999.2500  -999.2500  -999.2500   -94.8450   -65.8350    94.0040     8.2630     9.1400     8.8110
 1226.0000  -999.2500  -999.2500  -999.2500  -999.2500  -999.2500   -94.8450   -65.7230    94.9930     8.1780     9.1350     8.8040
 1226.5000  -999.2500  -999.2500  -999.2500  -999.2500  -999.2500   -94.8450   -65.5970    97.2390     8.2050     9.0260     8.7240
 1227.0000  -999.2500  -999.2500  -999.2500  -999.2500  -999.2500   -94.8450   -65.4710    99.6720     8.2280     8.8740     8.5700
 1227.5000  -999.2500  -999.2500  -999.2500  -999.2500  -999.2500   -94.8450   -65.3460   102.0600     8.2540     8.7230     8.4160
 1228.0000  -999.2500  -999.2500  -999.2500  -999.2500  -999.2500   -94.8450   -65.2630    99.7450     8.2240     8.5640     8.2540
 1228.5000  -999.2500  -999.2500  -999.2500  -999.2500  -999.2500   -94.8450   -65.4300    97.0950     8.1700     8.5880     8.2770
 1229.0000  -999.2500  -999.2500  -999.2500  -999.2500  -999.2500   -94.8450   -65.6010    96.2190     8.1160     8.6190     8.3070
 1229.5000  -999.2500  -999.2500  -999.2500  -999.2500  -999.2500   -94.8450   -65.6330    96.6280     8.0620     8.6510     8.3380
 1230.0000  -999.2500  -999.2500  -999.2500  -999.2500  -999.2500   -94.8450   -65.6380    98.0560     8.0280     8.6830     8.3690
 1230.5000  -999.2500  -999.2500  -999.2500  -999.2500  -999.2500   -94.8450   -65.4490    98.0080     8.0710     8.7150     8.3990
