~VERSION INFORMATION
 VERS.                2.0:   CWLS LOG ASCII STANDARD - VERSION 2.0
 WRAP.                 NO:   ONE LINE PER DEPTH STEP
~WELL INFORMATION
#MNEM.UNIT      DATA TYPE    INFORMATION
#----------   ------------   ------------------------------
 STRT.F          196.5000:   START DEPTH
 STOP.F         2376.0000:   STOP DEPTH
 STEP.F            0.5000:   STEP LENGTH
 NULL.          -999.2500:   NO VALUE
 COMP.    FENIX & SCISSON:   COMPANY
 WELL. FENIX & SCISSON NPR-3 #55-10:   WELL
 FLD .  TEAPOT DOME NPR-3:   FIELD
 LOC .      S10 T38N R78W:   LOCATION
 CNTY.            NATRONA:   COUNTY
 STAT.            WYOMING:   STATE
 CTRY. UNITED STATES OF AMERICA:   COUNTRY
 SRVC.           BIRDWELL:   SERVICE COMPANY
 DATE.        09-MAY-1979:   LOGDATE
 API .     49025107780000:   API NUMBER
~CURVE INFORMATION
#MNEM.UNIT       API CODE    CURVE DESCRIPTION
#----------   ------------   ------------------------------
 DEPT.F                  :   
 CALD.IN     45 280 60 00:   CALIPER FROM DENSITY LOG
 GRD .GAPI   45 310 01 00:   GAMMA RAY FROM DENSITY LOG
 RHOB.G/C3   45 350 01 00:   BULK DENSITY
 CORR.G/C3   45 356 01 00:   DENSITY CORRECTION
~PARAMETER INFORMATION
#MNEM.UNIT          VALUE    DESCRIPTION
#----------   ------------   ------------------------------
 EKB .F         5203.0000:   Kelly bushing
 EGL .F         5193.0000:   Ground level
 EDF .F            0.0000:   Drilling floor
 TD  .F         2376.0000:   Total depth
 CLNT.            A2DTECH:   Client Code
 SL  . 2283' FSL & 2107' FEL:   Surface Location
 PD  .                 GL:   Permanent Datum
 EPD .F              5193:   Elevation Permanent Datum
 LMF .                 KB:   Log Measured From
 DMF .                 KB:   Drilling Measured From
 DAPD.F                10:   Feet Above Permanent Datum
 DATE.        09-MAY-1979:   Date Logged [DD-MMM-YYYY]
 DD  .F              2360:   Depth driller
 DL  .F              2376:   Depth logger
 BLI .F              2376:   Bottom log interval
 TLI .F               196:   Top log interval
 CS1 .IN            9.625:   Casing size
 CBD1.             9.625":   Casing driller 1
 CBL1.F               545:   Casing logger 1
 BS1 .IN             8.75:   Bit size
 BSD1.F              2360:   Depth drilled with bit1
 DFT .                AIR:   Type fluid in hole
 TCS .HRS               3:   Time Circ. stopped
 LUN .               2959:   Logging unit number
 LUL .             CASPER:   Logging unit location
 ENGI.         B. ROLLINS:   Recorded By
 WITN.             RHODES:   Witnessed by
 ORIG.           5" PRINT:   Origin of data
 UWI .     49025107780000:   Unique Well ID
 DICO. A2D TECHNIOLOGIES,INC.:   Digitizing Company
~OTHER INFORMATION
~A  DEPTH     CALD        GRD       RHOB       CORR
# ...
  926.5000     9.1216   127.1585     2.4694     0.0252
  927.0000     9.1217   125.3516     2.4801     0.0095
  927.5000     9.1218   124.7512     2.4892     0.0035
  928.0000     9.1219   124.0001     2.4961     0.0035
  928.5000     9.1370   120.5340     2.4999     0.0081
  929.0000     9.1522   117.6712     2.5045     0.0142
  929.5000     9.1523   115.8522     2.5083     0.0188
  930.0000     9.1523   117.3453     2.5038     0.0158
  930.5000     9.1524   123.6108     2.5099     0.0098
  931.0000     9.1525   124.3640     2.5114     0.0038
  931.5000     9.1526   125.9155     2.5076     0.0023
  932.0000     9.1526   129.0021     2.5001     0.0145
  932.5000     9.1527   127.6476     2.5069     0.0326
  933.0000     9.1528   124.4832     2.5279     0.0568
  933.5000     9.1529   122.6762     2.5510     0.0795
  934.0000     9.1530   122.0759     2.5692     0.1027
  934.5000     9.1530   119.3639     2.5814     0.1264
  935.0000     9.1682   115.7470     2.5837     0.1233
  935.5000     9.1683   112.5826     2.5451     0.0932
  936.0000     9.1683   109.4181     2.5096     0.0691
  936.5000     9.1835   110.6278     2.4937     0.0510
  937.0000     9.1836   113.1948     2.5028     0.0420
  937.5000     9.1836   115.4603     2.5900     0.0677
  938.0000     9.1837   119.3848     2.6574     0.2396
  938.5000     9.1687   124.9685     2.6711     0.2472
  939.0000     9.1688   124.0665     2.6060     0.2081
  939.5000     9.1538   120.6004     2.5128     0.1538
  940.0000     9.1549   117.8885     2.4818     0.0845
  940.5000     9.1690   117.8915     2.4569     0.0288
  941.0000     9.1842   117.5928     2.4433     0.0153
  941.5000     9.1843   119.2549     2.4441     0.0108
  942.0000     9.1843   122.2986     2.4531     0.0125
  942.5000     9.1995   124.7209     2.4752     0.0234
  943.0000     9.1845   124.2091     2.4972     0.0403
  943.5000     9.1544   123.6409     2.5154     0.0698
  944.0000     9.1243   125.2651     2.5329     0.0939
  944.5000     9.1093   126.9659     2.5420     0.0895
  945.0000     9.0925   125.7622     2.5064     0.0805
  945.5000     9.0642   124.1054     2.5004     0.0639
  946.0000     9.0492   126.3715     2.4959     0.0429
  946.5000     9.0493   127.7320     2.4944     0.0218
  947.0000     9.0644   128.9416     2.4854     0.0007
  947.5000     9.0796   130.0004     2.4741    -0.0083
  948.0000     9.0947   128.7968     2.4582    -0.0128
  948.5000     9.1099   125.9340     2.4764    -0.0142
  949.0000     9.1401   124.8812     2.4848    -0.0081
  949.5000     9.1553   125.0350     2.4886     0.0100
  950.0000     9.1704   127.3004     2.5008     0.0402
  950.5000     9.1856   128.6609     2.5457     0.0724
  951.0000     9.1706   127.6080     2.5555     0.0932
  951.5000     9.1699   126.4044     2.5592     0.0878
  952.0000     9.1255   125.9548     2.5305     0.0705
  952.5000     9.1256   126.7120     2.5131     0.0600
  953.0000     9.1558   127.9216     2.5048     0.0495
  953.5000     9.1559   129.4329     2.5003     0.0465
  954.0000     9.1560   126.5950     2.5018     0.0406
  954.5000     9.1711   124.1876     2.4935     0.0346
  955.0000     9.1410   121.4786     2.5095     0.0301
  955.5000     9.1260   122.8419     2.5322     0.0467
  956.0000     9.1110   124.2053     2.5626     0.0860
  956.5000     9.0960   123.4555     2.5831     0.1298
  957.0000     9.0961   122.0373     2.5854     0.1495
  957.5000     9.0962   118.4929     2.5831     0.1656
  958.0000     9.0661   118.6496     2.5665     0.1490
  958.5000     9.0661   120.4654     2.5022     0.1008
  959.0000     9.0644   123.9404     2.5090     0.0887
  959.5000     9.0512   125.7562     2.5250     0.0902
  960.0000     9.0513   126.6671     2.5212     0.0978
  960.5000     9.0514   125.1646     2.5084     0.0722
  961.0000     9.0665   122.3048     2.4690     0.0300
  961.5000     9.0666   119.1170     2.4630     0.0059
  962.0000     9.0667   117.6408     2.4752    -0.0122
  962.5000     9.0818   121.7206     2.5214     0.0227
  963.0000     9.0970   123.9889     2.5290     0.0363
  963.5000     9.1121   125.3522     2.5260     0.0406
  964.0000     9.1575   125.2073     2.5302     0.0482
  964.5000     9.1726   123.7049     2.5344     0.0663
  965.0000     9.2179   122.6549     2.5208     0.0587
  965.5000     9.2339   121.6050     2.5080     0.0467
  966.0000     9.2633   120.5551     2.5042     0.0316
  966.5000     9.2634   122.5565     2.5353     0.0467
  967.0000     9.2484   124.7916     2.5530     0.0769
  967.5000     9.2334   125.5516     2.5732     0.1116
  968.0000     9.2335   125.8577     2.5707     0.1312
  968.5000     9.2185   124.6584     2.5344     0.1248
  969.0000     9.2186   122.8543     2.5124     0.1064
  969.5000     9.2186   121.9537     2.5132     0.0800
  970.0000     9.2187   124.9777     2.4798     0.0544
  970.5000     9.2037   127.3968     2.4958     0.0423
  971.0000     9.1887   129.0648     2.5041     0.0484
  971.5000     9.1737   130.2911     2.5124     0.0680
  972.0000     9.1587   129.5276     2.5178     0.0605
  972.5000     9.1286   125.9135     2.4923     0.0499
  973.0000     9.1136   124.1080     2.4715     0.0379
  973.5000     9.1137   127.7352     2.4708     0.0288
  974.0000     9.1137   132.7185     2.4951     0.0454
  974.5000     9.1138   135.1362     2.5178     0.0667
  975.0000     9.1290   131.9761     2.5223     0.0696
  975.5000     9.1441   128.3621     2.4913     0.0485
  976.0000     9.1442   127.7646     2.4542     0.0033
  976.5000     9.1443   127.3826     2.4557    -0.0118
  977.0000     9.1594   124.7613     2.4678    -0.0163
  977.5000     9.1595   125.3705     2.4754    -0.0057
  978.0000     9.1747   126.2813     2.4753    -0.0027
  978.5000     9.1898   130.3591     2.4655    -0.0117
  979.0000     9.2201   132.6275     2.4641    -0.0132
  979.5000     9.2352   133.1006     2.4861    -0.0056
  980.0000     9.2504   132.0374     2.5035     0.0140
  980.5000     9.2656   128.1217     2.5171     0.0368
  981.0000     9.2656   126.7686     2.5330     0.0509
  981.5000     9.2506   131.6025     2.5497     0.0819
  982.0000     9.2356   134.4742     2.5641     0.0985
  982.5000     9.2055   133.8767     2.5369     0.0774
  983.0000     9.1754   134.1843     2.5255     0.0729
  983.5000     9.1604   139.3184     2.5286     0.0910
  984.0000     9.1454   141.1422     2.5346     0.1045
  984.5000     9.1304   143.1793     2.5361     0.1106
  985.0000     9.1305   145.5215     2.5354     0.1151
  985.5000     9.1155   146.5832     2.5392     0.1212
  986.0000     9.1155   145.3824     2.5354     0.1242
  986.5000     9.1307   140.1093     2.4945     0.0732
  987.0000     9.1308   135.2886     2.4612     0.0172
  987.5000     9.1309   132.8812     2.4763     0.0232
  988.0000     9.1460   131.0771     2.4922     0.0293
  988.5000     9.1461   131.6863     2.5036     0.0308
  989.0000     9.1612   134.1419     2.5105     0.0278
  989.5000     9.1613   136.4726     2.4847     0.0128
  990.0000     9.1463   138.3419     2.4642     0.0022
  990.5000     9.1464   138.4972     2.4749    -0.0038
  991.0000     9.1465   138.2014     2.4825     0.0037
  991.5000     9.1465   138.3581     2.4954     0.0113
  992.0000     9.1466   137.7622     2.5067     0.0008
  992.5000     9.1467   136.8631     2.4711    -0.0114
  993.0000     9.1468   135.8131     2.4681    -0.0158
  993.5000     9.1619   134.7632     2.4870     0.0189
  994.0000     9.1620   134.8255     2.5128     0.0461
  994.5000     9.1621   136.1339     2.5279     0.0627
  995.0000     9.1772   135.0840     2.5317     0.0702
  995.5000     9.1773   133.4307     2.5348     0.0808
  996.0000     9.1925   134.0399     2.5431     0.0974
  996.5000     9.2227   136.4591     2.5345     0.0868
  997.0000     9.2379   137.2191     2.5088     0.0793
  997.5000     9.2379   134.6609     2.5022     0.0777
  998.0000     9.2380   133.1585     2.5288     0.0959
  998.5000     9.2532   134.2273     2.5583     0.1158
  999.0000     9.2532   135.9236     2.5644     0.1279
