~VERSION INFORMATION
 VERS.                2.0:   CWLS LOG ASCII STANDARD - VERSION 2.0
 WRAP.                 NO:   ONE LINE PER DEPTH STEP
~WELL INFORMATION
#MNEM.UNIT      DATA TYPE    INFORMATION
#----------   ------------   ------------------------------
 STRT.F         2496.0000:   START DEPTH
 STOP.F         4120.0000:   STOP DEPTH
 STEP.F            0.5000:   STEP LENGTH
 NULL.          -999.2500:   NO VALUE
 COMP. LAWRENCE ALLISON AND ASSOCIATES:   COMPANY
 WELL. LAWRENCE "X" #85-10:   WELL
 FLD .              N P R:   FIELD
 LOC .      S10 T38N R78W:   LOCATION
 CNTY.            NATRONA:   COUNTY
 STAT.            WYOMING:   STATE
 CTRY. UNITED STATES OF AMERICA:   COUNTRY
 SRVC.      DRESSER ATLAS:   SERVICE COMPANY
 DATE.        20-JAN-1984:   LOGDATE
 API .     49025109580000:   API NUMBER
~CURVE INFORMATION
#MNEM.UNIT       API CODE    CURVE DESCRIPTION
#----------   ------------   ------------------------------
 DEPT.F                  :   
 SPR .MV     07 010 01 00:   SPONTANEOUS POTENTIAL
 TENR.LBS    07 635 01 00:   TENSION FROM RESISTIVITY
 ILD .OHMM   07 120 46 00:   DEEP INDUCTION RESISTIVITY
 ILM .OHMM   07 120 44 00:   INDUCTION LOG MEDIUM RESISTIVITY
 RFOC.OHMM   07 220 04 00:   RESISTIVITY FOCUSED LOG RES.
 GRD .GAPI   45 310 01 00:   GAMMA RAY FROM DENSITY LOG
 CALD.IN     45 280 60 00:   CALIPER FROM DENSITY LOG
 TEND.LBS    45 635 01 00:   TENSION FROM DENSITY LOG
 RHOB.G/C3   45 350 01 00:   BULK DENSITY
 CORR.G/C3   45 356 01 00:   DENSITY CORRECTION
 CN  .DEC    42 890 03 00:   NEUTRON POROSITY SANDSTONE
~PARAMETER INFORMATION
#MNEM.UNIT          VALUE    DESCRIPTION
#----------   ------------   ------------------------------
 EKB .F         5231.0000:   Kelly bushing
 EGL .F         5221.0000:   Ground level
 EDF .F            0.0000:   Drilling floor
 TD  .F         4115.0000:   Total depth
 DATE.        20-JAN-1984:   Date logged
 CLNT.            A2DTECH:   Client Code
 SL  . 2159' FSL & 292' FEL:   Surface Location
 PD  .                 GL:   Permanent Datum
 EPD .F              5221:   Elevation Permanent Datum
 LMF .                 KB:   Log Measured From
 DMF .                 KB:   Drilling Measured From
 DD  .F              4115:   Depth driller
 DL  .F              4111:   Depth logger
 BLI .F              4109:   Bottom log interval
 TLI .F              2496:   Top log interval
 CS1 .IN            8.625:   Casing size
 CBD1.       8.625 @ 537':   Casing driller 1
 BS1 .IN            7.875:   Bit size
 DFT .            GEL KCL:   Type fluid in hole
 DFD .                8.8:   Density
 DFV .                 40:   Viscosity
 DFPH.                  9:   pH
 DFL .                9.8:   Fluid loss
 MSS .           FLOWLINE:   Source of sample
 RMS .OHMM           0.61:   Rm
 MST .F                77:   Rm Meas. temp.
 RMF .OHMM           0.51:   Rmf
 MFST.F                69:   Rmf Meas. temp.
 RMC .OHMM           0.76:   Rmc
 MCST.F                77:   Rmc Meas. temp.
 MFSS.               MEAS:   Source Rmf.
 RMB .OHMM           0.38:   Rm. at BHT
 BHT .F               122:   BHT.
 TCS .HRS               4:   Time Circ. stopped
 MRT .F               122:   Maximum recorded temp.
 LUN .               6307:   Logging unit number
 LUL .               GLTE:   Logging unit location
 ENGI.            DEYOUNG:   Recorded By
 WITN.           R. SCOTT:   Witnessed by
 ORIG.           5" PRINT:   Origin of data
 UWI .     49025109580000:   Unique Well ID
 DICO. A2D TECHNOLOGIES, INC.:   Digitizing Company
 DAPD.                 10:   Feet Above Permanent Datum
 MCSS.               CALC:   Source Rmc.
~OTHER INFORMATION
~A  DEPT       SPR       TENR        ILD        ILM       RFOC        GRD       CALD       TEND       RHOB       CORR         CN   
# ...
 3563.5000   -55.1260   -23.9610     6.7270     7.0140     7.8730   134.3020     8.1590   -25.7030     2.4310     0.0980     0.2330
 3564.0000   -55.0880   -23.8990     7.3260     7.6380     9.5680   115.5970     8.1590   -25.7030     2.4390     0.1050     0.2270
 3564.5000   -54.9150   -23.8360     7.9250     8.2620    11.2630   113.6260     8.1590   -25.7030     2.4460     0.1080     0.2310
 3565.0000   -54.7360   -23.7740     8.5230     8.8860    11.8130   114.7160     8.1590   -25.7030     2.4500     0.0940     0.2350
 3565.5000   -54.5520   -23.7110     9.1220     9.5100    11.6290   117.9720     8.1590   -25.7030     2.4470     0.0780     0.2360
 3566.0000   -54.3370   -23.6490     9.7200    10.1340    11.4850   121.1140     8.1590   -25.7030     2.4430     0.0700     0.2290
 3566.5000   -54.1240   -23.5870    10.3790    10.6490    11.3840   123.4980     8.1590   -25.7030     2.4420     0.0610     0.2200
 3567.0000   -53.9120   -23.5240    10.7040    10.9050    12.9340   123.9900     8.1590   -25.7030     2.4470     0.0680     0.2240
 3567.5000   -53.7000   -23.4620    11.0650    11.1610    14.1300   127.2180     8.1590   -25.7030     2.4510     0.0790     0.2320
 3568.0000   -53.4880   -23.4000    11.4900    11.4900    14.4750   133.6900     8.1590   -25.7030     2.4540     0.0910     0.2390
 3568.5000   -53.2760   -23.3370    11.4420    11.3830    13.1170   140.1330     8.1590   -25.7030     2.4560     0.0860     0.2400
 3569.0000   -53.0560   -23.2750    11.3760    11.2350    11.1760   143.3480     8.1590   -25.7030     2.4550     0.0840     0.2400
 3569.5000   -53.1150   -23.2120    11.3100    11.0860    11.7940   141.8170     8.1590   -25.7030     2.4510     0.0830     0.2350
 3570.0000   -53.2580   -23.1500    11.0660    10.9380    12.6410   137.8750     8.1590   -25.7030     2.4540     0.0820     0.2300
 3570.5000   -53.4040   -23.0880    10.6690    10.7010    13.1970   134.6260     8.1590   -25.7030     2.4580     0.0770     0.2260
 3571.0000   -53.5500   -23.0250    10.2730    10.3900    12.7460   132.2380     8.1590   -25.7030     2.4620     0.0720     0.2240
 3571.5000   -53.6960   -22.9630     9.4620     9.7770    12.2570   129.8830     8.1590   -25.7030     2.4580     0.0670     0.2250
 3572.0000   -53.8420   -22.9000     8.3190     8.6180    12.3790   127.5120     8.1590   -25.7030     2.4550     0.0600     0.2270
 3572.5000   -53.9880   -22.8380     7.1750     7.4600    12.6020   126.2440     8.1590   -25.7030     2.4510     0.0540     0.2310
 3573.0000   -54.1340   -22.7760     6.0320     6.3010     9.9860   135.0530     8.1590   -25.7030     2.4470     0.0480     0.2400
 3573.5000   -54.2800   -22.7130     4.8890     5.1420     7.2900   147.0660     8.1590   -25.7030     2.4450     0.0670     0.2490
 3574.0000   -54.4260   -22.6510     3.7460     3.9840     4.5940   159.5010     8.1590   -25.7030     2.4430     0.1010     0.2600
 3574.5000   -54.5710   -22.5880     2.6030     2.8250     3.2390   173.3890     8.1590   -25.7030     2.4420     0.1310     0.2790
 3575.0000   -54.7170   -22.5260     1.9140     1.8970     2.8140   187.4600     8.1590   -25.7030     2.4350     0.1230     0.3020
 3575.5000   -54.8630   -22.4640     1.9660     1.9700     2.1390   201.8080     8.1590   -25.7030     2.4240     0.1150     0.3030
 3576.0000   -55.0090   -22.4010     2.0300     2.0320     2.3440   212.7730     8.1590   -25.7030     2.4130     0.1170     0.2670
 3576.5000   -55.1570   -22.3390     2.2390     2.2580     2.8470   180.4430     8.1590   -25.7030     2.4050     0.1210     0.2350
 3577.0000   -55.1570   -22.2760     2.4820     3.0770     6.2770   160.5650     8.1590   -25.7030     2.4270     0.1210     0.2030
 3577.5000   -55.0740   -22.2140     2.8150     3.8960    11.5000   115.2110     8.1590   -25.7030     2.4640     0.1020     0.1880
 3578.0000   -54.9900   -22.1520     3.4500     4.9430    16.7220    96.5360     8.1590   -25.7030     2.5010     0.0820     0.1760
 3578.5000   -54.9060   -22.0890     4.0850     6.0740    17.5740    98.4980     8.1590   -25.7030     2.5320     0.0620     0.1850
 3579.0000   -54.8220   -22.0270     4.5640     5.6060    17.3880   101.5720     8.1590   -25.7030     2.5230     0.0720     0.1950
 3579.5000   -54.7380   -21.9640     4.8660     5.1240    17.1690   111.2880     8.1590   -25.7030     2.5050     0.0900     0.2040
 3580.0000   -54.6540   -21.9020     4.3330     4.4840    12.9200   135.8070     8.1590   -25.7030     2.4770     0.0970     0.2250
 3580.5000   -54.5700   -21.8440     3.1650     3.4500     6.5580   166.0160     8.1590   -25.7030     2.4480     0.1060     0.2480
 3581.0000   -54.4860   -21.9110     2.8920     2.8850     3.0120   185.2430     8.1590   -25.7030     2.4200     0.1150     0.2710
 3581.5000   -54.4030   -21.9750     2.8210     2.8520     2.6490   203.3300     8.1590   -25.7030     2.3940     0.0990     0.2850
 3582.0000   -54.3220   -22.0380     3.0640     3.0540     2.3890   208.8860     8.1590   -25.7030     2.3660     0.0790     0.2780
 3582.5000   -54.2370   -22.1010     3.3390     3.2890     5.5320   174.4130     8.1590   -25.7030     2.3730     0.0610     0.2630
 3583.0000   -54.6970   -22.1650     3.6150     3.5240     7.9820   145.0300     8.1590   -25.7030     2.3910     0.0240     0.2480
 3583.5000   -55.6750   -22.2280     3.8630     4.0570    10.6710   136.3020     8.1590   -25.7030     2.4060     0.0350     0.2300
 3584.0000   -56.6520   -22.2910     5.3150     5.2870    11.4830   136.2400     8.1590   -25.7030     2.4120     0.0450     0.2330
 3584.5000   -57.6320   -22.3550     6.6330     6.5160    11.9220   140.5420     8.1590   -25.7030     2.4180     0.0540     0.2400
 3585.0000   -58.6100   -22.4180     7.8450     7.7460    11.2940   144.8690     8.1590   -25.7030     2.4160     0.0520     0.2460
 3585.5000   -59.5920   -22.4810     8.2670     8.4710    10.6080   149.5530     8.1590   -25.7030     2.4100     0.0480     0.2520
 3586.0000   -60.5880   -22.5450     8.6280     8.3210    10.2550   155.6810     8.1590   -25.7030     2.4090     0.0480     0.2550
 3586.5000   -61.3370   -22.6080     8.2710     8.0390    10.1990   160.0600     8.1590   -25.7030     2.4130     0.0540     0.2560
 3587.0000   -58.2350   -22.6710     7.8880     7.7560    10.1430   159.0990     8.1590   -25.7030     2.4170     0.0700     0.2560
 3587.5000   -54.8340   -22.7350     7.5050     7.4740     9.9980   157.2940     8.1590   -25.7030     2.4200     0.0810     0.2560
 3588.0000   -52.6030   -22.7980     7.1210     7.1920     9.3450   157.3970     8.1590   -25.7030     2.4140     0.0760     0.2590
 3588.5000   -52.7470   -22.8610     6.7240     6.9090     8.6920   163.3440     8.1590   -25.7030     2.4060     0.0710     0.2600
 3589.0000   -52.5880   -22.9250     6.6920     6.7080     8.0390   169.3260     8.1590   -25.7030     2.3990     0.0660     0.2580
 3589.5000   -52.6240   -22.9880     6.6600     6.5400     7.3860   172.8210     8.1590   -25.7030     2.4000     0.0650     0.2540
 3590.0000   -52.6540   -23.0510     6.6270     6.6400     7.2390   162.7720     8.1590   -25.7030     2.4090     0.0640     0.2470
 3590.5000   -52.6810   -23.1150     6.6010     6.7700     7.4250   149.9160     8.1590   -25.7030     2.4180     0.0630     0.2400
 3591.0000   -52.7080   -23.1780     6.7250     6.8990     8.0670   151.0690     8.1590   -25.7030     2.4290     0.0620     0.2360
 3591.5000   -52.7350   -23.2410     6.8300     7.0280     8.7080   152.2600     8.1590   -25.7030     2.4420     0.0610     0.2440
 3592.0000   -52.7610   -23.3050     6.9350     7.1580     9.3500   153.3780     8.1590   -25.7030     2.4500     0.0600     0.2510
 3592.5000   -52.7870   -23.3680     7.1200     7.2870     9.7300   154.4900     8.1590   -25.7030     2.4550     0.0650     0.2560
 3593.0000   -52.6400   -23.4310     7.3550     7.4160     9.0770   159.2600     8.1590   -25.7030     2.4600     0.0730     0.2520
 3593.5000   -52.2340   -23.4950     7.5910     7.5460     8.5490   164.1390     8.1590   -25.7030     2.4610     0.0810     0.2490
