~VERSION INFORMATION
 VERS.                2.0:   CWLS LOG ASCII STANDARD - VERSION 2.0
 WRAP.                 NO:   ONE LINE PER DEPTH STEP
~WELL INFORMATION
#MNEM.UNIT      DATA TYPE    INFORMATION
#----------   ------------   ------------------------------
 STRT.F            0.0000:   START DEPTH
 STOP.F         3504.0000:   STOP DEPTH
 STEP.F            0.5000:   STEP LENGTH
 NULL.          -999.2500:   NO VALUE
 COMP. LAWRENCE-ALLISON AND ASSOCIATES:   COMPANY
 WELL. LAWRENCE "TX" #16-34:   WELL
 FLD .              NPR 3:   FIELD
 LOC .      S34 T39N R78W:   LOCATION
 CNTY.            NATRONA:   COUNTY
 STAT.            WYOMING:   STATE
 CTRY. UNITED STATES OF AMERICA:   COUNTRY
 SRVC.       SCHLUMBERGER:   SERVICE COMPANY
 DATE.        10-APR-1982:   LOGDATE
 API .     49025108970000:   API NUMBER
~CURVE INFORMATION
#MNEM.UNIT       API CODE    CURVE DESCRIPTION
#----------   ------------   ------------------------------
 DEPT.F                  :   
 SPR .MV     07 010 01 00:   SPONTANEOUS POTENTIAL
 ILD .OHMM   07 120 46 00:   DEEP INDUCTION RESISTIVITY
 SFLU.OHMM   07 220 01 00:   SPHERICALLY FOCUSED LOG UNAVERAGED RESISTIVITY
 TENR.LBS    07 635 01 00:   TENSION FROM RESISTIVITY
 ILM .OHMM   07 120 44 00:   INDUCTION LOG MEDIUM RESISTIVITY
 GRD .GAPI   45 310 01 00:   GAMMA RAY FROM DENSITY LOG
 CALD.IN     45 280 60 00:   CALIPER FROM DENSITY LOG
 RHOB.G/C3   45 350 01 00:   BULK DENSITY
 CORR.G/C3   45 356 01 00:   DENSITY CORRECTION
 TEND.LBS    45 635 01 00:   TENSION FROM DENSITY LOG
 NPHI.DEC    42 890 03 00:   NEUTRON POROSITY SANDSTONE
~PARAMETER INFORMATION
#MNEM.UNIT          VALUE    DESCRIPTION
#----------   ------------   ------------------------------
 EKB .F         5149.0000:   Kelly bushing
 EGL .F         5139.0000:   Ground level
 EDF .F            0.0000:   Drilling floor
 TD  .F         3500.0000:   Total depth
 DATE.        10-APR-1982:   Date logged
 CLNT.            A2DTECH:   Client Code
 SL  . 1406' FSL & 423' FWL:   Surface Location
 PD  .                 GL:   Permanent Datum
 EPD .F              5139:   Elevation Permanent Datum
 LMF .                 KB:   Log Measured From
 DMF .                 KB:   Drilling Measured From
 DAPD.F                10:   Feet Above Permanent Datum
 DD  .F              3500:   Depth driller
 DL  .F              3497:   Depth logger
 BLI .F              3491:   Bottom log interval
 TLI .F               658:   Top log interval
 CS1 .IN            9.625:   Casing size
 CBD1.      9.625" @ 632':   Casing driller 1
 CBL1.F               658:   Casing logger 1
 BS1 .IN             8.75:   Bit size
 BSD1.F              3500:   Depth drilled with bit1
 DFT .           SPUD MUD:   Type fluid in hole
 DFD .                  9:   Density
 DFV .                 44:   Viscosity
 DFPH.                 10:   pH
 DFL .                  7:   Fluid loss
 MSS .           FLOWLINE:   Source of sample
 RMS .OHMM              2:   Rm
 MST .F                53:   Rm Meas. temp.
 RMF .OHMM            1.9:   Rmf
 MFST.F                53:   Rmf Meas. temp.
 RMC .OHMM            1.5:   Rmc
 MCST.F                53:   Rmc Meas. temp.
 MFSS.               MEAS:   Source Rmf.
 MCSS.               CALC:   Source Rmc.
 RMB .OHMM              1:   Rm. at BHT
 BHT .F               106:   BHT.
 TCS .HRS            1100:   Time Circ. stopped
 TLAB.HRS            1330:   Time logger at bottom
 MRT .F               106:   Maximum recorded temp.
 LUN .               8151:   Logging unit number
 LUL .                GLT:   Logging unit location
 ENGI.            NEUFFER:   Recorded By
 WITN.           JENNINGS:   Witnessed by
 ORIG.           5" PRINT:   Origin of data
 UWI .     49025108970000:   Unique Well ID
 DICO. A2D TECHNOLOGIES, INC.:   Digitizing Company
~OTHER INFORMATION
~A    DEPT     SPR        ILD       SFLU       TENR        ILM        GRD       CALD       RHOB       CORR       TEND       NPHI   
# ...
 2135.0000   -21.4210    12.5040    16.1850  1219.3400    12.2050   116.8390    11.8130     2.4290    -0.0030  1220.0000     0.3610
 2135.5000   -21.3560    12.6180    15.5790  1219.6790    12.2270   118.2930    11.8400     2.4330     0.0010  1220.0000     0.3560
 2136.0000   -21.3150    12.7320    14.8750  1220.0179    12.2480   117.9300    11.8690     2.4390     0.0050  1220.0000     0.3550
 2136.5000   -21.3010    12.8460    14.2290  1220.3571    12.2700   115.1560    11.9160     2.4460     0.0060  1220.0000     0.3520
 2137.0000   -21.2870    12.8590    14.6560  1220.6970    12.3300   111.4720    11.9630     2.4520     0.0070  1220.0000     0.3460
 2137.5000   -21.2730    12.8590    15.0510  1221.0360    12.4310   108.8220    12.0100     2.4530     0.0100  1220.0000     0.3400
 2138.0000   -21.2580    12.8590    15.4450  1221.3750    12.5320   110.4560    12.0290     2.4530     0.0160  1220.0000     0.3370
 2138.5000   -21.2440    12.8590    15.8390  1221.7140    12.6330   114.9370    11.9480     2.4540     0.0180  1220.0000     0.3450
 2139.0000   -21.2300    12.8590    16.2010  1222.0540    12.7420   118.4190    11.8210     2.4500     0.0160  1220.0000     0.3560
 2139.5000   -21.2160    12.8590    16.3350  1222.3929    12.7420   119.3940    11.6310     2.4400     0.0130  1220.0000     0.3680
 2140.0000   -21.2020    12.8590    15.6210  1222.7321    12.7420   120.4080    11.4550     2.4290     0.0090  1220.0000     0.3710
 2140.5000   -21.1880    12.8600    14.8560  1223.0710    12.7420   121.4250    11.4110     2.4230     0.0080  1220.0000     0.3660
 2141.0000   -21.1740    12.8290    14.4010  1223.4100    12.7420   121.9300    11.3760     2.4190     0.0070  1220.0000     0.3610
 2141.5000   -21.1600    12.7840    14.8850  1223.7500    12.7420   121.8250    11.3890     2.4200     0.0090  1220.0000     0.3580
 2142.0000   -21.1460    12.7420    15.2730  1224.0890    13.0980   120.4680    11.4040     2.4310     0.0140  1220.0000     0.3580
 2142.5000   -21.1320    13.3550    15.6600  1224.4280    13.7290   118.1320    11.4280     2.4570     0.0270  1220.0000     0.3580
 2143.0000   -21.1170    13.9850    16.3800  1224.7670    14.3770   115.7810    11.4890     2.4710     0.0380  1220.0000     0.3510
 2143.5000   -21.1030    14.6160    17.1940  1225.1060    15.0250   114.4810    11.5490     2.4740     0.0420  1220.0000     0.3420
 2144.0000   -21.0890    15.2470    18.0070  1225.4460    15.6730   113.6100    11.6080     2.4620     0.0350  1220.0000     0.3330
 2144.5000   -21.0750    15.7450    18.8200  1225.7850    16.1850   111.1340    11.6520     2.4500     0.0280  1220.0000     0.3250
 2145.0000   -21.0610    15.4550    19.4550  1226.1240    15.8870   108.0400    11.6510     2.4460     0.0220  1220.0000     0.3160
 2145.5000   -21.0470    15.1760    18.5140  1226.4630    15.6000   106.6330    11.6510     2.4500     0.0150  1220.0000     0.3070
 2146.0000   -21.0330    14.5110    17.6930  1226.8030    14.9170   109.0240    11.6520     2.4520     0.0090  1220.0000     0.3050
 2146.5000   -21.0190    13.8640    16.8090  1227.1420    14.2520   113.4550    11.5820     2.4360     0.0020  1220.0000     0.3150
 2147.0000   -21.0050    13.2160    15.9260  1227.4810    13.5860   115.1020    11.4840     2.4180     0.0040  1220.0000     0.3220
 2147.5000   -20.9910    12.5690    15.0420  1227.8199    12.9210   115.1200    11.3960     2.4110     0.0440  1220.0000     0.3280
 2148.0000   -20.9760    11.9220    14.1580  1228.1591    12.2560   115.0880    11.4010     2.4590     0.0830  1220.0000     0.3260
 2148.5000   -20.9620    11.7440    13.3420  1228.4990    12.0730   113.5130    11.4070     2.4700     0.0950  1220.0000     0.3210
 2149.0000   -20.9490    11.6370    13.6720  1228.8380    11.9630   110.0750    11.4140     2.4580     0.0580  1220.0000     0.3160
 2149.5000   -20.9350    11.5300    14.0480  1229.1770    11.8530   107.3650    11.4150     2.4600     0.0300  1220.0000     0.3100
 2150.0000   -20.9800    11.4230    14.4250  1229.5160    11.7420   106.4800    11.4130     2.4770     0.0200  1220.0000     0.3040
 2150.5000   -21.0850    11.3050    14.7120  1229.8550    11.6220   105.5640    11.2740     2.4970     0.0170  1220.0000     0.3040
 2151.0000   -21.1900    11.0750    14.2220  1230.1949    11.3850   104.6510    11.2010     2.4960     0.0160  1220.0000     0.3100
 2151.5000   -21.2950    10.8210    13.7330  1230.5341    11.1240   103.7360    11.1510     2.4800     0.0110  1220.0000     0.3140
 2152.0000   -21.4010    10.5780    13.2430  1230.8730    10.8940   102.5880    11.1200     2.4660     0.0040  1220.0000     0.3170
 2152.5000   -21.5060    10.3460    12.7540  1231.2120    10.6930    99.9920    11.1290     2.4590     0.0030  1220.0000     0.3150
 2153.0000   -21.6120    10.1130    12.2650  1231.5520    10.4930    97.3330    11.1370     2.4620     0.0040  1220.0000     0.3120
 2153.5000   -21.7170     9.8800    11.8370  1231.8910    10.2920    96.7400    11.1120     2.4730     0.0120  1220.0000     0.3100
 2154.0000   -21.8220     9.6470    11.8370  1232.2300    10.0910    97.9070    11.0780     2.4900     0.0270  1220.0000     0.3120
 2154.5000   -21.8970     9.4140    11.7730  1232.5690     9.8900    99.0990    11.0430     2.5070     0.0570  1220.0000     0.3150
 2155.0000   -21.7770     9.1820    11.2940  1232.9080     9.6830    99.9660    11.1230     2.5090     0.0640  1220.0000     0.3170
 2155.5000   -21.6550     8.9740    10.8150  1233.2480     9.4610    99.7740    11.2140     2.4860     0.0520  1220.0000     0.3220
 2156.0000   -21.5350     8.9150    10.4150  1233.5870     9.2130    99.1630    11.1710     2.4680     0.0380  1220.0000     0.3300
 2156.5000   -21.4140     8.8320    10.4690  1233.9260     9.0800   100.2870    11.0850     2.4630     0.0290  1220.0000     0.3380
 2157.0000   -21.2930     8.7430    10.5220  1234.2650     8.9870   102.5260    11.0060     2.4810     0.0460  1220.0000     0.3460
 2157.5000   -21.1720     8.6530    10.6000  1234.6040     8.8950   104.8480    10.9250     2.4860     0.0520  1220.0000     0.3550
 2158.0000   -21.0500     8.5630    10.4920  1234.9440     8.8020   104.4990    10.9010     2.4720     0.0370  1220.0000     0.3630
 2158.5000   -20.9330     8.4730    10.3000  1235.2830     8.7100   103.4460    10.8790     2.4530     0.0170  1220.0000     0.3470
 2159.0000   -21.0420     8.3830    10.1080  1235.6219     8.6180   102.8640    10.8570     2.4490     0.0100  1220.0000     0.3270
 2159.5000   -21.1630     8.2680     9.9150  1235.9611     8.5000   102.4020    10.8350     2.4540     0.0090  1220.0000     0.3200
 2160.0000   -21.2830     8.4010     9.7580  1236.3000     8.6370   102.0940    10.8130     2.4630     0.0110  1220.0000     0.3180
 2160.5000   -21.4030     8.5150    10.1890  1236.6400     8.7530   102.6710    10.7910     2.4690     0.0120  1220.0000     0.3210
 2161.0000   -21.5230     8.6280    10.5550  1236.9790     8.8700   104.6310    10.7690     2.4740     0.0120  1220.0000     0.3270
 2161.5000   -21.6420     8.7420    10.9970  1237.3180     8.9860   104.9280    10.7470     2.4760     0.0120  1220.0000     0.3340
 2162.0000   -21.6710     8.8550    10.9820  1237.6570     9.1030   104.4290    10.7490     2.4740     0.0120  1220.0000     0.3410
 2162.5000   -21.5500     8.9680    10.9570  1237.9969     9.2190   103.5810    10.7560     2.4720     0.0110  1220.0000     0.3440
 2163.0000   -21.4310     9.0820    10.9320  1238.3361     9.3360   104.7410    10.7610     2.4780     0.0190  1220.0000     0.3320
 2163.5000   -21.3130     9.2370    10.9000  1238.6750     9.4950   106.0240    10.8040     2.4830     0.0250  1220.0000     0.3240
 2164.0000   -21.1940     9.4530    11.1400  1239.0140     9.7170   105.0490    10.8520     2.4780     0.0280  1220.0000     0.3190
 2164.5000   -21.0750     9.6690    11.5390  1239.3530     9.9390   102.7490    10.9000     2.4650     0.0160  1220.0000     0.3280
 2165.0000   -20.9560     9.8850    11.9380  1239.6930    10.1610   100.4100    10.9490     2.4580     0.0060  1220.0000     0.3380
