~VERSION INFORMATION
 VERS.                2.0:   CWLS LOG ASCII STANDARD - VERSION 2.0
 WRAP.                 NO:   ONE LINE PER DEPTH STEP
~WELL INFORMATION
#MNEM.UNIT      DATA TYPE    INFORMATION
#----------   ------------   ------------------------------
 STRT.F          216.0000:   START DEPTH
 STOP.F         3184.0000:   STOP DEPTH
 STEP.F            0.5000:   STEP LENGTH
 NULL.          -999.2500:   NO VALUE
 COMP.    FENIX & SCISSON:   COMPANY
 WELL. FENIX & SCISSON INCNRP "A" #311-14:   WELL
 FLD .                NPR:   FIELD
 LOC .      S14 T38N R78W:   LOCATION
 CNTY.            NATRONA:   COUNTY
 STAT.            WYOMING:   STATE
 CTRY. UNITED STATES OF AMERICA:   COUNTRY
 SRVC.              WELEX:   SERVICE COMPANY
 DATE.        22-JUN-1977:   LOGDATE
 API .     49025103810000:   API NUMBER
~CURVE INFORMATION
#MNEM.UNIT       API CODE    CURVE DESCRIPTION
#----------   ------------   ------------------------------
 DEPT.F                  :   
 CALD.IN     45 280 60 00:   CALIPER FROM DENSITY LOG
 GRD .GAPI   45 310 01 00:   GAMMA RAY FROM DENSITY LOG
 DPHI.DEC    45 890 12 00:   DENSITY POROSITY SANDSTONE
 RHOB.G/C3   45 350 01 00:   BULK DENSITY
 CORR.G/C3   45 356 01 00:   DENSITY CORRECTION
 SPR .MV     07 010 01 00:   SPONTANEOUS POTENTIAL
 SFLU.OHMM   07 220 01 00:   SPHERICALLY FOCUSED LOG UNAVERAGED RESISTIVITY
 ILD .OHMM   07 120 46 00:   DEEP INDUCTION RESISTIVITY
 ILM .OHMM   07 120 44 00:   INDUCTION LOG MEDIUM RESISTIVITY
~PARAMETER INFORMATION
#MNEM.UNIT          VALUE    DESCRIPTION
#----------   ------------   ------------------------------
 EKB .F         5225.0000:   Kelly bushing
 EGL .F         5215.0000:   Ground level
 TD  .F         3183.0000:   Total depth
 DATE.        22-JUN-1977:   Date logged
 CLNT.            A2DTECH:   Client Code
 CTRY.                USA:   Country
 SL  . 330' FNL & 330' FWL:   Surface Location
 PD  .                 GL:   Permanent Datum
 EPD .F              5215:   Elevation Permanent Datum
 LMF .                 KB:   Log Measured From
 DMF .                 KB:   Drilling Measured From
 DAPD.F                10:   Feet Above Permanent Datum
 DD  .F              3178:   Depth driller
 DL  .F              3183:   Depth logger
 BLI .F              3181:   Bottom log interval
 TLI .F                20:   Top log interval
 CS1 .IN            8.625:   Casing size
 CBD1.      8.625" @ 217':   Casing driller 1
 BS1 .IN            7.875:   Bit size
 BSD1.F              3178:   Depth drilled with bit1
 DFT .            KCL MUD:   Type fluid in hole
 DFD .                9.5:   Density
 DFV .                 40:   Viscosity
 DFPH.                7.5:   pH
 DFL .               13.6:   Fluid loss
 MSS .           FLOWLINE:   Source of sample
 RMS .OHMM            .36:   Rm
 MST .F                80:   Rm Meas. temp.
 RMF .OHMM            .30:   Rmf
 MFST.F                80:   Rmf Meas. temp.
 RMC .OHMM            .86:   Rmc
 MCST.F                80:   Rmc Meas. temp.
 MFSS.               FANN:   Source Rmf.
 MCSS.                KIT:   Source Rmc.
 RMB .OHMM            .25:   Rm. at BHT
 BHT .F               114:   BHT.
 TCS .HRS             2.5:   Time Circ. stopped
 MRT .F               114:   Maximum recorded temp.
 LUN .               8766:   Logging unit number
 LUL .             CASPER:   Logging unit location
 ENGI.          T. TOYNER:   Recorded By
 WITN.      B. HARRINGTON:   Witnessed by
 PWI .                  -:   Primary Well Identifier
 ORIG.           5" PRINT:   Origin of data
 UWI .     49025103810000:   Unique Well ID
 DICO. A2D TECHNOLOGIES, INC.:   Digitizing Company
~OTHER INFORMATION
~A   DEPT       CALD       GRD        DPHI       RHOB       CORR      SPR         SFLU      ILD        ILM   
# ...
 1785.5000     9.1991   104.4144     0.0777     2.5267     0.0271   -62.8094     7.4999     6.1744     5.9288
 1786.0000     9.1793   104.4170     0.0801     2.5237     0.0251   -62.8065     7.5016     6.1555     5.9298
 1786.5000     9.1793   102.0346     0.0801     2.5218     0.0232   -62.8021     7.4335     6.1367     5.9307
 1787.0000     9.1993   101.6392     0.0801     2.5228     0.0232   -62.7992     7.4347     6.1180     5.8769
 1787.5000     9.1993   101.6408     0.0765     2.5258     0.0272   -62.7948     7.4358     6.0993     5.8778
 1788.0000     9.2193   102.0406     0.0765     2.5258     0.0252   -62.7919     7.5058     6.0806     5.8787
 1788.5000     9.2193   102.0426     0.0789     2.5248     0.0272   -62.7876     7.4382     6.0565     5.8253
 1789.0000     9.2194   102.0446     0.0805     2.5228     0.0252   -62.7847     7.2366     6.1131     5.8805
 1789.5000     9.2195   102.0466     0.0817     2.5188     0.0232   -62.7803     7.1714     6.0578     5.8271
 1790.0000     9.2394   102.4460     0.0821     2.5178     0.0232   -62.7774     7.1725     6.0746     5.8281
 1790.5000     9.2395   102.4480     0.0833     2.5168     0.0232   -62.3773     7.5812     6.0914     5.8833
 1791.0000     9.2395   102.0526     0.0809     2.5198     0.0232   -62.3744     7.6525     6.1083     5.8842
 1791.5000     9.2395   102.4520     0.0769     2.5248     0.0272   -62.3701     7.7245     6.1252     5.8851
 1792.0000     9.2396   102.4540     0.0729     2.5308     0.0292   -62.3671     7.7257     6.1422     5.9409
 1792.5000     9.2198   104.4436     0.0745     2.5318     0.0292   -62.3628     7.8706     6.1592     5.9418
 1793.0000     9.2199   105.6380     0.0768     2.5288     0.0272   -62.3599     7.7996     6.1774     5.9427
 1793.5000     9.2199   108.8208     0.0793     2.5248     0.0272   -62.3555     7.0499     6.1776     5.8351
 1794.0000     9.2399   108.0274     0.0801     2.5228     0.0252   -62.3526     6.9981     6.1184     5.7294
 1794.5000     9.2400   106.0422     0.0809     2.5208     0.0272   -62.3483     6.9467     6.0598     5.6777
 1795.0000     9.2400   105.2492     0.0809     2.5198     0.0272   -62.3454     6.8956     6.0017     5.6265
 1795.5000     9.2401   104.4562     0.0809     2.5188     0.0272   -62.3410     6.8614     5.9442     5.5246
 1796.0000     9.2402   104.8558     0.0853     2.5138     0.0232   -62.3381     6.8625     5.8873     5.5251
 1796.5000     9.2402   105.2554     0.0865     2.5119     0.0232   -62.3337     6.8635     5.8518     5.4752
 1797.0000     9.2204   105.6550     0.0865     2.5109     0.0212   -62.3308     6.8646     5.7463     5.4764
 1797.5000     9.2205   105.6572     0.0865     2.5109     0.0212   -62.3265     6.8027     5.6426     5.4270
 1798.0000     9.2205   105.6592     0.0853     2.5129     0.0212   -62.7192     6.8038     5.5402     5.3289
 1798.5000     9.2405   106.4564     0.0849     2.5139     0.0212   -62.3192     6.7424     5.4900     5.2323
 1799.0000     9.2405   106.8562     0.0845     2.5139     0.0212   -62.5112     6.8059     5.4594     5.2331
 1799.5000     9.2207   106.4606     0.0845     2.5149     0.0193   -62.5098     6.7445     5.4417     5.2297
 1800.0000     9.2208   105.6692     0.0881     2.5079     0.0193   -62.5061     6.7456     5.4927     5.2793
 1800.5000     9.2389   104.4716     0.0921     2.5069     0.0152   -62.4895     6.7468     5.5374     5.3290
 1801.0000     9.2204   105.2630     0.0949     2.4989     0.0132   -62.4750     6.7469     5.5809     5.3791
 1801.5000     9.2203   106.0542     0.0969     2.4949     0.0112   -62.4606     6.8100     5.6248     5.4297
 1802.0000     9.2001   106.4478     0.0989     2.4919     0.0112   -62.4461     6.8106     5.6689     5.4808
 1802.5000     9.2198   106.4432     0.0993     2.4909     0.0112   -62.4317     6.8742     5.7135     5.4813
 1803.0000     9.2395   106.4392     0.0993     2.4909     0.0111   -62.4173     6.8749     5.7583     5.5329
 1803.5000     9.2393   106.4354     0.0981     2.4918     0.0111   -62.4028     6.8755     5.8036     5.5850
 1804.0000     9.2391   106.4314     0.0949     2.4958     0.0131   -62.3884     7.0040     5.8491     5.6376
 1804.5000     9.2389   106.0298     0.0933     2.4998     0.0171   -62.3739     7.0695     5.8951     5.6906
 1805.0000     9.2189   106.0260     0.0917     2.5018     0.0171   -62.3595     7.1336     5.9414     5.7442
 1805.5000     9.2186   105.6244     0.0889     2.5038     0.0191   -62.3450     7.1984     5.9880     5.7447
 1806.0000     9.2184   104.8252     0.0853     2.5108     0.0210   -62.3306     7.2637     6.0288     5.7988
 1806.5000     9.2184   104.4238     0.0869     2.5108     0.0210   -62.3161     7.3376     6.0294     5.7993
 1807.0000     9.2180   102.4318     0.0869     2.5038     0.0210   -62.3017     7.3377     6.0299     5.7999
 1807.5000     9.2178   102.4278     0.0917     2.5017     0.0190   -62.2873     7.3275     6.0305     5.8004
 1808.0000     9.2176   102.8216     0.0925     2.5007     0.0189   -62.2728     7.3173     6.0311     5.8010
 1808.5000     9.2174   104.0104     0.0933     2.4987     0.0169   -62.2584     7.3071     6.0316     5.8015
 1809.0000     9.2172   104.4040     0.0961     2.4967     0.0169   -62.2439     7.2969     6.0322     5.8020
 1809.5000     9.2170   102.4114     0.0957     2.4967     0.0169   -62.2295     7.2867     6.0327     5.8026
 1810.0000     9.2367   102.4074     0.0949     2.4977     0.0169   -62.2150     7.2751     6.0329     5.8042
 1810.5000     9.2166   102.0060     0.0941     2.4987     0.0189   -62.2006     7.2753     6.0217     5.7513
 1811.0000     9.2165   102.3996     0.0913     2.5007     0.0208   -62.1861     7.1708     6.0104     5.6990
 1811.5000     9.2163   105.1788     0.0905     2.5077     0.0248   -62.1717     7.0678     5.9992     5.6996
 1812.0000     9.2161   107.9574     0.0873     2.5097     0.0248   -62.1572     6.9502     5.9880     5.6478
 1812.5000     9.2357   106.7614     0.0874     2.5096     0.0227   -62.1428     6.9733     5.9768     5.6483
 1813.0000     9.2355   104.3718     0.0878     2.5086     0.0207   -62.1284     6.9966     5.9656     5.5970
 1813.5000     9.2154   102.3800     0.0886     2.5076     0.0207   -62.1139     7.0199     5.9545     5.5462
 1814.0000     9.1556   101.9784     0.0894     2.5036     0.0187   -62.0995     7.0433     5.9433     5.4957
 1814.5000     9.1554   102.3720     0.0930     2.5006     0.0067   -62.0850     7.0667     5.9284     5.4963
 1815.0000     9.1553   102.7658     0.0934     2.4986     0.0027   -62.0706     7.0903     5.8743     5.5477
 1815.5000     9.1550   102.7618     0.0938     2.4986     0.0006   -62.0561     7.1139     5.8687     5.6497
 1816.0000     9.1349   105.1436     0.0938     2.4986     0.0046   -62.0417     7.1376     5.8631     5.6502
 1816.5000     9.1349   106.3324     0.0958     2.4966     0.0066   -62.0272     7.1614     5.8576     5.6507
 1817.0000     9.1544   108.7140     0.0966     2.4976     0.0006   -62.0128     7.1852     5.8520     5.6512
 1817.5000     9.1741   109.1078     0.0970     2.4936     0.0046   -61.9984     7.2092     5.8464     5.6518
 1818.0000     9.1938   108.3086     0.0982     2.4906     0.0045   -61.9839     7.2332     5.8408     5.6523
 1818.5000     9.1538   105.1230     0.0989     2.4895     0.0045   -61.9695     7.2573     5.8353     5.6006
 1819.0000     9.1536   103.5272     0.0998     2.4875     0.0045   -61.9550     7.2872     5.8297     5.6012
 1819.5000     9.1136   103.1272     0.1002     2.4875     0.0045   -61.9406     7.1546     5.8255     5.6017
 1820.0000     9.0935   104.3160     0.0994     2.4915     0.0045   -61.9261     7.0668     5.7728     5.5505
 1820.5000     9.1131   104.7098     0.0974     2.4935     0.0064   -61.9117     6.9801     5.7762     5.5510
 1821.0000     9.1129   105.5010     0.0939     2.4955     0.0085   -61.8972     6.8944     5.7796     5.5515
 1821.5000     9.1326   106.2924     0.0890     2.5025     0.0104   -61.8828     6.7728     5.7830     5.5519
