~VERSION INFORMATION
 VERS.                2.0:   CWLS LOG ASCII STANDARD - VERSION 2.0
 WRAP.                 NO:   ONE LINE PER DEPTH STEP
~WELL INFORMATION
#MNEM.UNIT      DATA TYPE    INFORMATION
#----------   ------------   ------------------------------
 STRT.F          200.0000:   START DEPTH
 STOP.F         3120.0000:   STOP DEPTH
 STEP.F            0.5000:   STEP LENGTH
 NULL.          -999.2500:   NO VALUE
 COMP.    FENIX & SCISSON:   COMPANY
 WELL. FENIX NPR 3 "AX" #83-28:   WELL
 FLD .                NPR:   FIELD
 LOC .      S28 T39N R78W:   LOCATION
 CNTY.            NATRONA:   COUNTY
 STAT.            WYOMING:   STATE
 CTRY. UNITED STATES OF AMERICA:   COUNTRY
 SRVC.              WELEX:   SERVICE COMPANY
 DATE.        29-SEP-1977:   LOGDATE
 API .     49025104240000:   API NUMBER
~CURVE INFORMATION
#MNEM.UNIT       API CODE    CURVE DESCRIPTION
#----------   ------------   ------------------------------
 DEPT.F                  :   
 CALD.IN     45 280 60 00:   CALIPER FROM DENSITY LOG
 GRD .GAPI   45 310 01 00:   GAMMA RAY FROM DENSITY LOG
 RHOB.G/C3   45 350 01 00:   BULK DENSITY
 CORR.G/C3   45 356 01 00:   DENSITY CORRECTION
 SPR .MV     07 010 01 00:   SPONTANEOUS POTENTIAL
 SGRD.MV     07 220 05 00:   SHLLOW GUARD
 ILD .OHMM   07 120 46 00:   DEEP INDUCTION RESISTIVITY
 ILM .OHMM   07 120 44 00:   INDUCTION LOG MEDIUM RESISTIVITY
~PARAMETER INFORMATION
#MNEM.UNIT          VALUE    DESCRIPTION
#----------   ------------   ------------------------------
 EKB .F         5034.0000:   Kelly bushing
 EGL .F         5024.0000:   Ground level
 TD  .F         3110.0000:   Total depth
 DATE.        29-SEP-1977:   Date logged
 CLNT.            A2DTECH:   Client Code
 SL  . 1650' FNL & 330' FEL:   Surface Location
 PD  .                 GL:   Permanent Datum
 EPD .F              5024:   Elevation Permanent Datum
 LMF .                 KB:   Log Measured From
 DMF .                 KB:   Drilling Measured From
 DAPD.F                10:   Feet Above Permanent Datum
 DD  .F              3110:   Depth driller
 DL  .F              3110:   Depth logger
 BLI .F              3108:   Bottom log interval
 TLI .F               210:   Top log interval
 CS1 .IN            8.625:   Casing size
 CBD1.      8.625" @ 201':   Casing driller 1
 CBL1.F               210:   Casing logger 1
 BS1 .IN            7.875:   Bit size
 BSD1.F              3110:   Depth drilled with bit1
 DFT .          KCL/WATER:   Type fluid in hole
 DFD .                  9:   Density
 DFV .                 40:   Viscosity
 DFPH.                 11:   pH
 DFL .                6.4:   Fluid loss
 MSS .            MUD/PIT:   Source of sample
 RMS .OHMM            .56:   Rm
 MST .F                60:   Rm Meas. temp.
 RMF .OHMM            .34:   Rmf
 MFST.F                60:   Rmf Meas. temp.
 RMC .OHMM            .61:   Rmc
 MCST.F                60:   Rmc Meas. temp.
 MFSS.               MEAS:   Source Rmf.
 MCSS.               MEAS:   Source Rmc.
 RMB .OHMM            .28:   Rm. at BHT
 BHT .F               120:   BHT.
 TCS .HRS               3:   Time Circ. stopped
 MRT .F               120:   Maximum recorded temp.
 LUN .               9685:   Logging unit number
 LUL .             CASPER:   Logging unit location
 ENGI. G. BENTSEN/T. JOYNER:   Recorded By
 WITN.         PETTINGILL:   Witnessed by
 ORIG.   1" 2.5" 5" PRINT:   Origin of data
 UWI .     49025104240000:   Unique Well ID
 DICO. A2D TECHNOLOGIES, INC.:   Digitizing Company
~OTHER INFORMATION
~A   DEPT     CALD         GRD      RHOB       CORR        SPR       SGRD        ILD        ILM   
# ...
 3075.5000     7.9991   110.7684     2.4975     0.0691   -60.3409     4.2836     3.5300     3.9793
 3076.0000     8.0009   112.3333     2.5034     0.0812   -60.4001     4.2836     3.4656     3.9793
 3076.5000     8.0027   112.3153     2.5112     0.0732   -60.4593     4.2836     3.4656     3.9793
 3077.0000     8.0045   112.3033     2.5035     0.0691   -60.5184     4.3232     3.4656     3.9793
 3077.5000     8.0063   113.0732     2.4993     0.0729   -60.5776     4.3633     3.4656     3.9793
 3078.0000     8.0088   113.8490     2.4893     0.0728   -60.6440     4.4037     3.4656     3.9793
 3078.5000     8.0086   113.8307     2.4754     0.0687   -60.6446     4.4037     3.3402     3.9793
 3079.0000     8.0477   114.2001     2.4694     0.0647   -60.6453     4.3633     3.3402     3.9428
 3079.5000     8.0475   114.1939     2.4634     0.0645   -60.6462     4.2054     3.3402     3.8353
 3080.0000     8.0473   114.1756     2.4574     0.0670   -60.6469     4.1286     3.3402     3.8001
 3080.5000     8.0470   114.1581     2.4545     0.0655   -60.6477     4.0532     3.3402     3.8001
 3081.0000     8.0460   112.5722     2.4534     0.0642   -60.6484     4.0532     3.3402     3.8001
 3081.5000     8.0058   112.5607     2.4534     0.0681   -60.6492     4.0532     3.2193     3.8001
 3082.0000     8.0473   115.6930     2.4573     0.0720   -60.6501     4.0532     3.2193     3.8001
 3082.5000     8.0473   117.2562     2.4632     0.0719   -60.6508     4.0907     3.1898     3.8001
 3083.0000     8.0473   118.8138     2.4711     0.0719   -60.6516     4.2054     3.1898     3.8001
 3083.5000     8.0473   118.8023     2.4711     0.0639   -60.6523     4.2054     3.1605     3.8001
 3084.0000     8.0473   118.0034     2.4690     0.0598   -60.6532     4.0907     3.1315     3.8001
 3084.5000     8.0473   117.1988     2.4631     0.0519   -60.6540     3.9427     3.1028     3.7307
 3085.0000     8.0473   116.3999     2.4511     0.0478   -60.6547     3.8707     3.0743     3.5957
 3085.5000     8.0473   116.3827     2.4491     0.0438   -60.6555     3.8352     3.0461     3.4656
 3086.0000     8.0473   119.5149     2.4413     0.0437   -60.6562     3.8352     3.0461     3.4656
 3086.5000     8.0473   119.3130     2.4392     0.0397   -60.6571     3.8352     3.0182     3.4656
 3087.0000     8.0473   119.1111     2.4407     0.0396   -60.6579     3.8352     2.9905     3.4656
 3087.5000     8.0473   118.9092     2.4423     0.0395   -60.6586     3.8352     2.9631     3.4977
 3088.0000     8.0473   118.6701     2.4410     0.0395   -60.6594     3.8352     2.9631     3.4977
 3088.5000     8.0473   117.8770     2.4430     0.0394   -60.6603     3.9427     2.9255     3.4977
 3089.0000     8.0473   118.6471     2.4449     0.0393   -60.6610     3.9792     2.8986     3.4656
 3089.5000     8.0473   120.2104     2.4449     0.0393   -60.6618     3.8000     2.8457     3.4023
 3090.0000     8.0473   120.9805     2.4448     0.0392   -60.6625     3.4655     2.7937     3.3095
 3090.5000     8.0473   120.9690     2.4454     0.0431   -60.6633     3.3710     2.7426     3.1898
 3091.0000  -999.2500  -999.2500     2.4459     0.0470   -60.6642     3.3401     2.7426     3.1028
 3091.5000  -999.2500  -999.2500     2.4464     0.0509   -60.6649     3.3401     2.7426     3.0743
 3092.0000  -999.2500  -999.2500     2.4467     0.0508   -60.6656     3.3401     2.7426     3.0743
 3092.5000  -999.2500  -999.2500     2.4486     0.0507   -60.6664     3.4655     2.7426     3.2193
 3093.0000  -999.2500  -999.2500     2.4506     0.0507   -60.6673     3.9065     2.7426     3.4338
 3093.5000  -999.2500  -999.2500     2.4505     0.0506   -60.6680     3.9427     2.7937     3.6626
 3094.0000  -999.2500  -999.2500     2.4564     0.0505   -60.6688     3.9792     2.8986     3.6965
 3094.5000  -999.2500  -999.2500     2.4584     0.0504   -60.6695     4.0532     3.0075     3.6965
 3095.0000  -999.2500  -999.2500     2.4663     0.0543   -60.6703     4.0532     3.1205     3.7653
 3095.5000  -999.2500  -999.2500     2.4742     0.0582   -60.6712     4.0532     3.2193     3.8001
 3096.0000  -999.2500  -999.2500     2.4821     0.0582   -60.6719     4.3232     3.3095     3.8353
 3096.5000  -999.2500  -999.2500     2.4919     0.0581   -60.6727     4.6113     3.4656     3.9428
 3097.0000  -999.2500  -999.2500     2.4978     0.0620   -60.6734     5.4936     3.5957     4.2837
 3097.5000  -999.2500  -999.2500     2.5077     0.0619   -60.6743     6.1359     3.6965     4.5691
 3098.0000  -999.2500  -999.2500     2.5116     0.0618   -60.6751     6.6053     3.8353     4.8289
 3098.5000  -999.2500  -999.2500     2.5135     0.0657   -60.6758     6.6053     3.8708     4.8736
 3099.0000  -999.2500  -999.2500     2.5135     0.0656   -60.2775     6.7282     3.9428     4.8736
 3099.5000  -999.2500  -999.2500     2.5135     0.0656   -60.4777     6.6665     3.9428     4.6972
 3100.0000  -999.2500  -999.2500     2.5134     0.0695   -60.6781     5.5445     3.9428     4.6541
 3100.5000  -999.2500  -999.2500     2.5154     0.0734   -60.8328     2.6038     3.9428     4.7183
 3101.0000  -999.2500  -999.2500     2.5193     0.0812   -61.0789     3.0169     3.9410     4.7377
 3101.5000  -999.2500  -999.2500     2.5213     0.0811   -61.0797     4.4826     3.9044     4.8704
 3102.0000  -999.2500  -999.2500     2.5173     0.0811   -61.0804     6.2439     3.9032     4.9605
 3102.5000  -999.2500  -999.2500     2.5113     0.0770   -61.0813     6.7206     3.9024     5.0504
 3103.0000  -999.2500  -999.2500     2.5093     0.0730   -61.0820     7.3000     3.8655     5.0499
 3103.5000  -999.2500  -999.2500     2.5073     0.0690   -61.0831     7.5032     3.9367     5.0487
 3104.0000  -999.2500  -999.2500     2.5072     0.0689   -61.0837     7.7124     3.9356     5.0940
 3104.5000  -999.2500  -999.2500     2.5111     0.0768   -61.0846     8.0730     3.9349     5.1402
 3105.0000  -999.2500  -999.2500     2.5151     0.0886   -61.2852     8.2974     3.8980     5.1393
 3105.5000  -999.2500  -999.2500     2.5230     0.0964   -61.2855     8.2958     3.8256     5.1376
 3106.0000  -999.2500  -999.2500     2.5269     0.1003   -61.2864     8.2947     3.7896     5.1366
 3106.5000  -999.2500  -999.2500     2.5328     0.1002   -61.2869     8.2923     3.7540     5.1354
 3107.0000  -999.2500  -999.2500     2.5367     0.1001   -61.2876     8.0640     3.7189     5.1345
 3107.5000  -999.2500  -999.2500     2.5387     0.1001   -61.6869     7.5585     3.7180     5.1805
 3108.0000  -999.2500  -999.2500     2.5386     0.1000   -62.2850     7.2833     3.7175     5.1796
 3108.5000  -999.2500  -999.2500  -999.2500  -999.2500   -62.4846     7.2148     3.7164     5.1781
 3109.0000  -999.2500  -999.2500  -999.2500  -999.2500   -63.6796     7.2131     3.7154     5.1769
 3109.5000  -999.2500  -999.2500  -999.2500  -999.2500   -64.0783     7.0791     3.7836     5.1759
 3110.0000  -999.2500  -999.2500  -999.2500  -999.2500   -64.6756     7.0787     3.9248     5.2224
 3110.5000  -999.2500  -999.2500  -999.2500  -999.2500   -65.4717     7.0767     4.1853     5.3675
 3111.0000  -999.2500  -999.2500  -999.2500  -999.2500   -64.8749     7.0751     4.6735     5.5167
 3111.5000  -999.2500  -999.2500  -999.2500  -999.2500   -64.8754     7.0734     4.9837     5.7225
 3112.0000  -999.2500  -999.2500  -999.2500  -999.2500   -64.8756     7.0715     5.2175     6.2158
 3112.5000  -999.2500  -999.2500  -999.2500  -999.2500   -64.8757     7.0705     5.5131     6.3305
 3113.0000  -999.2500  -999.2500  -999.2500  -999.2500  -999.2500     7.0691     5.7193     6.7507
 3113.5000  -999.2500  -999.2500  -999.2500  -999.2500  -999.2500     7.4004     6.0986     6.9383
 3114.0000  -999.2500  -999.2500  -999.2500  -999.2500  -999.2500     7.9643     6.3844     7.0657
 3114.5000  -999.2500  -999.2500  -999.2500  -999.2500  -999.2500  -999.2500     6.6838     7.1951
 3115.0000  -999.2500  -999.2500  -999.2500  -999.2500  -999.2500  -999.2500     6.8065     7.3954
 3115.5000  -999.2500  -999.2500  -999.2500  -999.2500  -999.2500  -999.2500     6.9319     7.6009
