~VERSION INFORMATION
 VERS.                2.0:   CWLS LOG ASCII STANDARD - VERSION 2.0
 WRAP.                 NO:   ONE LINE PER DEPTH STEP
~WELL INFORMATION
#MNEM.UNIT      DATA TYPE    INFORMATION
#----------   ------------   ------------------------------
 STRT.F           72.5000:   START DEPTH
 STOP.F         2820.0000:   STOP DEPTH
 STEP.F            0.5000:   STEP LENGTH
 NULL.          -999.2500:   NO VALUE
 COMP.          INTEX OIL:   COMPANY
 WELL. INTEX OIL AX N. P. R. #51-29:   WELL
 FLD .             TEAPOT:   FIELD
 LOC .      S29 T39N R78W:   LOCATION
 CNTY.            NATRONA:   COUNTY
 STAT.            WYOMING:   STATE
 CTRY. UNITED STATES OF AMERICA:   COUNTRY
 SRVC.       SCHLUMBERGER:   SERVICE COMPANY
 DATE.        01-MAY-1966:   LOGDATE
 API .     49025094920000:   API NUMBER
~CURVE INFORMATION
#MNEM.UNIT       API CODE    CURVE DESCRIPTION
#----------   ------------   ------------------------------
 DEPT.F                  :   
 GRD .GAPI   45 310 01 00:   GAMMA RAY FROM DENSITY LOG
 CALD.IN     45 280 60 00:   CALIPER FROM DENSITY LOG
 RHOB.G/C3   45 350 01 00:   BULK DENSITY
 CORR.G/C3   45 356 01 00:   DENSITY CORRECTION
 SPR .MV     07 010 01 00:   SPONTANEOUS POTENTIAL
 ASN .OHMM   05 041 16 00:   AMPLIFIED SHORT NORMAL 16"
 ILD .OHMM   05 120 46 00:   DEEP INDUCTION RESISTIVITY
 DT  .US/F   60 520 00 00:   DELTA TIME
~PARAMETER INFORMATION
#MNEM.UNIT          VALUE    DESCRIPTION
#----------   ------------   ------------------------------
 EKB .F         5007.3000:   Kelly bushing
 EGL .F         4997.0000:   Ground level
 EDF .F            0.0000:   Drilling floor
 TD  .F         2799.0000:   Total depth
 DATE.        01-MAY-1966:   Date logged
 CLNT.            A2DTECH:   Client Code
 PD  .                 GL:   Permanent Datum
 EPD .F              4997:   Elevation Permanent Datum
 LMF .                 KB:   Log Measured From
 DMF .                 KB:   Drilling Measured From
 DAPD.F              10.3:   Feet Above Permanent Datum
 DD  .F              2798:   Depth driller
 DL  .F              2799:   Depth logger
 BLI .F              2798:   Bottom log interval
 TLI .F                88:   Top log interval
 CS1 .IN            10.75:   Casing size
 CBD1.       10.75" @ 30':   Casing driller 1
 BS1 .IN            7.875:   Bit size
 BSD1.F              2798:   Depth drilled with bit1
 DFT .           CHEM/OIL:   Type fluid in hole
 DFD .                9.5:   Density
 DFV .                 46:   Viscosity
 DFPH.                7.2:   pH
 DFL .                7.0:   Fluid loss
 MSS .         CIRCULATED:   Source of sample
 RMS .OHMM           2.28:   Rm
 MST .F                68:   Rm Meas. temp.
 RMF .OHMM           1.32:   Rmf
 MFST.F                72:   Rmf Meas. temp.
 MFSS.                 FP:   Source Rmf.
 RMB .OHMM           1.52:   Rm. at BHT
 BHT .F               102:   BHT.
 TCS .HRS             1.5:   Time Circ. stopped
 MRT .F               102:   Maximum recorded temp.
 LUN .               4507:   Logging unit number
 LUL .               CSPR:   Logging unit location
 ENGI.               HAUG:   Recorded By
 WITN.      TUTTLE/HUDSON:   Witnessed by
 ORIG.           5" PRINT:   Origin of data
 UWI .     49025094920000:   Unique Well ID
 DICO. A2D TECHNOLOGIES, INC.:   Digitizing Company
~OTHER INFORMATION
~A   DEPT      GRD       CALD       RHOB       CORR        SPR        ASN        ILD         DT   
# ...
 2786.0000  -999.2500     8.0610     2.3760     0.0380   -54.8440    15.2560    10.6870    82.0590
 2786.5000  -999.2500     8.1000     2.3680     0.0200   -54.5380    14.4510    10.1780    82.3430
 2787.0000  -999.2500     8.1400     2.3510     0.0090   -54.0500    13.6450     9.6890    82.6330
 2787.5000  -999.2500     8.1770     2.3590    -0.0010   -51.7980    12.8400     9.1980    82.9240
 2788.0000  -999.2500     8.2410     2.3420     0.0030   -47.6500    12.0340     8.7450    83.2140
 2788.5000  -999.2500     8.2580     2.3240     0.0080   -43.4820    11.2290     8.3320    83.4890
 2789.0000  -999.2500     8.2280     2.3310     0.0070   -41.0590    10.7280     7.9160    83.4520
 2789.5000  -999.2500     8.2010     2.3350     0.0030   -40.0990    10.4590     7.4820    83.4160
 2790.0000  -999.2500     8.1890     2.3470     0.0210   -39.0850    10.3350     7.0430    83.3800
 2790.5000  -999.2500     8.1960     2.3720     0.0250   -37.3340    10.0690     6.6220    83.3450
 2791.0000  -999.2500     8.2020     2.3950     0.0410   -35.3910     9.8620     6.2720    83.3090
 2791.5000  -999.2500     8.2090     2.4310     0.0650   -33.6740     9.4380     6.0150    83.2740
 2792.0000  -999.2500     8.2150     2.4500     0.0550   -31.7140     8.9570     5.8620    83.2380
 2792.5000  -999.2500     8.2210     2.4330     0.0300   -29.0050     8.2870     5.8060    83.2030
 2793.0000  -999.2500     8.2280     2.4150     0.0230   -26.0360     7.5000     5.8140    83.1670
 2793.5000  -999.2500     8.2340     2.4270     0.0260   -23.9990     7.4210     5.8420    83.1310
 2794.0000  -999.2500     8.2400     2.4090     0.0170   -23.5380     7.4610     5.8600    83.0960
 2794.5000  -999.2500     8.2470     2.4220     0.0240   -24.0900     7.7760     5.8690    83.0600
 2795.0000  -999.2500     8.2530     2.4150     0.0280   -24.5680     7.7310     5.8800    83.0250
 2795.5000  -999.2500     8.2590     2.3990     0.0250   -24.4410     7.6660     5.8970    82.9920
 2796.0000  -999.2500     8.2660     2.4410     0.0490   -23.9270     7.6180     5.9130    83.0560
 2796.5000  -999.2500     8.2690     2.4470     0.0740   -23.3540     7.3820     5.9260    83.1150
 2797.0000  -999.2500     8.2690     2.4520     0.0990   -22.7290     7.1960     5.9400    83.1750
 2797.5000  -999.2500     8.2690     2.4640     0.1240   -21.9450     7.0090     5.9540    83.2340
 2798.0000  -999.2500     8.2690     2.4860     0.1500   -21.1130     6.7910     5.9690    83.2930
 2798.5000  -999.2500     8.2690     2.5030     0.1700   -20.5100     6.8090     5.9840    83.3530
 2799.0000  -999.2500     8.2690     2.5150     0.1780   -20.3270     6.8660     5.9980    83.4120
 2799.5000  -999.2500     8.2690     2.5260     0.1800   -20.4790     6.9250     6.0120    83.4710
 2800.0000  -999.2500     8.2690     2.5340     0.1820   -20.6260     6.9430     6.0270    83.4890
 2800.5000  -999.2500     8.2690     2.5270     0.1950   -20.4890     6.9320     6.0410  -999.2500
 2801.0000  -999.2500     8.2690     2.5450     0.2150   -20.1740     6.9150     6.0560  -999.2500
 2801.5000  -999.2500     8.2690     2.5400     0.2060   -20.0220     6.8990     6.0700  -999.2500
 2802.0000  -999.2500     8.2690     2.5190     0.1810   -20.1060     6.8850     6.0850  -999.2500
 2802.5000  -999.2500     8.2690     2.5080     0.1690   -20.1180     6.8740     6.0990  -999.2500
 2803.0000  -999.2500     8.2690     2.5080     0.1590   -19.8580     6.8710     6.1140  -999.2500
 2803.5000  -999.2500     8.2690     2.4990     0.1550   -19.5720     6.8740     6.1280  -999.2500
 2804.0000  -999.2500     8.2690     2.5000     0.1580   -19.6200     6.8780     6.1430  -999.2500
 2804.5000  -999.2500     8.2690     2.5060     0.1520   -19.9750     6.8800     6.1570  -999.2500
 2805.0000  -999.2500     8.2690     2.5060     0.1550   -20.2580     6.8810     6.1720  -999.2500
 2805.5000  -999.2500     8.2690     2.5060     0.1650   -20.1940     6.8830     6.1860  -999.2500
 2806.0000  -999.2500     8.2690     2.5190     0.1740   -19.8680     6.8850     6.2010  -999.2500
 2806.5000  -999.2500     8.2690  -999.2500  -999.2500   -19.5660     6.8880     6.2150  -999.2500
 2807.0000  -999.2500     8.2690  -999.2500  -999.2500   -19.4650     6.8900     6.2300  -999.2500
 2807.5000  -999.2500     8.2690  -999.2500  -999.2500   -19.5330     6.8920     6.2450  -999.2500
 2808.0000  -999.2500     8.2690  -999.2500  -999.2500   -19.6300     6.8940     6.2590  -999.2500
 2808.5000  -999.2500     8.2690  -999.2500  -999.2500   -19.6660     6.8960     6.2730  -999.2500
 2809.0000  -999.2500     8.2690  -999.2500  -999.2500   -19.6600     6.8980     6.2880  -999.2500
 2809.5000  -999.2500     8.2690  -999.2500  -999.2500   -19.6950     6.9000     6.3030  -999.2500
 2810.0000  -999.2500     8.2690  -999.2500  -999.2500   -19.7970     6.9020     6.3170  -999.2500
 2810.5000  -999.2500  -999.2500  -999.2500  -999.2500   -19.8710     6.9050     6.3320  -999.2500
 2811.0000  -999.2500  -999.2500  -999.2500  -999.2500   -19.7710     6.9070     6.3460  -999.2500
 2811.5000  -999.2500  -999.2500  -999.2500  -999.2500   -19.4800     6.9090     6.3610  -999.2500
 2812.0000  -999.2500  -999.2500  -999.2500  -999.2500   -19.1670     6.9100     6.3760  -999.2500
 2812.5000  -999.2500  -999.2500  -999.2500  -999.2500   -19.0100     6.9100     6.3890  -999.2500
 2813.0000  -999.2500  -999.2500  -999.2500  -999.2500   -19.0080     6.9090     6.3970  -999.2500
 2813.5000  -999.2500  -999.2500  -999.2500  -999.2500   -19.0290  -999.2500  -999.2500  -999.2500
 2814.0000  -999.2500  -999.2500  -999.2500  -999.2500   -18.9990  -999.2500  -999.2500  -999.2500
 2814.5000  -999.2500  -999.2500  -999.2500  -999.2500   -18.9500  -999.2500  -999.2500  -999.2500
 2815.0000  -999.2500  -999.2500  -999.2500  -999.2500   -18.9270  -999.2500  -999.2500  -999.2500
 2815.5000  -999.2500  -999.2500  -999.2500  -999.2500   -18.9160  -999.2500  -999.2500  -999.2500
 2816.0000  -999.2500  -999.2500  -999.2500  -999.2500   -18.8940  -999.2500  -999.2500  -999.2500
 2816.5000  -999.2500  -999.2500  -999.2500  -999.2500   -18.8630  -999.2500  -999.2500  -999.2500
 2817.0000  -999.2500  -999.2500  -999.2500  -999.2500   -18.8370  -999.2500  -999.2500  -999.2500
 2817.5000  -999.2500  -999.2500  -999.2500  -999.2500   -18.8160  -999.2500  -999.2500  -999.2500
 2818.0000  -999.2500  -999.2500  -999.2500  -999.2500   -18.7940  -999.2500  -999.2500  -999.2500
 2818.5000  -999.2500  -999.2500  -999.2500  -999.2500   -18.7690  -999.2500  -999.2500  -999.2500
 2819.0000  -999.2500  -999.2500  -999.2500  -999.2500   -18.7430  -999.2500  -999.2500  -999.2500
 2819.5000  -999.2500  -999.2500  -999.2500  -999.2500   -18.7190  -999.2500  -999.2500  -999.2500
 2820.0000  -999.2500  -999.2500  -999.2500  -999.2500   -18.7040  -999.2500  -999.2500  -999.2500
