~VERSION INFORMATION
 VERS.                2.0:   CWLS LOG ASCII STANDARD - VERSION 2.0
 WRAP.                 NO:   ONE LINE PER DEPTH STEP
~WELL INFORMATION
#MNEM.UNIT      DATA TYPE    INFORMATION
#----------   ------------   ------------------------------
 STRT.F            0.0000:   START DEPTH
 STOP.F         4044.0000:   STOP DEPTH
 STEP.F            0.5000:   STEP LENGTH
 NULL.          -999.2500:   NO VALUE
 COMP. LAWRENCE-ALLISON & ASSOC.:   COMPANY
 WELL. LAWRENCE "X" #24-34:   WELL
 FLD .           N P R #3:   FIELD
 LOC .      S34 T39N R78W:   LOCATION
 CNTY.            NATRONA:   COUNTY
 STAT.            WYOMING:   STATE
 CTRY. UNITED STATES OF AMERICA:   COUNTRY
 SRVC.      DRESSER ATLAS:   SERVICE COMPANY
 DATE.        29-MAR-1984:   LOGDATE
 API .     49025109660000:   API NUMBER
~CURVE INFORMATION
#MNEM.UNIT       API CODE    CURVE DESCRIPTION
#----------   ------------   ------------------------------
 DEPT.F                  :   
 DT  .US/F   60 520 00 00:   DELTA TIME
 TENS.LBS    60 635 01 00:   TENSION FROM SONIC
 GRR .GAPI   07 310 01 00:   GAMMA RAY FROM RESISTIVITY
 SPR .MV     07 010 01 00:   SPONTANEOUS POTENTIAL
 CALR.IN     07 280 01 00:   CALIPER FROM RESISTIVITY
 TENR.LBS    07 635 01 00:   TENSION FROM RESISTIVITY
 RSFL.OHMM   07 221 01 00:   AMPPLIFIED SHALLOW FOCUSED LOG RESISTIVITY
 RILD.OHMM   07 120 46 00:   DEEP INDUCTION RESISTIVITY
 RILM.OHMM   07 120 44 00:   INDUCTION LOG MEDIUM RESISTIVITY
 RHOB.G/C3   45 350 01 00:   BULK DENSITY
 DRHO.G/C3   45 356 01 00:   DENSITY CORRECTION
 TEND.LBS    45 635 01 00:   TENSION FROM DENSITY LOG
 NPHI.DEC    42 890 03 00:   NEUTRON POROSITY SANDSTONE
~PARAMETER INFORMATION
#MNEM.UNIT          VALUE    DESCRIPTION
#----------   ------------   ------------------------------
 EKB .F         5101.0000:   Kelly bushing
 EGL .F         5089.0000:   Ground level
 EDF .F         5100.0000:   Drilling floor
 TD  .F         4050.0000:   Total depth
 DATE.        29-MAR-1984:   Date logged
 CLNT.            A2DTECH:   Client Code
 SL  . 2415' FNL & 839' FWL:   Surface Location
 PD  .                 GL:   Permanent Datum
 EPD .F              5089:   Elevation Permanent Datum
 LMF .                 KB:   Log Measured From
 DMF .                 KB:   Drilling Measured From
 DD  .F              4050:   Depth driller
 DL  .F              4043:   Depth logger
 BLI .F              4041:   Bottom log interval
 CS1 .IN            8.625:   Casing size
 CBD1.       8.625 @ 673':   Casing driller 1
 CBL1.F               671:   Casing logger 1
 BS1 .IN            7.875:   Bit size
 DFT .            GEL-KCL:   Type fluid in hole
 DFD .                8.9:   Density
 DFV .                 45:   Viscosity
 DFPH.                  8:   pH
 DFL .               12.8:   Fluid loss
 MSS .           MUD TANK:   Source of sample
 RMS .OHMM           0.46:   Rm
 MST .F                71:   Rm Meas. temp.
 RMF .OHMM           0.31:   Rmf
 MFST.F                71:   Rmf Meas. temp.
 RMC .OHMM           0.55:   Rmc
 MCST.F                71:   Rmc Meas. temp.
 MFSS.               MEAS:   Source Rmf.
 RMB .OHMM           0.25:   Rm. at BHT
 BHT .F               139:   BHT.
 TCS .HRS               4:   Time Circ. stopped
 MRT .F               139:   Maximum recorded temp.
 LUN .               6302:   Logging unit number
 LUL .               CODY:   Logging unit location
 ENGI.              GETTY:   Recorded By
 WITN.           JENNINGS:   Witnessed by
 ORIG.           5" PRINT:   Origin of data
 UWI .     49025109660000:   Unique Well ID
 DICO. A2D TECHNOLOGIES, INC.:   Digitizing Company
 DAPD.                 12:   Feet Above Permanent Datum
 BSD1.               4050:   Depth drilled with bit1
 MCSS.               MEAS:   Source Rmc.
~OTHER INFORMATION
~A  DEPTH       DT       TENS        GRR        SPR       CALR       TENR       RSFL       RILD       RILM       RHOB       DRHO       TEND       NPHI
# ...
 3796.0000    88.9020  -111.2740   109.4650   -28.6260     7.7740  -154.9590     5.9280     2.8710     2.9970     2.5780    -0.0270  -158.0230     0.2360
 3796.5000    83.3070  -114.2660   117.0620   -28.7010     7.7720  -150.5560     4.9180     2.8710     2.8710     2.5620    -0.0050  -152.1330     0.2470
 3797.0000    81.4820  -117.2570   124.6040   -28.7000     7.7750  -146.1530     3.9080     2.8330     2.7510     2.5460     0.0080  -151.7710     0.2570
 3797.5000    82.1130  -120.2490   129.1100   -28.7000     7.8020  -143.8240     3.5260     2.6530     2.5970     2.5370     0.0210  -155.6020     0.2680
 3798.0000    85.8300  -123.2410   129.2310   -28.7000     7.8290  -144.3110     3.8030     2.4730     2.4500     2.5430     0.0340  -159.4340     0.2790
 3798.5000    89.3060  -106.8880   129.4460   -28.7000     7.8550  -144.7980     3.9800     2.3380     2.3950     2.5510     0.0380  -163.2650     0.2890
 3799.0000    91.0500   -93.2760   130.4670   -28.6970     7.8820  -145.2850     3.5890     2.3930     2.3820     2.5480     0.0280  -167.0960     0.3000
 3799.5000    91.9950   -94.3800   130.7680   -28.5510     7.8770  -145.7720     3.1370     2.4440     2.4960     2.5320     0.0130  -170.9270     0.3120
 3800.0000    93.0330   -95.6230   129.9500   -28.2370     7.8580  -146.2590     2.6400     2.6700     2.8540     2.5230    -0.0020  -174.7580     0.3080
 3800.5000    95.2930   -96.8660   124.7360   -27.9150     7.8380  -146.7460     2.9080     3.0210     3.2570     2.5190     0.0040  -178.5900     0.2680
 3801.0000    97.8020   -98.1080   118.3230   -27.7160     7.8190  -147.2330     3.4390     3.3730     3.6600     2.5520     0.0110  -179.6790     0.2590
 3801.5000    99.5050   -99.3510   103.5220   -27.5160     7.7990  -147.7200     5.7930     3.7240     4.0930     2.6070    -0.0030  -178.2150     0.2490
 3802.0000    98.3270  -100.5940    93.6590   -27.3150     7.7920  -148.2070     9.8310     4.0760     4.7480     2.6850    -0.0340  -176.7510     0.2380
 3802.5000    91.5660  -101.8360    96.5650   -27.1140     7.7960  -148.6940    10.9040     4.4270     5.2660     2.7530    -0.0210  -175.2860     0.2270
 3803.0000    83.4180  -103.0790    99.2170   -26.9130     7.7990  -149.1810     9.5920     4.7970     5.2660     2.7220     0.0060  -173.8220     0.2190
 3803.5000    77.4600  -104.3220   103.0570   -26.7120     7.8030  -149.6680     8.1960     4.7970     4.9460     2.6630     0.0330  -172.3580     0.2280
 3804.0000    74.4290  -105.5640   109.2690   -26.5110     7.8070  -150.1560     6.8000     4.4910     4.4710     2.5900     0.0290  -170.8940     0.2430
 3804.5000    74.9890  -106.8070   115.4300   -26.3120     7.8100  -150.6430     5.3650     3.9430     3.8880     2.5530     0.0190  -154.9150     0.2580
 3805.0000    78.2710  -108.0500   120.7700   -26.0600     7.8140  -151.1300     4.8240     3.3960     3.3050     2.5410     0.0090  -153.5140     0.2700
 3805.5000    81.5520  -109.2920   120.8490   -25.7540     7.8180  -151.6170     4.2680     2.8490     2.7220     2.5330    -0.0010  -157.7840     0.2750
 3806.0000    84.8340  -110.5350   121.3480   -25.4860     7.8210  -152.1040     3.7110     2.3010     2.2320     2.5340    -0.0050  -162.0550     0.2810
 3806.5000    88.1160  -111.7780   123.5300   -25.2200     7.8250  -152.5910     3.1540     2.1910     2.1910     2.5380     0.0000  -166.3260     0.3000
 3807.0000    91.3190  -113.0200   125.7000   -24.9590     7.8290  -153.0780     2.7040     2.2110     2.2950     2.5340     0.0110  -170.3090     0.2990
 3807.5000    94.2270  -113.1460   126.1440   -24.0780     7.7950  -153.5650     2.6400     2.3430     2.4240     2.5300     0.0280  -163.7460     0.3000
 3808.0000    97.1350  -112.5740   120.4950   -22.6980     7.7360  -154.1620     2.8000     2.4890     2.8450     2.5390     0.0440  -157.5970     0.2730
 3808.5000   100.0430  -112.0010    99.3680   -21.3090     7.6770  -154.8250     3.1340     2.7260     3.4420     2.5600     0.0560  -151.4470     0.2570
 3809.0000   100.5160  -111.4290    78.4890   -19.9080     7.6270  -155.4880     4.4400     3.0140     4.0390     2.5770     0.0470  -145.2970     0.2420
 3809.5000    96.5020  -110.8560    57.6540   -17.9810     7.6170  -156.1510     6.9530     3.3030     4.6360     2.5610     0.0290  -139.9250     0.2280
 3810.0000    92.3260  -110.2830    37.1030   -15.2320     7.6070  -156.8150     8.4760     3.9610     5.2330     2.5120     0.0180  -146.7260     0.2140
 3810.5000    82.7870  -109.7110    25.4580   -12.4900     7.5960  -157.4780     7.5790     5.0570     5.7920     2.4390     0.0690  -154.0470     0.2010
 3811.0000    79.9840  -109.1380    24.3090    -9.7350     7.5920  -158.1410     6.7330     6.1530     6.2340     2.3960     0.1050  -161.3680     0.1880
 3811.5000    79.4520  -108.5660    23.2240    -8.8380     7.5980  -158.8040     5.8870     6.5960     6.6760     2.3640     0.0880  -168.6890     0.1840
 3812.0000    80.9340  -107.9930    22.1520    -8.2870     7.6030  -159.4670     5.6220     6.7750     6.9030     2.3690     0.0720  -171.5180     0.1890
 3812.5000    82.7580  -107.4200    22.6930    -7.8830     7.6090  -160.1300     5.7480     6.9360     7.0630     2.3800     0.0670  -173.0710     0.1930
 3813.0000    83.9040  -106.8480    24.0530    -7.6980     7.6140  -160.7940     5.9940     7.0840     7.1650     2.3820     0.0700  -174.6240     0.1950
 3813.5000    84.3920  -106.2750    22.8260    -7.7030     7.6200  -161.4570     6.1140     7.2320     7.3680     2.3770     0.0730  -176.1770     0.1900
 3814.0000    84.5550  -105.7030    21.2080    -7.8550     7.6250  -162.1200     6.2820     7.3790     7.5840     2.3730     0.0670  -177.7300     0.1810
 3814.5000    84.6010  -105.1300    19.5670    -8.1920     7.6290  -162.7830     6.7060     7.5080     7.7990     2.3810     0.0490  -179.2830     0.1730
 3815.0000    84.6010  -104.5570    20.4470    -8.5260     7.6020  -163.4460     7.3320     7.8860     8.0150     2.3930     0.0320  -179.4970     0.1760
 3815.5000    84.3090  -103.9850    21.6570    -8.8620     7.5760  -163.4400     8.0140     8.2920     8.2420     2.4070     0.0320  -175.8360     0.1790
 3816.0000    82.9260  -103.4120    22.8740    -9.1970     7.5500  -162.1630     7.4550     8.6360     8.2420     2.4030     0.0410  -172.1760     0.1810
 3816.5000    81.4730  -102.8400    24.0560    -9.5330     7.5240  -160.8870     6.9670     8.5710     8.2420     2.3970     0.0470  -168.5150     0.1830
 3817.0000    80.6980  -102.2670    24.8670    -9.8680     7.4960  -159.6100     6.4660     8.5040     8.2060     2.3920     0.0430  -164.8550     0.1820
 3817.5000    80.9770  -101.6940    25.0440   -10.2030     7.4990  -158.3330     6.8800     8.4760     8.1650     2.3960     0.0390  -161.1940     0.1750
 3818.0000    81.7180  -101.1220    23.7770   -10.5380     7.5110  -157.0570     7.4160     8.3970     8.2470     2.4030     0.0670  -160.1810     0.1690
 3818.5000    82.2140  -100.5490    22.4790   -10.8720     7.5240  -155.7800     8.1650     8.5790     8.3860     2.4010     0.1040  -159.4900     0.1630
 3819.0000    80.9960   -99.9770    22.7790   -11.2620     7.5370  -154.5040     7.8520     8.7620     8.5250     2.3950     0.1440  -158.5500     0.1570
 3819.5000    79.7730   -99.4040    24.6910   -11.7660     7.5490  -153.2270     7.2320     9.1400     8.7210     2.3920     0.1250  -157.6090     0.1540
 3820.0000    78.5740   -98.8320    27.0120   -12.2700     7.5350  -151.9500     7.5390     9.7020     9.1270     2.4030     0.0890  -156.6690     0.1550
 3820.5000    79.1680   -98.2590    29.3380   -12.7730     7.5190  -150.6740     8.0370    10.0630     9.5330     2.4180     0.0670  -155.7290     0.1640
 3821.0000    79.4640   -97.6860    31.6580   -13.2760     7.5030  -149.3970     8.5070    10.2240     9.9390     2.4330     0.0710  -154.7880     0.1730
 3821.5000    79.5850   -97.1140    34.0090   -13.7790     7.4870  -148.1210     9.3080    10.3860    10.3450     2.4470     0.0740  -153.8480     0.1820
