~VERSION INFORMATION
 VERS.                2.0:   CWLS LOG ASCII STANDARD - VERSION 2.0
 WRAP.                 NO:   ONE LINE PER DEPTH STEP
~WELL INFORMATION
#MNEM.UNIT      DATA TYPE    INFORMATION
#----------   ------------   ------------------------------
 STRT.F          200.0000:   START DEPTH
 STOP.F         3038.0000:   STOP DEPTH
 STEP.F            0.5000:   STEP LENGTH
 NULL.          -999.2500:   NO VALUE
 COMP.    FENIX & SCISSON:   COMPANY
 WELL. FENIX NPR 3 "A" #63-28:   WELL
 FLD .            WILDCAT:   FIELD
 LOC .      S28 T39N R78W:   LOCATION
 CNTY.            NATRONA:   COUNTY
 STAT.            WYOMING:   STATE
 CTRY. UNITED STATES OF AMERICA:   COUNTRY
 SRVC.              WELEX:   SERVICE COMPANY
 DATE.        29-MAY-1977:   LOGDATE
 API .     49025103740000:   API NUMBER
~CURVE INFORMATION
#MNEM.UNIT       API CODE    CURVE DESCRIPTION
#----------   ------------   ------------------------------
 DEPT.F                  :   
 SPR .MV     07 010 01 00:   SPONTANEOUS POTENTIAL
 ILM .OHMM   07 120 44 00:   INDUCTION LOG MEDIUM RESISTIVITY
 ILD .OHMM   07 120 46 00:   DEEP INDUCTION RESISTIVITY
 SGRD.OHMM   07 220 05 00:   SHALLOW SHORT GUARD RESISTIVITY
 GRD .GAPI   45 310 01 00:   GAMMA RAY FROM DENSITY LOG
 CALD.IN     45 280 60 00:   CALIPER FROM DENSITY LOG
 RHOB.G/C3   45 350 01 00:   BULK DENSITY
 CORR.G/C3   45 356 01 00:   DENSITY CORRECTION
~PARAMETER INFORMATION
#MNEM.UNIT          VALUE    DESCRIPTION
#----------   ------------   ------------------------------
 EKB .F         5040.0000:   Kelly bushing
 EGL .F         5029.0000:   Ground level
 EDF .F            0.0000:   Drilling floor
 EPD .F         5029.0000:   Permanent datum
 TD  .F         3040.0000:   Total depth
 DATE.        29-MAY-1977:   Date logged
 CLNT.            A2DTECH:   Client Code
 SL  . 1650' FNL & 1650' FEL:   Surface Location
 PD  .                 GL:   Permanent Datum
 LMF .                 KB:   Log Measured From
 DMF .                 KB:   Drilling Measured From
 DD  .F              3040:   Depth driller
 DL  .F              3038:   Depth logger
 BLI .F              3036:   Bottom log interval
 TLI .F               200:   Top log interval
 CS1 .IN            8.625:   Casing size
 BSD1.F              3040:   Depth drilled with bit1
 DFT .            KCL MUD:   Type fluid in hole
 ORIG.     2.5", 5" PRINT:   Origin of data
 UWI .     49025103740000:   Unique Well ID
 DICO. A2D TECHNOLOGIES, INC.:   Digitizing Company
 DAPD.                 11:   Feet Above Permanent Datum
 CBD1.      8.625" @ 220':   Casing driller 1
 BS1 .              7.875:   Bit size
 DFD .                8.7:   Density
 MRT .                108:   Maximum recorded temp.
 ENGI.            C. DOAK:   Recorded By
 WITN.      W. PETTINGILL:   Witnessed by
~OTHER INFORMATION
~A   DEPT      SPR        ILM          ILD     SGRD         GRD        CALD       RHOB      CORR  
# ...
 2792.0000   -64.1030     6.7920     5.4030     8.7670   121.2430     8.8120     2.4940    -0.0040
 2792.5000   -64.1750     6.7920     5.4150     8.3900   122.0560     8.8020     2.4900    -0.0050
 2793.0000   -64.2470     6.7920     5.4280     8.4280   122.8800     8.8000     2.4870    -0.0060
 2793.5000   -64.3180     6.7920     5.4400     8.3900   123.6870     8.7950     2.4830    -0.0080
 2794.0000   -64.3930     6.7920     5.4470     8.4680   124.5010     8.7900     2.4810    -0.0090
 2794.5000   -64.3700     6.7910     5.3840     8.4110   125.3200     8.7860     2.4790    -0.0160
 2795.0000   -64.3140     6.7970     5.3250     8.3760   126.1300     8.7810     2.4780    -0.0170
 2795.5000   -64.2570     6.7290     5.2670     8.3470   126.9370     8.7770     2.4800    -0.0170
 2796.0000   -64.2400     6.6000     5.2080     8.3170   127.8020     8.7730     2.4820    -0.0170
 2796.5000   -64.3370     6.4810     5.1490     8.2040   128.6470     8.7680     2.4870    -0.0140
 2797.0000   -64.4310     6.3610     5.1080     7.9340   129.6220     8.7640     2.4920    -0.0070
 2797.5000   -64.5240     6.2520     5.0420     7.6180   130.6760     8.7590     2.4970     0.0010
 2798.0000   -64.6070     6.2320     4.9810     7.5840   133.3240     8.7550     2.5010     0.0070
 2798.5000   -64.6080     6.1920     4.9210     7.5840   136.0900     8.7500     2.5060     0.0070
 2799.0000   -64.6070     6.1520     4.8600     7.5840   138.3160     8.7460     2.5080     0.0070
 2799.5000   -64.6090     6.1110     4.8000     7.5840   138.3990     8.7410     2.5080     0.0070
 2800.0000   -64.8580     6.0710     4.7450     7.4450   137.5840     8.7370     2.5100     0.0070
 2800.5000   -64.9300     6.0270     4.7450     7.4760   135.2310     8.7330     2.5100     0.0070
 2801.0000   -64.7960     6.0360     4.7450     7.5140   133.4070     8.7380     2.5090     0.0070
 2801.5000   -64.6630     6.0540     4.7450     7.5140   131.4630     8.7430     2.4990     0.0070
 2802.0000   -64.5280     6.0720     4.7450     7.2430   129.5580     8.7490     2.4880     0.0070
 2802.5000   -64.4010     6.0900     4.7510     7.4410   127.6330     8.7540     2.4770     0.0070
 2803.0000   -64.3260     6.1090     4.7940     7.7240   125.6740     8.7590     2.4760     0.0070
 2803.5000   -64.2500     6.1270     4.8360     7.7240   123.5310     8.7640     2.4760     0.0040
 2804.0000   -64.2960     6.1380     4.8790     7.7240   122.6790     8.7700     2.4790     0.0030
 2804.5000   -64.4370     6.1650     4.9210     7.7240   122.0720     8.7750     2.4820     0.0030
 2805.0000   -64.5820     6.2000     4.9640     7.7240   123.4710     8.7800     2.4860     0.0030
 2805.5000   -64.5100     6.2340     5.0060     7.8300   123.9250     8.7860     2.4870     0.0030
 2806.0000   -64.3660     6.2690     5.0480     8.1620   122.4080     8.7910     2.4810     0.0030
 2806.5000   -64.1340     6.3030     5.0910     8.1170   120.6960     8.7960     2.4760     0.0020
 2807.0000   -63.9010     6.3430     5.1370     8.0880   120.5510     8.8020     2.4710     0.0000
 2807.5000   -63.6680     6.3830     5.1860     8.3900   120.5270     8.8070     2.4650    -0.0020
 2808.0000   -63.6640     6.4230     5.2350     7.8680   120.5370     8.8120     2.4660    -0.0040
 2808.5000   -63.7500     6.4640     5.2840     8.1380   120.7730     8.8180     2.4690    -0.0070
 2809.0000   -63.8360     6.5170     5.3330     8.9480   121.2470     8.8230     2.4860    -0.0080
 2809.5000   -63.9220     6.5880     5.3820     8.2440   121.6770     8.8280     2.5000    -0.0040
 2810.0000   -64.0080     6.6580     5.4470     7.8680   122.1080     8.8340     2.5150     0.0010
 2810.5000   -63.9060     6.8040     5.3970     8.5670   122.5470     8.8390     2.5300     0.0060
 2811.0000   -63.7740     6.9620     5.3600     9.1140   122.9820     8.8440     2.5450     0.0100
 2811.5000   -63.6430     7.0460     5.3240     9.2550   123.4110     8.8490     2.5520     0.0140
 2812.0000   -63.6270     6.9200     5.2890     9.3690   123.8610     8.8490     2.5510     0.0150
 2812.5000   -63.6270     6.7090     5.2500    10.7540   124.2730     8.8490     2.5330     0.0120
 2813.0000   -63.6270     6.4970     5.2160     8.5040   124.4200     8.8490     2.5130     0.0080
 2813.5000   -63.6270     6.3030     5.1490     7.7600   124.5760     8.8490     2.4940     0.0050
 2814.0000   -63.6270     6.2460     5.0810     6.9180   125.2650     8.8490     2.4680     0.0010
 2814.5000   -63.6270     6.1880     5.0130     7.3100   125.1170     8.8490     2.4720    -0.0010
 2815.0000   -63.6270     6.1380     4.9690     7.3410   124.5220     8.8490     2.4810    -0.0010
 2815.5000   -63.6310     6.1650     4.9690     7.3770   123.8930     8.8490     2.4900    -0.0020
 2816.0000   -63.4880     6.1950     5.0150     7.7210   123.2370     8.8490     2.4990    -0.0050
 2816.5000   -63.3040     6.2520     5.1450     7.9400   122.6100     8.8490     2.5070    -0.0030
 2817.0000   -63.1170     6.4390     5.2560     8.1570   121.9710     8.8490     2.5200    -0.0020
 2817.5000   -63.0400     6.6320     5.3670     8.5460   121.3270     8.8490     2.5140     0.0000
 2818.0000   -63.0390     6.8260     5.4780     8.9480   120.6940     8.8490     2.4850     0.0020
 2818.5000   -63.0390     6.9810     5.5890     8.8100   120.0640     8.8490     2.4750     0.0030
 2819.0000   -63.0390     7.0550     5.6990     8.5770   119.3690     8.8490     2.4880     0.0030
 2819.5000   -63.0390     7.0790     5.8090     8.3440   118.9540     8.8490     2.5040     0.0030
 2820.0000   -63.0390     7.1020     5.8330     8.1620   119.0180     8.8490     2.5190     0.0030
 2820.5000   -63.0390     7.1260     5.8630     8.4120   118.9670     8.8490     2.5370     0.0030
 2821.0000   -63.0390     7.1490     5.8630     8.7170   119.0230     8.8490     2.5450     0.0030
 2821.5000   -63.0400     7.1770     5.8630     9.0310   119.0970     8.8490     2.5420     0.0030
 2822.0000   -62.9750     7.0030     5.6150     9.1140   121.6410     8.8490     2.5260     0.0030
 2822.5000   -62.8760     6.7980     5.3770     8.8930   124.6410     8.8490     2.5100     0.0030
 2823.0000   -62.7780     6.6070     5.1390     8.3590   127.6850     8.8490     2.4920     0.0030
 2823.5000   -62.6790     6.1690     4.8540     7.8250   130.6570     8.8490     2.4880     0.0070
 2824.0000   -62.5810     5.7580     4.5460     7.2940   133.7050     8.8490     2.5190     0.0150
 2824.5000   -62.4770     5.3140     4.2370     6.9180   136.6660     8.8490     2.5310     0.0220
 2825.0000   -62.3990     4.8330     3.9290     6.3920   139.6870     8.8490     2.5230     0.0250
 2825.5000   -62.1940     4.3530     3.6200     5.6510   142.8750     8.8490     2.4990     0.0230
 2826.0000   -61.9970     3.8720     3.3770     4.7090   144.6960     8.8490     2.4770     0.0200
 2826.5000   -61.8600     3.7370     3.3770     3.9310   144.7620     8.8490     2.4550     0.0160
 2827.0000   -61.8930     3.7940     3.4590     3.3550   141.1820     8.8490     2.4300     0.0120
 2827.5000   -62.1200     4.2280     3.6060     3.0530   131.2240     8.8490     2.4200     0.0070
 2828.0000   -62.3490     4.6630     3.7530     7.1580   121.0970     8.8490     2.4070     0.0020
 2828.5000   -62.4500     5.0970     3.8770     7.8680   115.5450     8.8490     2.5170    -0.0020
 2829.0000   -62.4770     5.4700     4.1410     7.6680   115.2150     8.8490     2.5110    -0.0070
 2829.5000   -62.5250     5.8230     4.4180     7.4450   117.2800     8.8490     2.4990    -0.0080
 2830.0000   -62.5720     6.1750     4.6950     7.8560   119.5560     8.8490     2.5010    -0.0060
 2830.5000   -62.6190     6.4270     4.9720     8.2980   121.9730     8.8490     2.5120    -0.0040
 2831.0000   -62.7290     6.4860     5.2500     8.4680   124.3600     8.8490     2.5210    -0.0020
 2831.5000   -62.9420     6.4560     5.3090     8.4060   126.5120     8.8490     2.5320     0.0000
 2832.0000   -63.1560     6.4300     5.3970     8.1910   128.8910     8.8490     2.5360     0.0030
