~VERSION INFORMATION
 VERS.                2.0:   CWLS LOG ASCII STANDARD - VERSION 2.0
 WRAP.                 NO:   ONE LINE PER DEPTH STEP
~WELL INFORMATION
#MNEM.UNIT      DATA TYPE    INFORMATION
#----------   ------------   ------------------------------
 STRT.F          261.0000:   START DEPTH
 STOP.F         2875.0000:   STOP DEPTH
 STEP.F            0.5000:   STEP LENGTH
 NULL.          -999.2500:   NO VALUE
 COMP.   LAWRENCE ALLISON:   COMPANY
 WELL. LAWRENCE ALLISON "X" #85-20:   WELL
 FLD .          N.P.R. #3:   FIELD
 LOC .      S20 T39N R78W:   LOCATION
 CNTY.            NATRONA:   COUNTY
 STAT.            WYOMING:   STATE
 CTRY. UNITED STATES OF AMERICA:   COUNTRY
 SRVC.      DRESSER ATLAS:   SERVICE COMPANY
 DATE.        23-JUL-1986:   LOGDATE
 API .     49025111030000:   API NUMBER
~CURVE INFORMATION
#MNEM.UNIT       API CODE    CURVE DESCRIPTION
#----------   ------------   ------------------------------
 DEPT.F                  :   
 CORR.G/C3   45 356 01 00:   DENSITY CORRECTION
 RHOB.G/C3   45 350 01 00:   BULK DENSITY
 CNC .DEC    42 890 03 00:   NEUTRON POROSITY SANDSTONE
 GRR .GAPI   07 310 01 00:   GAMMA RAY FROM RESISTIVITY
 CALR.IN     07 280 01 00:   CALIPER FROM RESISTIVITY
 SPR .MV     07 010 01 00:   SPONTANEOUS POTENTIAL
 TENR.LBS    07 635 01 00:   TENSION FROM RESISTIVITY
 RILD.OHMM   07 120 46 00:   DEEP INDUCTION RESISTIVITY
 RILM.OHMM   07 120 44 00:   INDUCTION LOG MEDIUM RESISTIVITY
 RFOC.OHMM   07 220 04 00:   RESISTIVITY FOCUSED LOG RES.
~PARAMETER INFORMATION
#MNEM.UNIT          VALUE    DESCRIPTION
#----------   ------------   ------------------------------
 EKB .F         5007.0000:   Kelly bushing
 EGL .F         4995.0000:   Ground level
 EDF .F            0.0000:   Drilling floor
 EPD .F         4995.0000:   Permanent datum
 TD  .F         2874.0000:   Total depth
 CLNT.            A2DTECH:   Client Code
 SL  . 307' FEL & 2237' FSL:   Surface Location
 DATE.        23-JUL-1986:   Date Logged [DD-MMM-YYYY]
 DD  .F              2870:   Depth driller
 DL  .F              2874:   Depth logger
 BLI .F              2872:   Bottom log interval
 TLI .F              2205:   Top log interval
 CS1 .              8.625:   Casing size
 CBD1.      8.625" @ 261':   Casing driller 1
 CBL1.IN              261:   Casing logger 1
 BS1 .IN            7.875:   Bit size
 BSD1.F              2870:   Depth drilled with bit1
 DFT .            KCL-GEL:   Type fluid in hole
 DFD .                9.0:   Density
 DFV .                 37:   Viscosity
 MSS .           MUD TANK:   Source of sample
 RMS .OHMM          0.257:   Rm
 MST .F                89:   Rm Meas. temp.
 RMF .OHMM           0.19:   Rmf
 MFST.F                89:   Rmf Meas. temp.
 MFSS.               CALC:   Source Rmf.
 RMC .OHMM           0.32:   Rmc
 MCST.F                89:   Rmc Meas. temp.
 MCSS.               CALC:   Source Rmc.
 RMB .OHMM           0.20:   Rm. at BHT
 BHT .F               116:   BHT.
 TCS .HRS               4:   Time Circ. stopped
 MRT .F               116:   Maximum recorded temp.
 LUN .            HL 6264:   Logging unit number
 LUL .           GILLETTE:   Logging unit location
 ENGI.      P.M. FAHLSING:   Recorded By
 WITN.           JENNINGS:   Witnessed by
 ORIG.         2.5" PRINT:   Origin of data
 UWI .     49025111030000:   Unique Well ID
 DICO. A2D TECHNOLOGIES, INC.:   Digitizing Company
~OTHER INFORMATION
~A   DEPT     CORR       RHOB        CNC         GRR        CALR      SPR        TENR       RILD      RILM         RFOC 
# ...
  596.0000  -999.2500  -999.2500  -999.2500    89.8042    10.3335   -89.3881   -73.7212     8.4272     7.6204     8.4053
  596.5000  -999.2500  -999.2500  -999.2500    92.5371    10.3334   -89.6853   -73.5009     8.4249     7.5324     8.4031
  597.0000  -999.2500  -999.2500  -999.2500    94.3521    10.3332   -89.6882   -73.2805     8.4226     7.4445     8.5165
  597.5000  -999.2500  -999.2500  -999.2500    94.6241    10.3331   -90.0367   -73.0602     8.5362     7.3511     8.5142
  598.0000  -999.2500  -999.2500  -999.2500    91.2403    10.3329   -90.3431   -72.8399     8.5336     7.3481     8.5119
  598.5000  -999.2500  -999.2500  -999.2500    89.4630    10.3328   -90.9437   -72.6195     8.5313     7.3452     8.5096
  599.0000  -999.2500  -999.2500  -999.2500    96.1371    10.3326   -91.4647   -72.3992     8.5290     7.3422     8.6247
  599.5000  -999.2500  -999.2500  -999.2500   100.2943    10.3028   -91.4677   -87.0156     8.5267     7.3392     8.6222
  600.0000  -999.2500  -999.2500  -999.2500   103.8580    10.3027   -91.1760   -86.7952     8.5243     7.2432     8.6199
  600.5000  -999.2500  -999.2500  -999.2500   104.6360    10.3025   -90.7780   -86.5727     8.5220     7.2530     8.7363
  601.0000  -999.2500  -999.2500  -999.2500   100.8966    10.3024   -90.4775   -86.3502     8.5637     7.2629     8.7339
  601.5000  -999.2500  -999.2500  -999.2500    95.3831    10.3022   -90.3029   -86.1276     8.6348     7.2727     8.7315
  602.0000  -999.2500  -999.2500  -999.2500    92.7239    10.3021   -90.3059   -85.9051     8.6320     7.2826     8.7291
  602.5000  -999.2500  -999.2500  -999.2500    91.3650    10.3019   -90.3088   -84.2006     8.6297     7.2924     8.7268
  603.0000  -999.2500  -999.2500  -999.2500    90.5440    10.3018   -90.3118   -70.6232     8.5104     7.3023     8.6057
  603.5000  -999.2500  -999.2500  -999.2500    90.1673    10.3016   -90.3147   -70.4006     8.5081     7.3121     8.5829
  604.0000  -999.2500  -999.2500  -999.2500    91.2127    10.3015   -90.3176   -70.1781     8.5057     7.2594     8.4842
  604.5000  -999.2500  -999.2500  -999.2500    94.4156    10.3014   -90.3211   -69.9726     8.3882     7.1557     8.3666
  605.0000  -999.2500  -999.2500  -999.2500    97.7449    10.2970   -90.3240   -69.9423     8.2722     7.1096     8.3604
  605.5000  -999.2500  -999.2500  -999.2500    98.5619    10.2902   -90.3693   -69.9119     8.2059     7.0098     8.3272
  606.0000  -999.2500  -999.2500  -999.2500    94.9871    10.2834   -90.4997   -69.8816     8.1556     7.0070     8.2940
  606.5000  -999.2500  -999.2500  -999.2500    95.3770    10.2766   -90.6302   -69.8513     8.0425     7.0042     8.2608
  607.0000  -999.2500  -999.2500  -999.2500    98.5994    10.2698   -90.7606   -69.8210     8.0365     7.0013     8.2276
  607.5000  -999.2500  -999.2500  -999.2500   102.1662    10.2630   -90.9046   -69.7906     8.0211     6.9985     8.1944
  608.0000  -999.2500  -999.2500  -999.2500   101.4601    10.2562   -91.2001   -69.7603     8.0057     6.9957     8.1611
  608.5000  -999.2500  -999.2500  -999.2500    97.8852    10.2494   -92.3781   -69.7300     7.9903     6.9928     8.1279
  609.0000  -999.2500  -999.2500  -999.2500    96.8981    10.2433   -93.2619   -69.6997     7.9749     6.9900     8.0947
  609.5000  -999.2500  -999.2500  -999.2500    99.8159    10.2433   -94.1457   -69.6693     7.9595     6.9872     8.0615
  610.0000  -999.2500  -999.2500  -999.2500   103.3828    10.2136   -94.1960   -69.6390     7.9441     6.9749     8.0283
  610.5000  -999.2500  -999.2500  -999.2500   105.5134    10.2136   -93.5604   -69.6087     7.9287     6.9484     7.9919
  611.0000  -999.2500  -999.2500  -999.2500    99.3352    10.2136   -92.9736   -69.5784     7.9145     6.9219     7.9892
  611.5000  -999.2500  -999.2500  -999.2500    92.7814    10.2216   -92.3869   -69.5480     7.9123     6.8954     8.2081
  612.0000  -999.2500  -999.2500  -999.2500    89.7405    10.2136   -91.5060   -69.5177     7.9102     6.8784     8.3186
  612.5000  -999.2500  -999.2500  -999.2500    97.1810    10.2136   -90.9192   -69.4874     7.9080     6.8756     8.4303
  613.0000  -999.2500  -999.2500  -999.2500   104.3127    10.2136   -90.3324   -69.4570     7.9059     6.7797     8.3127
  613.5000  -999.2500  -999.2500  -999.2500   106.0712    10.2136   -90.3339   -69.4267     7.9037     6.7769     8.0855
  614.0000  -999.2500  -999.2500  -999.2500   106.0653    10.2136   -90.0412   -69.3964     7.9015     6.7741     7.9728
  614.5000  -999.2500  -999.2500  -999.2500   106.6528    10.2433   -90.0427   -69.3661     7.8994     6.7714     7.8618
  615.0000  -999.2500  -999.2500  -999.2500   106.6469    10.2433   -90.3383   -69.3357     7.8972     6.7686     7.7523
  615.5000  -999.2500  -999.2500  -999.2500   105.7270    10.2433   -90.3398   -69.3054     7.8950     6.7659     7.7497
  616.0000  -999.2500  -999.2500  -999.2500   101.4521    10.2433   -90.3412   -69.2751     7.8929     6.7631     7.8540
  616.5000  -999.2500  -999.2500  -999.2500    96.4136    10.2433   -90.6368   -69.2448     7.8908     6.7603     7.8511
  617.0000  -999.2500  -999.2500  -999.2500    93.2343    10.2433   -90.6383   -69.2144     7.9973     6.7576     7.9567
  617.5000  -999.2500  -999.2500  -999.2500    93.3036    10.2554   -90.6397   -69.1841     7.9948     6.7548     8.0635
  618.0000  -999.2500  -999.2500  -999.2500    96.9496    10.2730   -90.9353   -69.1538     8.0255     6.7521     8.2844
  618.5000  -999.2500  -999.2500  -999.2500   101.2043    10.2730   -91.8191   -69.1235     8.1006     6.7493     8.3958
  619.0000  -999.2500  -999.2500  -999.2500   104.6764    10.3027   -92.7029   -69.0931     8.0981     6.7466     8.3928
  619.5000  -999.2500  -999.2500  -999.2500   104.3501    10.3162   -93.8809   -69.0628     8.0602     6.7438     8.1634
  620.0000  -999.2500  -999.2500  -999.2500   101.0089    10.3323   -94.1765   -68.9911     7.9479     6.6497     7.8324
  620.5000  -999.2500  -999.2500  -999.2500   104.8000    10.3323   -94.1779   -68.5460     7.8371     6.6470     7.6183
  621.0000  -999.2500  -999.2500  -999.2500   102.4202    10.3620   -93.8853   -68.1008     7.6232     6.5542     7.5122
  621.5000  -999.2500  -999.2500  -999.2500    98.8535    10.3620   -93.5926   -67.6558     7.3146     6.6417     7.5096
  622.0000  -999.2500  -999.2500  -999.2500    98.2541    10.3620   -93.3000   -67.2107     7.0185     6.8225     7.7154
  622.5000  -999.2500  -999.2500  -999.2500   102.4025    10.3620   -93.0073   -66.7655     7.0880     7.0084     8.0360
  623.0000  -999.2500  -999.2500  -999.2500   105.9574    10.3620   -92.7147   -66.3205     7.2829     7.2983     8.3699
  623.5000  -999.2500  -999.2500  -999.2500   103.5776    10.3620   -92.4049   -65.8753     7.5860     7.4971     8.5993
  624.0000  -999.2500  -999.2500  -999.2500   102.9782    10.3323   -91.8157   -65.4302     7.8377     7.7014     8.9566
  624.5000  -999.2500  -999.2500  -999.2500   107.1266    10.3323   -91.4985   -64.9852     8.1190     7.9112     9.2020
  625.0000  -999.2500  -999.2500  -999.2500   108.9021    10.3323   -90.6617   -64.5400     8.3423     8.1268     9.4541
  625.5000  -999.2500  -999.2500  -999.2500   105.3344    10.3323   -90.3422   -64.0950     8.5718     8.2351     9.5811
  626.0000  -999.2500  -999.2500  -999.2500   100.5807    10.3620   -90.0764   -67.5061     8.8075     8.3448     9.5779
  626.5000  -999.2500  -999.2500  -999.2500    97.6074    10.3620   -89.7837   -78.1004     9.0497     8.3414     9.7065
  627.0000  -999.2500  -999.2500  -999.2500    98.1949    10.3620   -90.0794   -77.5965     9.2415     8.4557     9.7032
  627.5000  -999.2500  -999.2500  -999.2500    92.2543    10.3620   -90.1177   -77.1513     9.4249     8.5691     9.9691
  628.0000  -999.2500  -999.2500  -999.2500    90.2947    10.3620   -90.4157   -76.7063     9.6224     8.6793     9.9656
  628.5000  -999.2500  -999.2500  -999.2500    94.6164    10.3620   -90.7138   -76.2612     9.8155     8.6757     9.9622
  629.0000  -999.2500  -999.2500  -999.2500    97.5778    10.3620   -91.3060   -75.8160    10.0190     8.6721     9.9588
