~VERSION INFORMATION
 VERS.                2.0:   CWLS LOG ASCII STANDARD - VERSION 2.0
 WRAP.                 NO:   ONE LINE PER DEPTH STEP
~WELL INFORMATION
#MNEM.UNIT      DATA TYPE    INFORMATION
#----------   ------------   ------------------------------
 STRT.F          484.0000:   START DEPTH
 STOP.F         4334.0000:   STOP DEPTH
 STEP.F            0.5000:   STEP LENGTH
 NULL.          -999.2500:   NO VALUE
 COMP.    FENIX & SCISSON:   COMPANY
 WELL. FENIX NPR 3 "JX" #46-27:   WELL
 FLD .              N P R:   FIELD
 LOC .      S27 T39N R78W:   LOCATION
 CNTY.            NATRONA:   COUNTY
 STAT.            WYOMING:   STATE
 CTRY. UNITED STATES OF AMERICA:   COUNTRY
 SRVC.       SCHLUMBERGER:   SERVICE COMPANY
 DATE.        01-MAR-1979:   LOGDATE
 API .     49025107660000:   API NUMBER
~CURVE INFORMATION
#MNEM.UNIT       API CODE    CURVE DESCRIPTION
#----------   ------------   ------------------------------
 DEPT.F                  :   
 TENR.LBS    07 635 01 00:   TENSION FROM RESISTIVITY
 SPR .MV     07 010 01 00:   SPONTANEOUS POTENTIAL
 SFL .OHMM   07 220 01 00:   SHALLOW FOCUSED LOG RESISTIVITY
 ILD .OHMM   07 120 46 00:   DEEP INDUCTION RESISTIVITY
 ILM .OHMM   07 120 44 00:   INDUCTION LOG MEDIUM RESISTIVITY
 TEND.LBS    42 635 01 00:   TENSION FROM COMPENSATE NEUTRON
 GRD .GAPI   45 310 01 00:   GAMMA RAY FROM DENSITY LOG
 CALD.IN     45 280 60 00:   CALIPER FROM DENSITY LOG
 RHOB.G/C3   45 350 01 00:   BULK DENSITY
 CORR.G/C3   45 356 01 00:   DENSITY CORRECTION
 NPHI.DEC    42 890 03 00:   NEUTRON POROSITY SANDSTONE
~PARAMETER INFORMATION
#MNEM.UNIT          VALUE    DESCRIPTION
#----------   ------------   ------------------------------
 EKB .F         5059.0000:   Kelly bushing
 EGL .F         5049.0000:   Ground level
 EDF .F            0.0000:   Drilling floor
 TD  .F         4320.0000:   Total depth
 DATE.        01-MAR-1979:   Date logged
 CLNT.            A2DTECH:   Client Code
 SL  . 1625' FSL & 2281' FWL:   Surface Location
 PD  .                 GL:   Permanent Datum
 DD  .F              4320:   Depth driller
 DL  .F              4319:   Depth logger
 BLI .F              4316:   Bottom log interval
 CS1 .IN            8.625:   Casing size
 CBD1.      8.625" @ 505':   Casing driller 1
 CBL1.F               500:   Casing logger 1
 BS1 .IN            7.875:   Bit size
 DFT .                FGM:   Type fluid in hole
 DFD .                9.1:   Density
 DFV .                 40:   Viscosity
 DFPH.               11.7:   pH
 DFL .                6.5:   Fluid loss
 MSS .               TANK:   Source of sample
 RMS .OHMM           .901:   Rm
 MST .F                65:   Rm Meas. temp.
 RMF .OHMM           .852:   Rmf
 MFST.F                65:   Rmf Meas. temp.
 MFSS.               MEAS:   Source Rmf.
 RMB .OHMM            .39:   Rm. at BHT
 BHT .F               151:   BHT.
 TCS .HRS            1200:   Time Circ. stopped
 MRT .F               151:   Maximum recorded temp.
 LUN .               8043:   Logging unit number
 LUL .               CSPR:   Logging unit location
 ENGI.              PFARR:   Recorded By
 WITN.              AMENO:   Witnessed by
 ORIG.         2.5" PRINT:   Origin of data
 UWI .     49025107660000:   Unique Well ID
 DICO. A2D TECHNOLOGIES, INC.:   Digitizing Company
 DAPD.                 10:   Feet Above Permanent Datum
 BSD1.F              4320:   Depth drilled with bit1
 EPD .F              5049:   Elevation Permanent Datum
 LMF .                 KB:   Log Measured From
 DMF .                 KB:   Drilling Measured From
 TLI .F               500:   Top log interval
 TLAB.HRS            1900:   Time logger at bottom
~OTHER INFORMATION
~A   DEPT     TENR        SPR        SFL        ILD        ILM       TEND         GRD      CALD       RHOB       CORR         NPHI 
  484.0000  -999.2500  -999.2500  -999.2500  -999.2500  -999.2500  -999.2500    42.8000  -999.2500  -999.2500  -999.2500     0.4340
  484.5000  -999.2500  -999.2500  -999.2500  -999.2500  -999.2500  -999.2500    42.8000  -999.2500  -999.2500  -999.2500     0.4520
  485.0000  -999.2500  -999.2500  -999.2500  -999.2500  -999.2500  -999.2500    42.8000  -999.2500  -999.2500  -999.2500     0.4510
  485.5000  -999.2500  -999.2500  -999.2500  -999.2500  -999.2500  -999.2500    42.3000  -999.2500  -999.2500  -999.2500     0.4490
  486.0000  -999.2500  -999.2500  -999.2500  -999.2500  -999.2500  -999.2500    41.2000  -999.2500  -999.2500  -999.2500     0.4660
  486.5000  -999.2500  -999.2500  -999.2500  -999.2500  -999.2500  -999.2500    41.6500  -999.2500  -999.2500  -999.2500     0.4810
  487.0000  -999.2500  -999.2500  -999.2500  -999.2500  -999.2500  -999.2500    42.1500  -999.2500  -999.2500  -999.2500     0.4960
  487.5000  -999.2500  -999.2500  -999.2500  -999.2500  -999.2500  -999.2500    42.4340  -999.2500  -999.2500  -999.2500     0.5050
  488.0000  -999.2500  -999.2500  -999.2500  -999.2500  -999.2500  -999.2500    42.7350  -999.2500  -999.2500  -999.2500     0.4870
  488.5000  -999.2500  -999.2500  -999.2500  -999.2500  -999.2500  -999.2500    41.7860  -999.2500  -999.2500  -999.2500     0.4700
  489.0000  -999.2500  -999.2500  -999.2500  -999.2500  -999.2500  -999.2500    41.1000  -999.2500  -999.2500  -999.2500     0.4690
  489.5000  -999.2500  -999.2500  -999.2500  -999.2500  -999.2500  -999.2500    39.3390  -999.2500  -999.2500  -999.2500     0.4720
  490.0000  -999.2500  -999.2500  -999.2500  -999.2500  -999.2500  -999.2500    37.9330  -999.2500  -999.2500  -999.2500     0.4750
  490.5000  -999.2500  -999.2500  -999.2500  -999.2500  -999.2500  -999.2500    36.4220  -999.2500  -999.2500  -999.2500     0.4910
  491.0000  -999.2500  -999.2500  -999.2500  -999.2500  -999.2500  -999.2500    34.7300  -999.2500  -999.2500  -999.2500     0.5100
  491.5000  -999.2500  -999.2500  -999.2500  -999.2500  -999.2500  -999.2500    34.9560  -999.2500  -999.2500  -999.2500     0.5300
  492.0000  -999.2500  -999.2500  -999.2500  -999.2500  -999.2500  -999.2500    37.9010  -999.2500  -999.2500  -999.2500     0.5380
  492.5000  -999.2500  -999.2500  -999.2500  -999.2500  -999.2500  -999.2500    40.6270  -999.2500  -999.2500  -999.2500     0.5170
  493.0000  -999.2500  -999.2500  -999.2500  -999.2500  -999.2500  -999.2500    42.7500  -999.2500  -999.2500  -999.2500     0.5000
  493.5000  -999.2500  -999.2500  -999.2500  -999.2500  -999.2500  -999.2500    42.4300  -999.2500  -999.2500  -999.2500     0.4830
  494.0000  -999.2500  -999.2500  -999.2500  -999.2500  -999.2500  -999.2500    41.3210  -999.2500  -999.2500  -999.2500     0.4770
  494.5000  -999.2500  -999.2500  -999.2500  -999.2500  -999.2500  -999.2500    41.1300  -999.2500  -999.2500  -999.2500     0.4910
  495.0000  -999.2500  -999.2500  -999.2500  -999.2500  -999.2500  -999.2500    41.9890  -999.2500  -999.2500  -999.2500     0.4920
  495.5000  -999.2500  -999.2500  -999.2500  -999.2500  -999.2500  -999.2500    43.6480  -999.2500  -999.2500  -999.2500     0.4680
  496.0000  -999.2500  -999.2500  -999.2500  -999.2500  -999.2500  -999.2500    45.0820  -999.2500  -999.2500  -999.2500     0.4470
  496.5000  -999.2500  -999.2500  -999.2500  -999.2500  -999.2500  -999.2500    46.7990  -999.2500  -999.2500  -999.2500     0.4260
  497.0000  -999.2500  -999.2500  -999.2500  -999.2500  -999.2500  -999.2500    46.0460  -999.2500  -999.2500  -999.2500     0.4170
  497.5000  -999.2500  -999.2500  -999.2500  -999.2500  -999.2500  -999.2500    44.6580  -999.2500  -999.2500  -999.2500     0.4270
  498.0000  -999.2500  -999.2500  -999.2500  -999.2500  -999.2500  -999.2500    43.7470  -999.2500  -999.2500  -999.2500     0.4420
  498.5000  -999.2500  -999.2500  -999.2500  -999.2500  -999.2500  -999.2500    45.5140  -999.2500  -999.2500  -999.2500     0.4600
  499.0000  -999.2500  -999.2500  -999.2500  -999.2500  -999.2500  -999.2500    45.8670  -999.2500  -999.2500  -999.2500     0.4820
  499.5000  -999.2500  -999.2500  -999.2500  -999.2500  -999.2500  -999.2500    45.1310  -999.2500  -999.2500  -999.2500     0.4920
  500.0000  -999.2500  -999.2500  -999.2500  -999.2500  -999.2500   535.7140    43.8450  -999.2500  -999.2500  -999.2500     0.5740
  500.5000  -999.2500  -999.2500  -999.2500  -999.2500  -999.2500   535.7140    46.5450     9.3660  -999.2500  -999.2500     0.5690
  501.0000  -999.2500  -999.2500  -999.2500  -999.2500  -999.2500   535.7140    50.2770    10.4150     2.0610     0.1480     0.5460
  501.5000   257.9370  -999.2500  -999.2500  -999.2500  -999.2500   535.7140    54.0530    11.4640     2.1450     0.1590     0.4890
  502.0000   257.9370  -999.2500  -999.2500  -999.2500  -999.2500   535.7140    56.3360    12.1430     2.1700     0.1590     0.4320
  502.5000   257.9370  -999.2500  -999.2500  -999.2500  -999.2500   535.7140    56.3390    12.0260     2.1050     0.0840     0.3760
  503.0000   257.9370  -999.2500  -999.2500  -999.2500     1.9820   535.7140    57.0900    11.9000     2.1120     0.0380     0.3740
  503.5000   257.9370  -999.2500  -999.2500  -999.2500     7.3580   536.3050    59.8490    11.7660     2.1340     0.0120     0.3690
  504.0000   257.9370  -999.2500    12.3440  -999.2500    13.5130   535.7140    62.6360    11.6940     2.2200     0.0180     0.3540
  504.5000   257.9370   -39.5970    13.1760  1065.4399    24.2850   535.7140    65.5330    11.5530     2.2630     0.0230     0.3450
  505.0000   258.2210   -39.3830    14.0070  1479.3730   142.7410   535.7140    67.2220    11.3920     2.2980     0.0290     0.3330
  505.5000   257.9370   -39.1700    14.7940   962.7440   650.0320   535.7140    65.8130    11.4040     2.3060     0.0400     0.3220
  506.0000   257.9370   -38.9560    14.7940   561.9740   552.1100   535.7140    64.4980    11.4260     2.3130     0.0510     0.3080
  506.5000   257.9370   -38.7430    14.5620   161.2030   336.6820   535.7140    62.9820    11.4560     2.3080     0.0480     0.3080
  507.0000   257.9370   -38.3900    14.2880    17.7600   148.5180   535.7140    62.0420    11.4810     2.3000     0.0430     0.3200
  507.5000   257.9370   -37.9910    14.3490    15.8790    17.4380   535.7140    62.1810    11.5080     2.2920     0.0290     0.3310
  508.0000   257.9370   -37.7930    13.8790    15.0670   218.6260   535.7140    64.7660    11.5340     2.2820     0.0150     0.3420
  508.5000   257.9370   -37.3850    13.6050    20.6850  1045.4041   535.7140    67.3430    11.5630     2.2860     0.0190     0.3330
  509.0000   257.9370   -37.1270    13.3320    28.3290   737.5350   535.7140    68.9480    11.5470     2.2970     0.0270     0.3140
  509.5000   257.9370   -37.2130    13.1580    35.9730   112.4680   535.7140    67.8570    11.4240     2.3090     0.0270     0.3030
  510.0000   257.9370   -37.2890    13.0210    42.6970    38.8990   535.7140    66.9520    11.3270     2.3090     0.0230     0.3070
  510.5000   257.9370   -37.3750    12.8840    27.9170    15.9340   535.7140    66.1170    11.2760     2.3120     0.0240     0.3140
  511.0000   257.9370   -37.4550    12.7470    16.2090    15.1350   535.7140    67.2680    11.2250     2.3180     0.0280     0.3210
  511.5000   257.9370   -37.5720    12.6100    14.2630    14.2630   535.7140    68.3920    11.1760     2.3180     0.0330     0.3260
  512.0000   257.9370   -37.7290    12.4740    14.4020    14.2630   535.7140    69.2180    11.1230     2.3060     0.0360     0.3230
  512.5000   257.9370   -37.8810    12.3230    14.6760    14.2630   535.7140    69.1690    11.0970     2.3020     0.0370     0.3150
  513.0000   257.9370   -38.0350    12.4250    14.9500    14.2630   535.7140    69.2380    11.0920     2.2950     0.0380     0.3070
  513.5000   257.9370   -38.1880    12.5500    15.2250    14.0050   535.7140    69.1940    11.0840     2.3180     0.0410     0.3010
  514.0000   257.9370   -38.3410    12.5500    15.4990    13.6730   535.7140    70.5560    11.0760     2.3420     0.0460     0.3000
