~VERSION INFORMATION
 VERS.                2.0:   CWLS LOG ASCII STANDARD - VERSION 2.0
 WRAP.                 NO:   ONE LINE PER DEPTH STEP
~WELL INFORMATION
#MNEM.UNIT      DATA TYPE    INFORMATION
#----------   ------------   ------------------------------
 STRT.F           30.0000:   START DEPTH
 STOP.F         5698.0000:   STOP DEPTH
 STEP.F            0.5000:   STEP LENGTH
 NULL.          -999.2500:   NO VALUE
 COMP. LAWRRENCE-ALLISON & ASSOCIATES:   COMPANY
 WELL. LAWERNCE "X" #41-3:   WELL
 FLD .           N P R #3:   FIELD
 LOC .       S3 T38N R78W:   LOCATION
 CNTY.            NATRONA:   COUNTY
 STAT.            WYOMING:   STATE
 CTRY. UNITED STATES OF AMERICA:   COUNTRY
 SRVC.      DRESSER ATLAS:   SERVICE COMPANY
 DATE.        04-JUN-1983:   LOGDATE
 API .     49025109200000:   API NUMBER
~CURVE INFORMATION
#MNEM.UNIT       API CODE    CURVE DESCRIPTION
#----------   ------------   ------------------------------
 DEPT.F                  :   
 TENS.LBS    60 635 01 00:   TENSION FROM SONIC
 DT  .US/F   60 520 00 00:   DELTA TIME
 SPR .MV     11 010 01 00:   SPONTANEOUS POTENTIAL FROM RES.
 TENR.LBS    11 635 01 00:   TENSION FROM RES. LOG
 GRR .GAPI   11 310 01 00:   GAMMA RAY FROM RES.
 CALR.IN     11 280 01 00:   CALIPER FROM RES.
 RMLL.OHMM   11 270 04 00:   MICRO LATEROLOG
 RD  .OHMM   11 220 10 00:   RESISTIVITY DEEP
 RS  .OHMM   11 220 09 00:   RESISTIVITY SHALLOW
 TEND.LBS    45 635 01 00:   TENSION FROM DENSITY LOG
 CORR.G/C3   45 356 01 00:   DENSITY CORRECTION
 RHOB.G/C3   45 350 01 00:   BULK DENSITY
 NPHI.DEC    42 890 03 00:   NEUTRON POROSITY SANDSTONE
~PARAMETER INFORMATION
#MNEM.UNIT          VALUE    DESCRIPTION
#----------   ------------   ------------------------------
 EKB .F         5157.5000:   Kelly bushing
 EGL .F         5147.5000:   Ground level
 EDF .F            0.0000:   Drilling floor
 TD  .F         5690.0000:   Total depth
 DATE.        04-JUN-1983:   Date logged
 CLNT.            A2DTECH:   Client Code
 SL  . 2218' FWL & 287' FNL:   Surface Location
 PD  .                 GL:   Permanent Datum
 EPD .F            5147.5:   Elevation Permanent Datum
 LMF .                 KB:   Log Measured From
 DMF .                 KB:   Drilling Measured From
 DD  .F              5690:   Depth driller
 DL  .F              5685:   Depth logger
 BLI .F              5682:   Bottom log interval
 CS1 .IN            9.625:   Casing size
 CBD1.       9.625 @ 568':   Casing driller 1
 CBL1.F               568:   Casing logger 1
 BS1 .IN             8.75:   Bit size
 DFT .        KCL-DRISPAC:   Type fluid in hole
 DFD .                9.1:   Density
 DFV .                 37:   Viscosity
 DFPH.                  8:   pH
 DFL .                3.8:   Fluid loss
 MSS .               TANK:   Source of sample
 RMS .OHMM           0.41:   Rm
 MST .F                75:   Rm Meas. temp.
 RMF .OHMM           0.28:   Rmf
 MFST.F                70:   Rmf Meas. temp.
 RMC .OHMM           0.53:   Rmc
 MCST.F                75:   Rmc Meas. temp.
 MFSS.               MEAS:   Source Rmf.
 RMB .OHMM           0.18:   Rm. at BHT
 BHT .F               160:   BHT.
 TCS .HRS               5:   Time Circ. stopped
 MRT .F               166:   Maximum recorded temp.
 LUN .               6274:   Logging unit number
 LUL .               GLTE:   Logging unit location
 ENGI.             RAUTIO:   Recorded By
 WITN.             STRONG:   Witnessed by
 ORIG.     2.5", 5" PRINT:   Origin of data
 UWI .     49025109200000:   Unique Well ID
 DICO. A2D TECHNOLOGIES, INC.:   Digitizing Company
 MCSS.               CALC:   Source Rmc.
 DAPD.                 10:   Feet Above Permanent Datum
 BSD1.               5690:   Depth drilled with bit1
~OTHER INFORMATION
~A   DEPT     TENS         DT        SPR       TENR         GRR      CALR       RMLL         RD         RS       TEND       CORR       RHOB       NPHI   
# ...
 3280.0000   -70.7860    79.7940   -88.1500   -55.3480    96.8740     9.9760     6.3550     6.6200     5.8290   -25.7350     0.0700     2.5050     0.2200
 3280.5000   -73.7060    79.6200   -88.0610   -55.0750    92.9700     9.9740     6.6150     6.8000     6.1360   -19.6080     0.0600     2.5000     0.2190
 3281.0000   -76.6270    79.6050   -87.9730   -54.8030    91.3770     9.9730     6.6960     6.8000     6.2110   -13.4800     0.0590     2.5000     0.2200
 3281.5000   -74.1840    79.6790   -87.8860   -54.5310    93.3080     9.9710     6.7470     6.8000     6.2110    -9.8040     0.0590     2.4990     0.2170
 3282.0000   -71.0010    79.7540   -87.7900   -54.2590    96.0090     9.9700     6.7990     6.8000     6.2110    -9.8040     0.0590     2.5010     0.2110
 3282.5000   -67.8190    79.8280   -87.7530   -53.9860    98.6330     9.9680     6.8500     6.8000     6.3250    -9.8040     0.0590     2.5020     0.2080
 3283.0000   -64.6360    79.8380   -87.7970   -53.7140   100.5400     9.9670     6.9010     7.0920     6.5380    -9.8040     0.0590     2.4990     0.2110
 3283.5000   -61.4540    79.7690   -87.8330   -53.4420    98.0090     9.9650     7.0510     7.4880     6.7240    -9.8040     0.0560     2.4970     0.2150
 3284.0000   -58.2710    78.4330   -87.8700   -53.1690    95.9560     9.9640     7.5260     7.8830     6.9250    -9.8040     0.0480     2.4930     0.2090
 3284.5000   -55.0880    77.3050   -87.9080   -52.8970    93.6410     9.9620     8.1750     8.2780     7.3600    -9.8040     0.0390     2.4900     0.2010
 3285.0000   -51.9060    76.0010   -87.9450   -52.6250    91.4290     9.9610     8.8230     8.6730     7.8300    -9.8040     0.0280     2.4860     0.1940
 3285.5000   -51.9060    74.8740   -87.9830   -52.3520    89.3000     9.9600     9.4720     9.0680     8.2990    -9.8040     0.0170     2.4840     0.1900
 3286.0000   -51.9060    74.9730   -88.0200   -52.0800    86.8700     9.9580    10.1210     9.4640     8.7690    -9.8040     0.0050     2.4860     0.1880
 3286.5000   -51.9060    75.1620   -88.0580   -51.8080    84.1300     9.9570    10.7000     9.8590     9.2380    -9.8040     0.0080     2.4890     0.1880
 3287.0000   -51.9060    75.6240   -88.0940   -51.5350    81.9680     9.9550    10.6270    10.3190     9.7080    -9.8040     0.0170     2.4920     0.1910
 3287.5000   -51.9060    75.8110   -88.1330   -51.2630    82.1080     9.9540    10.3900    10.5080    10.3190    -9.8040     0.0250     2.4950     0.1930
 3288.0000   -51.9060    75.5050   -88.1030   -50.9910    85.0060     9.9520     9.9880    10.5080     9.8620    -9.8040     0.0350     2.4990     0.1970
 3288.5000   -51.9060    75.0330   -88.0440   -50.7190    84.4620     9.9510     9.5150    10.3190     8.9500    -9.8040     0.0380     2.5010     0.1980
 3289.0000   -51.9060    74.5620   -87.9940   -50.4460    83.6360     9.9500     9.0410     9.8320     8.3010    -9.8040     0.0320     2.5050     0.1930
 3289.5000   -51.9060    74.0900   -87.9360   -50.1700    82.6710     9.9530     8.6080     9.4250     8.3010    -8.9130     0.0280     2.5070     0.1920
 3290.0000   -51.9060    73.9520   -87.8810   -49.9010    81.7770     9.9560     8.7650     9.6140     9.2260    -7.7990     0.0400     2.5100     0.1990
 3290.5000   -52.0670    74.3530   -87.8440   -49.6160    80.9840     9.9590    10.3800    10.2880    10.0800    -6.6840     0.0530     2.5140     0.1960
 3291.0000   -52.6190    75.9780   -87.7340   -49.3470    80.3730     9.9630    11.7150    10.5080    10.7000    -5.5700     0.0650     2.5130     0.1940
 3291.5000   -53.1710    77.4000   -88.0670   -49.1060    84.5330     9.9660    10.4850     9.3520     9.1720    -4.4560     0.0770     2.5110     0.1970
 3292.0000   -53.7220    78.6410   -88.3590   -48.7360    93.9370     9.9690     9.0740     8.0250     7.1800    -3.3420     0.0620     2.5080     0.2000
 3292.5000   -54.2740    78.9590   -88.5880   -48.6240    98.4650     9.9720     7.1800     7.2740     7.1800    -2.2280     0.0460     2.5060     0.2140
 3293.0000   -54.8260    78.7930   -88.7990   -48.5020    97.4500     9.9750     7.2220     7.1800     7.2800    -1.1140     0.0410     2.5030     0.2260
 3293.5000   -55.3770    79.0160   -89.0330   -56.0760    97.8740     9.9780     7.3120     7.4560     7.4220     0.0000     0.0460     2.5010     0.2390
 3294.0000   -55.9290    80.7220   -89.2540   -65.1350    96.1330     9.9810     7.1380     7.4190     7.0170   -11.0290     0.0490     2.4900     0.2510
 3294.5000   -56.4810    83.2050   -89.4790   -74.6450    97.2350     9.9840     6.4400     6.7650     5.3720   -29.4120     0.0530     2.4800     0.2630
 3295.0000   -56.9210    85.6870   -89.7050   -77.9880   102.7950     9.9880     5.7420     6.1110     4.8640   -47.7940     0.0540     2.4720     0.2740
 3295.5000   -56.9210    88.1700   -89.9290   -77.7260   108.1600     9.9880     5.0440     5.4570     4.3760   -66.1760     0.0520     2.4700     0.2940
 3296.0000   -56.9210    90.0420   -90.1510   -77.7680   113.2450     9.9860     4.3450     4.8030     3.8070   -88.2350     0.0500     2.4680     0.3070
 3296.5000   -56.9210    90.5030   -90.3830   -77.7630   118.0380     9.9850     3.9470     4.1680     3.7380   -82.6280     0.0350     2.4660     0.2960
 3297.0000   -56.9210    90.2380   -90.4720   -77.7760   116.2470     9.9830     3.9590     4.1680     3.8680   -75.6200     0.0210     2.4650     0.2830
 3297.5000   -56.9210    89.9730   -90.4730   -77.8250   113.4310     9.9820     3.9770     4.1910     4.0760   -68.6110     0.0210     2.4630     0.2750
 3298.0000   -56.9210    89.7990   -90.3900   -76.2200   110.6350     9.9800     3.9950     4.2460     4.3220   -61.6020     0.0220     2.4620     0.2750
 3298.5000   -56.4850    89.7990   -90.2370   -69.6170   107.7750     9.9780     4.0130     4.3010     4.2830   -54.5930     0.0240     2.4620     0.2750
 3299.0000   -56.0210    89.7480   -90.0940   -62.7950   109.8680     9.9770     4.0660     4.4010     4.1880   -47.5850     0.0260     2.4620     0.2680
 3299.5000   -55.5560    89.3220   -89.9520   -56.5390   114.0690     9.9750     4.2880     4.5340     4.0930   -40.5760     0.0280     2.4630     0.2600
 3300.0000   -55.0920    88.4580   -89.8070   -48.9980   116.2660     9.9740     4.5100     4.6990     4.1310   -33.5670     0.0300     2.4630     0.2610
 3300.5000   -54.6280    87.4920   -89.6640   -56.7650   116.8960     9.9720     4.7320     4.8640     4.3750   -28.8890     0.0310     2.4630     0.2750
 3301.0000   -54.1640    87.2290   -89.5200   -66.7930   118.3130     9.9710     4.4920     4.9970     4.6340   -27.6060     0.0280     2.4690     0.2720
 3301.5000   -53.7000    86.6100   -89.3770   -77.8380   119.6270     9.9690     4.0930     4.9970     4.8930   -26.3240     0.0240     2.4790     0.2590
 3302.0000   -53.2350    85.4140   -89.2330   -71.7510   118.6050     9.9680     4.0930     5.0880     5.5050   -25.0410     0.0260     2.4930     0.2450
 3302.5000   -52.7710    83.0180   -89.0900   -60.1420   115.0280     9.9660     5.6500     5.6690     6.3520   -23.7580     0.0320     2.5090     0.2320
 3303.0000   -52.3070    79.8770   -88.9470   -49.3880   111.3470     9.9640     6.9470     7.1210     7.1990   -22.4750     0.0370     2.5290     0.2190
 3303.5000   -51.9060    76.9360   -88.8020   -38.9130   108.1170     9.9630     8.2440     8.5730     8.0460   -21.1920     0.0410     2.5340     0.2060
 3304.0000   -51.9060    75.2720   -88.6600   -39.9340   105.6320     9.9610     9.5410    10.0240     8.8930   -19.9090     0.0470     2.5390     0.1920
 3304.5000   -51.9060    73.6080   -88.5280   -42.6900   103.0870     9.9600    10.8810    11.2100     9.7400   -18.6260     0.0530     2.5430     0.1800
 3305.0000   -51.9060    72.0460   -88.5230   -45.5520    99.9980     9.9580    12.2880    11.9970    10.5870   -17.3430     0.0510     2.5460     0.1770
 3305.5000   -51.9060    71.4750   -88.5200   -48.0300    97.2290     9.9570    13.6940    12.7850    11.2540   -16.0600     0.0430     2.5400     0.1750
