~VERSION INFORMATION
 VERS.                2.0:   CWLS LOG ASCII STANDARD - VERSION 2.0
 WRAP.                 NO:   ONE LINE PER DEPTH STEP
~WELL INFORMATION
#MNEM.UNIT      DATA TYPE    INFORMATION
#----------   ------------   ------------------------------
 STRT.F            0.0000:   START DEPTH
 STOP.F         1064.0000:   STOP DEPTH
 STEP.F            0.5000:   STEP LENGTH
 NULL.          -999.2500:   NO VALUE
 COMP.  JOHN BROWN E. & C:   COMPANY
 WELL. JOHN BROWN NPR 3-1 "X" #68-2:   WELL
 FLD .                NPR:   FIELD
 LOC .       S2 T38N R78W:   LOCATION
 CNTY.            NATRONA:   COUNTY
 STAT.            WYOMING:   STATE
 CTRY. UNITED STATES OF AMERICA:   COUNTRY
 SRVC.     ATLAS WIRELINE:   SERVICE COMPANY
 DATE.        25-JAN-1992:   LOGDATE
 API .     49025224850000:   API NUMBER
~CURVE INFORMATION
#MNEM.UNIT       API CODE    CURVE DESCRIPTION
#----------   ------------   ------------------------------
 DEPT.F                  :   
 GRR .GAPI   07 310 01 00:   GAMMA RAY FROM RESISTIVITY
 TENR.LBS    07 635 01 00:   TENSION
 RILD.OHMM   07 120 46 00:   INDUCTION LOG DEEP RESISTIVITY
 RILM.OHMM   07 120 44 00:   INDUCTION LOG MEDIUM RESISTIVITY
~PARAMETER INFORMATION
#MNEM.UNIT          VALUE    DESCRIPTION
#----------   ------------   ------------------------------
 EKB .F         5197.0000:   Kelly bushing
 EGL .F         5187.0000:   Ground level
 TD  .F         1060.0000:   Total depth
 DATE.        25-JAN-1992:   Date logged
 CLNT.            A2DTECH:   Client Code
 PD  .                 GL:   Permanent Datum
 EPD .F               518:   Elevation Permanent Datum
 LMF .                 KB:   Log Measured From
 DMF .                 KB:   Drilling Measured From
 DAPD.F                10:   Feet Above Permanent Datum
 DD  .F              1060:   Depth driller
 DL  .F              1057:   Depth logger
 BLI .F              1055:   Bottom log interval
 CS1 .IN            10.75:   Casing size
 CBD1.       10.75" @ 50':   Casing driller 1
 CBL1.F                50:   Casing logger 1
 BS1 .IN             8.75:   Bit size
 BSD1.F              1060:   Depth drilled with bit1
 DFT .                AIR:   Type fluid in hole
 LUN .            HL-6307:   Logging unit number
 LUL .             CASPER:   Logging unit location
 ENGI.             ZIEGER:   Recorded By
 WITN.             STRONG:   Witnessed by
 ORIG.           5" PRINT:   Origin of data
 UWI .     49025224850000:   Unique Well ID
 DICO. A2D TECHNOLOGIES, INC.:   Digitizing Company
~OTHER INFORMATION
~A    DEPT      GRR      TENR       RILD       RILM   
# ...
  803.0000   155.8480   -22.4060     5.7750     5.7060
  803.5000   154.4040   -22.2160     5.6010     5.5730
  804.0000   157.1720   -22.0260     5.4830     5.5260
  804.5000   163.4990   -21.8370     5.4690     5.4790
  805.0000   164.2160   -21.6470     5.4560     5.4320
  805.5000   161.3080   -21.4570     5.4420     5.3850
  806.0000   156.6210   -21.2670     5.3720     5.3370
  806.5000   151.9210   -21.0780     5.1970     5.1450
  807.0000   150.1840   -20.8880     5.0230     4.9480
  807.5000   151.8790   -20.6980     4.7770     4.7510
  808.0000   153.7260   -20.5080     4.7960     4.5540
  808.5000   153.4390   -20.3180     4.8440     4.3960
  809.0000   151.1190   -20.1290     4.9110     4.8210
  809.5000   148.5170   -19.9390     4.8930     4.8060
  810.0000   146.0120   -19.7490     4.8660     4.7770
  810.5000   146.9600   -19.5590     5.2110     5.2390
  811.0000   148.6000   -19.3700     5.3800     5.3340
  811.5000   148.7690   -19.1800     5.5570     5.5770
  812.0000   146.5180   -18.9900     5.8540     5.9630
  812.5000   139.0830   -18.8000     6.0180     6.1300
  813.0000   136.9800   -18.6110     6.0740     6.1300
  813.5000   137.2950   -18.4210     5.9340     6.0250
  814.0000   137.9200   -18.2310     5.6110     5.7850
  814.5000   138.9970   -18.0410     5.2880     5.3220
  815.0000   141.9590   -17.8520     4.9640     4.8600
  815.5000   143.3160   -17.6620     4.6900     4.4370
  816.0000   144.1940   -17.4720     4.6550     4.1980
  816.5000   146.0860   -17.2820     4.5830     4.3350
  817.0000   149.1050   -17.0920     4.5610     4.6120
  817.5000   151.8770   -16.9030     4.6490     4.8900
  818.0000   150.1550   -16.7130     4.8060     5.1670
  818.5000   146.4850   -16.5230     5.0390     5.4450
  819.0000   145.2510   -16.3330     5.2880     5.7220
  819.5000   143.4890   -16.1440     5.6780     6.0180
  820.0000   141.1940   -15.9540     6.0980     6.2280
  820.5000   141.5170   -15.7640     6.5400     6.4530
  821.0000   144.5690   -15.5740     6.7500     6.6780
  821.5000   145.9130   -15.3850     6.8900     6.9130
  822.0000   144.2490   -15.1950     6.9630     6.9370
  822.5000   140.7730   -15.0050     7.0370     6.9620
  823.0000   137.6060   -14.8150     7.1100     6.9860
  823.5000   137.6540   -14.6260     7.1830     7.0110
  824.0000   139.7440   -14.4360     7.2570     7.0420
  824.5000   142.5010   -14.2460     7.3740     7.0280
  825.0000   145.0930   -14.0560     7.3640     7.0100
  825.5000   146.5880   -13.8660     7.3380     6.9930
  826.0000   147.0610   -13.6770     7.3120     6.9750
  826.5000   144.1130   -13.4870     7.2860     6.9580
  827.0000   141.6420   -13.2970     7.2600     6.9400
  827.5000   140.0070   -13.1070     7.2390     6.9230
  828.0000   138.3690   -12.9180     7.4040     6.9130
  828.5000   137.1330   -12.7280     7.5640     7.2710
  829.0000   138.5750   -12.5380     7.6700     7.4610
  829.5000   140.0040   -12.3480     7.7100     7.6560
  830.0000   138.0110   -12.1590     7.7500     7.7950
  830.5000   130.6960   -11.9690     7.7890     7.7950
  831.0000   125.9270   -11.7790     7.2800     7.3850
  831.5000   125.0900   -11.5890     6.6180     6.6060
  832.0000   125.7650   -11.4000     5.9550     5.8040
  832.5000   127.6380   -11.2100     5.2930     5.0020
  833.0000   133.6950   -11.0200     4.9110     4.2760
  833.5000   144.2690   -10.8300     4.8980     4.1590
  834.0000   153.8220   -10.6400     4.8830     4.6610
  834.5000   155.9870   -10.4510     4.8660     5.2170
  835.0000   144.0510   -10.2610     4.8660     5.7730
  835.5000   133.4880   -10.0710     5.2120     6.3290
  836.0000   128.9720    -9.8810     5.8270     6.8850
  836.5000   129.7680    -9.6920     6.7040     7.4410
  837.0000   129.4550    -9.5020     7.5910     7.9970
  837.5000   130.5880    -9.3120     8.4860     8.5100
  838.0000   132.7470    -9.1220     8.7990     8.7090
  838.5000   134.3040    -8.9330     8.8710     8.6390
  839.0000   131.7820    -8.7430     8.7840     8.5140
  839.5000   128.0950    -8.5530     8.6940     8.3900
  840.0000   127.7430    -8.3630     8.6050     8.2650
  840.5000   127.9350    -8.1740     8.5490     8.1630
  841.0000   126.6380    -7.9840     8.8130     8.2800
  841.5000   126.3950    -7.7940     9.0360     8.3990
  842.0000   130.9460    -7.6040     9.4150     8.7380
  842.5000   135.1080    -7.4150    10.0110     9.6720
  843.0000   133.3460    -7.2250    10.9200    10.6050
  843.5000   122.2620    -7.0350    11.8300    11.5390
  844.0000   108.7970    -6.8450    12.7400    12.4260
  844.5000    90.2660    -6.6550    13.4720    13.3040
  845.0000    81.4470    -6.4660    14.2210    14.1820
  845.5000    74.4310    -6.2760    15.3610    15.0200
  846.0000    73.9960    -6.0860    16.5000    15.4690
  846.5000    77.7930    -5.8960    17.5740    15.8990
  847.0000    79.6540    -5.7070    18.0200    16.3290
  847.5000    79.9110    -5.5170    18.4420    16.7580
  848.0000    79.0840    -5.3270    18.7480    17.1880
  848.5000    75.9910    -5.1370    18.7480    17.4120
  849.0000    71.9510    -4.9480    18.3720    17.1770
  849.5000    69.8540    -4.7580    17.9520    16.9360
  850.0000    73.0550    -4.5680    17.5740    16.1900
  850.5000    78.5830    -4.3780    16.4610    15.5080
  851.0000    84.1470    -4.1890    15.9330    14.8260
  851.5000    89.8600    -3.9990    15.4050    14.1430
  852.0000    92.2160    -3.8090    14.8770    13.6430
  852.5000    92.8860    -3.6190    14.3490    13.3050
  853.0000    93.4790    -3.4290    13.8210    12.9670
  853.5000    95.4090    -3.2400    13.2930    12.6290
  854.0000    94.0340    -3.0500    12.9560    12.1450
  854.5000    90.3180    -2.8600    13.0130    12.4100
  855.0000    87.1540    -2.6700    13.2030    12.8250
  855.5000    87.6990    -2.4810    13.5380    13.2400
  856.0000    89.3860    -2.2910    13.8740    13.8210
  856.5000    90.8760    -2.1010    14.2100    13.7520
  857.0000    90.0470    -1.9110    14.5410    13.5680
  857.5000    87.9860    -1.7220    14.8540    13.6970
  858.0000    87.9440    -1.5320    15.1590    14.0050
  858.5000    87.8350    -1.3420    15.4210    14.3140
  859.0000    86.9750    -1.1520    15.6760    14.6090
  859.5000    85.4190    -0.9630    15.9320    14.6770
  860.0000    86.0370    -0.7730    16.1720    14.7580
  860.5000    86.9340    -0.5830    15.9380    14.8810
  861.0000    87.0080    -0.3930    15.6660    14.6620
  861.5000    84.2480    -0.2030    15.3950    14.3620
  862.0000    81.4730    -0.0140    15.1240    14.0620
  862.5000    80.9590     0.1760    14.8520    13.7610
  863.0000    84.3550     0.3660    14.5810    13.4610
  863.5000    85.5620     0.5560    14.3090    13.1610
  864.0000    84.5680     0.7450    14.0380    12.7190
  864.5000    84.1540     0.9350    13.7660    12.7380
  865.0000    84.4750     1.1250    13.6800    12.7760
  865.5000    86.6240     1.3150    13.6610    12.8130
  866.0000    91.0410     1.5040    13.6420    12.8510
  866.5000    95.2750     1.6940    13.6220    12.8890
  867.0000    94.9370     1.8840    13.6030    12.9260
  867.5000    94.4400     2.0740    13.5840    12.9640
  868.0000    94.2670     2.2630    13.5680    13.0010
  868.5000    94.6400     2.4530    13.6670    13.0390
  869.0000    94.7580     2.6430    13.7500    13.0760
  869.5000    93.6930     2.8330    13.8330    13.2410
  870.0000    94.3160     3.0230    13.9160    13.4050
  870.5000    95.9370     3.2120    13.9990    13.5690
  871.0000    95.2260     3.4020    14.0790    13.7080
  871.5000    91.6920     3.5920    14.1940    13.7650
  872.0000    89.3710     3.7820    14.3050    13.8220
  872.5000    92.2730     3.9710    14.4150    13.8790
  873.0000    94.8910     4.1610    14.5740    13.9360
  873.5000    94.4720     4.3510    14.7880    13.9930
  874.0000    90.9260     4.5410    15.0020    14.0500
  874.5000    88.4840     4.7300    15.2160    14.3020
  875.0000    91.2970     4.9200    15.4300    14.7600
  875.5000    95.4540     5.1100    15.6440    15.2180
