~VERSION INFORMATION
 VERS.                2.0:   CWLS LOG ASCII STANDARD - VERSION 2.0
 WRAP.                 NO:   ONE LINE PER DEPTH STEP
~WELL INFORMATION
#MNEM.UNIT      DATA TYPE    INFORMATION
#----------   ------------   ------------------------------
 STRT.F          192.0000:   START DEPTH
 STOP.F         3016.0000:   STOP DEPTH
 STEP.F            0.5000:   STEP LENGTH
 NULL.          -999.2500:   NO VALUE
 COMP. FENIX & SCISSON U.S. NAVY:   COMPANY
 WELL.  FENIX "AX" #81-33:   WELL
 FLD .              NPR-3:   FIELD
 LOC .      S33 T39N R78W:   LOCATION
 CNTY.            NATRONA:   COUNTY
 STAT.            WYOMING:   STATE
 CTRY. UNITED STATES OF AMERICA:   COUNTRY
 SRVC.              WELEX:   SERVICE COMPANY
 DATE.        12-MAY-1977:   LOGDATE
 API .     49025109850000:   API NUMBER
~CURVE INFORMATION
#MNEM.UNIT       API CODE    CURVE DESCRIPTION
#----------   ------------   ------------------------------
 DEPT.F                  :   
 SPR .MV     07 010 01 00:   SPONTANEOUS POTENTIAL
 RILM.OHMM   07 120 44 00:   INDUCTION LOG MEDIUM RESISTIVITY
 RILD.OHMM   07 120 46 00:   DEEP INDUCTION RESISTIVITY
 SGRD.OHMM   07 220 05 00:   SHALLOW GUARD LOG RESISTIVITY
 NPHI.DEC    42 890 03 00:   NEUTRON POROSITY SANDSTONE
 GRD .GAPI   45 310 01 00:   GAMMA RAY FROM DENSITY LOG
 CALD.IN     45 280 60 00:   CALIPER FROM DENSITY LOG
 RHOB.G/C3   45 350 01 00:   BULK DENSITY
 DCOR.G/C3   45 356 01 00:   DENSITY CORRECTION
~PARAMETER INFORMATION
#MNEM.UNIT          VALUE    DESCRIPTION
#----------   ------------   ------------------------------
 EKB .F         5114.0000:   Kelly bushing
 EGL .F         5100.0000:   Ground level
 EDF .F         5112.0000:   Drilling floor
 TD  .F         3014.0000:   Total depth
 DATE.        12-MAY-1977:   Date logged
 CLNT.            A2DTECH:   Client Code
 SL  . 660' FEL & 660' FNL:   Surface Location
 PD  .                 GL:   Permanent Datum
 EPD .F              5100:   Elevation Permanent Datum
 LMF .                 KB:   Log Measured From
 DMF .                 KB:   Drilling Measured From
 DD  .F              3000:   Depth driller
 DL  .F              3014:   Depth logger
 BLI .F              3012:   Bottom log interval
 TLI .F              1500:   Top log interval
 CS1 .IN            8.625:   Casing size
 CBD1.      8.625" @ 217':   Casing driller 1
 CBL1.F               209:   Casing logger 1
 BS1 .IN            7.875:   Bit size
 BSD1.F              3000:   Depth drilled with bit1
 DFT .            KCL MUD:   Type fluid in hole
 DFD .                  9:   Density
 DFV .                 33:   Viscosity
 DFPH.                7.5:   pH
 DFL .                7.8:   Fluid loss
 MSS .           FLOWLINE:   Source of sample
 RMS .OHMM           0.69:   Rm
 MST .F                68:   Rm Meas. temp.
 RMF .OHMM           0.66:   Rmf
 MFST.F                68:   Rmf Meas. temp.
 RMC .OHMM           1.27:   Rmc
 MCST.F                68:   Rmc Meas. temp.
 MFSS.                 BK:   Source Rmf.
 MCSS.                 BK:   Source Rmc.
 RMB .OHMM           0.39:   Rm. at BHT
 BHT .F               118:   BHT.
 TCS .HRS               6:   Time Circ. stopped
 MRT .F               118:   Maximum recorded temp.
 LUN .               9685:   Logging unit number
 LUL .           BRIGHTON:   Logging unit location
 ENGI.          T. JOYNER:   Recorded By
 WITN.            K. JAPP:   Witnessed by
 ORIG.           5" PRINT:   Origin of data
 UWI .     49025109850000:   Unique Well ID
 DICO. A2D TECHNOLOGIES, INC.:   Digitizing Company
~OTHER INFORMATION
~A   DEPT      SPR       RILM       RILD       SGRD       NPHI         GRD        CALD       RHOB     DCOR   
# ...
 2418.5000   -21.5530     5.3500     4.4250     6.7890     0.2720   131.8230     8.9160     2.5670     0.0340
 2419.0000   -21.3000     5.2880     4.3690     6.6290     0.2690   131.5600     8.9070     2.5630     0.0420
 2419.5000   -21.0470     5.2710     4.3120     6.4560     0.2660   131.2680     8.8920     2.5590     0.0340
 2420.0000   -20.7960     5.2500     4.2550     6.2520     0.2660   130.0910     8.8770     2.5550     0.0480
 2420.5000   -20.5450     5.3360     4.2110     6.5840     0.2630   128.5770     8.8620     2.5570     0.0470
 2421.0000   -20.2800     5.3970     4.2910     6.9810     0.2580   126.1920     8.8460     2.5600     0.0460
 2421.5000   -19.6340     5.4420     4.3570     7.2170     0.2540   123.8830     8.8310     2.5630     0.0500
 2422.0000   -18.9260     5.5480     4.4480     7.4450     0.2490   121.5780     8.8160     2.5640     0.0570
 2422.5000   -18.0470     5.8540     4.6310     7.9480     0.2410   119.2690     8.8010     2.5640     0.0670
 2423.0000   -17.1630     6.4380     4.9200     8.6660     0.2360   116.9600     8.7860     2.5640     0.0780
 2423.5000   -16.2790     7.3010     5.3860    10.1680     0.2300   114.6520     8.7710     2.5630     0.0780
 2424.0000   -15.3950     8.5340     5.9210    13.4710     0.2240   112.3430     8.7560     2.5560     0.0750
 2424.5000   -14.5100     9.7680     6.9250    18.6680     0.2180   110.0330     8.7400     2.5490     0.0720
 2425.0000   -13.6320    10.9560     8.0420    21.6360     0.2140   107.7240     8.7280     2.5410     0.0690
 2425.5000   -12.9030    11.9650     9.1600    22.5590     0.2090   105.4270     8.7170     2.5340     0.0670
 2426.0000   -12.1810    13.0440    10.2770    22.6420     0.2100   103.6920     8.7050     2.5270     0.0680
 2426.5000   -11.4580    12.8700    11.3360    22.4890     0.2120   103.5060     8.6930     2.5150     0.0710
 2427.0000   -10.7370    12.6520    12.2590    21.1740     0.2170   103.7790     8.6820     2.5020     0.0740
 2427.5000   -10.1770    12.4330    13.2860    18.8280     0.2230   104.5700     8.6700     2.4890     0.0760
 2428.0000    -9.8880    12.0870    13.1430    16.4830     0.2320   105.6570     8.6580     2.4750     0.0710
 2428.5000    -9.7190    11.4690    12.8360    14.1370     0.2410   107.0750     8.6470     2.4620     0.0660
 2429.0000    -9.7610    11.6610    12.3010    12.5910     0.2490   108.4920     8.6350     2.4560     0.0660
 2429.5000    -9.7990    11.3900    11.6370    11.7750     0.2550   109.9090     8.6230     2.4530     0.0570
 2430.0000    -9.8390    10.6290    10.9740    11.6990     0.2560   111.3270     8.6230     2.4520     0.0490
 2430.5000    -9.8780    10.2230    10.3100    11.5840     0.2560   112.7390     8.6270     2.4510     0.0430
 2431.0000    -9.9800     9.9180     9.6310    11.6430     0.2560   114.1470     8.6310     2.4530     0.0430
 2431.5000   -10.1910     9.5430     9.4420    11.8240     0.2550   115.0130     8.6350     2.4550     0.0460
 2432.0000   -10.4000    10.2740     9.2490    12.0050     0.2510   115.1920     8.6400     2.4600     0.0530
 2432.5000   -10.6100    11.2190     9.0560    12.1610     0.2520   115.3740     8.6440     2.4670     0.0600
 2433.0000   -10.8200    12.5730     8.8620    12.2730     0.2540   115.5520     8.6480     2.4740     0.0590
 2433.5000   -11.0290    11.7040     8.6690    12.4430     0.2500   115.7290     8.6530     2.4790     0.0550
 2434.0000   -11.2390    10.1720     8.4760    12.3360     0.2470   115.9060     8.6570     2.4840     0.0580
 2434.5000   -11.4500     9.7750     8.3020    12.0030     0.2510   116.0830     8.6640     2.4900     0.0650
 2435.0000   -11.6620     9.7310     8.2320    11.7250     0.2530   116.2600     8.6770     2.4950     0.0630
 2435.5000   -11.7780     9.7200     8.1630    11.5750     0.2530   116.4350     8.6890     2.5000     0.0650
 2436.0000   -11.8920     9.9920     8.0930    11.8660     0.2540   116.6120     8.7010     2.5050     0.0710
 2436.5000   -12.0080     9.0310     8.0230    12.1180     0.2520   116.8230     8.7130     2.5100     0.0710
 2437.0000   -12.0780     9.1980     7.9530    12.3440     0.2520   117.5920     8.7250     2.5120     0.0750
 2437.5000   -12.1130     8.8660     7.8830    11.7930     0.2500   118.2040     8.7380     2.5120     0.0730
 2438.0000   -12.1480     9.0310     7.7960    10.9540     0.2460   118.6530     8.7500     2.5060     0.0680
 2438.5000   -12.1830     8.8660     7.8370    11.0460     0.2480   119.1040     8.7620     2.4970     0.0640
 2439.0000   -12.2180     9.0080     7.8930    11.2750     0.2490   119.5620     8.7740     2.4880     0.0590
 2439.5000   -12.2560     9.2830     7.9500    11.6180     0.2560   120.0200     8.7860     2.4800     0.0580
 2440.0000   -12.3810     9.9000     8.0060    12.1190     0.2520   120.4780     8.7980     2.4710     0.0580
 2440.5000   -12.5160     9.6310     8.0880    12.0380     0.2540   120.9360     8.7920     2.4630     0.0570
 2441.0000   -12.6500     9.6840     8.0710    11.8890     0.2530   121.3940     8.7840     2.4610     0.0560
 2441.5000   -12.7840     9.7830     8.0400    11.7890     0.2550   121.8520     8.7770     2.4620     0.0540
 2442.0000   -12.9190     9.9320     8.0100    12.0730     0.2520   122.3100     8.7700     2.4660     0.0560
 2442.5000   -13.0530    10.1770     7.9790    12.4020     0.2540   122.7670     8.7630     2.4730     0.0580
 2443.0000   -13.1870     9.9270     7.9490    12.6490     0.2500   123.2250     8.7550     2.4810     0.0600
 2443.5000   -13.3210     9.4560     7.8670    11.9700     0.2490   123.6830     8.7480     2.4890     0.0630
 2444.0000   -13.4560     8.9480     7.7660    11.1570     0.2470   124.1400     8.7400     2.4960     0.0630
 2444.5000   -13.5920     9.0760     7.6650    11.2030     0.2490   124.5990     8.7570     2.5040     0.0600
 2445.0000   -13.6860     9.1830     7.5640    11.2680     0.2540   124.9910     8.7810     2.5110     0.0580
 2445.5000   -13.7680     9.0540     7.4630    11.3640     0.2490   125.2810     8.8050     2.5190     0.0620
 2446.0000   -13.8490     8.9250     7.3620    11.2860     0.2500   125.5650     8.8300     2.5240     0.0670
 2446.5000   -13.9320     8.7850     7.2610    11.1360     0.2520   125.8480     8.8540     2.5280     0.0710
 2447.0000   -14.0150     8.8590     7.1110    10.9870     0.2520   126.0230     8.8780     2.5310     0.0710
 2447.5000   -13.9830     8.9480     7.1230    10.8710     0.2510   125.4630     8.9020     2.5330     0.0690
 2448.0000   -13.9410     8.6410     7.1480    11.0350     0.2480   124.8830     8.9260     2.5340     0.0660
 2448.5000   -13.8990     8.7850     7.1720    11.1990     0.2460   124.1330     8.9210     2.5310     0.0700
 2449.0000   -13.8580     8.9300     7.1970    11.3620     0.2460   122.8080     8.8880     2.5280     0.0730
 2449.5000   -13.8160     9.0310     7.2210    11.5750     0.2460   121.5190     8.8550     2.5330     0.0760
 2450.0000   -13.7750     8.8660     7.2430    11.4690     0.2480   120.2410     8.8230     2.5380     0.1010
 2450.5000   -13.7330     9.0950     7.3500    11.6730     0.2400   119.3020     8.7900     2.5410     0.0890
 2451.0000   -13.6920     9.3460     7.4470    11.9660     0.2440   119.3240     8.7570     2.5360     0.0970
 2451.5000   -13.6500     9.6390     7.5440    12.2580     0.2420   119.3250     8.7240     2.5300     0.0810
 2452.0000   -13.6090     9.8870     7.6410    12.4450     0.2390   119.3200     8.6910     2.5280     0.0800
 2452.5000   -13.5670     9.7680     7.7380    12.5530     0.2430   119.2210     8.6580     2.5290     0.0830
 2453.0000   -13.5260     9.6490     7.8350    12.3110     0.2460   118.7740     8.6250     2.5300     0.0860
 2453.5000   -13.4850     9.5590     7.9400    12.0750     0.2430   118.3350     8.5920     2.5300     0.0810
 2454.0000   -13.4400     9.7940     8.1050    12.0080     0.2390   117.9000     8.5920     2.5260     0.0750
 2454.5000   -13.5250    10.0200     8.2850    12.1680     0.2430   117.2480     8.6120     2.5210     0.0700
