~VERSION INFORMATION
 VERS.                2.0:   CWLS LOG ASCII STANDARD - VERSION 2.0
 WRAP.                 NO:   ONE LINE PER DEPTH STEP
~WELL INFORMATION
#MNEM.UNIT      DATA TYPE    INFORMATION
#----------   ------------   ------------------------------
 STRT.F          444.0000:   START DEPTH
 STOP.F         3018.0000:   STOP DEPTH
 STEP.F            0.5000:   STEP LENGTH
 NULL.          -999.2500:   NO VALUE
 COMP.    FENIX & SCISSON:   COMPANY
 WELL.  FENIX "AX" #25-28:   WELL
 FLD .             TEAPOT:   FIELD
 LOC .      S28 T39N R78W:   LOCATION
 CNTY.            NATRONA:   COUNTY
 STAT.            WYOMING:   STATE
 CTRY. UNITED STATES OF AMERICA:   COUNTRY
 SRVC.              WELEX:   SERVICE COMPANY
 DATE.        01-DEC-1979:   LOGDATE
 API .     49025107940000:   API NUMBER
~CURVE INFORMATION
#MNEM.UNIT       API CODE    CURVE DESCRIPTION
#----------   ------------   ------------------------------
 DEPT.F                  :   
 SPR .MV     07 010 01 00:   SPONTANEOUS POTENTIAL
 RILM.OHMM   07 120 44 00:   INDUCTION LOG MEDIUM RESISTIVITY
 RILD.OHMM   07 120 46 00:   DEEP INDUCTION RESISTIVITY
 SGRD.OHMM   07 220 05 00:   SHALLOW GUARD LOG RESISTIVITY
 TENR.LBS    07 635 01 00:   TENSION FROM RESISTIVITY
 NPHI.DEC    42 890 03 00:   NEUTRON POROSITY SANDSTONE
 GRD .GAPI   45 310 01 00:   GAMMA RAY FROM DENSITY LOG
 CALD.IN     45 280 60 00:   CALIPER FROM DENSITY LOG
 RHOB.G/C3   45 350 01 00:   BULK DENSITY
 DCOR.G/C3   45 356 01 00:   DENSITY CORRECTION
 TEND.LBS    45 635 01 00:   TENSION FROM DENSITY LOG
~PARAMETER INFORMATION
#MNEM.UNIT          VALUE    DESCRIPTION
#----------   ------------   ------------------------------
 EKB .F         5092.0000:   Kelly bushing
 EGL .F         5082.0000:   Ground level
 EDF .F            0.0000:   Drilling floor
 TD  .F         3013.5000:   Total depth
 DATE.        01-DEC-1979:   Date logged
 CLNT.            A2DTECH:   Client Code
 SL  . 2267' FSL & 1070' FWL:   Surface Location
 PD  .                 GL:   Permanent Datum
 EPD .F              5082:   Elevation Permanent Datum
 LMF .                 KB:   Log Measured From
 DMF .                 KB:   Drilling Measured From
 DAPD.F                10:   Feet Above Permanent Datum
 DD  .F              3000:   Depth driller
 DL  .F            3013.5:   Depth logger
 BLI .F              3013:   Bottom log interval
 TLI .F               350:   Top log interval
 CS1 .IN            8.625:   Casing size
 CBD1.      8.625" @ 465':   Casing driller 1
 CBL1.F               462:   Casing logger 1
 BS1 .IN            7.875:   Bit size
 BSD1.F              3000:   Depth drilled with bit1
 DFT .           CHEM GEL:   Type fluid in hole
 DFD .                8.8:   Density
 DFV .                 55:   Viscosity
 DFPH.                  9:   pH
 DFL .                6.4:   Fluid loss
 MSS .           FLOWLINE:   Source of sample
 RMS .OHMM           1.53:   Rm
 MST .F                75:   Rm Meas. temp.
 RMF .OHMM           1.24:   Rmf
 MFST.F                75:   Rmf Meas. temp.
 RMC .OHMM           1.83:   Rmc
 MCST.F                75:   Rmc Meas. temp.
 MFSS.               MEAS:   Source Rmf.
 MCSS.               MEAS:   Source Rmc.
 RMB .OHMM           1.09:   Rm. at BHT
 BHT .F               105:   BHT.
 TCS .HRS             2.5:   Time Circ. stopped
 MRT .F               105:   Maximum recorded temp.
 LUN .                965:   Logging unit number
 LUL .             CASPER:   Logging unit location
 ENGI.            BENTSEN:   Recorded By
 WITN.           P. AMEND:   Witnessed by
 ORIG.           5" PRINT:   Origin of data
 UWI .     49025107940000:   Unique Well ID
 DICO. A2D TECHNOLOGIES, INC.:   Digitizing Company
~OTHER INFORMATION
~A   DEPT      SPR       RILM       RILD       SGRD       TENR       NPHI         GRD      CALD       RHOB       DCOR       TEND   
# ...
  627.0000   -57.5610     8.7870     8.2730     9.3520   631.5810     0.2680    68.5020     9.3360     2.4640     0.0200  1018.8990
  627.5000   -57.5620     8.6910     8.1890     9.2060   632.6230     0.2710    67.6130     9.3440     2.4690     0.0250  1017.5630
  628.0000   -57.3990     8.5960     8.1050     9.0600   633.6650     0.2700    69.7120     9.3540     2.4740     0.0280  1016.7110
  628.5000   -57.2060     8.5000     8.0210     8.9390   634.7070     0.2680    70.0090     9.3710     2.4710     0.0260  1015.8580
  629.0000   -57.2310     8.4050     7.9380     8.8370   635.7490     0.2680    70.4860     9.3880     2.4660     0.0210  1015.0060
  629.5000   -57.3310     8.3090     7.8540     8.7350   636.7910     0.2700    72.0100     9.4040     2.4510     0.0130  1014.1540
  630.0000   -57.4330     8.2130     7.7700     8.6320   637.8330     0.2700    71.6790     9.4210     2.4320    -0.0040  1013.3010
  630.5000   -57.5360     8.1180     7.6860     8.5300   638.8750     0.2730    68.5590     9.4270     2.4200    -0.0140  1012.4490
  631.0000   -57.6380     7.9700     7.6060     8.4270   639.9170     0.2700    72.3870     9.4220     2.4150    -0.0130  1011.5960
  631.5000   -57.7420     7.9730     7.6210     8.3510   640.9590     0.2660    72.6640     9.4180     2.5590     0.0750  1010.7440
  632.0000   -57.7420     7.9790     7.6360     8.3600   642.0010     0.2660    71.6430     9.4130     2.5670     0.0830  1009.8920
  632.5000   -57.7170     7.9860     7.6510     8.3670   643.0430     0.2670    73.6210     9.4090     2.5580     0.0790  1009.0390
  633.0000   -57.6910     7.9920     7.6660     8.3750   644.0850     0.2710    74.4240     9.4040     2.5320     0.0580  1008.1870
  633.5000   -57.6650     7.9990     7.6810     8.3820   645.1270     0.2770    74.1060     9.4000     2.5130     0.0470  1007.3350
  634.0000   -57.6400     8.0060     7.6950     8.3890   646.1690     0.2790    75.3700     9.3950     2.5020     0.0400  1006.4820
  634.5000   -57.6140     8.0120     7.7100     8.3970   647.2110     0.2840    72.1720     9.3900     2.5190     0.0490  1005.6300
  635.0000   -57.5890     8.0190     7.7250     8.4040   648.2530     0.2890    73.0790     9.3970     2.5370     0.0580  1004.7770
  635.5000   -57.5620     8.0260     7.7400     8.4110   649.2950     0.2880    70.2790     9.4090     2.5500     0.0670  1003.9250
  636.0000   -57.4080     8.0320     7.7490     8.4190   650.3370     0.2880    72.9260     9.4190     2.5540     0.0740  1003.0730
  636.5000   -57.2380     8.0390     7.5830     8.4290   651.3790     0.2910    74.7360     9.4290     2.5700     0.0820  1002.2200
  637.0000   -57.0670     8.0440     7.4400     8.3480   652.4210     0.2940    74.8450     9.4400     2.5630     0.0850  1001.3680
  637.5000   -56.8970     7.8380     7.2970     8.2080   653.4630     0.2940    75.2920     9.4500     2.5530     0.0830  1000.5160
  638.0000   -56.6750     7.6640     7.1540     8.0680   654.5050     0.2930    75.7820     9.4610     2.5330     0.0750   999.6630
  638.5000   -56.2120     7.4890     7.0110     7.9280   655.5470     0.2950    74.3800     9.4830     2.5160     0.0660   998.8110
  639.0000   -55.7610     7.3150     6.8680     7.7880   656.5890     0.2960    73.5990     9.5380     2.5010     0.0570   998.0240
  639.5000   -55.7910     7.1410     6.7250     7.6480   657.6310     0.2970    75.1670     9.5910     2.4670     0.0480  1005.0590
  640.0000   -55.8420     6.9670     6.5820     7.5080   658.6730     0.2970    76.5090     9.6530     2.4530     0.0430  1011.5940
  640.5000   -55.8920     6.7930     6.4390     7.3670   659.2290     0.2980    75.4410     9.7220     2.4730     0.0530  1018.1290
  641.0000   -55.9450     6.6700     6.2960     7.2270   659.2290     0.3050    76.8170     9.7440     2.4570     0.0550  1024.6639
  641.5000   -55.8230     6.5710     6.2180     7.0870   659.2290     0.3070    73.6190     9.7630     2.4410     0.0500  1031.1990
  642.0000   -55.6780     6.4730     6.1700     6.9470   659.2290     0.3080    73.3830     9.7840     2.4240     0.0510  1037.7340
  642.5000   -55.5320     6.3740     6.1210     6.8070   659.2290     0.3070    72.8240     9.8460     2.4320     0.0630  1044.2690
  643.0000   -55.3800     6.2760     6.0730     6.6670   659.2290     0.3080    73.0260     9.9130     2.4250     0.0760  1050.8040
  643.5000   -55.4020     6.1770     6.0220     6.5270   659.2290     0.3100    71.7390     9.9810     2.4110     0.0760  1057.3390
  644.0000   -55.4820     6.0790     5.9400     6.3870   659.2290     0.3090    70.7550    10.0420     2.3970     0.0780  1063.8740
  644.5000   -55.5640     5.9810     5.7900     6.2470   659.2290     0.3090    69.7780    10.0550     2.3810     0.0890  1070.4080
  645.0000   -55.6460     5.8820     5.6410     6.1070   659.2290     0.3040    70.0270    10.0890     2.3660     0.1000  1077.0750
  645.5000   -55.7220     5.7840     5.4920     5.9670   659.2290     0.3000    70.5600    10.1430     2.3590     0.1230  1072.2610
  646.0000   -55.9640     5.6850     5.2930     5.8270   659.2290     0.2970    72.0650    10.2400     2.3520     0.1460  1067.3480
  646.5000   -56.2410     5.5880     5.3360     5.8930   659.2290     0.2910    71.1420    10.3000     2.3420     0.1390  1062.4351
  647.0000   -56.4890     5.6620     5.4210     5.9470   659.2290     0.2870    74.7830    10.3050     2.3370     0.1130  1057.5220
  647.5000   -56.7210     5.7350     5.5070     6.0330   659.2290     0.2920    75.5540    10.3100     2.3600     0.0870  1052.6080
  648.0000   -56.6510     5.8080     5.5920     6.1200   659.2290     0.2900    75.9740    10.3140     2.4060     0.0750  1047.6949
  648.5000   -56.5300     5.8810     5.6770     6.2060   659.2290     0.2890    75.6700    10.3180     2.4580     0.0820  1042.7820
  649.0000   -56.4070     5.9530     5.7630     6.2920   659.2290     0.2910    76.2980    10.3200     2.4720     0.0790  1037.8690
  649.5000   -56.2830     6.0260     5.8480     6.3790   659.2290     0.2930    77.5760    10.3540     2.4630     0.0670  1032.9561
  650.0000   -56.1540     6.0990     5.9340     6.4650   659.2290     0.2920    78.2360    10.3740     2.4610     0.0610  1028.0430
  650.5000   -56.0830     6.1720     6.0190     6.5520   659.2290     0.2900    76.6000    10.2950     2.4610     0.0680  1023.1290
  651.0000   -56.0120     6.2510     6.1350     6.6110   659.2290     0.2940    74.4700    10.2180     2.4640     0.0780  1017.7870
  651.5000   -55.9400     6.2690     6.1270     6.5980   659.2290     0.2930    73.9430    10.1840     2.4660     0.0890  1023.4560
  652.0000   -55.8680     6.2880     6.1190     6.5890   659.2290     0.2930    71.1580    10.1920     2.4660     0.0880  1029.6689
  652.5000   -55.7960     6.3070     6.1110     6.5790   659.2290     0.2930    74.6640    10.1990     2.4710     0.0950  1035.8820
  653.0000   -55.7240     6.3260     6.1030     6.5690   659.2290     0.2950    74.5100    10.1610     2.4760     0.0940  1042.0950
  653.5000   -55.6510     6.3460     6.0950     6.5590   659.2290     0.2970    74.9170    10.1180     2.4840     0.1010  1048.3080
  654.0000   -55.5790     6.3650     6.0870     6.5510   659.2290     0.2980    76.7070    10.0820     2.4920     0.1090  1054.5210
  654.5000   -55.4860     6.3840     6.0780     6.5940   659.2290     0.2990    77.4960    10.1180     2.4910     0.1070  1060.7340
  655.0000   -55.3740     6.4030     6.1040     6.6330   659.2290     0.2990    77.6410    10.1580     2.4850     0.0960  1066.9470
  655.5000   -55.2620     6.4220     6.1320     6.6730   659.2290     0.2960    79.0590    10.1300     2.4770     0.0890  1073.1600
  656.0000   -55.1490     6.4420     6.1590     6.7120   659.2290     0.2950    80.5120    10.0550     2.4680     0.0820  1074.3010
  656.5000   -55.0370     6.4610     6.1870     6.7510   659.2290     0.2930    79.7280    10.0220     2.4680     0.0810  1066.7980
  657.0000   -54.9680     6.4800     6.2140     6.7900   658.8890     0.2890    79.5200    10.0220     2.4710     0.0780  1059.2960
