~VERSION INFORMATION
 VERS.                2.0:   CWLS LOG ASCII STANDARD - VERSION 2.0
 WRAP.                 NO:   ONE LINE PER DEPTH STEP
~WELL INFORMATION
#MNEM.UNIT      DATA TYPE    INFORMATION
#----------   ------------   ------------------------------
 STRT.F           58.0000:   START DEPTH
 STOP.F         5662.0000:   STOP DEPTH
 STEP.F            0.5000:   STEP LENGTH
 NULL.          -999.2500:   NO VALUE
 COMP. DEPARTMENT OF ENERGY:   COMPANY
 WELL. DEPARTMENT NPR 3 67 "X" #1-10:   WELL
 FLD .              NPR 3:   FIELD
 LOC .      S10 T38N R78W:   LOCATION
 CNTY.            NATRONA:   COUNTY
 STAT.            WYOMING:   STATE
 CTRY. UNITED STATES OF AMERICA:   COUNTRY
 SRVC.       SCHLUMBERGER:   SERVICE COMPANY
 DATE.        05-FEB-2002:   LOGDATE
 API .     49025230400000:   API NUMBER
~CURVE INFORMATION
#MNEM.UNIT       API CODE    CURVE DESCRIPTION
#----------   ------------   ------------------------------
 DEPT.F                  :   
 TEND.LBS    45 635 01 00:   TENSION FROM DENSITY LOG
 PEFZ.B/E    45 358 01 00:   HILT PHOTOELECTRIC FACTOR
 HDRA.G/C3   45 356 01 00:   DELTA RHO HIP TOOL
 NPHI.DEC    42 890 03 00:   NEUTRON POROSITY SANDSTONE
 TENS.LBS    60 635 01 00:   TENSION
 DT  .US/F   60 520 00 00:   DELTA TIME
 TENR.LBS    07 635 01 00:   TENSION FROM RESISTIVITY
 CALR.IN     07 280 01 00:   CALIPER FROM RESISTIVITY
 GRR .GAPI   07 310 01 00:   GAMMA RAY FROM RESISTIVITY
 RXOZ.OHMM   11 270 04 00:   STD. RES. INVADED ZONE RESISTIVITY
 HLLD.OHMM   11 220 10 00:   LATEROLOG DEEP RES.
 HLLS.OHMM   11 220 09 00:   LATEROLOG SHALLOW RES.
 HRLD.OHMM   11 120 46 00:   HIGH RESOULATION DEEP RESISTIVITY
 RHOZ.G/C3   45 350 01 00:   HILT BULK DENSITY
~PARAMETER INFORMATION
#MNEM.UNIT          VALUE    DESCRIPTION
#----------   ------------   ------------------------------
 EKB .F         5205.7000:   Kelly bushing
 EGL .F         5195.7000:   Ground level
 EDF .F            0.0000:   Drilling floor
 EPD .F         5195.7000:   Permanent datum
 TD  .F         5654.0000:   Total depth
 DATE.        05-FEB-2002:   Date logged
 CLNT.            A2DTECH:   Client Code
 SL  . 1503' FEL & 721' FSL:   Surface Location
 PD  .                 GL:   Permanent Datum
 DAPD.F                10:   Feet Above Permanent Datum
 DD  .F              5650:   Depth driller
 DL  .F              5654:   Depth logger
 BLI .F              5646:   Bottom log interval
 TLI .F               499:   Top log interval
 CS1 .IN            9.625:   Casing size
 CBD1.      9.625" @ 505':   Casing driller 1
 CBL1.F               499:   Casing logger 1
 BS1 .IN            8.875:   Bit size
 BSD1.F              5650:   Depth drilled with bit1
 DFT .           GEL/CHEM:   Type fluid in hole
 DFD .                9.2:   Density
 DFV .                 52:   Viscosity
 DFPH.                8.5:   pH
 DFL .                6.8:   Fluid loss
 MSS .           FLOWLINE:   Source of sample
 RMS .OHMM           .954:   Rm
 MST .F                57:   Rm Meas. temp.
 RMF .OHMM           .734:   Rmf
 MFST.F                57:   Rmf Meas. temp.
 MFSS.              PRESS:   Source Rmf.
 RMB .OHMM           .403:   Rm. at BHT
 BHT .F               143:   BHT.
 TLAB.HRS            1208:   Time logger at bottom
 MRT .F               143:   Maximum recorded temp.
 LUN .               2211:   Logging unit number
 LUL .             CASPER:   Logging unit location
 ENGI.           R. SROUR:   Recorded By
 WITN.        M. MILLIKEN:   Witnessed by
 ORIG.           5" PRINT:   Origin of data
 UWI .     49025230400000:   Unique Well ID
 DICO. A2D TECHNOLOGIES, INC.:   Digitizing Company
 RMC .               1.24:   Rmc
 MCST.                 57:   Rmc Meas. temp.
 MCSS.              PRESS:   Source Rmc.
 TCS .                200:   Time Circ. stopped
~OTHER INFORMATION
~A   DEPT     TEND       PEFZ       HDRA       NPHI       TENS         DT       TENR       CALR         GRR      RXOZ       HLLD       HLLS       HRLD       RHOZ   
# ...
  842.0000  1163.8010     2.8970    -0.0020     0.2960   641.5540    87.3490  1241.3110    11.0790    84.3210     7.0850     9.3480     8.7010     8.9430     2.5050
  842.5000  1164.0000     2.8610     0.0010     0.2990   643.6270    87.5500  1241.3110    11.0870    84.6740     6.4930     9.3610     8.5040     8.7630     2.5060
  843.0000  1164.1790     2.8360     0.0040     0.2920   645.7000    87.7510  1241.3110    11.0940    87.1700     6.4660     8.7810     8.2360     8.5430     2.5060
  843.5000  1162.8621     2.8490     0.0070     0.2820   647.7740    87.9580  1241.3110    11.0980    90.0300     6.4340     9.1490     8.3780     8.7250     2.5080
  844.0000  1161.6639     2.9000     0.0050     0.2880   649.8470    88.1900  1241.3110    11.0810    91.8790     6.9560     9.6220     8.6630     8.9260     2.5160
  844.5000  1160.4659     2.9500     0.0010     0.2910   651.9200    88.4230  1241.3110    11.0670    92.0000     7.2880     9.1920     8.8610     9.1080     2.5160
  845.0000  1159.2679     2.9720    -0.0020     0.2780   653.9930    88.6550  1241.3110    11.0530    90.6040     7.4480     9.2960     8.8060     8.9950     2.5170
  845.5000  1158.0710     2.9680    -0.0040     0.2840   656.0670    88.7920  1241.3110    11.0420    88.7700     7.2340     9.4470     8.7020     8.8610     2.5210
  846.0000  1156.8730     2.9630    -0.0020     0.2960   658.1400    88.9050  1241.3110    11.0600    87.1610     7.1150     9.2760     8.4650     8.9630     2.5300
  846.5000  1155.6750     2.9580     0.0000     0.3040   660.2130    88.9050  1241.3110    11.0770    88.6530     7.1150     9.2950     8.4980     9.0040     2.5370
  847.0000  1154.4771     2.9530     0.0020     0.3000   662.2860    88.7400  1241.3110    11.0950    90.9980     7.1400     9.3340     8.5630     9.0250     2.5270
  847.5000  1153.2800     2.9480     0.0010     0.2980   664.3600    88.5210  1241.3110    11.1120    93.3200     7.1800     9.3610     8.6220     8.8660     2.5150
  848.0000  1152.0820     2.9440     0.0010     0.2930   666.4330    88.3010  1241.3110    11.1300    94.7730     7.0350     8.8610     8.4670     8.7010     2.5120
  848.5000  1150.8840     2.9390    -0.0010     0.2890   668.5060    88.1220  1241.3110    11.1470    96.2340     6.8910     8.9790     8.2740     8.6220     2.5170
  849.0000  1149.6860     2.9350    -0.0030     0.2870   670.5790    88.2200  1241.3110    11.1650    98.2240     6.8590     9.1920     8.1940     9.1080     2.5220
  849.5000  1148.4890     2.9350    -0.0050     0.2990   672.6530    88.3260  1241.3110    11.1810   101.5040     7.1800     9.1920     8.1610     8.9910     2.5150
  850.0000  1147.2910     2.9350    -0.0070     0.2990   674.7260    88.4920  1241.3110    11.1900   100.7660     7.1150     9.1920     8.0870     8.7560     2.5100
  850.5000  1146.0930     2.9200    -0.0050     0.2970   676.7990    88.6570  1241.3110    11.2010    98.9170     6.7350     9.1920     8.2180     8.5430     2.5080
  851.0000  1144.8960     2.8890    -0.0030     0.2920   678.8720    88.8060  1241.3110    11.2110    98.1030     6.7350     9.1920     8.3880     8.6600     2.5250
  851.5000  1154.9360     2.8600    -0.0010     0.2800   680.9460    88.5380  1240.6200    11.2210    98.3200     6.7060     9.1920     8.2320     8.7810     2.5360
  852.0000  1176.9150     2.8800     0.0030     0.2720   683.0190    87.9650  1239.6130    11.2320    97.2760     6.5190     8.8060     8.0890     8.5370     2.5370
  852.5000  1183.8130     2.9080     0.0070     0.2970   685.0920    87.3920  1238.6050    11.2410    94.9600     6.2930     8.6220     7.9070     8.2610     2.5370
  853.0000  1183.4170     2.9350     0.0100     0.3100   686.5670    87.2630  1237.5980    11.2420    92.6710     6.0580     8.4420     7.6820     7.9850     2.5420
  853.5000  1183.0220     2.9630     0.0110     0.3300   686.5670    87.3130  1236.5909    11.2420    91.6290     6.2080     7.9400     7.3800     7.7250     2.5380
  854.0000  1182.6260     2.9930     0.0100     0.3320   686.5670    87.8220  1235.5840    11.2410    93.3090     6.6740     8.4190     7.6080     7.9940     2.5250
  854.5000  1182.2300     2.9210     0.0100     0.3120   686.5670    88.4080  1234.5760    11.2270    95.0160     6.6490     9.1080     8.0870     8.2360     2.5210
  855.0000  1181.8350     2.8540     0.0100     0.2990   686.5670    88.9450  1233.5690    11.2120    96.1540     6.5950     8.8590     8.1550     8.2760     2.5290
  855.5000  1181.4390     2.8560     0.0100     0.2920   686.5670    89.4420  1232.5620    11.1980    97.0020     6.5530     8.5430     7.9560     8.3140     2.5370
  856.0000  1181.0439     2.8560     0.0100     0.2860   686.5670    89.4640  1231.5551    11.1830    97.8540     6.5800     9.0000     8.0170     8.3510     2.5370
  856.5000  1180.6479     2.8540     0.0100     0.3010   686.5670    89.4200  1230.5470    11.1930    98.0660     6.6740     8.4970     8.1610     8.3880     2.5210
  857.0000  1180.2520     2.9170     0.0150     0.3190   686.5670    89.3760  1229.5400    11.2070    95.6760     6.2350     8.7810     8.1050     8.3880     2.5070
  857.5000  1179.8571     2.9770     0.0230     0.3140   686.5670    89.3330  1228.5330    11.2200    92.8970     5.3580     8.7640     7.9690     8.3880     2.5040
  858.0000  1179.4611     2.9750     0.0270     0.3030   686.5670    89.2890  1227.5260    11.2050    90.1060     5.3100     8.7250     7.8340     8.2740     2.5120
  858.5000  1179.0649     2.9750     0.0240     0.2930   686.5670    89.2450  1226.5179    11.1880    88.9510     6.2430     8.6120     7.7250     8.0870     2.5140
  859.0000  1178.6700     2.9750     0.0070     0.3100   686.5670    89.2040  1225.5110    11.1710    89.6720     6.4470     8.3880     7.8370     8.2260     2.5150
  859.5000  1178.2740     2.9750     0.0060     0.3190   686.5670    89.0120  1224.5040    11.1540    92.1730     6.6740     8.8390     7.9500     8.3610     2.5200
  860.0000  1177.8790     2.9750     0.0060     0.3120   686.5670    88.8310  1223.4969    11.1210    93.5350     6.7300     9.1380     8.0870     8.4650     2.5150
  860.5000  1177.4830     2.9750     0.0150     0.3170   686.5670    89.1790  1222.4900    11.1120    91.3510     6.2600     8.7810     8.0570     8.4040     2.5120
  861.0000  1177.0870     2.9750     0.0220     0.3260   686.5670    89.5050  1221.4500    11.1210    89.6270     6.2600     8.7810     8.0180     8.3520     2.5070
  861.5000  1176.6920     2.9750     0.0160     0.3040   686.5670    89.5170  1228.5260    11.1210    90.9580     5.9260     8.7010     7.9790     8.3010     2.5030
  862.0000  1176.2960     2.9750     0.0100     0.2910   686.5670    89.5280  1235.8380    11.1140    92.7630     5.8180     9.1920     7.9400     8.2360     2.4990
  862.5000  1175.9000     2.9750     0.0050     0.3050   686.5670    89.5390  1243.1500    11.1030    93.5020     6.6560     8.7010     7.9010     8.2700     2.4780
  863.0000  1175.5050     2.9750     0.0110     0.3290   686.5670    89.5510  1250.4620    11.1200    90.9410     6.8590     8.7440     7.8720     8.3140     2.4770
  863.5000  1175.1090     2.9750     0.0170     0.3420   686.5670    89.5620  1257.7729    11.1050    87.5690     6.1460     8.7810     8.0290     8.3590     2.4890
  864.0000  1174.7140     2.9900     0.0230     0.3310   686.5670    89.5730  1258.1750    11.0980    87.1260     6.2330     8.7810     8.1700     8.4370     2.5140
  864.5000  1174.3180     3.0430     0.0170     0.3020   686.5670    89.5840  1249.2010    11.0940    87.4650     6.4340     9.2760     8.3120     8.5820     2.5160
  865.0000  1173.9220     3.0600     0.0180     0.3040   686.5670    89.5960  1241.3110    11.0900    89.3910     6.6740     9.9800     7.9690     8.6750     2.5170
  865.5000  1173.5270     3.0700     0.0180     0.3160   686.5670    89.6750  1241.3110    11.0850    91.5550     5.7650     7.4480     7.3120     7.7250     2.5190
  866.0000  1173.1310     3.0670     0.0160     0.3340   686.5670    89.8400  1241.3110    11.0800    91.9190     5.9800     7.5160     6.8590     7.1150     2.5230
