~VERSION INFORMATION
 VERS.                2.0:   CWLS LOG ASCII STANDARD - VERSION 2.0
 WRAP.                 NO:   ONE LINE PER DEPTH STEP
~WELL INFORMATION
#MNEM.UNIT      DATA TYPE    INFORMATION
#----------   ------------   ------------------------------
 STRT.F           54.0000:   START DEPTH
 STOP.F         5201.0000:   STOP DEPTH
 STEP.F            0.5000:   STEP LENGTH
 NULL.          -999.2500:   NO VALUE
 COMP.   TESORO PETROLEUM:   COMPANY
 WELL. TESORO DX NPR-3 #51-26:   WELL
 FLD .        TEAPOT DOME:   FIELD
 LOC .      S26 T38N R78W:   LOCATION
 CNTY.            NATRONA:   COUNTY
 STAT.            WYOMING:   STATE
 CTRY. UNITED STATES OF AMERICA:   COUNTRY
 SRVC.      DRESSER ATLAS:   SERVICE COMPANY
 DATE.        27-AUG-1976:   LOGDATE
 API .     49025102680000:   API NUMBER
~CURVE INFORMATION
#MNEM.UNIT       API CODE    CURVE DESCRIPTION
#----------   ------------   ------------------------------
 DEPT.F                  :   
 GRD .GAPI   45 310 01 00:   GAMMA RAY FROM DENSITY LOG
 CALD.IN     45 280 60 00:   CALIPER FROM DENSITY LOG
 CORR.G/C3   45 356 01 00:   DENSITY CORRECTION
 RHOB.G/C3   45 350 01 00:   BULK DENSITY
 SPR .MV     07 010 01 00:   SPONTANEOUS POTENTIAL
 ILD .OHMM   07 120 46 00:   DEEP INDUCTION RESISTIVITY
 ILM .OHMM   07 120 44 00:   INDUCTION LOG MEDIUM RESISTIVITY
 RFOC.OHMM   07 220 04 00:   RESISTIVITY FOCUSED LOG RES.
 TEND.LBS    45 635 01 00:   TENSION FORM DENSITY LOG
 NPHI.DEC    42 890 03 00:   NEUTRON POROSITY SANDSTONE
~PARAMETER INFORMATION
#MNEM.UNIT          VALUE    DESCRIPTION
#----------   ------------   ------------------------------
 EKB .F         5453.5000:   Kelly bushing
 EGL .F         5442.0000:   Ground level
 EDF .F         5452.0000:   Drilling floor
 EPD .F            0.0000:   Permanent datum
 TD  .F         5193.0000:   Total depth
 CLNT.            A2DTECH:   Client Code
 SL  . 2000' FEL & 600' FNL:   Surface Location
 PD  .                 GL:   Permanent Datum
 DAPD.F              11.5:   Feet Above Permanent Datum
 DATE.        27-AUG-1976:   Date Logged [DD-MMM-YYYY]
 DD  .F              5193:   Depth driller
 DL  .F              5193:   Depth logger
 BLI .F              5191:   Bottom log interval
 TLI .F              1726:   Top log interval
 CS1 .IN            8.625:   Casing size
 CBD1.     8.625" @ 1724':   Casing driller 1
 CBL1.F              1726:   Casing logger 1
 BS1 .IN            7.875:   Bit size
 BSD1.F              5193:   Depth drilled with bit1
 DFT .           CHEM GEL:   Type fluid in hole
 DFD .                9.2:   Density
 DFV .                 65:   Viscosity
 DFPH.                 10:   pH
 DFL .                5.8:   Fluid loss
 MSS .           FLOWLINE:   Source of sample
 RMS .OHMM           1.70:   Rm
 MST .F                71:   Rm Meas. temp.
 RMF .OHMM              1:   Rmf
 MFST.F                68:   Rmf Meas. temp.
 MFSS.               MEAS:   Source Rmf.
 RMC .OHMM           1.30:   Rmc
 MCST.F                66:   Rmc Meas. temp.
 MCSS.               MEAS:   Source Rmc.
 RMB .OHMM           0.85:   Rm. at BHT
 BHT .F               142:   BHT.
 TCS .HRS               6:   Time Circ. stopped
 MRT .F               142:   Maximum recorded temp.
 LUN .               6145:   Logging unit number
 LUL .              GLTTE:   Logging unit location
 ENGI.        GOULD-HOYER:   Recorded By
 WITN.        WOLF-CARTER:   Witnessed by
 ORIG.           5" PRINT:   Origin of data
 UWI .     49025102680000:   Unique Well ID
 DICO. A2D TECHNOLOGIES, INC.:   Digitizing Company
~OTHER INFORMATION
~A   DEPT      GRD       CALD       CORR       RHOB        SPR         ILD        ILM      RFOC       TEND       NPHI   
# ...
 1963.5000    85.9203     9.5502    -0.0185     2.5219   -42.7952     7.2867     7.3796     7.8265    75.1874     0.2394
 1964.0000    85.2284     9.5376    -0.0167     2.5213   -42.9318     7.2921     7.5394     7.8317    74.3629     0.2400
 1964.5000    87.6574     9.4942    -0.0166     2.5213   -43.2091     7.3991     7.6498     7.8370    81.0936     0.2346
 1965.0000    87.2119     9.4667    -0.0164     2.5183   -43.4904     7.4560     7.7085     7.8966    80.0969     0.2270
 1965.5000    84.8478     9.4387    -0.0162     2.5155   -43.7756     7.5134     7.7142     8.0674    79.2995     0.2261
 1966.0000    82.5018     9.4102    -0.0160     2.5193   -43.7557     7.6249     7.7199     8.2419    78.5022     0.2303
 1966.5000    84.9308     9.4126    -0.0189     2.5224   -43.7398     7.6835     7.7257     7.9687    85.2324     0.2341
 1967.0000    86.6351     9.4171    -0.0217     2.5262   -43.7236     7.6892     7.7327     7.8633    84.4039     0.2380
 1967.5000    88.5701     9.4373    -0.0230     2.5301   -43.5554     7.6949     7.7384     7.8699    76.0869     0.2364
 1968.0000    83.3573     9.4481    -0.0228     2.5113   -43.5395     7.5949     7.7441     7.8752    75.1136     0.2305
 1968.5000    82.1960     9.4650    -0.0226     2.5144   -43.3750     7.5467     7.6951     7.8805    74.3162     0.2220
 1969.0000    82.2287     9.4670    -0.0209     2.5318   -43.3591     7.4500     7.5953     7.8302    73.5189     0.2175
 1969.5000    85.1271     9.4689    -0.0177     2.5317   -43.1946     7.3531     7.3954     7.7292    72.7215     0.2162
 1970.0000    85.8681     9.4709    -0.0146     2.5177   -42.7330     7.2575     7.3498     7.6283    71.9241     0.2156
 1970.5000    84.1821     9.4895    -0.0129     2.5223   -42.4199     7.1053     7.3048     7.4195    71.1268     0.2246
 1971.0000    84.9865     9.5049    -0.0127     2.5246   -42.2554     6.9728     7.2554     7.2277    70.3149     0.2300
 1971.5000    84.3028     9.5217    -0.0110     2.5224   -42.2395     6.9299     7.1165     7.1345    69.3327     0.2323
 1972.0000    86.9624     9.5236    -0.0094     2.5225   -42.3722     6.9363     7.1230     7.0890    76.2310     0.2266
 1972.5000    84.8540     9.5255    -0.0082     2.5233   -42.3523     6.9896     7.1283     7.0949    82.9298     0.2271
 1973.0000    83.4539     9.5184    -0.0060     2.5256   -42.4889     6.9948     7.0845     7.1489    89.6289     0.2346
 1973.5000    83.0009     9.5143    -0.0043     2.5340   -42.6755     7.0000     7.1388     7.2533    88.6322     0.2388
 1974.0000    84.2276     9.5014    -0.0022     2.5385   -42.8989     7.0052     7.1935     7.4102    87.8349     0.2346
 1974.5000    82.3581     9.5033    -0.0009     2.5386   -42.9853     7.1081     7.2487     7.5731    87.0315     0.2310
 1975.0000    82.6296     9.4903     0.0008     2.5379   -43.3129     7.1628     7.2540     7.6283    86.2069     0.2363
 1975.5000    83.8563     9.4860     0.0025     2.5380   -43.5941     7.2190     7.2596     7.6874    85.2434     0.2411
 1976.0000    83.8891     9.4791     0.0041     2.5306   -43.6797     7.3249     7.2661     7.8537    84.4461     0.2384
 1976.5000    84.3994     9.4662     0.0058     2.5179   -43.6238     7.3303     7.2715     7.6977    83.6487     0.2411
 1977.0000    86.3527     9.4684     0.0060     2.5127   -43.5424     7.2350     7.2255     7.4413    82.8514     0.2410
 1977.5000    89.8386     9.4852     0.0077     2.5075   -43.3779     7.0416     7.1811     7.3429    82.0540     0.2404
 1978.0000    85.2222     9.5072     0.0034     2.5023   -43.0648     6.9993     7.1877     7.3490    81.2566     0.2422
 1978.5000    84.8140     9.5248     0.0005     2.4926   -43.0489     6.9563     7.1930     7.5080    80.4347     0.2346
 1979.0000    85.0817     9.5507    -0.0008     2.4860   -42.7359     6.9616     7.1487     7.5653    79.4628     0.2310
 1979.5000    85.3436     9.5825    -0.0006     2.4815   -42.5714     6.9669     7.2037     7.5181    78.6654     0.2325
 1980.0000    86.3209     9.6153    -0.0004     2.4996   -42.4069     6.9732     7.2091     7.4211    77.8680     0.2396
 1980.5000    82.2848     9.6761     0.0027     2.5057   -42.3908     7.0268     7.2656     7.3230    77.0707     0.2398
 1981.0000    84.4602     9.6933     0.0059     2.5171   -42.3744     7.0808     7.3213     7.4311    76.2733     0.2405
 1981.5000    90.4449     9.6504     0.0076     2.5179   -42.3552     7.1352     7.3267     7.8046    75.4760     0.2383
 1982.0000    88.7992     9.5925     0.0063     2.5014   -42.3393     7.0913     7.3321     7.9734    74.6627     0.2320
 1982.5000    85.0075     9.5790     0.0020     2.4925   -42.4759     7.0965     7.3375     7.8693    81.1782     0.2245
 1983.0000    83.1076     9.5659    -0.0025     2.4903   -42.6046     7.0527     7.2410     7.4977    80.3808     0.2253
 1983.5000    81.4149     9.5529    -0.0054     2.4911   -42.7373     7.0094     7.1977     7.1533    72.0872     0.2292
 1984.0000    80.5473     9.5254    -0.0095     2.4942   -42.9312     6.9594     7.1517     7.3093    78.9854     0.2328
 1984.5000    82.9611     9.5057    -0.0093     2.4989   -43.2998     6.8283     7.0608     7.4160    85.6843     0.2346
 1985.0000    82.5076     9.4993    -0.0076     2.5004   -43.4325     6.7875     7.0174     7.4724    84.6878     0.2350
 1985.5000    82.2868     9.5012    -0.0090     2.4997   -43.4160     6.7445     7.0239     7.3748    83.8830     0.2393
 1986.0000    88.0389     9.5031    -0.0103     2.4945   -43.3967     6.7507     6.9807     7.2283    82.8937     0.2411
 1986.5000    84.9625     9.5054    -0.0101     2.4796   -43.5294     6.7557     6.9859     7.2332    89.7920     0.2380
 1987.0000    84.2647     9.5073    -0.0099     2.4781   -43.5135     6.7607     6.9911     7.4409    96.4909     0.2368
 1987.5000    85.9632     9.5255    -0.0068     2.5113   -43.3490     6.7657     6.9962     7.4460    95.4942     0.2365
 1988.0000    82.8809     9.5410    -0.0045     2.5204   -43.1845     6.7708     7.0498     7.2490    94.6968     0.2380
 1988.5000    86.4870     9.5580     0.0011     2.5197   -43.1686     6.7759     7.0551     7.1457    93.8994     0.2406
 1989.0000    88.4181     9.5746     0.0103     2.5168   -43.0041     6.7820     7.0605     7.0597    93.1021     0.2391
 1989.5000    88.6800     9.5916     0.0180     2.5150   -42.8361     6.7403     7.0668     7.0158    92.2790     0.2388
 1990.0000    87.5112     9.5936     0.0227     2.4989   -42.5260     6.6976     7.0720     7.0704    83.8118     0.2339
 1990.5000    84.5784     9.6139     0.0274     2.5027   -42.3581     6.6576     7.0772     7.1242    83.0144     0.2246
 1991.0000    79.6892     9.6272     0.0315     2.5088   -42.0450     6.6154     7.0325     7.2506    74.7210     0.2203
 1991.5000    83.7722     9.6451     0.0368     2.5096   -41.8805     6.5747     7.0021     7.3845    73.9236     0.2272
 1992.0000    81.8881     9.6614     0.0400     2.4947   -41.8646     6.5354     6.9672     7.4924    73.1263     0.2314
 1992.5000    79.7655     9.6782     0.0386     2.4925   -41.8487     6.5403     6.9324     7.4986    72.3289     0.2389
 1993.0000    80.9812     9.6647     0.0358     2.4971   -41.9853     6.5452     6.8976     7.2488    71.5142     0.2455
 1993.5000    82.9122     9.6521     0.0345     2.5032   -42.1815     6.5511     6.8672     7.1037    70.5348     0.2496
 1994.0000    83.4126     9.6391     0.0320     2.5086   -42.3973     6.6015     6.8250     7.1096    69.7375     0.2472
 1994.5000    83.6745     9.6196     0.0289     2.5003   -42.8252     6.6064     6.8313     7.2634    68.9401     0.2502
 1995.0000    83.9364     9.6129     0.0230     2.4891   -43.1064     6.6113     6.8363     7.3187    75.8383     0.2495
 1995.5000    83.0002     9.5999     0.0232     2.4839   -43.3877     6.6162     6.8414     7.1734    82.3379     0.2502
 1996.0000    84.6986     9.5868     0.0294     2.5058   -43.3678     6.6211     6.7994     6.9313    81.5406     0.2516
 1996.5000    84.2444     9.5738     0.0313     2.5119   -43.5045     6.6260     6.8056     6.8438    80.7347     0.2419
