~VERSION INFORMATION
 VERS.                2.0:   CWLS LOG ASCII STANDARD - VERSION 2.0
 WRAP.                 NO:   ONE LINE PER DEPTH STEP
~WELL INFORMATION
#MNEM.UNIT      DATA TYPE    INFORMATION
#----------   ------------   ------------------------------
 STRT.F          198.0000:   START DEPTH
 STOP.F         3140.0000:   STOP DEPTH
 STEP.F            0.5000:   STEP LENGTH
 NULL.          -999.2500:   NO VALUE
 COMP.    FENIX & SCISSON:   COMPANY
 WELL. FENIX NPR 3 "AX" #43-34:   WELL
 FLD .                NPR:   FIELD
 LOC .      S34 T39N R78W:   LOCATION
 CNTY.            NATRONA:   COUNTY
 STAT.            WYOMING:   STATE
 CTRY. UNITED STATES OF AMERICA:   COUNTRY
 SRVC.              WELEX:   SERVICE COMPANY
 DATE.        02-JUL-1977:   LOGDATE
 API .     49025103890000:   API NUMBER
~CURVE INFORMATION
#MNEM.UNIT       API CODE    CURVE DESCRIPTION
#----------   ------------   ------------------------------
 DEPT.F                  :   
 CALD.IN     45 280 60 00:   CALIPER FROM DENSITY LOG
 GRD .GAPI   45 310 01 00:   GAMMA RAY FROM DENSITY LOG
 RHOB.G/C3   45 350 01 00:   BULK DENSITY
 CORR.G/C3   45 356 01 00:   DENSITY CORRECTION
 SPR .MV     07 010 01 00:   SPONTANEOUS POTENTIAL
 SFLU.OHMM   07 220 01 00:   SPHERICALLY FOCUSED LOG UNAVERAGED RESISTIVITY
 ILD .OHMM   07 120 46 00:   DEEP INDUCTION RESISTIVITY
 ILM .OHMM   07 120 44 00:   INDUCTION LOG MEDIUM RESISTIVITY
~PARAMETER INFORMATION
#MNEM.UNIT          VALUE    DESCRIPTION
#----------   ------------   ------------------------------
 EKB .F         5118.0000:   Kelly bushing
 EGL .F         5108.0000:   Ground level
 TD  .F         3145.0000:   Total depth
 DATE.        02-JUL-1977:   Date logged
 CLNT.            A2DTECH:   Client Code
 SL  . 1650' FNL & 2310' FWL:   Surface Location
 PD  .                 GL:   Permanent Datum
 EPD .F              5108:   Elevation Permanent Datum
 LMF .                 KB:   Log Measured From
 DMF .                 KB:   Drilling Measured From
 DAPD.F                10:   Feet Above Permanent Datum
 DD  .F              3145:   Depth driller
 DL  .F              3143:   Depth logger
 BLI .F              3141:   Bottom log interval
 TLI .F               200:   Top log interval
 CS1 .IN            8.625:   Casing size
 CBD1.      8.625" @ 203':   Casing driller 1
 CBL1.F               224:   Casing logger 1
 BS1 .IN            7.875:   Bit size
 BSD1.F              3145:   Depth drilled with bit1
 DFT .            KCL/MUD:   Type fluid in hole
 DFD .                  9:   Density
 DFV .                 34:   Viscosity
 DFPH.                7.5:   pH
 DFL .                9.2:   Fluid loss
 MSS .           FLOWLINE:   Source of sample
 RMS .OHMM            .18:   Rm
 MST .F                75:   Rm Meas. temp.
 RMF .OHMM            .16:   Rmf
 MFST.F                75:   Rmf Meas. temp.
 RMC .OHMM            .30:   Rmc
 MCST.F                75:   Rmc Meas. temp.
 MFSS.               FANN:   Source Rmf.
 MCSS.                KIT:   Source Rmc.
 RMB .OHMM            .11:   Rm. at BHT
 BHT .F               118:   BHT.
 TCS .HRS            3.75:   Time Circ. stopped
 MRT .F               118:   Maximum recorded temp.
 LUN .               8766:   Logging unit number
 LUL .             CASPER:   Logging unit location
 ENGI.          T. JOYNER:   Recorded By
 WITN.     W. PETTNG/GILL:   Witnessed by
 ORIG.           5" PRINT:   Origin of data
 UWI .     49025103890000:   Unique Well ID
 DICO. A2D TECHNOLOGIES, INC.:   Digitizing Company
~OTHER INFORMATION
~A   DEPT     CALD         GRD        RHOB     CORR        SPR       SFLU        ILD        ILM   
# ...
 2547.0000     8.4984   152.3398     2.5509     0.0592   -50.5866     9.3515     6.6444     7.6943
 2547.5000     8.4987   154.7127     2.5489     0.0592   -50.5891     9.3536     6.6457     7.8385
 2548.0000     8.4990   151.9564     2.5449     0.0473   -50.5907     9.5285     6.6463     7.5577
 2548.5000     8.4994   151.9635     2.5410     0.0434   -50.5932     9.7059     6.6473     6.8963
 2549.0000     8.4996   150.7800     2.5410     0.0434   -50.5949     9.7080     6.6492     7.0255
 2549.5000     8.4999   153.5552     2.5460     0.0475   -50.5974    10.0716     6.6502     7.2891
 2550.0000     8.5002   158.6974     2.5470     0.0475   -50.5999    10.0737     6.6512     7.7033
 2550.5000     8.5005   153.9612     2.5490     0.0475   -50.6020    10.6335     6.7716     7.7048
 2551.0000     8.5008   152.7789     2.5480     0.0476   -50.5999    10.4462     6.7727     7.5609
 2551.5000     8.5011   152.7825     2.5470     0.0476   -50.5998    10.4447     6.7717     7.5597
 2552.0000     8.5014   153.9742     2.5431     0.0477   -50.5998    10.0669     6.7707     7.6980
 2552.5000     8.5017   157.5435     2.5471     0.0557   -50.1998     9.8828     6.7692     7.6969
 2553.0000     8.5020   160.7116     2.5511     0.0637   -50.1998     9.7014     6.6451     7.6951
 2553.5000     8.5023   161.1128     2.5551     0.0637   -50.1998     9.5240     6.2878     7.9816
 2554.0000     8.5026   163.4833     2.5571     0.0638   -50.1998     9.5218     6.0608     7.9798
 2554.5000     8.5029   159.9388     2.5481     0.0558   -50.1997     9.6963     5.5279     7.6917
 2555.0000     8.5032   160.3400     2.5392     0.0479   -50.1997     9.6942     5.3276     7.5496
 2555.5000     8.5035   163.5057     2.5253     0.0440   -50.1997     9.5169     5.5255     7.4107
 2556.0000     8.5037   161.5376     2.5184     0.0440   -50.1996     9.0063     5.0400     7.6871
 2556.5000     8.5040   159.9625     2.5253     0.0441   -50.1996     8.5237     5.7303     7.6860
 2557.0000     8.5043   161.5495     2.5333     0.0441   -50.1996     8.3678     6.5146     7.5435
 2557.5000     8.5046   167.0857     2.5323     0.0442   -50.1995     8.6780     6.6348     7.2717
 2558.0000     8.5049   163.9330     2.5274     0.0442   -50.1995     9.0003     6.6328     7.2701
 2558.5000     8.5052   163.5436     2.5194     0.0442   -49.8000     8.9983     6.3827     7.1368
 2559.0000     8.5055   161.5731     2.5125     0.0363   -49.8000     8.5161     6.1420     6.1612
 2559.5000     8.5058   161.9767     2.5105     0.0324   -49.8000     8.2081     5.9379     5.7239
 2560.0000     8.5061   161.1838     2.5105     0.0324   -49.8000     8.3585     5.7235     6.6279
 2560.5000     8.5064   161.5862     2.5106     0.0285   -49.8000     8.2051     5.2206     6.5064
 2561.0000     8.5067   160.8015     2.5106     0.0325   -49.8000     8.2039     5.2199     6.3867
 2561.5000     8.5070   158.4405     2.5106     0.0326   -49.8000     7.3488     5.3145     6.3853
 2562.0000     8.5073   156.0748     2.5106     0.0326   -49.4008     6.9550     5.3410     6.3843
 2562.5000     8.5076   150.9433     2.5106     0.0327   -49.4008     6.7035     5.3676     6.3838
 2563.0000     8.5079   149.7634     2.5126     0.0367   -49.4008     6.5809     5.3943     6.3824
 2563.5000     8.5082   146.6071     2.5186     0.0367   -49.4009     6.4596     5.4093     6.3805
 2564.0000     8.5085   143.8461     2.5256     0.0407   -49.4009     7.3423     6.0379     6.4977
 2564.5000     8.5088   146.2237     2.5336     0.0408   -49.4009     9.4852     5.6098     6.7391
 2565.0000     8.5091   145.4390     2.5336     0.0448   -49.4010     9.3118     6.2617     6.8628
 2565.5000     8.5094   144.6544     2.5346     0.0448   -49.4010     9.6576     6.3763     6.9894
 2566.0000     8.5097   145.0556     2.5406     0.0449   -49.4010    10.0156     6.6136     7.2485
 2566.5000     8.5100   145.4568     2.5446     0.0449   -49.4010     9.6540     6.7346     7.3822
 2567.0000     8.5103   145.0674     2.5416     0.0450   -49.8000     9.4768     7.1146     7.3811
 2567.5000     8.5106   145.4686     2.5357     0.0450   -49.8000     9.1347     7.2447     7.6547
 2568.0000     8.5109   147.0556     2.5228     0.0331   -50.1989     8.3338     7.3772     7.9396
 2568.5000     8.5112   146.6663     2.5228     0.0332   -50.1988     9.3000     7.5012     7.9384
 2569.0000     8.5115   146.2769     2.5258     0.0332   -50.1988     9.6447     7.5110     8.0830
 2569.5000     8.5118   145.0970     2.5258     0.0332   -50.1988     9.6433     7.5099     7.5099
 2570.0000     8.5121   147.4699     2.5258     0.0333   -50.1987     9.6412     6.6033     7.5300
 2570.5000     8.5124   143.1325     2.5258     0.0333   -50.1987     9.6404     6.6023     7.5289
 2571.0000     8.5127   145.9053     2.5298     0.0334   -50.1987     9.4627     6.6013     7.5278
 2571.5000     8.5130   148.2841     2.5299     0.0454   -50.1986     9.2904     6.6004     7.5267
 2572.0000     8.5133   148.6841     2.5299     0.0494   -50.1986     8.9537     6.5984     7.5246
 2572.5000     8.5531   142.7609     2.5319     0.0494   -50.1986     8.7900     6.5974     7.5235
 2573.0000     8.5533   142.7668     2.5359     0.0495   -50.1985     9.2842     6.5959     7.5218
 2573.5000     8.5734   143.5632     2.5359     0.0495   -50.1985     9.6290     6.7171     7.6568
 2574.0000     8.5736   145.9408     2.5399     0.0496   -50.1985     9.9866     6.7161     7.6557
 2574.5000     8.5740   151.4782     2.5399     0.0496   -49.8000    10.1689     6.7151     7.6545
 2575.0000     8.5743   148.7231     2.5399     0.0497   -49.8000    10.1674     6.8379     7.7913
 2575.5000     8.5746   148.7243     2.5400     0.0497   -49.8000    10.1651     6.9630     7.9305
 2576.0000     8.5749   147.9408     2.5410     0.0497   -49.8000     9.9792     6.9619     7.9293
 2576.5000     8.5752   147.9456     2.5470     0.0617   -49.8000     9.7960     7.0898     8.0716
 2577.0000     8.5755   147.9527     2.5519     0.0618   -49.8000     9.6169     7.0887     8.0704
 2577.5000     8.5758   148.7491     2.5560     0.0658   -49.8000     9.4403     7.3515     8.3626
 2578.0000     8.5761   151.1196     2.5619     0.0698   -49.4018     9.2677     7.3504     8.3614
 2578.5000     8.5764   145.5940     2.5659     0.0738   -49.4018     8.6113     7.4854     8.5114
 2579.0000     8.5767   146.3952     2.5540     0.0659   -48.6055     8.4539     7.4843     8.5101
 2579.5000     8.5770   147.1917     2.5500     0.0580   -48.2075     8.6082     7.4826     8.5083
 2580.0000     8.5773   144.8201     2.5421     0.0501   -48.2076     8.9279     7.4815     8.5070
 2580.5000     8.5776   144.0354     2.5352     0.0461   -48.2077     8.7653     7.0787     8.0593
 2581.0000     8.6373   148.7882     2.5292     0.0462   -48.2078     8.2944     6.9490     7.3417
 2581.5000     8.6374   145.2390     2.5262     0.0462   -47.8100     8.1433     6.6981     8.5011
 2582.0000     8.6377   143.6674     2.5302     0.0463   -47.4122     8.2913     6.4549    10.5933
 2582.5000     8.6381   143.2744     2.5323     0.0463   -47.0145     8.2901     6.3361     8.3441
 2583.0000     8.6384   142.4898     2.5362     0.0543   -47.0146     8.4414     6.2783     7.4726
 2583.5000     8.6385   145.6568     2.5363     0.0544   -47.0149     8.4401     6.2209     7.2023
 2584.0000     8.6389   142.5016     2.5413     0.0584   -47.0151     8.4382     6.1641     7.0698
 2584.5000     8.6392   141.3229     2.5413     0.0624   -47.0152     8.7516     6.1078     7.0688
 2585.0000     8.6198   140.9336     2.5403     0.0585   -46.6177     8.5909     5.9915     7.0677
 2585.5000     8.6002   142.1241     2.5314     0.0585   -46.2203     8.4338     5.9906     7.0667
 2586.0000     8.5809   143.7052     2.5274     0.0586   -45.8228     8.2790     5.8804     6.9361
 2586.5000     8.5811   140.1608     2.5274     0.0586   -45.0278     7.9802     5.8795     6.9351
 2587.0000     8.5814   138.9808     2.5324     0.0626   -44.2328     6.4048     5.7713     6.8075
