~VERSION INFORMATION
 VERS.                2.0:   CWLS LOG ASCII STANDARD - VERSION 2.0
 WRAP.                 NO:   ONE LINE PER DEPTH STEP
~WELL INFORMATION
#MNEM.UNIT      DATA TYPE    INFORMATION
#----------   ------------   ------------------------------
 STRT.F          407.0000:   START DEPTH
 STOP.F         3228.0000:   STOP DEPTH
 STEP.F            0.5000:   STEP LENGTH
 NULL.          -999.2500:   NO VALUE
 COMP.    FENIX & SCISSON:   COMPANY
 WELL.   FENIX "A" #21-34:   WELL
 FLD .             N.P.R.:   FIELD
 LOC .      S34 T39N R78W:   LOCATION
 CNTY.            NATRONA:   COUNTY
 STAT.            WYOMING:   STATE
 CTRY. UNITED STATES OF AMERICA:   COUNTRY
 SRVC.       SCHLUMBERGER:   SERVICE COMPANY
 DATE.        05-MAY-1977:   LOGDATE
 API .     49025103710000:   API NUMBER
~CURVE INFORMATION
#MNEM.UNIT       API CODE    CURVE DESCRIPTION
#----------   ------------   ------------------------------
 DEPT.F                  :   
 SPR .MV     11 010 01 00:   SPONTANEOUS POTENTIAL FROM RES.
 LLS .OHMM   11 220 09 00:   LATEROLOG LOG SHALLOW
 LLD .OHMM   11 220 10 00:   LATEROLOG DEEP
 MSFL.OHMM   11 270 04 00:   MICRO SPHERICALLY FOCUSED
 CALD.IN     45 280 60 00:   CALIPER FROM DENSITY LOG
 NPHI.DEC    42 890 03 00:   NEUTRON POROSITY SANDSTONE
 GRD .GAPI   45 310 01 00:   GAMMA RAY FROM DENSITY LOG
 CORR.G/C3   45 356 01 00:   DENSITY CORRECTION
 RHOB.G/C3   45 350 01 00:   BULK DENSITY
~PARAMETER INFORMATION
#MNEM.UNIT          VALUE    DESCRIPTION
#----------   ------------   ------------------------------
 EKB .F         5086.0000:   Kelly bushing
 EGL .F         5074.0000:   Ground level
 TD  .F         3226.0000:   Total depth
 CLNT.            A2DTECH:   Client Code
 SL  . 990' FWL & 330' FNL:   Surface Location
 PD  .                 GL:   Permanent Datum
 EPD .F              5074:   Elevation Permanent Datum
 LMF .                 KB:   Log Measured From
 DMF .                 KB:   Drilling Measured From
 DAPD.F                12:   Feet Above Permanent Datum
 DATE.        05-MAY-1977:   Date Logged [DD-MMM-YYYY]
 DD  .F              3226:   Depth driller
 DL  .F              3229:   Depth logger
 BLI .F              3227:   Bottom log interval
 TLI .F               430:   Top log interval
 CS1 .IN            8.625:   Casing size
 CBD1.      8.625" @ 424':   Casing driller 1
 CBL1.F               430:   Casing logger 1
 BS1 .IN            7.875:   Bit size
 BSD1.F              3226:   Depth drilled with bit1
 DFT .                KCL:   Type fluid in hole
 DFD .                9.4:   Density
 DFV .                 31:   Viscosity
 DFPH.                  8:   pH
 DFL .                9.6:   Fluid loss
 MSS .           MUD TANK:   Source of sample
 RMS .OHMM          0.202:   Rm
 MST .F                78:   Rm Meas. temp.
 RMF .OHMM          0.191:   Rmf
 MFST.F                76:   Rmf Meas. temp.
 MFSS.               MEAS:   Source Rmf.
 RMC .OHMM           0.30:   Rmc
 MCST.F                78:   Rmc Meas. temp.
 MCSS.               CALC:   Source Rmc.
 RMB .OHMM          0.123:   Rm. at BHT
 BHT .F               128:   BHT.
 TCS .HRS            1400:   Time Circ. stopped
 TLAB.HRS            0300:   Time logger at bottom
 MRT .F               128:   Maximum recorded temp.
 LUN .               5642:   Logging unit number
 LUL .               CSPR:   Logging unit location
 ENGI.                FIX:   Recorded By
 WITN.         HARRINGTON:   Witnessed by
 ORIG.           5" PRINT:   Origin of data
 UWI .     49025103710000:   Unique Well ID
 DICO. A2D TECHNOLOGIES, INC.:   Digitizing Company
~OTHER INFORMATION
~A   DEPT      SPR        LLS        LLD       MSFL       CALD       NPHI         GRD      CORR       RHOB   
  407.0000  -999.2500  -999.2500  -999.2500  -999.2500  -999.2500  -999.2500    17.6241  -999.2500  -999.2500
  407.5000  -999.2500  -999.2500  -999.2500  -999.2500  -999.2500     0.5467    16.5139  -999.2500  -999.2500
  408.0000  -999.2500  -999.2500  -999.2500  -999.2500  -999.2500     0.5497    15.4037  -999.2500  -999.2500
  408.5000  -999.2500  -999.2500  -999.2500  -999.2500  -999.2500     0.5457    16.5492  -999.2500  -999.2500
  409.0000  -999.2500  -999.2500  -999.2500  -999.2500  -999.2500     0.5316    18.3713  -999.2500  -999.2500
  409.5000  -999.2500  -999.2500  -999.2500  -999.2500  -999.2500     0.5294    19.2868  -999.2500  -999.2500
  410.0000  -999.2500  -999.2500  -999.2500  -999.2500  -999.2500     0.5237    11.8652  -999.2500  -999.2500
  410.5000  -999.2500  -999.2500  -999.2500  -999.2500  -999.2500     0.5175    15.2663  -999.2500  -999.2500
  411.0000  -999.2500  -999.2500  -999.2500  -999.2500  -999.2500     0.5059    17.5399  -999.2500  -999.2500
  411.5000  -999.2500  -999.2500  -999.2500  -999.2500  -999.2500     0.5131    15.6209  -999.2500  -999.2500
  412.0000  -999.2500  -999.2500  -999.2500  -999.2500  -999.2500     0.5322    11.9402  -999.2500  -999.2500
  412.5000  -999.2500  -999.2500  -999.2500  -999.2500  -999.2500     0.5235    11.7279  -999.2500  -999.2500
  413.0000  -999.2500  -999.2500  -999.2500  -999.2500  -999.2500     0.5105    14.4567  -999.2500  -999.2500
  413.5000  -999.2500  -999.2500  -999.2500  -999.2500  -999.2500     0.5168    16.7299  -999.2500  -999.2500
  414.0000  -999.2500  -999.2500  -999.2500  -999.2500  -999.2500     0.5080    18.5521  -999.2500  -999.2500
  414.5000  -999.2500  -999.2500  -999.2500  -999.2500  -999.2500     0.5314    19.0208  -999.2500  -999.2500
  415.0000  -999.2500  -999.2500  -999.2500  -999.2500  -999.2500     0.5496    17.0084  -999.2500  -999.2500
  415.5000  -999.2500  -999.2500  -999.2500  -999.2500  -999.2500     0.5517    14.0937  -999.2500  -999.2500
  416.0000  -999.2500  -999.2500  -999.2500  -999.2500  -999.2500     0.5805    12.0813  -999.2500  -999.2500
  416.5000  -999.2500  -999.2500  -999.2500  -999.2500  -999.2500     0.6113    11.6301  -999.2500  -999.2500
  417.0000  -999.2500  -999.2500  -999.2500  -999.2500  -999.2500     0.6358    11.4398  -999.2500  -999.2500
  417.5000  -999.2500  -999.2500  -999.2500  -999.2500  -999.2500     0.6326    12.1386  -999.2500  -999.2500
  418.0000  -999.2500  -999.2500  -999.2500  -999.2500  -999.2500     0.6405     9.6750  -999.2500  -999.2500
  418.5000  -999.2500  -999.2500  -999.2500  -999.2500  -999.2500     0.6635     9.4627  -999.2500  -999.2500
  419.0000  -999.2500  -999.2500  -999.2500  -999.2500  -999.2500     0.6647     9.9358  -999.2500  -999.2500
  419.5000  -999.2500  -999.2500  -999.2500  -999.2500  -999.2500     0.6350    11.0813  -999.2500  -999.2500
  420.0000  -999.2500  -999.2500  -999.2500  -999.2500  -999.2500     0.6088    12.0012  -999.2500  -999.2500
  420.5000  -999.2500  -999.2500  -999.2500  -999.2500  -999.2500     0.5938    10.4399  -999.2500  -999.2500
  421.0000  -999.2500  -999.2500  -999.2500  -999.2500  -999.2500     0.5831     9.5187  -999.2500  -999.2500
  421.5000  -999.2500  -999.2500  -999.2500  -999.2500  -999.2500     0.6018    10.9323  -999.2500  -999.2500
  422.0000  -999.2500  -999.2500  -999.2500  -999.2500  -999.2500     0.6083    12.0962  -999.2500  -999.2500
  422.5000  -999.2500  -999.2500  -999.2500  -999.2500  -999.2500     0.6155    12.9960  -999.2500  -999.2500
  423.0000  -999.2500  -999.2500  -999.2500  -999.2500  -999.2500     0.6173    12.7837  -999.2500  -999.2500
  423.5000  -999.2500  -999.2500  -999.2500  -999.2500  -999.2500     0.6217    12.8057  -999.2500  -999.2500
  424.0000  -999.2500  -999.2500  -999.2500  -999.2500  -999.2500     0.6142    15.3045  -999.2500  -999.2500
  424.5000  -999.2500  -999.2500  -999.2500  -999.2500  -999.2500     0.5928    18.8346  -999.2500  -999.2500
  425.0000  -999.2500  -999.2500  -999.2500  -999.2500  -999.2500     0.5847    21.8812  -999.2500  -999.2500
  425.5000  -999.2500  -999.2500  -999.2500  -999.2500  -999.2500     0.5757    24.6056  -999.2500  -999.2500
  426.0000  -999.2500  -999.2500  -999.2500  -999.2500  -999.2500     0.5508    28.4578  -999.2500  -999.2500
  426.5000  -999.2500  -999.2500  -999.2500  -999.2500  -999.2500     0.5117    32.9867  -999.2500  -999.2500
  427.0000  -999.2500  -999.2500  -999.2500  -999.2500  -999.2500     0.4751    37.3533  -999.2500  -999.2500
  427.5000  -999.2500  -999.2500  -999.2500  -999.2500  -999.2500     0.4205    38.2099  -999.2500  -999.2500
  428.0000  -999.2500  -999.2500  -999.2500  -999.2500  -999.2500     0.3991    37.7764  -999.2500  -999.2500
  428.5000  -999.2500  -999.2500  -999.2500  -999.2500  -999.2500     0.4048    41.6331  -999.2500  -999.2500
  429.0000  -999.2500  -999.2500  -999.2500  -999.2500  -999.2500     0.4095    43.9063  -999.2500  -999.2500
  429.5000  -999.2500  -999.2500  -999.2500  -999.2500  -999.2500     0.4044    46.8563  -999.2500  -999.2500
  430.0000   -48.7103  -999.2500    80.9210     3.0671     8.2520     0.3986    54.0920    -0.1672     2.0089
  430.5000   -49.5040     0.4778    21.8632     6.5593     8.5528     0.4082    65.1623    -0.0483     2.0898
  431.0000   -51.0913     0.2565     9.3328     8.0280     8.8391     0.4273    69.4656     0.1152     2.4760
  431.5000   -52.2817     5.9050     8.6603     8.6740     9.0410     0.4185    71.5133     0.0828     2.4610
  432.0000   -52.8140    11.3560    30.6064     8.9906     9.2522     0.3582    73.3355     0.0406     2.4144
  432.5000   -54.4320    12.7004    18.3480     8.9395     9.4389     0.3292    74.2556     0.0226     2.4228
  433.0000   -55.6859    13.1622    21.5435     8.7665     9.4728     0.3276    75.7354     0.0166     2.4289
  433.5000   -57.9499    12.4630    27.4890     8.5374     9.4871     0.3225    79.2574     0.0252     2.4230
  434.0000   -59.6765    12.6540    30.9618     8.3118     9.5019     0.3263    81.7563     0.0284     2.4200
  434.5000   -61.8414    13.2969    19.6193     8.2096     9.5168     0.3299    83.8040     0.0270     2.4292
  435.0000   -64.3949    13.9726    25.1227     8.0511     9.5218     0.3322    86.0772     0.0188     2.4270
  435.5000   -65.9193    15.1998    26.6834     7.8952     9.5240     0.3373    89.4783     0.0174     2.4264
  436.0000   -67.3077    15.9721    46.4987     7.5791     9.5341     0.3330    92.4283     0.0206     2.4333
  436.5000   -68.2198    16.3252    20.4069     7.1727     9.5439     0.3372    94.7016     0.0298     2.4371
  437.0000   -68.8143    18.9012    57.3769     6.5626     9.5541     0.3419    95.2121     0.0239     2.4387
  437.5000   -70.3863    18.9217    30.7952     5.3852     9.5634     0.3536    93.3835     0.0195     2.4238
  438.0000   -71.8558    16.9376    27.7867     5.1351     9.6120     0.3499    94.3670     0.0287     2.4111
  438.5000   -72.1594    20.1878    26.3109     6.0729     9.6657     0.3550    98.3855     0.0425     2.4051
  439.0000   -72.1588    27.4192    63.5337     6.9354     9.6999     0.3718    99.9821     0.0608     2.3985
  439.5000   -71.9211    31.2917    44.9796     7.7575     9.7707     0.3783    92.1050     0.0973     2.3918
  440.0000   -71.7291    23.2536    51.0145     8.3405     9.8288     0.3750    87.1602     0.1548     2.3836
  440.5000   -71.5304    16.0237    66.0019     8.3904     9.6474     0.3650    85.1478     0.0620     2.3616
  441.0000   -71.5319    13.5848    65.6218     8.1148     9.6194     0.3536    82.6842     0.0175     2.3341
  441.5000   -71.5306    13.8851    52.6303     8.2380     9.5638     0.3316    79.5440     0.0138     2.4276
  442.0000   -71.9683    14.5906    48.8236     7.9124     9.5692     0.3160    76.1781     0.0094     2.4472
  442.5000   -71.9074    14.4017    64.0490     8.0351     9.5765     0.3133    76.8725     0.0058     2.4496
  443.0000   -71.6115    13.7388   105.1143     8.2138     9.5842     0.3219    79.3895     0.0029     2.4346
