~VERSION INFORMATION
 VERS.                2.0:   CWLS LOG ASCII STANDARD - VERSION 2.0
 WRAP.                 NO:   ONE LINE PER DEPTH STEP
~WELL INFORMATION
#MNEM.UNIT      DATA TYPE    INFORMATION
#----------   ------------   ------------------------------
 STRT.F           58.0000:   START DEPTH
 STOP.F         5662.0000:   STOP DEPTH
 STEP.F            0.5000:   STEP LENGTH
 NULL.          -999.2500:   NO VALUE
 COMP. DEPARTMENT OF ENERGY:   COMPANY
 WELL. DEPARTMENT NPR 3 67 "X" #1-10:   WELL
 FLD .              NPR 3:   FIELD
 LOC .      S10 T38N R78W:   LOCATION
 CNTY.            NATRONA:   COUNTY
 STAT.            WYOMING:   STATE
 CTRY. UNITED STATES OF AMERICA:   COUNTRY
 SRVC.       SCHLUMBERGER:   SERVICE COMPANY
 DATE.        05-FEB-2002:   LOGDATE
 API .     49025230400000:   API NUMBER
~CURVE INFORMATION
#MNEM.UNIT       API CODE    CURVE DESCRIPTION
#----------   ------------   ------------------------------
 DEPT.F                  :   
 TEND.LBS    45 635 01 00:   TENSION FROM DENSITY LOG
 PEFZ.B/E    45 358 01 00:   HILT PHOTOELECTRIC FACTOR
 HDRA.G/C3   45 356 01 00:   DELTA RHO HIP TOOL
 NPHI.DEC    42 890 03 00:   NEUTRON POROSITY SANDSTONE
 TENS.LBS    60 635 01 00:   TENSION
 DT  .US/F   60 520 00 00:   DELTA TIME
 TENR.LBS    07 635 01 00:   TENSION FROM RESISTIVITY
 CALR.IN     07 280 01 00:   CALIPER FROM RESISTIVITY
 GRR .GAPI   07 310 01 00:   GAMMA RAY FROM RESISTIVITY
 RXOZ.OHMM   11 270 04 00:   STD. RES. INVADED ZONE RESISTIVITY
 HLLD.OHMM   11 220 10 00:   LATEROLOG DEEP RES.
 HLLS.OHMM   11 220 09 00:   LATEROLOG SHALLOW RES.
 HRLD.OHMM   11 120 46 00:   HIGH RESOULATION DEEP RESISTIVITY
 RHOZ.G/C3   45 350 01 00:   HILT BULK DENSITY
~PARAMETER INFORMATION
#MNEM.UNIT          VALUE    DESCRIPTION
#----------   ------------   ------------------------------
 EKB .F         5205.7000:   Kelly bushing
 EGL .F         5195.7000:   Ground level
 EDF .F            0.0000:   Drilling floor
 EPD .F         5195.7000:   Permanent datum
 TD  .F         5654.0000:   Total depth
 DATE.        05-FEB-2002:   Date logged
 CLNT.            A2DTECH:   Client Code
 SL  . 1503' FEL & 721' FSL:   Surface Location
 PD  .                 GL:   Permanent Datum
 DAPD.F                10:   Feet Above Permanent Datum
 DD  .F              5650:   Depth driller
 DL  .F              5654:   Depth logger
 BLI .F              5646:   Bottom log interval
 TLI .F               499:   Top log interval
 CS1 .IN            9.625:   Casing size
 CBD1.      9.625" @ 505':   Casing driller 1
 CBL1.F               499:   Casing logger 1
 BS1 .IN            8.875:   Bit size
 BSD1.F              5650:   Depth drilled with bit1
 DFT .           GEL/CHEM:   Type fluid in hole
 DFD .                9.2:   Density
 DFV .                 52:   Viscosity
 DFPH.                8.5:   pH
 DFL .                6.8:   Fluid loss
 MSS .           FLOWLINE:   Source of sample
 RMS .OHMM           .954:   Rm
 MST .F                57:   Rm Meas. temp.
 RMF .OHMM           .734:   Rmf
 MFST.F                57:   Rmf Meas. temp.
 MFSS.              PRESS:   Source Rmf.
 RMB .OHMM           .403:   Rm. at BHT
 BHT .F               143:   BHT.
 TLAB.HRS            1208:   Time logger at bottom
 MRT .F               143:   Maximum recorded temp.
 LUN .               2211:   Logging unit number
 LUL .             CASPER:   Logging unit location
 ENGI.           R. SROUR:   Recorded By
 WITN.        M. MILLIKEN:   Witnessed by
 ORIG.           5" PRINT:   Origin of data
 UWI .     49025230400000:   Unique Well ID
 DICO. A2D TECHNOLOGIES, INC.:   Digitizing Company
 RMC .               1.24:   Rmc
 MCST.                 57:   Rmc Meas. temp.
 MCSS.              PRESS:   Source Rmc.
 TCS .                200:   Time Circ. stopped
~OTHER INFORMATION
~A   DEPT     TEND       PEFZ       HDRA       NPHI       TENS         DT       TENR       CALR         GRR      RXOZ       HLLD       HLLS       HRLD       RHOZ   
# ...
 2557.0000  1701.4930     2.7540     0.0090     0.2160  1124.3781    77.4300  1685.5790     9.9420    87.2810    15.9120    21.3220    21.5740    21.1280     2.4520
 2557.5000  1701.4930     2.7120     0.0120     0.2190  1124.3781    77.1470  1680.0730     9.9520    84.2320    16.5750    21.3220    21.5180    21.1660     2.4430
 2558.0000  1701.4930     2.6440     0.0080     0.2200  1124.3781    76.8650  1681.7440     9.7360    78.4210    17.3390    22.7320    23.1520    21.3050     2.4170
 2558.5000  1701.4930     2.5700     0.0040     0.2170  1124.3781    76.5820  1686.9600     9.6200    72.6500    16.7230    22.1100    21.9160    21.5180     2.3920
 2559.0000  1701.4930     2.5580     0.0020     0.2080  1124.3781    76.2990  1692.1760     9.5890    67.6150    15.9000    21.9160    22.0450    21.3250     2.3770
 2559.5000  1701.4930     2.5790     0.0020     0.1990  1124.3781    75.9030  1697.3920     9.6100    65.3980    15.2010    22.6810    22.2390    20.9360     2.3940
 2560.0000  1701.4930     2.5870     0.0020     0.2050  1124.3781    74.7190  1698.1130     9.6310    64.9960    16.2060    23.8340    22.4330    22.3550     2.4100
 2560.5000  1701.7290     2.5320     0.0020     0.2190  1124.3781    72.2090  1698.1130     9.6400    64.9970    15.9440    24.4580    22.7320    24.0260     2.4060
 2561.0000  1702.8180     2.4800     0.0020     0.2150  1124.3781    69.6980  1698.1130     9.6480    63.0590    16.1860    22.6770    22.2530    22.5730     2.3860
 2561.5000  1703.9070     2.4290     0.0020     0.2110  1124.3781    68.5510  1703.1580     9.6700    60.6200    16.0490    21.0320    21.2040    21.1040     2.3790
 2562.0000  1704.9960     2.3900     0.0020     0.2070  1124.3781    69.4480  1722.9790     9.7040    59.8210    15.9120    20.6530    20.0340    21.0080     2.3850
 2562.5000  1706.0850     2.3570     0.0020     0.2030  1124.3781    71.1290  1735.6760     9.7330    59.9960    16.0580    20.3690    20.2840    20.9360     2.3930
 2563.0000  1707.1740     2.3580     0.0020     0.1980  1124.3781    72.8110  1727.0580     9.7600    65.3190    17.5430    22.6160    20.6180    21.7210     2.4080
 2563.5000  1708.2629     2.3590     0.0040     0.2050  1124.3781    73.7430  1718.4399     9.7880    71.2810    17.9210    25.1380    21.1280    22.5250     2.4220
 2564.0000  1709.3521     2.3390     0.0070     0.2130  1124.3781    73.8440  1709.8230     9.8150    75.1590    16.9720    22.3870    20.6410    22.1250     2.4350
 2564.5000  1710.4410     2.3200     0.0040     0.2200  1124.3781    73.7340  1701.2050     9.8430    76.3500    15.2050    20.9360    20.0650    21.2270     2.4260
 2565.0000  1711.5300     2.3350     0.0030     0.2200  1124.3781    73.6820  1714.0020     9.8580    73.2090    14.7890    20.8030    19.4890    20.1840     2.4120
 2565.5000  1712.6190     2.3490     0.0030     0.2160  1124.3781    73.9850  1738.7791     9.8680    67.9620    15.0890    20.5560    19.2820    20.3570     2.3990
 2566.0000  1713.7080     2.3450     0.0030     0.2120  1124.3781    74.2790  1752.2880     9.8900    64.7620    15.4530    20.7210    19.2820    20.6270     2.4030
 2566.5000  1714.7970     2.3090     0.0040     0.2060  1124.3781    73.2300  1729.4170     9.8940    65.1140    15.3490    21.0980    19.2820    20.8980     2.4050
 2567.0000  1715.8870     2.2820     0.0040     0.1960  1124.3781    71.2940  1706.5460     9.8940    67.0650    15.1390    21.4750    19.5580    21.1680     2.4070
 2567.5000  1716.9760     2.3110     0.0040     0.2020  1124.3781    66.0510  1698.1130     9.8930    68.9670    15.0620    21.8510    19.8180    21.3220     2.4110
 2568.0000  1718.0649     2.3380     0.0040     0.2130  1124.3781    61.2710  1678.2520     9.8930    69.0250    15.3470    21.9160    20.5880    21.3220     2.4090
 2568.5000  1719.1541     2.3660     0.0050     0.2200  1124.3781    56.8660  1715.3300     9.8890    68.9280    16.0100    22.4440    21.3360    21.7330     2.4050
 2569.0000  1720.2430     2.3720     0.0050     0.2110  1124.3781    55.6150  1709.1360     9.8660    68.2920    16.6570    23.0870    21.9160    22.1170     2.4000
 2569.5000  1721.3929     2.3610     0.0060     0.2040  1124.3781    55.7710  1702.9420     9.8580    66.7520    16.2400    21.3220    21.0340    21.4610     2.3950
 2570.0000  1719.7380     2.3500     0.0070     0.2000  1124.3781    57.8800  1697.8101     9.8690    67.0780    15.7350    20.5560    20.3140    20.9360     2.3980
 2570.5000  1717.9840     2.3390     0.0060     0.2020  1124.3781    60.5010  1696.4330     9.8490    69.4660    15.3400    20.6890    20.1450    20.1840     2.4050
 2571.0000  1716.2290     2.3660     0.0040     0.2030  1124.3781    63.4450  1695.0570     9.8380    73.2620    15.6650    21.0920    20.0540    20.1840     2.4070
 2571.5000  1714.4750     2.3980     0.0030     0.2040  1124.3781    66.7830  1693.6801     9.8660    74.5560    15.8880    20.9320    20.0000    20.1840     2.4120
 2572.0000  1712.7209     2.5080     0.0000     0.1940  1124.3781    70.1210  1692.3040     9.8920    71.6840    17.3140    20.7450    20.0000    20.1840     2.4290
 2572.5000  1710.9670     2.6340    -0.0030     0.1670  1124.3781    73.0760  1690.9270     9.8990    67.5160    21.7160    23.3650    30.2070    23.4570     2.4650
 2573.0000  1709.2130     2.8240    -0.0030     0.1400  1124.3781    74.5030  1689.5510     9.8220    63.9410    34.1220    50.1790    55.2470    35.1270     2.5000
 2573.5000  1707.4590     2.9360    -0.0020     0.1330  1124.3781    75.0600  1688.1740     9.7930    61.3610    40.0790    88.8170    92.1270    61.6040     2.5060
 2574.0000  1705.7050     2.8730    -0.0010     0.1580  1124.3781    75.2420  1686.7980     9.7930    62.8280    37.9380    44.9590    82.3380    21.3220     2.4890
 2574.5000  1703.9510     2.7600     0.0000     0.1830  1124.3781    75.1900  1685.4210     9.7920    65.4980    27.8970    33.7420    38.6390    21.5510     2.4500
 2575.0000  1702.1970     2.6580     0.0010     0.1890  1124.3781    75.1370  1684.0450     9.8100    67.0000    18.2520    22.5250    23.1520    22.1170     2.4340
 2575.5000  1700.4430     2.6660     0.0040     0.1690  1124.8070    75.0850  1682.6689     9.8300    67.0040    24.9090    27.7740    28.2560    19.2820     2.4440
 2576.0000  1698.6890     2.6760     0.0060     0.1760  1125.3450    74.7220  1681.2920     9.8110    68.6570    24.6830    40.0790    44.7280    30.4360     2.4460
 2576.5000  1696.9351     2.6540     0.0090     0.1870  1125.8831    74.2770  1679.9160     9.7840    71.3160    20.4620    34.4290    39.1790    34.6230     2.4190
 2577.0000  1695.1810     2.5750     0.0100     0.1980  1126.4200    73.3830  1678.5389     9.7320    73.7570    15.0620    20.9360    24.0820    20.3820     2.3850
 2577.5000  1693.4270     2.4980     0.0110     0.2020  1126.9580    69.1360  1679.9580     9.6910    73.0750    15.3810    20.0000    20.1840    19.8180     2.3730
 2578.0000  1691.6730     2.4540     0.0170     0.2040  1127.4950    64.7840  1682.1121     9.7250    71.2130    15.9190    20.2460    20.4870    19.8180     2.3860
 2578.5000  1689.9189     2.4440     0.0240     0.2110  1128.0330    60.2490  1684.2670     9.8780    68.2390    16.4570    20.4530    20.7920    19.9070     2.4020
 2579.0000  1688.1639     2.4240     0.0250     0.2150  1128.5699    58.3580  1686.4210     9.8540    65.6440    16.9960    20.6590    21.0980    20.1950     2.3950
 2579.5000  1686.4100     2.3660     0.0210     0.2040  1129.1080    58.5910  1688.5760     9.8330    63.7510    17.4360    21.0250    21.4040    20.7030     2.3800
 2580.0000  1684.6560     2.3640     0.0220     0.2050  1129.6450    60.6570  1690.7300     9.8690    62.2630    16.9990    21.3220    21.7160    21.3220     2.3870
 2580.5000  1682.9020     2.3720     0.0270     0.2100  1130.1830    65.6790  1692.8850     9.9060    59.8300    16.6420    21.3220    21.8240    20.9820     2.3990
 2581.0000  1681.5920     2.3870     0.0250     0.2080  1130.7200    70.7000  1695.0389     9.9130    59.3980    16.2860    21.0170    21.9160    20.5450     2.3960
