~VERSION INFORMATION
 VERS.                2.0:   CWLS LOG ASCII STANDARD - VERSION 2.0
 WRAP.                 NO:   ONE LINE PER DEPTH STEP
~WELL INFORMATION
#MNEM.UNIT      DATA TYPE    INFORMATION
#----------   ------------   ------------------------------
 STRT.F           34.0000:   START DEPTH
 STOP.F         2909.0000:   STOP DEPTH
 STEP.F            0.5000:   STEP LENGTH
 NULL.          -999.2500:   NO VALUE
 COMP.   TESORO PETROLEUM:   COMPANY
 WELL. TESORO NPR "A" #3-28:   WELL
 FLD .             TEAPOT:   FIELD
 LOC .      S28 T39N R78W:   LOCATION
 CNTY.            NATRONA:   COUNTY
 STAT.            WYOMING:   STATE
 CTRY. UNITED STATES OF AMERICA:   COUNTRY
 SRVC.              WELEX:   SERVICE COMPANY
 DATE.        22-JUL-1968:   LOGDATE
 API .     49025102620000:   API NUMBER
~CURVE INFORMATION
#MNEM.UNIT       API CODE    CURVE DESCRIPTION
#----------   ------------   ------------------------------
 DEPT.F                  :   
 GRD .GAPI   45 310 01 00:   GAMMA RAY FROM DENSITY LOG
 SPR .MV     05 010 01 00:   SPONTANEOUS POTENTIAL FROM RES.
 ASN .OHMM   05 041 16 00:   AMPLIFIED SHORT NORMAL 16"
 ILD .OHMM   05 120 46 00:   INDUCTION LOG DEEP
~PARAMETER INFORMATION
#MNEM.UNIT          VALUE    DESCRIPTION
#----------   ------------   ------------------------------
 EKB .F         5050.0000:   Kelly bushing
 EGL .F         5039.0000:   Ground level
 EDF .F            0.0000:   Drilling floor
 EPD .F         5039.0000:   Permanent datum
 TD  .F         2906.0000:   Total depth
 CLNT.            A2DTECH:   Client Code
 DATE.       22-JULY-1968:   Date Logged [DD-MMM-YYYY]
 DD  .F              2906:   Depth driller
 DL  .F              2906:   Depth logger
 BLI .F              2901:   Bottom log interval
 TLI .F               356:   Top log interval
 CS1 .              10.75:   Casing size
 CBD1.      10.75" @ 356':   Casing driller 1
 CBL1.IN              356:   Casing logger 1
 BS1 .IN                9:   Bit size
 DFT .     WATER BASE MUD:   Type fluid in hole
 DFD .                9.6:   Density
 DFV .                 60:   Viscosity
 DFPH.                9.0:   pH
 DFL .                  6:   Fluid loss
 MSS .               CTRC:   Source of sample
 RMS .OHMM            2.1:   Rm
 MST .F                74:   Rm Meas. temp.
 RMF .OHMM            1.6:   Rmf
 MFST.F                71:   Rmf Meas. temp.
 MFSS.               MEAS:   Source Rmf.
 RMC .OHMM            3.0:   Rmc
 MCST.F                66:   Rmc Meas. temp.
 RMB .OHMM            1.3:   Rm. at BHT
 BHT .F               120:   BHT.
 MRT .F               120:   Maximum recorded temp.
 LUN .               6869:   Logging unit number
 ORIG.         2.5" PRINT:   Origin of data
 UWI .     49025102620000:   Unique Well ID
 DICO. A2D TECHNOLOGIES, INC.:   Digitizing Company
 LUL .          NEWCASTLE:   Logging unit location
~OTHER INFORMATION
~A   DEPT      GRD        SPR         ASN         ILD 
# ...
 2808.0000   112.2723   -31.2656     4.0504     3.1165
 2808.5000   120.2485   -31.2467     4.1537     2.9565
 2809.0000   123.4581   -31.2278     4.2610     2.7965
 2809.5000   121.1679   -31.2089     4.4644     2.9519
 2810.0000    97.7738   -31.1899     4.9802     3.1471
 2810.5000    77.3983   -31.1710     5.6721     3.9694
 2811.0000    72.4945   -31.1521     6.1408     4.8816
 2811.5000    73.2510   -31.1331     6.6095     5.7884
 2812.0000    74.3948   -31.1142     6.8588     6.1178
 2812.5000    76.2735   -31.0953     7.0767     6.2303
 2813.0000    74.7081   -31.0763     7.1692     6.2335
 2813.5000    74.3904   -31.0574     7.2617     6.3172
 2814.0000    72.5949   -31.0385     7.3546     6.3975
 2814.5000    68.9742   -31.0195     7.4200     6.4012
 2815.0000    69.2767   -31.0006     7.5434     6.4042
 2815.5000    69.6798   -30.9817     7.6438     6.5650
 2816.0000    67.8743   -30.9627     7.7948     6.5680
 2816.5000    65.7230   -30.9438     7.8989     6.7288
 2817.0000    65.7248   -30.9249     8.0348     6.8896
 2817.5000    67.6134   -30.9059     8.0193     6.9020
 2818.0000    69.5020   -30.8870     7.9532     7.0536
 2818.5000    70.6359   -30.8681     7.9358     7.0568
 2819.0000    71.0151   -30.8491     7.9339     7.0599
 2819.5000    71.7716   -30.8302     7.9950     7.2208
 2820.0000    69.6856   -30.8113     8.4011     7.2240
 2820.5000    66.6397   -30.7923     8.3368     7.3848
 2821.0000    63.9203   -30.7734     8.5547     7.3880
 2821.5000    62.0864   -30.7545     8.6474     7.5495
 2822.0000    60.8374   -30.7355     8.5831     7.5525
 2822.5000    61.2170   -30.7166     8.3892     7.7133
 2823.0000    62.2223   -30.6977     8.0921     7.7164
 2823.5000    65.7494   -30.6787     7.6620     7.7194
 2824.0000    68.3927   -30.6598     7.2268     7.5648
 2824.5000    69.9040   -30.6409     6.9164     7.4077
 2825.0000    70.2832   -30.6219     6.4421     7.0977
 2825.5000    70.2850   -30.6030     6.0216     7.0770
 2826.0000    71.7962   -30.5841     5.6924     6.7539
 2826.5000    74.1264   -30.5651     5.3047     6.1366
 2827.0000    77.6739   -30.5462     4.7333     4.7335
 2827.5000    82.8536   -30.5273     4.1141     3.7578
 2828.0000    88.3279   -30.5083     3.3603     2.9402
 2828.5000   123.5041   -30.4894     3.1080     2.3685
 2829.0000   128.4116   -30.4705     3.1691     2.0757
 2829.5000   124.6398   -30.4515     3.3557     2.0793
 2830.0000   120.4907   -30.4326     3.9811     2.5556
 2830.5000    91.0589   -30.4137     4.6693     3.1895
 2831.0000    63.1361   -30.5286     5.3612     3.9812
 2831.5000    61.2512   -30.7170     6.8127     4.7729
 2832.0000    62.0077   -30.6984     7.6589     6.0697
 2832.5000    63.1416   -30.6798     7.7353     7.3372
 2833.0000    63.8982   -30.6613     7.6119     7.6215
 2833.5000    63.8912   -30.6427     7.4075     7.3897
 2834.0000    63.1121   -30.6241     7.1589     6.9475
 2834.5000    61.8935   -30.6056     6.9104     6.5262
 2835.0000    63.0372   -30.5870     6.6618     6.3013
 2835.5000    63.5299   -30.5684     6.4132     6.1360
 2836.0000    62.3997   -30.5499     6.1647     5.9060
 2836.5000    66.9694   -30.5313     5.9161     5.9090
 2837.0000    71.2974   -30.5127     5.7185     5.5966
 2837.5000    74.8261   -30.4942     5.4781     5.2842
 2838.0000    79.3890   -30.4756     5.0282     4.9718
 2838.5000    83.9191   -30.4570     4.2677     4.5017
 2839.0000    91.4681   -30.4385     3.8900     4.0316
 2839.5000   105.4322   -30.4199     3.6064     3.6988
 2840.0000   113.3586   -30.4013     3.3541     3.2282
 2840.5000   125.0588   -30.3828     3.3212     2.9366
 2841.0000   122.7965   -30.3642     3.3824     2.9401
 2841.5000   119.4021   -30.3456     3.6003     3.1543
 2842.0000    92.4893   -30.3271     3.9511     3.4837
 2842.5000    74.8777   -30.3085     4.4842     3.8879
 2843.0000    68.8418   -30.2899     5.2545     4.5437
 2843.5000    68.8436   -30.2713     6.0522     5.4801
 2844.0000    69.9775   -30.2528     6.6546     6.4295
 2844.5000    70.3567   -30.2342     6.9037     7.0635
 2845.0000    70.3585   -30.2156     7.0189     7.2243
 2845.5000    71.8698   -30.1971     7.0360     7.2453
 2846.0000    71.4942   -30.1785     7.0345     7.2303
 2846.5000    72.4511   -30.1599     7.0329     6.9146
 2847.0000    74.7032   -30.1414     7.0624     6.7491
 2847.5000    76.2671   -30.1228     7.1236     6.6086
 2848.0000    76.4072   -30.1042     7.1848     6.6120
 2848.5000    75.4825   -30.0857     7.2773     6.6151
 2849.0000    74.7033   -30.0671     7.3698     6.6183
 2849.5000    73.7721   -30.0485     7.4623     6.6534
 2850.0000    73.3965   -30.0300     7.4608     6.6465
 2850.5000    76.0399   -30.0114     7.4593     6.7927
 2851.0000    78.3058   -29.9928     7.4577     6.8530
 2851.5000    79.8171   -29.9743     7.4876     7.0815
 2852.0000    81.3283   -29.9557     7.5247     7.1602
 2852.5000    79.8207   -29.9371     7.6191     7.2206
 2853.0000    81.0202   -29.9186     7.7248     7.2135
 2853.5000    81.3338   -29.9000     7.8210     7.2077
 2854.0000    79.1927   -29.8814     7.9172     7.2018
 2854.5000    77.9412   -29.8629     8.0279     7.1959
 2855.0000    79.2138   -29.8443     8.0407     7.1900
 2855.5000    80.1618   -29.8257     7.9449     7.0331
 2856.0000    81.7257   -29.8072     7.6299     6.7231
 2856.5000    82.8547   -29.7886     7.3776     6.5574
 2857.0000    80.9701   -29.7806     7.1566     6.2407
 2857.5000    79.4625   -29.7806     6.9357     5.9517
 2858.0000    82.4832   -29.7806     6.6834     5.9093
 2858.5000    83.9945   -29.7806     6.5878     5.5926
 2859.0000    82.1095   -29.7806     6.6176     5.3293
 2859.5000    79.0925   -29.7806     6.6474     5.3233
 2860.0000    85.8867   -29.7919     6.6834     5.3877
 2860.5000    83.4690   -29.8070     6.8773     5.7715
 2861.0000    80.6732   -29.8221     7.1542     6.2356
 2861.5000    78.0320   -29.8373     7.4581     6.6575
 2862.0000    75.1821   -29.8524     8.5918     7.1048
 2862.5000    72.5945   -29.8675     9.2712     7.7032
 2863.0000    71.5585   -29.8827     9.6812     8.1505
 2863.5000    72.1478   -29.8978    10.7724     8.5978
 2864.0000    73.8268   -29.9129    11.3979     8.8940
 2864.5000    74.9607   -29.9281    11.3964     9.4924
 2865.0000    75.3398   -29.9432    11.3948     9.6376
 2865.5000    75.7190   -29.9583    11.2366     9.6314
 2866.0000    74.9661   -29.9735    10.7648     9.4744
 2866.5000    75.7227   -29.9886    10.4498     9.4375
 2867.0000    76.1018   -30.0037     9.9692     8.9698
 2867.5000    74.1286   -30.0189     9.5155     8.8040
 2868.0000    72.1915   -30.0340     9.5398     8.4875
 2868.5000    71.9564   -30.0491     9.7541     8.2357
 2869.0000    74.0923   -30.0643     9.7436     8.2296
 2869.5000    75.6557   -30.0794     9.7197     8.2236
 2870.0000    77.2201   -30.0945     9.7743     8.2163
 2870.5000    78.2045   -30.1097     9.9495     8.2105
 2871.0000    78.6780   -30.1248    10.2907     8.2046
 2871.5000    76.8739   -30.1399    10.5911     8.1987
 2872.0000    74.6115   -30.1551    10.7463     8.1928
 2872.5000    72.7266   -30.1702    10.9587     8.1870
 2873.0000    70.4643   -30.1853    11.4367     8.1811
 2873.5000    67.8246   -30.2005    11.9149     8.1752
 2874.0000    65.1643   -30.2156    12.5641     8.7815
 2874.5000    63.2634   -30.2307    13.7160     9.2539
 2875.0000    61.6665   -30.2459    15.2819    10.4230
 2875.5000    59.7289   -30.2610    16.8478    11.9449
 2876.0000    56.6885   -30.2761    19.5108    14.2424
 2876.5000    52.8790   -30.2913    22.0171    19.2746
 2877.0000    41.7054   -30.3064    24.5234    23.8605
 2877.5000    35.9205   -30.3215    26.8730    26.2762
 2878.0000    31.2381   -30.3367    29.8879    27.6857
 2878.5000    31.1100   -30.3518    31.5722    28.0544
 2879.0000    32.3738   -30.3669    31.0543    25.9324
 2879.5000    32.7530   -30.3821    29.8722    22.6033
 2880.0000    33.5096   -30.3972    28.0670    20.3315
 2880.5000    34.2661   -30.4075    26.5021    18.3619
