~VERSION INFORMATION
 VERS.                2.0:   CWLS LOG ASCII STANDARD - VERSION 2.0
 WRAP.                 NO:   ONE LINE PER DEPTH STEP
~WELL INFORMATION
#MNEM.UNIT      DATA TYPE    INFORMATION
#----------   ------------   ------------------------------
 STRT.F           44.0000:   START DEPTH
 STOP.F         6166.0000:   STOP DEPTH
 STEP.F            0.5000:   STEP LENGTH
 NULL.          -999.2500:   NO VALUE
 COMP.   TESORO PETROLEUM:   COMPANY
 WELL. TESORO 11X NPR #3-23:   WELL
 FLD .             TEAPOT:   FIELD
 LOC .      S23 T38N R78W:   LOCATION
 CNTY.            NATRONA:   COUNTY
 STAT.            WYOMING:   STATE
 CTRY. UNITED STATES OF AMERICA:   COUNTRY
 SRVC.       SCHLUMBERGER:   SERVICE COMPANY
 DATE.        29-OCT-1968:   LOGDATE
 API .     49025100170000:   API NUMBER
~CURVE INFORMATION
#MNEM.UNIT       API CODE    CURVE DESCRIPTION
#----------   ------------   ------------------------------
 DEPT.F                  :   
 SN  .OHMM   05 040 18 00:   SHORT NORMAL 18"
 RES .OHMM   05 000 00 00:   RESISTIVITY
 ILD .OHMM   05 120 46 00:   INDUCTION LOG DEEP RESISTIVITY
 SPR .MV     05 010 01 00:   SPONTANEOUS POTENTIAL FROM RES.
~PARAMETER INFORMATION
#MNEM.UNIT          VALUE    DESCRIPTION
#----------   ------------   ------------------------------
 EKB .F         5283.0000:   Kelly bushing
 EGL .F         5272.0000:   Ground level
 EDF .F            0.0000:   Drilling floor
 TD  .F         6171.0000:   Total depth
 CLNT.            A2DTECH:   Client Code
 SL  . 380' FNL & 380' FWL:   Surface Location
 PD  .                 GL:   Permanent Datum
 EPD .F              5272:   Elevation Permanent Datum
 LMF .                 KB:   Log Measured From
 DMF .                 KB:   Drilling Measured From
 DAPD.F                11:   Feet Above Permanent Datum
 DATE.        29-OCT-1968:   Date Logged [DD-MMM-YYYY]
 DD  .F              6171:   Depth driller
 DL  .F              6167:   Depth logger
 BLI .F              6166:   Bottom log interval
 TLI .F               975:   Top log interval
 CS1 .IN            10.75:   Casing size
 CBD1.      10.75" @ 975':   Casing driller 1
 CBL1.F               975:   Casing logger 1
 BS1 .IN            9.125:   Bit size
 BSD1.F              6171:   Depth drilled with bit1
 DFT .           GEL-CHEM:   Type fluid in hole
 DFD .                9.6:   Density
 DFV .                 61:   Viscosity
 DFPH.                 10:   pH
 DFL .                6.8:   Fluid loss
 MSS .           FLOWLINE:   Source of sample
 RMS .OHMM           0.89:   Rm
 MST .F                80:   Rm Meas. temp.
 RMF .OHMM           0.60:   Rmf
 MFST.F                80:   Rmf Meas. temp.
 MFSS.               MEAS:   Source Rmf.
 RMB .OHMM           0.45:   Rm. at BHT
 BHT .F               160:   BHT.
 TCS .HRS               4:   Time Circ. stopped
 MRT .F               160:   Maximum recorded temp.
 LUN .               7041:   Logging unit number
 LUL .               CSPR:   Logging unit location
 ENGI.            MANGOLD:   Recorded By
 WITN.                MAY:   Witnessed by
 ORIG.         2.5" PRINT:   Origin of data
 UWI .     49025100170000:   Unique Well ID
 DICO. A2D TECHNIOLOGIES,INC.:   Digitizing Company
~OTHER INFORMATION
~A  DEPTH       SN        RES        ILD        SPR
# ...
 4862.0000     4.0848  -999.2500     4.1398   -48.1098
 4862.5000     3.9405  -999.2500     3.9894   -48.0945
 4863.0000     3.8866  -999.2500     3.9911   -48.0793
 4863.5000     3.8000  -999.2500     3.9925   -48.0640
 4864.0000     3.8061  -999.2500     3.9940   -48.0488
 4864.5000     3.8121  -999.2500     3.9954   -48.0308
 4865.0000     3.7021  -999.2500     3.9970   -48.0164
 4865.5000     3.5212  -999.2500     3.9985   -47.6971
 4866.0000     3.5282  -999.2500     4.1520   -47.6826
 4866.5000     3.8368  -999.2500     4.1535   -47.6677
 4867.0000     3.8425  -999.2500     4.1553   -47.3476
 4867.5000     3.8485  -999.2500     4.1567   -47.3323
 4868.0000     4.0506  -999.2500     4.1582   -47.3171
 4868.5000     4.2311  -999.2500     4.4635   -47.3018
 4869.0000     4.4739  -999.2500     4.4804   -47.2840
 4869.5000     4.6310  -999.2500     4.7705   -47.2696
 4870.0000     4.7882  -999.2500     4.8734   -47.2551
 4870.5000     5.1049  -999.2500     5.2141   -47.2407
 4871.0000     5.5885  -999.2500     5.6212   -47.2256
 4871.5000     6.1258  -999.2500     6.2966   -47.2104
 4872.0000     6.4807  -999.2500     6.7539   -47.2928
 4872.5000     7.0888  -999.2500     7.2113   -47.4848
 4873.0000     7.5521  -999.2500     7.8307   -47.6361
 4873.5000     7.8607  -999.2500     8.1714   -47.7592
 4874.0000     8.1869  -999.2500     8.5128   -48.0471
 4874.5000     8.5189  -999.2500     8.7371   -48.3376
 4875.0000     8.7879  -999.2500     8.8146   -48.3232
 4875.5000     9.0316  -999.2500     9.0443   -48.3079
 4876.0000     9.4068  -999.2500     9.0456   -48.2927
 4876.5000     9.4125  -999.2500     9.0472   -48.2774
 4877.0000     9.4182  -999.2500     9.2006   -48.2622
 4877.5000     9.4242  -999.2500     9.2147   -47.9421
 4878.0000     9.4303  -999.2500     9.3556   -47.9245
 4878.5000     9.4364  -999.2500     9.3091   -47.6052
 4879.0000     9.4424  -999.2500     9.2067   -47.5908
 4879.5000     9.4491  -999.2500     9.1247   -47.5762
 4880.0000     9.2593  -999.2500     9.0578   -47.5610
 4880.5000     9.1573  -999.2500     9.0593   -47.5457
 4881.0000     9.1457  -999.2500     9.0609   -47.5305
 4881.5000     9.0171  -999.2500     8.9091   -47.5152
 4882.0000     8.8727  -999.2500     8.7598   -47.4970
 4882.5000     8.8797  -999.2500     8.6854   -47.4826
 4883.0000     8.5823  -999.2500     8.4590   -47.4682
 4883.5000     8.5879  -999.2500     8.2352   -47.4537
 4884.0000     8.3555  -999.2500     8.1581   -47.4390
 4884.5000     8.2961  -999.2500     7.8556   -47.4238
 4885.0000     8.3030  -999.2500     7.7053   -47.4085
 4885.5000     8.0061  -999.2500     7.5547   -47.3933
 4886.0000     7.7098  -999.2500     7.2522   -47.2278
 4886.5000     7.5639  -999.2500     7.1984   -47.0551
 4887.0000     7.4096  -999.2500     6.9057   -47.0407
 4887.5000     7.2412  -999.2500     6.6486   -47.0262
 4888.0000     7.1263  -999.2500     6.4881   -46.7069
 4888.5000     7.0945  -999.2500     6.3480   -46.6921
 4889.0000     6.9376  -999.2500     6.0458   -46.3720
 4889.5000     6.7807  -999.2500     6.0472   -46.0518
 4890.0000     6.5455  -999.2500     5.8967   -46.0366
 4890.5000     6.5515  -999.2500     5.7461   -46.0213
 4891.0000     6.5167  -999.2500     5.7477   -46.0034
 4891.5000     6.3403  -999.2500     5.7492   -45.9890
 4892.0000     6.2667  -999.2500     5.5988   -45.9746
 4892.5000     6.1212  -999.2500     5.4483   -45.9601
 4893.0000     5.9758  -999.2500     5.4501   -45.9080
 4893.5000     5.9818  -999.2500     5.4515   -45.8203
 4894.0000     5.9879  -999.2500     5.4529   -45.7326
 4894.5000     5.9939  -999.2500     5.4544   -45.6449
 4895.0000     6.0000  -999.2500     5.4559   -45.5571
 4895.5000     6.0071  -999.2500     5.4574   -45.4694
 4896.0000     6.0127  -999.2500     5.4590   -45.3817
 4896.5000     6.0184  -999.2500     5.4605   -45.2940
 4897.0000     6.0242  -999.2500     5.4620   -45.2062
 4897.5000     6.0303  -999.2500     5.4637   -45.1185
 4898.0000     6.0364  -999.2500     5.4651   -45.0308
 4898.5000     6.0424  -999.2500     5.4666   -44.9431
 4899.0000     5.7463  -999.2500     5.4681   -44.8459
 4899.5000     5.7519  -999.2500     5.4366   -44.8315
 4900.0000     5.4545  -999.2500     5.2685   -45.1220
 4900.5000     5.4731  -999.2500     5.1687   -45.0721
 4901.0000     5.5026  -999.2500     5.1702   -45.0223
 4901.5000     5.5321  -999.2500     5.0200   -44.7713
 4902.0000     5.5616  -999.2500     4.8694   -44.9178
 4902.5000     5.5909  -999.2500     4.8709   -44.9181
 4903.0000     5.4364  -999.2500     4.8723   -44.9185
 4903.5000     5.4333  -999.2500     4.8739   -44.9183
 4904.0000     5.2788  -999.2500     4.8754   -44.9185
 4904.5000     5.2342  -999.2500     4.8769   -44.9186
 4905.0000     5.1212  -999.2500     4.8277   -44.9184
 4905.5000     5.1182  -999.2500     4.7007   -44.9188
 4906.0000     5.1151  -999.2500     4.5736   -44.9191
 4906.5000     5.1121  -999.2500     4.4466   -44.9359
 4907.0000     5.1091  -999.2500     4.3196   -44.9553
 4907.5000     5.1061  -999.2500     4.2097   -44.9751
 4908.0000     5.1030  -999.2500     4.2067   -44.9947
 4908.5000     5.1000  -999.2500     4.2036   -45.0142
 4909.0000     5.0970  -999.2500     4.2001   -45.0339
 4909.5000     5.0939  -999.2500     4.1972   -45.0534
 4910.0000     5.0909  -999.2500     4.1943   -45.0730
 4910.5000     5.0879  -999.2500     4.1914   -45.0926
 4911.0000     5.0848  -999.2500     4.1963   -45.1122
 4911.5000     5.0818  -999.2500     4.3376   -45.1317
 4912.0000     5.0788  -999.2500     4.4867   -45.1513
 4912.5000     5.0758  -999.2500     4.4833   -45.1709
 4913.0000     5.0727  -999.2500     4.4802   -45.1905
 4913.5000     5.0697  -999.2500     4.4766   -45.2101
 4914.0000     5.0667  -999.2500     4.6257   -45.2297
 4914.5000     5.0636  -999.2500     4.7748   -45.2492
 4915.0000     5.0606  -999.2500     4.7719   -45.2688
 4915.5000     5.0576  -999.2500     4.7690   -45.2886
 4916.0000     5.0541  -999.2500     4.7660   -45.3080
 4916.5000     5.0512  -999.2500     4.7629   -45.3248
 4917.0000     5.1999  -999.2500     4.7599   -45.3265
 4917.5000     5.1970  -999.2500     4.7568   -45.3270
 4918.0000     5.3457  -999.2500     4.6678   -45.3208
 4918.5000     5.3424  -999.2500     4.5983   -45.3353
 4919.0000     5.3394  -999.2500     4.4435   -45.3226
 4919.5000     5.3358  -999.2500     4.4406   -45.2968
 4920.0000     5.4845  -999.2500     4.4377   -45.4165
 4920.5000     5.6333  -999.2500     4.1307   -44.6450
 4921.0000     5.6303  -999.2500     4.1277   -44.5262
 4921.5000     5.9305  -999.2500     4.1246   -44.5122
 4922.0000     5.9273  -999.2500     4.3395   -44.4379
 4922.5000     5.9242  -999.2500     4.5870   -45.1768
 4923.0000     5.9212  -999.2500     5.3308   -45.3067
 4923.5000     6.2208  -999.2500     5.9358   -45.3623
 4924.0000     6.5209  -999.2500     6.5408   -45.2838
 4924.5000     7.1242  -999.2500     7.6018   -45.3390
 4925.0000     7.7652  -999.2500     8.7139   -45.4679
 4925.5000     8.5812  -999.2500    10.1731   -46.2139
 4926.0000     9.4502  -999.2500    11.6647   -46.2428
 4926.5000    10.5935  -999.2500    13.1570   -46.7648
 4927.0000    11.6540  -999.2500    13.9749   -47.2636
 4927.5000    11.9545  -999.2500    14.2700   -47.7437
 4928.0000    12.2544  -999.2500    14.4195   -48.2446
 4928.5000    12.0956  -999.2500    14.1122   -48.7373
 4929.0000    11.9208  -999.2500    13.1975   -49.2302
 4929.5000    11.5491  -999.2500    12.0956   -49.7237
 4930.0000    11.2677  -999.2500    11.0131   -50.2177
 4930.5000    10.8549  -999.2500    10.3693   -50.7113
 4931.0000    10.2662  -999.2500     9.6318   -51.2026
 4931.5000     9.9604  -999.2500     9.2310   -51.6973
 4932.0000     9.6545  -999.2500     8.9234   -52.0724
 4932.5000     9.4672  -999.2500     8.6166   -52.3982
 4933.0000     9.0055  -999.2500     8.3098   -52.7251
 4933.5000     8.6791  -999.2500     8.1549   -53.0539
 4934.0000     8.3525  -999.2500     7.9900   -53.3819
 4934.5000     8.2758  -999.2500     7.6930   -53.7100
