~VERSION INFORMATION
 VERS.                2.0:   CWLS LOG ASCII STANDARD - VERSION 2.0
 WRAP.                 NO:   ONE LINE PER DEPTH STEP
~WELL INFORMATION
#MNEM.UNIT      DATA TYPE    INFORMATION
#----------   ------------   ------------------------------
 STRT.F           10.0000:   START DEPTH
 STOP.F         3234.0000:   STOP DEPTH
 STEP.F            0.5000:   STEP LENGTH
 NULL.          -999.2500:   NO VALUE
 COMP. LAWRENCE ALLISON & ASSOSCIATES:   COMPANY
 WELL. 		  38-X-10:   WELL
 FLD .             NPR #3:   FIELD
 LOC .      S10 T38N R78W:   LOCATION
 CNTY.            NATRONA:   COUNTY
 STAT.            WYOMING:   STATE
 CTRY. UNITED STATES OF AMERICA:   COUNTRY
 SRVC.      DRESSER ATLAS:   SERVICE COMPANY
 DATE.        02-AUG-1986:   LOGDATE
 API .       490251120600:   API NUMBER
~CURVE INFORMATION
#MNEM.UNIT       API CODE    CURVE DESCRIPTION
#----------   ------------   ------------------------------
 DEPT.F                  :   
 GRR .GAPI   07 310 01 00:   GAMMA RAY FROM RESISTIVITY
 SPR .MV     07 010 01 00:   SPONTANEOUS POTENTIAL
 TENR.LBS    07 635 01 00:   TENSION FROM RESISTIVITY
 RILM.OHMM   07 120 44 00:   RESISTIVITY INDUCTION LOG MEDIUM
 CNC .DEC    42 890 03 00:   NEUTRON POROSITY SANDSTONE
 CALD.IN     45 280 60 00:   CALIPER FROM DENSITY LOG
 GRD .GAPI   45 310 01 00:   GAMMA RAY FROM DENSITY LOG
 RHOB.G/C3   45 350 01 00:   BULK DENSITY
 TEND.LBS    45 635 01 00:   TENSION FORM DENSITY LOG
 CORR.G/C3   45 356 01 00:   DENSITY CORRECTION
 RILD.OHMM   07 120 46 00:   RESISTIVITY INDUCTION LOG DEEP
 RFOC.OHMM   07 220 04 00:   RESISTIVITY FOCUSED
~PARAMETER INFORMATION
#MNEM.UNIT          VALUE    DESCRIPTION
#----------   ------------   ------------------------------
 EKB .F         5224.0000:   Kelly bushing
 EGL .F         5212.0000:   Ground level
 EDF .F            0.0000:   Drilling floor
 TD  .F         3231.0000:   Total depth
 CLNT.            A2DTECH:   Client Code
 SL  . 296' FSL & 1435' FWL:   Surface Location
 PD  .                 GL:   Permanent Datum
 EPD .F              5212:   Elevation Permanent Datum
 LMF .                 KB:   Log Measured From
 DMF .                 KB:   Drilling Measured From
 DAPD.F                12:   Feet Above Permanent Datum
 DATE.        02-AUG-1986:   Date Logged [DD-MMM-YYYY]
 DD  .F              3230:   Depth driller
 DL  .F              3231:   Depth logger
 BLI .F              3229:   Bottom log interval
 TLI .F                11:   Top log interval
 CS1 .IN            8.625:   Casing size
 CBD1.      8.625" @ 626':   Casing driller 1
 CBL1.F               626:   Casing logger 1
 BS1 .IN            7.875:   Bit size
 BSD1.F              3230:   Depth drilled with bit1
 DFT .            KCL-GEL:   Type fluid in hole
 DFD .                  9:   Density
 DFV .                 36:   Viscosity
 DFPH.               10.5:   pH
 DFL .                 12:   Fluid loss
 MSS .           FLOWLINE:   Source of sample
 RMS .OHMM          0.263:   Rm
 MST .F               100:   Rm Meas. temp.
 RMF .OHMM          0.197:   Rmf
 MFST.F               100:   Rmf Meas. temp.
 MFSS.               MEAS:   Source Rmf.
 RMC .OHMM          0.329:   Rmc
 MCST.F               100:   Rmc Meas. temp.
 MCSS.               CALC:   Source Rmc.
 RMB .OHMM          0.193:   Rm. at BHT
 BHT .F               136:   BHT.
 TCS .HRS               5:   Time Circ. stopped
 MRT .F               136:   Maximum recorded temp.
 LUN .            HL-6274:   Logging unit number
 LUL .           GILLETTE:   Logging unit location
 ENGI.            PANASUK:   Recorded By
 WITN.             STRONG:   Witnessed by
 ORIG.        2" 5" PRINT:   Origin of data
 UWI .       490251120600:   Unique Well ID
 DICO. A2D TECHNOLOGIES, INC.:   Digitizing Company
~OTHER INFORMATION
~A   DEPT       GRR       SPR       TENR       RILM        CNC       CALD        GRD       RHOB       TEND       CORR       RILD       RFOC   
# ...
 2614.0000   121.1734   -38.9996   -26.7304     5.5421     0.2631    10.1065   124.5744     2.5443     1.8072     0.0314     5.6091     7.0035
 2614.5000   127.8285   -39.0086   -19.0322     5.5410     0.2673    10.1062   128.5049     2.5458    -5.9011     0.0239     5.5304     6.8585
 2615.0000   131.7562   -39.1674   -18.8822     5.5399     0.2779    10.1059   131.5284     2.5428   -13.5745     0.0027     5.5318     6.8585
 2615.5000   132.9596   -39.3261   -11.1526     5.5006     0.2718    10.1056   130.3145     2.5421   -21.2479    -0.0050     5.5668     6.9146
 2616.0000   131.1269   -39.4849   -11.0074     5.5377     0.2697    10.1053   129.7065     2.5459   -13.8612    -0.0109     5.6439     7.0525
 2616.5000   128.9941   -39.6439   -10.8621     5.6205     0.2706    10.0898   130.9632     2.5436     1.0558    -0.0139     5.7617     7.1018
 2617.0000   131.4038   -39.3497   -10.7169     5.7713     0.2779    10.0895   132.7257     2.5406     8.4426    -0.0123     5.8823     6.9548
 2617.5000   133.2104   -39.3569    -3.0187     5.8513     0.2879    10.0893   133.0261     2.5391    15.8294     0.0119     6.0475     6.7166
 2618.0000   132.8957   -39.0593    -2.1639     6.0151     0.2854    10.1041   129.3916     2.5376    23.2162     0.0210     6.2672     7.1018
 2618.5000   129.2478   -38.7651     4.8610     6.1837     0.2742    10.1037   124.5476     2.5352    30.5723     0.0134     6.4813     7.7216
 2619.0000   122.8725   -38.6210    12.5590     6.3591     0.2624    10.1034   120.5828     2.5331    37.9539    -0.0002     6.6632     8.1645
 2619.5000   118.8928   -38.4768    20.2572     6.6265     0.2532    10.1031   118.4896     2.5377    37.7748    -0.0229     6.8027     8.5133
 2620.0000   118.3038   -38.1828    27.9553     6.8123     0.2430    10.1029   118.4867     2.5437    30.1013    -0.0319     6.9937     8.7541
 2620.5000   118.8982   -38.1900    35.6534     7.0522     0.2363    10.1026   118.4838     2.5490    14.8978    -0.0242     7.1424     8.8770
 2621.0000   118.2777   -38.0455    20.6930     7.1996     0.2320    10.1023   116.9680     2.5544     7.2243    -0.0107     7.2892     8.7541
 2621.5000   117.0539   -38.0530     5.7687     7.2484     0.2363    10.1020   115.4523     2.5604    -7.9819     0.0014     7.3391     8.5035
 2622.0000   116.2547   -38.0620    -1.6752     7.2416     0.2567    10.0980   117.3290     2.5619   -15.6885     0.0181     7.2356     8.1645
 2622.5000   120.4440   -38.2208    -9.0828     7.1949     0.2608    10.0862   119.9843     2.5620    -0.7715     0.0256     7.1839     7.9955
 2623.0000   121.8647   -38.3795    -1.3484     7.1435     0.2596    10.0708   122.0995     2.5612    14.1454     0.0165     7.1326     8.0515
 2623.5000   121.8530   -38.6898    13.9026     7.0926     0.2556    10.0402   122.5919     2.5552    21.5362     0.0090     6.9835     8.2216
 2624.0000   124.2657   -38.8486    29.1541     6.9446     0.2511    10.0399   123.9091     2.5490    21.3855     0.0090     6.9333     8.3954
 2624.5000   128.1934   -39.1591    21.7823     6.8950     0.2489    10.0396   126.6293     2.5476     6.1495     0.0136     7.0292     8.4542
 2625.0000   130.0000   -39.1679    -0.7311     6.9899     0.2489    10.0545   129.0463     2.5530    -3.3924     0.0182     7.1269     8.3954
 2625.5000   131.1976   -39.1751   -15.7279     7.0377     0.2568    10.0541   129.9511     2.5666    -9.1974     0.0197     6.9776     8.2216
 2626.0000   132.3981   -39.1824   -38.2412     6.9871     0.2726    10.0538   130.5541     2.5757    -9.3407     0.0212     6.7372     8.0515
 2626.5000   133.5986   -39.0381   -15.4011     6.9373     0.2735    10.0536   132.9710     2.5764    -1.9539     0.0243     6.8301     7.9400
 2627.0000   133.8929   -38.7423     7.4028     6.8878     0.2568    10.0532   132.6656     2.5757     5.4329     0.0288     6.9731     7.9400
 2627.5000   130.2420   -38.4483    15.1057     6.8386     0.2410    10.0529   128.0796     2.5765     7.2173     0.0364     6.9232     8.0609
 2628.0000   125.6614   -38.3022    15.2825     6.7424     0.2368    10.0526   125.3973     2.5818    12.6764     0.0455     6.5921     8.3371
 2628.5000   124.4583   -38.1579    15.4277     6.6943     0.2474    10.0523   123.2764     2.5818    12.4973     0.0621     6.6834     8.3954
 2629.0000   123.8406   -38.0137    15.5729     6.6004     0.2558    10.0369   121.7607     2.5773     4.8193     0.0743     6.7759     8.2792
 2629.5000   120.1956   -38.3258    15.7182     6.5078     0.2558    10.0366   122.6655     2.5694    -2.8496     0.0818     6.7271     7.9400
 2630.0000   121.6962   -38.3348    23.4163     6.4166     0.2592    10.0363   124.7806     2.5622    12.0315     0.0682     6.5408     7.7216
 2630.5000   124.1088   -38.3420    31.1179     6.3707     0.2594    10.0512   124.4750     2.5660    19.4541     0.0501     6.3596     7.5618
 2631.0000   125.0063   -38.3493    31.2960     6.3250     0.2576    10.0508   124.4715     2.5736    19.7255     0.0365     6.2267     7.5618
 2631.5000   124.3857   -38.3565    23.8521     6.2363     0.2570    10.0505   125.6789     2.5819    11.5964     0.0395     6.1822     7.6147
 2632.0000   123.7709   -38.6668    16.4807     6.1918     0.2582    10.0654   127.1888     2.5888    -3.6379     0.0380     6.2242     7.7216
 2632.5000   127.9988   -38.6947     9.0368     6.2773     0.2603    10.0802   127.7918     2.5865   -11.3113     0.0275     6.2665     7.7756
 2633.0000   128.2932   -38.8346    -5.8912     6.4085     0.2630    10.0799   127.7882     2.5819   -26.5149     0.0078     6.3532     7.8848
 2633.5000   127.9756   -38.8418   -21.2451     6.4520     0.2612    10.0947   125.3640     2.5751   -34.1883     0.0033     6.4412     7.9955
 2634.0000   124.8257   -38.8490   -35.8084     6.4958     0.2536    10.0944   124.4534     2.5676   -34.3374     0.0124     6.5300     8.0515
 2634.5000   123.4069   -38.8563   -35.6268     6.4942     0.2530    10.0941   124.4505     2.5631   -26.9448     0.0154     6.5286     7.9400
 2635.0000   124.0014   -38.7120   -35.4816     6.4929     0.2533    10.0938   124.4476     2.5638   -27.1240     0.0185     6.5270     7.8300
 2635.5000   124.5958   -38.7211   -35.3363     6.4916     0.2530    10.0935   124.4447     2.5669   -34.7974     0.0215     6.5717     7.7756
 2636.0000   124.5813   -38.7283   -35.1911     6.5813     0.2518    10.0931   124.1392     2.5669   -34.9407     0.0248     6.6164     7.9400
 2636.5000   123.9636   -38.7355   -35.0454     6.6259     0.2515    10.0778   122.9253     2.5624   -35.1199     0.0140     6.6147     8.0609
 2637.0000   122.9938   -38.7424   -42.4535     6.6709     0.2518    10.0775   121.7121     2.5548   -27.7330    -0.0087     6.6134     8.1645
 2637.5000   121.2102   -38.7506   -42.2719     6.6692     0.2496    10.0923   121.1041     2.5558   -27.8764    -0.0057     6.6117     8.1078
 2638.0000   119.9893   -38.7578   -42.1266     6.7148     0.2448    10.0920   123.2192     2.5624   -28.0197     0.0155     6.6570     8.1078
 2638.5000   123.3082   -38.6136   -34.4285     6.7600     0.2432    10.0917   123.5189     2.5640   -28.1627     0.0415     6.7021     8.1645
 2639.0000   123.9030   -38.3196   -26.7304     6.7586     0.2384    10.1065   123.4814     2.5640   -28.3132     0.0352     6.7478     8.2792
 2639.5000   124.1940   -38.1735   -19.0323     6.8045     0.2335    10.1062   123.2098     2.5670   -28.4855     0.0292     6.8408     8.4051
 2640.0000   124.4825   -38.0292   -18.8822     6.8507     0.2329    10.1059   123.5102     2.5708   -21.0628     0.0277     6.9355     8.3371
 2640.5000   124.4709   -37.8849   -33.8354     6.8968     0.2353    10.1056   124.1124     2.5761   -13.6761     0.0322     7.0807     8.1645
 2641.0000   124.7652   -37.8940   -41.2551     6.9436     0.2359    10.1006   124.4121     2.5739   -13.8554     0.0368     7.1783     8.2216
 2641.5000   125.6627   -38.2287   -56.2156     7.0396     0.2363    10.0899   124.1059     2.5716   -21.5645     0.0308     7.2274     8.4542
