~VERSION INFORMATION
 VERS.                2.0:   CWLS LOG ASCII STANDARD - VERSION 2.0
 WRAP.                 NO:   ONE LINE PER DEPTH STEP
~WELL INFORMATION
#MNEM.UNIT      DATA TYPE    INFORMATION
#----------   ------------   ------------------------------
 STRT.F            7.0000:   START DEPTH
 STOP.F         3304.0000:   STOP DEPTH
 STEP.F            0.5000:   STEP LENGTH
 NULL.          -999.2500:   NO VALUE
 COMP. LAWRENCE ALLISON ASSOC. WEST:   COMPANY
 WELL. LAWRENCE NPR  "X" #18-2:   WELL
 FLD .              N P R:   FIELD
 LOC .       S2 T38N R78W:   LOCATION
 CNTY.            NATRONA:   COUNTY
 STAT.            WYOMING:   STATE
 CTRY. UNITED STATES OF AMERICA:   COUNTRY
 SRVC.      DRESSER ATLAS:   SERVICE COMPANY
 DATE.        28-APR-1986:   LOGDATE
 API .     49025110710000:   API NUMBER
~CURVE INFORMATION
#MNEM.UNIT       API CODE    CURVE DESCRIPTION
#----------   ------------   ------------------------------
 DEPT.F                  :   
 TEND.LBS    45 635 01 00:   TENSION FROM DENSITY LOG
 DEN .G/C3   45 635 01 00:   DENSITY
 CORR.G/C3   45 356 01 00:   DENSITY CORRECTION
 CNC .DEC    42 890 03 00:   NEUTRON PORISITY SANDSTONE
 TENR.LBS    07 635 01 00:   TENSION FROM RESISTIVITY
 CALR.IN     07 280 01 00:   CALIPER FROM RESISTIVITY
 SPR .MV     07 010 01 00:   SPONTANEOUS POTENTIAL
 GRR .GAPI   07 310 01 00:   GAMMA RAY FROM RESISTIVITY
 RFOC.OHMM   07 220 04 00:   RESISTIVITY FOCUSED LOG RES.
 RILD.OHMM   07 120 46 00:   DEEP INDUCTION RESISTIVITY
 RILM.OHMM   07 120 44 00:   INDUCTION LOG MEDIUM RESISTIVITY
 TENS.LBS    60 635 01 00:   TENSION
 AC  .US/F   60 250 00 00:   ACCOUSTIC
~PARAMETER INFORMATION
#MNEM.UNIT          VALUE    DESCRIPTION
#----------   ------------   ------------------------------
 EKB .F         5142.0000:   Kelly bushing
 EGL .F         5130.0000:   Ground level
 EDF .F            0.0000:   Drilling floor
 EPD .F         5130.0000:   Permanent datum
 TD  .F         3296.0000:   Total depth
 DATE.        28-APR-1986:   Date logged
 CLNT.            A2DTECH:   Client Code
 SL  . 210' FSL & 204' FWL:   Surface Location
 PD  .                 GL:   Permanent Datum
 DD  .F              3295:   Depth driller
 DL  .F              3290:   Depth logger
 BLI .F              3296:   Bottom log interval
 CS1 .IN            8.625:   Casing size
 CBD1.      8.625" @ 563':   Casing driller 1
 CBL1.F               560:   Casing logger 1
 BS1 .IN            7.875:   Bit size
 BSD1.F              3295:   Depth drilled with bit1
 DFT .        POLYMER KCL:   Type fluid in hole
 DFD .                8.9:   Density
 DFV .                 38:   Viscosity
 DFPH.                8.5:   pH
 DFL .                9.2:   Fluid loss
 MSS .           FLOWLINE:   Source of sample
 RMS .OHMM           .435:   Rm
 MST .F                74:   Rm Meas. temp.
 RMF .OHMM            .33:   Rmf
 MFST.F                74:   Rmf Meas. temp.
 RMC .OHMM            .54:   Rmc
 MCST.F                74:   Rmc Meas. temp.
 MFSS.               CALC:   Source Rmf.
 MCSS.               CALC:   Source Rmc.
 RMB .OHMM            .77:   Rm. at BHT
 BHT .F               119:   BHT.
 TCS .HRS               4:   Time Circ. stopped
 MRT .F               119:   Maximum recorded temp.
 LUN .            HL 6264:   Logging unit number
 LUL .           GILLETTE:   Logging unit location
 ENGI.      P.M. FAHLSING:   Recorded By
 WITN.             STRONG:   Witnessed by
 ORIG.         2.5" PRINT:   Origin of data
 UWI .     49025110710000:   Unique Well ID
 DICO. A2D TECHNOLOGIES, INC.:   Digitizing Company
 DAPD.                 12:   Feet Above Permanent Datum
~OTHER INFORMATION
~A    DEPT    TEND        DEN       CORR        CNC       TENR       CALR        SPR         GRR      RFOC       RILD       RILM       TENS         AC   
# ...
 1671.0000  -999.2500  -999.2500  -999.2500  -999.2500   -82.2220    11.2260   -43.7110    92.1850     7.3700     6.9590     7.2500  -999.2500  -999.2500
 1671.5000  -999.2500  -999.2500  -999.2500  -999.2500   -73.9870    11.1950   -43.7700    88.8440     7.5430     6.9530     7.2280  -999.2500  -999.2500
 1672.0000  -999.2500  -999.2500  -999.2500  -999.2500   -65.7520    11.1640   -43.8200    86.8850     7.7170     6.9540     7.2100  -999.2500  -999.2500
 1672.5000  -999.2500  -999.2500  -999.2500  -999.2500   -66.2090    11.1400   -43.8930    89.5300     7.8900     6.9670     7.2100  -999.2500  -999.2500
 1673.0000  -999.2500  -999.2500  -999.2500  -999.2500   -69.5030    11.1510   -43.8960    89.3280     8.0340     6.9860     7.2100  -999.2500  -999.2500
 1673.5000  -999.2500  -999.2500  -999.2500  -999.2500   -72.7970    11.1620   -43.8460    88.2180     7.9080     7.0040     7.2090  -999.2500  -999.2500
 1674.0000  -999.2500  -999.2500  -999.2500  -999.2500   -76.0920    11.1740   -43.1830    86.9360     7.7990     7.0230     7.2090  -999.2500  -999.2500
 1674.5000  -999.2500  -999.2500  -999.2500  -999.2500   -79.3860    11.1850   -42.4410    88.8020     7.6910     7.0410     7.2480  -999.2500  -999.2500
 1675.0000  -999.2500  -999.2500  -999.2500  -999.2500   -82.6800    11.1970   -41.6460    92.3730     7.5820     7.0590     7.3490  -999.2500  -999.2500
 1675.5000  -999.2500  -999.2500  -999.2500  -999.2500   -85.9740    11.2080   -40.8500    92.4660     7.4740     7.0780     7.4490  -999.2500  -999.2500
 1676.0000  -999.2500  -999.2500  -999.2500  -999.2500   -89.2680    11.2200   -40.1110    92.4050     7.4740     7.0960     7.6140  -999.2500  -999.2500
 1676.5000  -999.2500  -999.2500  -999.2500  -999.2500   -92.5620    11.2320   -39.1950    89.2660     7.4740     7.1150     7.6070  -999.2500  -999.2500
 1677.0000  -999.2500  -999.2500  -999.2500  -999.2500   -95.8560    11.2420   -39.6670    87.6320     7.4740     7.1330     7.7540  -999.2500  -999.2500
 1677.5000  -999.2500  -999.2500  -999.2500  -999.2500   -99.1500    11.2550   -40.8640    88.7450     7.4740     7.1510     7.7490  -999.2500  -999.2500
 1678.0000  -999.2500  -999.2500  -999.2500  -999.2500  -102.9410    11.2500   -42.0620    92.4180     7.5940     7.1700     7.7490  -999.2500  -999.2500
 1678.5000  -999.2500  -999.2500  -999.2500  -999.2500  -102.9410    11.2440   -43.2190    95.1840     7.7100     7.1880     7.7130  -999.2500  -999.2500
 1679.0000  -999.2500  -999.2500  -999.2500  -999.2500  -100.1960    11.2370   -44.2530    96.3810     7.7490     7.2090     7.6700  -999.2500  -999.2500
 1679.5000  -999.2500  -999.2500  -999.2500  -999.2500   -97.5950    11.2300   -44.2550    94.0690     7.7490     7.2090     7.6270  -999.2500  -999.2500
 1680.0000  -999.2500  -999.2500  -999.2500  -999.2500   -94.9950    11.2240   -44.1940    88.5460     7.7490     7.2100     7.5840  -999.2500  -999.2500
 1680.5000  -999.2500  -999.2500  -999.2500  -999.2500   -92.3940    11.2190   -44.0980    85.1930     7.7490     7.2090     7.5410  -999.2500  -999.2500
 1681.0000  -999.2500  -999.2500  -999.2500  -999.2500   -89.7940    11.2560   -44.0210    88.0520     7.7490     7.2090     7.4980  -999.2500  -999.2500
 1681.5000  -999.2500  -999.2500  -999.2500  -999.2500   -87.1930    11.2990   -43.9320    89.5730     7.7490     7.2090     7.4550  -999.2500  -999.2500
 1682.0000  -999.2500  -999.2500  -999.2500  -999.2500   -84.5920    11.3420   -43.8980    91.2010     7.6130     7.2090     7.4110  -999.2500  -999.2500
 1682.5000  -999.2500  -999.2500  -999.2500  -999.2500   -83.3330    11.3840   -43.9000    91.6880     7.4200     7.2090     7.3670  -999.2500  -999.2500
 1683.0000  -999.2500  -999.2500  -999.2500  -999.2500   -83.3330    11.4300   -43.8900    90.3370     7.2260     7.2090     7.3380  -999.2500  -999.2500
 1683.5000  -999.2500  -999.2500  -999.2500  -999.2500   -83.3330    11.4500   -43.9260    88.9030     7.0330     7.2090     7.3400  -999.2500  -999.2500
 1684.0000  -999.2500  -999.2500  -999.2500  -999.2500   -83.3330    11.4320   -43.5980    87.8340     6.8290     7.2090     7.3410  -999.2500  -999.2500
 1684.5000  -999.2500  -999.2500  -999.2500  -999.2500   -83.3330    11.4190   -42.9970    88.9420     6.7070     7.2090     7.3410  -999.2500  -999.2500
 1685.0000  -999.2500  -999.2500  -999.2500  -999.2500   -83.3330    11.4050   -42.4540    88.7590     6.8290     7.2090     7.3400  -999.2500  -999.2500
 1685.5000  -999.2500  -999.2500  -999.2500  -999.2500   -83.3330    11.3900   -41.9560    86.1960     6.9540     7.2090     7.3400  -999.2500  -999.2500
 1686.0000  -999.2500  -999.2500  -999.2500  -999.2500   -83.3330    11.3760   -41.9330    83.5670     7.4210     7.2090     7.3490  -999.2500  -999.2500
 1686.5000  -999.2500  -999.2500  -999.2500  -999.2500   -83.3330    11.3620   -41.9220    82.0410     7.7490     7.2090     7.3720  -999.2500  -999.2500
 1687.0000  -999.2500  -999.2500  -999.2500  -999.2500   -83.3330    11.3470   -41.9570    83.7130     7.7490     7.2090     7.3940  -999.2500  -999.2500
 1687.5000  -999.2500  -999.2500  -999.2500  -999.2500   -83.3330    11.3330   -42.0450    86.3210     7.7490     7.2090     7.4160  -999.2500  -999.2500
 1688.0000  -999.2500  -999.2500  -999.2500  -999.2500   -83.3330    11.3190   -42.1340    86.3980     7.7490     7.2090     7.4390  -999.2500  -999.2500
 1688.5000  -999.2500  -999.2500  -999.2500  -999.2500   -83.3330    11.3040   -42.2260    85.2260     7.8370     7.2090     7.4620  -999.2500  -999.2500
 1689.0000  -999.2500  -999.2500  -999.2500  -999.2500   -83.3330    11.2930   -42.3170    84.5020     8.0340     7.2090     7.4810  -999.2500  -999.2500
 1689.5000  -999.2500  -999.2500  -999.2500  -999.2500   -83.3330    11.3090   -42.4070    85.5670     7.8780     7.2090     7.4930  -999.2500  -999.2500
 1690.0000  -999.2500  -999.2500  -999.2500  -999.2500   -83.3330    11.3390   -42.4980    87.9560     7.8240     7.2090     7.5060  -999.2500  -999.2500
 1690.5000  -999.2500  -999.2500  -999.2500  -999.2500   -83.3330    11.3670   -42.5890    91.2420     7.7700     7.2090     7.5190  -999.2500  -999.2500
 1691.0000  -999.2500  -999.2500  -999.2500  -999.2500   -83.3330    11.3960   -42.6790    94.7790     7.7150     7.2090     7.5330  -999.2500  -999.2500
 1691.5000  -999.2500  -999.2500  -999.2500  -999.2500   -83.3330    11.4240   -42.7710    96.1330     7.6610     7.2090     7.5460  -999.2500  -999.2500
 1692.0000  -999.2500  -999.2500  -999.2500  -999.2500   -83.3330    11.4510   -42.8600    92.5550     7.6110     7.2090     7.5580  -999.2500  -999.2500
 1692.5000  -999.2500  -999.2500  -999.2500  -999.2500   -83.3330    11.4530   -42.9520    88.2180     7.6280     7.2090     7.5720  -999.2500  -999.2500
 1693.0000  -999.2500  -999.2500  -999.2500  -999.2500   -83.3330    11.4530   -43.0470    88.2210     7.6930     7.1660     7.5860  -999.2500  -999.2500
 1693.5000  -999.2500  -999.2500  -999.2500  -999.2500   -83.3330    11.4530   -43.0430    88.4640     7.7570     7.1180     7.5990  -999.2500  -999.2500
 1694.0000  -999.2500  -999.2500  -999.2500  -999.2500   -83.3330    11.4530   -42.7790    87.2980     7.8210     7.0690     7.6110  -999.2500  -999.2500
 1694.5000  -999.2500  -999.2500  -999.2500  -999.2500   -83.3330    11.4520   -42.5150    85.5620     7.8910     7.0200     7.4700  -999.2500  -999.2500
 1695.0000  -999.2500  -999.2500  -999.2500  -999.2500   -83.3330    11.4650   -42.2470    85.5610     7.7040     6.9720     7.3430  -999.2500  -999.2500
 1695.5000  -999.2500  -999.2500  -999.2500  -999.2500   -83.3330    11.4950   -41.9930    87.1600     7.5000     6.9230     7.2150  -999.2500  -999.2500
 1696.0000  -999.2500  -999.2500  -999.2500  -999.2500   -83.3330    11.5230   -41.6860    88.5090     7.2960     6.8740     7.0880  -999.2500  -999.2500
 1696.5000  -999.2500  -999.2500  -999.2500  -999.2500   -83.3330    11.5360   -41.5230    88.6230     7.0800     6.8260     6.9540  -999.2500  -999.2500
