~VERSION INFORMATION
 VERS.                2.0:   CWLS LOG ASCII STANDARD - VERSION 2.0
 WRAP.                 NO:   ONE LINE PER DEPTH STEP
~WELL INFORMATION
#MNEM.UNIT      DATA TYPE    INFORMATION
#----------   ------------   ------------------------------
 STRT.F           41.0000:   START DEPTH
 STOP.F          925.0000:   STOP DEPTH
 STEP.F            0.5000:   STEP LENGTH
 NULL.          -999.2500:   NO VALUE
 COMP. LAWRENCE ALLISON & ASSOCIATION:   COMPANY
 WELL. LAWRENCE ALLISON #48-2:   WELL
 FLD .       N.P.R. NO. 3:   FIELD
 LOC .       S2 T38N R78W:   LOCATION
 CNTY.            NATRONA:   COUNTY
 STAT.            WYOMING:   STATE
 CTRY. UNITED STATES OF AMERICA:   COUNTRY
 SRVC.       SCHLUMBERGER:   SERVICE COMPANY
 DATE.        06-SEP-1982:   LOGDATE
 API .     49025109110000:   API NUMBER
~CURVE INFORMATION
#MNEM.UNIT       API CODE    CURVE DESCRIPTION
#----------   ------------   ------------------------------
 DEPT.F                  :   
 ILM .OHMM   07 120 44 00:   INDUCTION LOG MEDIUM RESISTIVITY
 ILD .OHMM   07 120 46 00:   DEEP INDUCTION RESISTIVITY
 CALD.IN     45 280 60 00:   CALIPER FROM DENSITY LOG
 GRD .GAPI   45 310 01 00:   GAMMA RAY FROM DENSITY LOG
 TEND.LBS    45 635 01 00:   TENSION FROM DENSITY LOG
 CORR.G/C3   45 356 01 00:   DENSITY CORRECTION
 RHOB.G/C3   45 350 01 00:   BULK DENSITY
 NPHI.DEC    42 890 03 00:   NEUTRON POROSITY SANDSTONE
~PARAMETER INFORMATION
#MNEM.UNIT          VALUE    DESCRIPTION
#----------   ------------   ------------------------------
 EKB .F         5192.0000:   Kelly bushing
 EGL .F         5182.0000:   Ground level
 TD  .F          920.0000:   Total depth
 CLNT.            A2DTECH:   Client Code
 DATE.         6-SEP-1982:   Date Logged [DD-MMM-YYYY]
 DD  .F               920:   Depth driller
 DL  .F               918:   Depth logger
 BLI .F               908:   Bottom log interval
 TLI .F                49:   Top log interval
 CBL1.IN               49:   Casing logger 1
 BSD1.F               920:   Depth drilled with bit1
 DFT .                AIR:   Type fluid in hole
 TCS .HRS            0730:   Time Circ. stopped
 TLAB.HRS            0900:   Time logger at bottom
 LUN .               8035:   Logging unit number
 LUL .               CSPR:   Logging unit location
 ENGI.              PENNY:   Recorded By
 WITN.           JENNINGS:   Witnessed by
 ORIG.           5" PRINT:   Origin of data
 UWI .     49025109110000:   Unique Well ID
 DICO. A2D TECHNOLOGIES, INC.:   Digitizing Company
 PD  .                 GL:   Permanent Datum
 EPD .               5180:   Elevation Permanent Datum
 LMF .                 KB:   Log Measured From
 DMF .                 KB:   Drilling Measured From
 DAPD.                 10:   Feet Above Permanent Datum
~OTHER INFORMATION
~A   DEPT      ILM        ILD       CALD         GRD      TEND       CORR       RHOB       NPHI   
# ...
  729.5000     9.0360     8.9944    13.3108   140.5969   754.5462     0.0467     2.4867  -999.2500
  730.0000     9.0344     8.9956    13.2232   138.5509   754.2454     0.0420     2.4852  -999.2500
  730.5000     9.0331     8.9969    13.1797   137.8751   738.4853     0.0459     2.4930  -999.2500
  731.0000     9.0319     9.0633    13.1514   141.7833   738.1761     0.0553     2.4977  -999.2500
  731.5000     9.0954     9.1956    13.1229   144.5599   737.8116     0.0556     2.4899  -999.2500
  732.0000     9.2256     9.2632    13.1239   143.9000   737.5108     0.0373     2.4688  -999.2500
  732.5000     9.2911     9.3985    13.1249   139.7448   737.2100     0.0239     2.4540  -999.2500
  733.0000     9.4917     9.7433    13.1259   129.7969   736.9091     0.0279     2.4571  -999.2500
  733.5000     9.7669    10.1736    13.1417   119.6245   752.1395     0.0421     2.4696  -999.2500
  734.0000    10.1224    10.5468    13.1723   109.9052   720.8515     0.0508     2.4789  -999.2500
  734.5000    10.7192    11.0919    13.1733    93.1063   720.5506     0.0673     2.4766  -999.2500
  735.0000    11.5265    11.8339    13.1596    83.6082   735.7057     0.0643     2.4680  -999.2500
  735.5000    12.8224    12.7442    13.1310    80.7435   750.8609     0.0538     2.4333  -999.2500
  736.0000    13.7748    14.0633    13.1025    83.6386   766.0160     0.0498     2.4035  -999.2500
  736.5000    14.6921    15.0040    13.0585    86.3087   765.6399     0.0475     2.3580  -999.2500
  737.0000    15.7834    16.0077    13.0307    85.4390   765.3391     0.0483     2.3261  -999.2500
  737.5000    16.4758    16.9563    13.0318    83.2418   765.0382     0.0451     2.3042  -999.2500
  738.0000    17.0756    17.7051    13.0034    81.9293   749.3566     0.0404     2.3237  -999.2500
  738.5000    17.4450    17.7076    12.9602    82.1660   764.5117     0.0491     2.3510  -999.2500
  739.0000    17.8222    17.7100    12.9461    81.0633   764.1357     0.0530     2.3580  -999.2500
  739.5000    17.8196    17.8401    12.9474    79.4857   763.4609     0.0436     2.3167  -999.2500
  740.0000    18.0748    18.1006    12.9780    77.5694   748.0681     0.0286     2.2761  -999.2500
  740.5000    17.9531    18.2337    13.0085    76.6959   747.7020     0.0302     2.2707  -999.2500
  741.0000    17.9572    18.2368    12.9800    74.9450   747.4012     0.0467     2.2956  -999.2500
  741.5000    17.5889    18.1089    12.9072    73.8540   747.1003     0.0640     2.3198  -999.2500
  742.0000    17.2282    17.7255    12.8196    75.1966   746.7994     0.0718     2.3292  -999.2500
  742.5000    16.7575    17.2262    12.8056    80.3003   731.0426     0.0593     2.3190  -999.2500
  743.0000    16.6445    16.5023    12.8216    84.7403   730.7418     0.0373     2.2876  -999.2500
  743.5000    16.4175    16.0374    12.8226    90.9502   730.4409     0.0216     2.2816  -999.2500
  744.0000    16.0809    15.6979    12.8236    98.0451   730.1391     0.0200     2.3253  -999.2500
  744.5000    15.8623    15.4762    12.8247    99.6394   729.8299     0.0452     2.3510  -999.2500
  745.0000    15.7555    15.3678    12.8257    94.7569   729.4632     0.0780     2.3760  -999.2500
  745.5000    15.6486    15.4807    12.8267    87.9008   729.1624     0.0954     2.3783  -999.2500
  746.0000    15.5432    15.7073    12.8278    82.8053   728.8615     0.1001     2.3643  -999.2500
  746.5000    15.6566    16.0515    12.8290    84.0641   728.5607     0.0718     2.3417  -999.2500
  747.0000    16.3302    16.4032    12.8150    86.6357   743.7910     0.0404     2.3066  -999.2500
  747.5000    16.9142    16.8834    12.8456    87.0896   758.9460     0.0279     2.2808  -999.2500
  748.0000    17.6420    17.3777    12.8466    86.4449   758.5700     0.0177     2.2730  -999.2500
  748.5000    18.2730    18.0153    12.8479    84.0264   758.2690     0.0271     2.2722  -999.2500
  749.0000    18.9375    18.4346    12.8784    79.6169   757.9598     0.0404     2.2699  -999.2500
  749.5000    19.6045    19.2268    12.8942    79.4070   773.1234     0.0475     2.2660  -999.2500
  750.0000    20.0241    19.8609    12.8952    84.0721   772.8226     0.0451     2.2691  -999.2500
  750.5000    20.5960    20.3000    12.8962    87.1846   772.8237     0.0428     2.2778  -999.2500
  751.0000    20.8904    20.5787    12.8972    88.5368   772.8246     0.0491     2.2856  -999.2500
  751.5000    21.0415    20.7284    12.8982    86.7885   772.8257     0.0530     2.2731  -999.2500
  752.0000    20.7544    20.8793    12.8995    87.0366   772.8267     0.0506     2.2606  -999.2500
  752.5000    20.1873    20.7397    12.9005    88.1643   772.8277     0.0467     2.2560  -999.2500
  753.0000    19.6358    20.3157    12.8864    89.2921   772.8287     0.0467     2.2607  -999.2500
  753.5000    19.2331    19.7619    12.8727    90.4661   772.8297     0.0475     2.2841  -999.2500
  754.0000    18.8314    19.0895    12.8444    91.3263   772.8307     0.0507     2.3075  -999.2500
  754.5000    18.4329    18.6992    12.8306    90.4629   772.8317     0.0546     2.3266  -999.2500
  755.0000    17.9481    18.3168    12.8168    90.4898   772.8327     0.0786     2.3403  -999.2500
  755.5000    17.4587    17.9390    12.7883    91.1750   772.8337     0.0941     2.3419  -999.2500
  756.0000    16.9816    17.4532    12.7598    93.4089   772.8347     0.1004     2.3310  -999.2500
  756.5000    16.4027    17.0963    12.7610    91.4393   772.8358     0.0698     2.3045  -999.2500
  757.0000    15.7333    16.7479    12.7470    91.1550   772.8367     0.0384     2.2952  -999.2500
  757.5000    15.4106    16.4054    12.7483    93.4735   772.8378     0.0204     2.3108  -999.2500
  758.0000    15.2002    16.0689    12.7345    99.7387   772.8387     0.0125     2.3194  -999.2500
  758.5000    14.8885    15.6319    12.7355   103.0299   772.8398     0.0118     2.3132  -999.2500
  759.0000    14.6827    15.4195    12.7365   100.1807   772.8408     0.0151     2.3197  -999.2500
  759.5000    14.5866    15.1042    12.7079    97.1049   772.8418     0.0283     2.3273  -999.2500
  760.0000    14.4892    14.7953    12.7092    93.3653   772.8428     0.0440     2.3374  -999.2500
  760.5000    14.4925    14.7994    12.6952    90.5108   772.8438     0.0503     2.3382  -999.2500
  761.0000    14.4958    14.7005    12.6964    88.9782   772.8448     0.0441     2.3328  -999.2500
  761.5000    14.4991    14.6022    12.6824    89.6689   772.8458     0.0378     2.3328  -999.2500
  762.0000    14.6040    14.7095    12.6686    90.7966   772.8468     0.0355     2.3329  -999.2500
  762.5000    14.7097    14.8165    12.6551    93.1043   772.8478     0.0394     2.3282  -999.2500
  763.0000    14.7130    14.8206    12.6561    97.0397   772.8488     0.0418     2.3235  -999.2500
  763.5000    14.8195    14.8246    12.6574    96.1763   772.8499     0.0417     2.3212  -999.2500
  764.0000    14.8231    14.9325    12.6731    94.8650   772.8508     0.0379     2.3252  -999.2500
  764.5000    14.9302    14.9366    12.6889    95.9981   772.8519     0.0340     2.3174  -999.2500
  765.0000    15.0390    15.0453    12.6751    96.6834   772.8528     0.0286     2.3049  -999.2500
  765.5000    15.0424    15.0494    12.6611    94.0501   772.8539     0.0239     2.3003  -999.2500
  766.0000    15.0458    15.0535    12.6476    91.6380   772.8549     0.0192     2.3174  -999.2500
  766.5000    15.0492    15.0577    12.6486    92.5444   772.8558     0.0318     2.3292  -999.2500
  767.0000    15.0527    15.0619    12.6496    95.2861   772.8569     0.0420     2.3552  -999.2500
  767.5000    15.0561    15.0668    12.6509    99.0088   772.8578     0.0500     2.3651  -999.2500
  768.0000    15.0595    14.9651    12.6519    98.1400   772.8589     0.0507     2.3698  -999.2500
  768.5000    15.0629    14.9702    12.6529    99.0519   772.8599     0.0444     2.3644  -999.2500
  769.0000    14.9615    14.8692    12.6539   101.7283   772.8609     0.0405     2.3394  -999.2500
  769.5000    14.9577    14.7698    12.6549   103.7410   772.8619     0.0366     2.3238  -999.2500
