~VERSION INFORMATION
 VERS.                2.0:   CWLS LOG ASCII STANDARD - VERSION 2.0
 WRAP.                 NO:   ONE LINE PER DEPTH STEP
~WELL INFORMATION
#MNEM.UNIT      DATA TYPE    INFORMATION
#----------   ------------   ------------------------------
 STRT.F          444.0000:   START DEPTH
 STOP.F         3018.0000:   STOP DEPTH
 STEP.F            0.5000:   STEP LENGTH
 NULL.          -999.2500:   NO VALUE
 COMP.    FENIX & SCISSON:   COMPANY
 WELL.  FENIX "AX" #25-28:   WELL
 FLD .             TEAPOT:   FIELD
 LOC .      S28 T39N R78W:   LOCATION
 CNTY.            NATRONA:   COUNTY
 STAT.            WYOMING:   STATE
 CTRY. UNITED STATES OF AMERICA:   COUNTRY
 SRVC.              WELEX:   SERVICE COMPANY
 DATE.        01-DEC-1979:   LOGDATE
 API .     49025107940000:   API NUMBER
~CURVE INFORMATION
#MNEM.UNIT       API CODE    CURVE DESCRIPTION
#----------   ------------   ------------------------------
 DEPT.F                  :   
 SPR .MV     07 010 01 00:   SPONTANEOUS POTENTIAL
 RILM.OHMM   07 120 44 00:   INDUCTION LOG MEDIUM RESISTIVITY
 RILD.OHMM   07 120 46 00:   DEEP INDUCTION RESISTIVITY
 SGRD.OHMM   07 220 05 00:   SHALLOW GUARD LOG RESISTIVITY
 TENR.LBS    07 635 01 00:   TENSION FROM RESISTIVITY
 NPHI.DEC    42 890 03 00:   NEUTRON POROSITY SANDSTONE
 GRD .GAPI   45 310 01 00:   GAMMA RAY FROM DENSITY LOG
 CALD.IN     45 280 60 00:   CALIPER FROM DENSITY LOG
 RHOB.G/C3   45 350 01 00:   BULK DENSITY
 DCOR.G/C3   45 356 01 00:   DENSITY CORRECTION
 TEND.LBS    45 635 01 00:   TENSION FROM DENSITY LOG
~PARAMETER INFORMATION
#MNEM.UNIT          VALUE    DESCRIPTION
#----------   ------------   ------------------------------
 EKB .F         5092.0000:   Kelly bushing
 EGL .F         5082.0000:   Ground level
 EDF .F            0.0000:   Drilling floor
 TD  .F         3013.5000:   Total depth
 DATE.        01-DEC-1979:   Date logged
 CLNT.            A2DTECH:   Client Code
 SL  . 2267' FSL & 1070' FWL:   Surface Location
 PD  .                 GL:   Permanent Datum
 EPD .F              5082:   Elevation Permanent Datum
 LMF .                 KB:   Log Measured From
 DMF .                 KB:   Drilling Measured From
 DAPD.F                10:   Feet Above Permanent Datum
 DD  .F              3000:   Depth driller
 DL  .F            3013.5:   Depth logger
 BLI .F              3013:   Bottom log interval
 TLI .F               350:   Top log interval
 CS1 .IN            8.625:   Casing size
 CBD1.      8.625" @ 465':   Casing driller 1
 CBL1.F               462:   Casing logger 1
 BS1 .IN            7.875:   Bit size
 BSD1.F              3000:   Depth drilled with bit1
 DFT .           CHEM GEL:   Type fluid in hole
 DFD .                8.8:   Density
 DFV .                 55:   Viscosity
 DFPH.                  9:   pH
 DFL .                6.4:   Fluid loss
 MSS .           FLOWLINE:   Source of sample
 RMS .OHMM           1.53:   Rm
 MST .F                75:   Rm Meas. temp.
 RMF .OHMM           1.24:   Rmf
 MFST.F                75:   Rmf Meas. temp.
 RMC .OHMM           1.83:   Rmc
 MCST.F                75:   Rmc Meas. temp.
 MFSS.               MEAS:   Source Rmf.
 MCSS.               MEAS:   Source Rmc.
 RMB .OHMM           1.09:   Rm. at BHT
 BHT .F               105:   BHT.
 TCS .HRS             2.5:   Time Circ. stopped
 MRT .F               105:   Maximum recorded temp.
 LUN .                965:   Logging unit number
 LUL .             CASPER:   Logging unit location
 ENGI.            BENTSEN:   Recorded By
 WITN.           P. AMEND:   Witnessed by
 ORIG.           5" PRINT:   Origin of data
 UWI .     49025107940000:   Unique Well ID
 DICO. A2D TECHNOLOGIES, INC.:   Digitizing Company
~OTHER INFORMATION
~A   DEPT      SPR       RILM       RILD       SGRD       TENR       NPHI         GRD      CALD       RHOB       DCOR       TEND   
# ...
 2975.5000   -30.1370     5.0060     4.6790     6.1390  1206.8970     0.1320    86.1600     7.7500     2.4950    -0.0080  1734.6440
 2976.0000   -30.2010     5.2170     4.7950     6.7810  1206.8970     0.1260    86.9970     7.7470     2.5120     0.0100  1739.5450
 2976.5000   -30.2660     5.4280     5.0530     7.4220  1206.8970     0.1220    91.5180     7.7440     2.5100     0.0070  1744.4470
 2977.0000   -30.3330     5.6400     5.3100     7.7790  1206.8970     0.1210    99.8650     7.7410     2.5060     0.0010  1749.0120
 2977.5000   -30.2920     5.8510     5.5330     7.9700  1206.8970     0.1220   113.4450     7.7390     2.5120    -0.0010  1739.7010
 2978.0000   -30.2310     6.0780     5.6940     7.3270  1206.8970     0.1380   136.2190     7.7360     2.5230     0.0200  1730.9880
 2978.5000   -30.1690     6.0220     5.9660     7.1910  1206.8970     0.1490   151.0930     7.7330     2.5300     0.0260  1722.2750
 2979.0000   -30.1070     6.2510     5.9390     7.2210  1207.1320     0.1580   167.4640     7.7300     2.5220     0.0170  1713.5620
 2979.5000   -30.0450     6.2510     5.8890     7.2590  1207.8440     0.1600   149.1630     7.7290     2.5160     0.0130  1704.8480
 2980.0000   -29.9840     6.1930     5.8340     6.4290  1208.5560     0.1650    91.4060     7.7290     2.5090    -0.0030  1696.1350
 2980.5000   -29.9220     6.0670     5.6790     6.1930  1209.2679     0.1730    92.8590     7.7290     2.4980    -0.0090  1687.4220
 2981.0000   -29.8600     5.8690     5.5240     6.0220  1209.9800  -999.2500    73.1520     7.7290     2.4940    -0.0100  1678.7090
 2981.5000   -29.7980     5.6700     5.3980     6.0220  1210.6920  -999.2500    70.7550     7.7290     2.5050    -0.0020  1669.9600
 2982.0000   -29.7360     5.4710     5.2400     6.1930  1211.4041  -999.2500    70.8890     7.7290     2.5150     0.0050  1688.0400
 2982.5000   -29.6740     5.3190     5.0820     5.9660  1212.1160  -999.2500    68.8860     7.7290     2.5090    -0.0010  1706.1920
 2983.0000   -29.6120     5.2050     4.9250     5.5600  1212.8290  -999.2500    70.0110     7.7290     2.5110     0.0070  1724.3450
 2983.5000   -29.5510     5.0910     4.7670     5.2840  1213.5410  -999.2500    68.8880     7.7290     2.4940     0.0030  1742.4969
 2984.0000   -29.4890     4.9960     4.6360     5.2350  1214.2531  -999.2500    71.3270     7.7290     2.4860    -0.0010  1760.6500
 2984.5000   -29.4270     5.0210     4.7130     5.3830  1214.9650  -999.2500    70.5700     7.7290     2.4930     0.0000  1765.1650
 2985.0000   -29.3650     5.0420     4.7780     5.7450  1215.6770  -999.2500    72.6940     7.7290     2.5050    -0.0030  1758.6300
 2985.5000   -29.3030     5.0640     4.8580     5.8010  1216.3890  -999.2500    73.9290     7.7290     2.5190     0.0080  1752.0950
 2986.0000   -29.2410     5.0900     4.7780     5.5880  1217.1010  -999.2500    73.3250     7.7290     2.5130    -0.0060  1745.5601
 2986.5000   -29.1800     5.0600     4.6770     5.3830  1217.8130  -999.2500    74.4690     7.7290     2.5240     0.0020  1739.0250
 2987.0000   -29.1420     4.9820     4.6090     5.4850  1218.5250  -999.2500    69.7570     7.7290     2.5180     0.0130  1732.4900
 2987.5000   -29.1920     4.9040     4.5640     5.7470  1219.2371  -999.2500    70.7160     7.7290     2.5000    -0.0070  1725.9550
 2988.0000   -29.2390     4.8340     4.5190     5.5360  1219.9490  -999.2500    69.6290     7.7290     2.4740    -0.0270  1719.4200
 2988.5000   -29.2860     4.7170     4.4750     5.2350  1220.6610  -999.2500    71.3790     7.7290     2.4810    -0.0080  1712.8850
 2989.0000   -29.3330     4.6000     4.4210     5.1380  1221.3730  -999.2500    70.6590     7.7290     2.4910    -0.0040  1713.8621
 2989.5000   -29.3800     4.5080     4.3470     5.1210  1222.0850  -999.2500    71.7590     7.7290     2.4920    -0.0070  1722.9800
 2990.0000   -29.4270     4.5850     4.2730     5.1010  1222.7970  -999.2500    70.6260     7.7290     2.5000     0.0000  1732.0990
 2990.5000   -29.4730     4.6490     4.1990     5.0900  1223.5100  -999.2500    70.5170     7.7290     2.5170     0.0190  1741.2170
 2991.0000   -29.5220     4.7230     4.1250     4.9490  1224.2220  -999.2500    71.0940     7.7290     2.5290     0.0270  1750.3361
 2991.5000   -29.5360     4.5320     4.0680     4.9030  1224.9340  -999.2500    68.0160     7.7290     2.5270     0.0280  1759.4540
 2992.0000   -29.5370     4.2620     4.1070     4.9960  1225.6460  -999.2500    74.6830     7.7290     2.5090     0.0110  1768.5720
 2992.5000   -29.5340     4.2920     4.1400     5.1860  1226.3580  -999.2500  -999.2500     7.7290     2.4950    -0.0030  1777.6910
 2993.0000   -29.4650     4.3270     4.1800     5.2350  1227.0699  -999.2500  -999.2500     7.7290     2.4870    -0.0130  1786.8090
 2993.5000   -29.3970     4.3630     4.1220     5.0630  1228.1851  -999.2500  -999.2500     7.7290     2.4900    -0.0110  1778.1750
 2994.0000   -29.3300     4.3980     4.0260     4.7870  1229.3750  -999.2500  -999.2500     7.7290     2.4880    -0.0110  1765.3890
 2994.5000   -29.2620     4.4240     3.9550     4.5500  1230.5640  -999.2500  -999.2500     7.7290     2.4980     0.0040  1752.6040
 2995.0000   -29.1950     4.2910     3.9610     4.6360  1231.7531  -999.2500  -999.2500     7.7290     2.5070     0.0070  1739.8180
 2995.5000   -29.1280     4.1840     3.9700     4.9960  1232.9430  -999.2500  -999.2500     7.7310     2.5110     0.0010  1730.0220
 2996.0000   -29.0600     4.1060     3.9790     4.8270  1234.1320  -999.2500  -999.2500     7.7330     2.4900    -0.0180  1734.4771
 2996.5000   -28.9930     4.1300     3.9880     4.5500  1235.3220  -999.2500  -999.2500     7.7350     2.4900    -0.0120  1738.9330
 2997.0000   -28.9280     4.1580     3.9920     4.5500  1236.5110  -999.2500  -999.2500     7.7370     2.4920    -0.0090  1743.3879
 2997.5000   -28.8320     4.1860     3.9010     4.6360  1237.7000  -999.2500  -999.2500     7.7390     2.5020     0.0030  1747.8440
 2998.0000   -28.7400     4.2230     3.8300     4.6360  1238.8900  -999.2500  -999.2500     7.7410     2.5120     0.0160  1752.3000
 2998.5000   -28.6480     4.1700     3.7580     4.4240  1240.0790  -999.2500  -999.2500     7.7430     2.5210     0.0220  1756.7550
 2999.0000   -28.5490     4.0610     3.6870     4.4240  1241.2690  -999.2500  -999.2500     7.7450     2.5160     0.0150  1761.2111
 2999.5000   -28.7040     3.9180     3.6360     4.6360  1242.4580  -999.2500  -999.2500     7.7470     2.5030     0.0120  1765.6670
 3000.0000   -28.9500     3.9580     3.6760     4.6360  1243.6479  -999.2500  -999.2500     7.7480     2.4890    -0.0070  1768.4670
 3000.5000   -29.1990     4.0160     3.7110     4.5500  1244.8370  -999.2500  -999.2500     7.7460     2.4790    -0.0100  1767.4490
 3001.0000   -29.4530     4.0730     3.7470     4.5500  1246.0260  -999.2500  -999.2500     7.7430     2.4840    -0.0040  1766.4320
 3001.5000   -29.4310     4.1060     3.7750     4.9490  1247.2159  -999.2500  -999.2500     7.7400     2.4960     0.0090  1765.4139
 3002.0000   -29.2740     3.9820     3.6730     4.7350  1248.4050  -999.2500  -999.2500     7.7380     2.5100     0.0210  1764.3960
 3002.5000   -29.1160     3.8800     3.5890     4.1990  1249.5950  -999.2500  -999.2500     7.7350     2.5000     0.0100  1763.3790
 3003.0000   -28.9560     3.7790     3.5060     4.0680  1250.7841  -999.2500  -999.2500     7.7330     2.4890     0.0090  1762.3610
 3003.5000   -28.7970     3.6780     3.4220     4.0680  1251.9730  -999.2500  -999.2500     7.7300     2.4840     0.0130  1761.3430
 3004.0000   -28.6400     3.5760     3.3390     3.8690  1253.1630  -999.2500  -999.2500     7.7320     2.4710    -0.0010  1760.3260
 3004.5000   -28.5460     3.4500     3.2550     3.7050  1254.3521  -999.2500  -999.2500     7.7360     2.4590    -0.0170  1759.3080
 3005.0000   -28.6240     3.4900     3.1910     3.8160  1255.5420  -999.2500  -999.2500     7.7410     2.4590    -0.0120  1758.2900
 3005.5000   -28.6970     3.5720     3.1650     3.8880  1256.7310  -999.2500  -999.2500     7.7450     2.4620    -0.0070  1757.2729
