~VERSION INFORMATION
 VERS.                2.0:   CWLS LOG ASCII STANDARD - VERSION 2.0
 WRAP.                 NO:   ONE LINE PER DEPTH STEP
~WELL INFORMATION
#MNEM.UNIT      DATA TYPE    INFORMATION
#----------   ------------   ------------------------------
 STRT.F          387.0000:   START DEPTH
 STOP.F         2921.0000:   STOP DEPTH
 STEP.F            0.5000:   STEP LENGTH
 NULL.          -999.2500:   NO VALUE
 COMP.    FENIX & SCISSON:   COMPANY
 WELL.  FENIX  "A" #21-28:   WELL
 FLD .          N.P.R. #3:   FIELD
 LOC .      S28 T39N R78W:   LOCATION
 CNTY.            NATRONA:   COUNTY
 STAT.            WYOMING:   STATE
 CTRY. UNITED STATES OF AMERICA:   COUNTRY
 SRVC.       SCHLUMBERGER:   SERVICE COMPANY
 DATE.        30-APR-1977:   LOGDATE
 API .     49025103550000:   API NUMBER
~CURVE INFORMATION
#MNEM.UNIT       API CODE    CURVE DESCRIPTION
#----------   ------------   ------------------------------
 DEPT.F                  :   
 SPR .MV     07 010 01 00:   SPONTANEOUS POTENTIAL
 ILD .OHMM   07 120 46 00:   DEEP INDUCTION RESISTIVITY
 ILM .OHMM   07 120 44 00:   INDUCTION LOG MEDIUM RESISTIVITY
 LL8 .OHMM   07 220 08 00:   LATEROLOG-8 RES.
 GRD .GAPI   45 310 01 00:   GAMMA RAY FROM DENSITY LOG
 CALD.IN     45 280 60 00:   CALIPER FROM DENSITY LOG
 CORR.G/C3   45 356 01 00:   DENSITY CORRECTION
 RHOB.G/C3   45 350 01 00:   BULK DENSITY
~PARAMETER INFORMATION
#MNEM.UNIT          VALUE    DESCRIPTION
#----------   ------------   ------------------------------
 EKB .F         4977.0000:   Kelly bushing
 EGL .F         4967.0000:   Ground level
 EDF .F            0.0000:   Drilling floor
 TD  .F         2922.0000:   Total depth
 CLNT.            A2DTECH:   Client Code
 SL  . 330' FNL & 990' FWL:   Surface Location
 DATE.        30-APR-1977:   Date Logged [DD-MMM-YYYY]
 DD  .F              2915:   Depth driller
 DL  .F              2922:   Depth logger
 BLI .F              2916:   Bottom log interval
 TLI .F               394:   Top log interval
 CS1 .              8.625:   Casing size
 CBD1.      8.625" @ 390':   Casing driller 1
 CBL1.IN              394:   Casing logger 1
 BS1 .IN            7.875:   Bit size
 BSD1.F              2915:   Depth drilled with bit1
 DFT .            KCL MUD:   Type fluid in hole
 DFD .                8.9:   Density
 DFV .                 87:   Viscosity
 DFPH.                8.5:   pH
 DFL .                9.6:   Fluid loss
 MSS .                PIT:   Source of sample
 RMS .OHMM           0.25:   Rm
 MST .F                70:   Rm Meas. temp.
 RMF .OHMM           0.22:   Rmf
 MFST.F                70:   Rmf Meas. temp.
 MFSS.               MEAS:   Source Rmf.
 RMC .OHMM           0.38:   Rmc
 MCST.F                70:   Rmc Meas. temp.
 MCSS.               CALC:   Source Rmc.
 RMB .OHMM           0.09:   Rm. at BHT
 BHT .F               109:   BHT.
 TCS .HRS            1800:   Time Circ. stopped
 TLAB.HRS            2200:   Time logger at bottom
 MRT .F               109:   Maximum recorded temp.
 LUN .                711:   Logging unit number
 LUL .             CASPER:   Logging unit location
 ENGI.              SYLER:   Recorded By
 WITN.         PETTINGILL:   Witnessed by
 ORIG.           5" PRINT:   Origin of data
 UWI .     49025103550000:   Unique Well ID
 DICO. A2D TECHNOLOGIES, INC.:   Digitizing Company
 PD  .                 GL:   Permanent Datum
 EPD .F              4967:   Elevation Permanent Datum
 LMF .                 KB:   Log Measured From
 DMF .                 KB:   Drilling Measured From
 DAPD.F                10:   Feet Above Permanent Datum
~OTHER INFORMATION
~A   DEPT      SPR        ILD        ILM        LL8         GRD      CALD       CORR       RHOB   
# ...
 1237.5000   -11.3270     8.1327     8.1575     8.7826   111.7624     9.0138     0.0322     2.5590
 1238.0000   -11.3150     8.1344     8.2131     8.9058   112.3975     9.0157     0.0236     2.5504
 1238.5000   -11.3030     8.1358     8.1552     8.9684   113.6537     9.0177     0.0120     2.5466
 1239.0000   -11.2909     8.1374     8.0977     9.0312   118.1708     9.0197     0.0066     2.5381
 1239.5000   -11.1279     8.1391     8.0966     9.0319   119.8929     9.0217     0.0043     2.5210
 1240.0000   -11.1158     8.1411     8.2083     9.0325   113.6956     9.0236     0.0136     2.5342
 1240.5000   -11.1038     8.1425     8.3219     9.0331   111.5357     9.0256     0.0260     2.5404
 1241.0000   -11.0917     8.1442     8.4954     9.0338   113.5683     9.0276     0.0213     2.5381
 1241.5000   -10.9287     8.1459     8.5532     9.0344   113.8929     9.0296     0.0167     2.5382
 1242.0000   -10.9166     8.1476     8.5520     9.0351   111.8882     9.0315     0.0136     2.5446
 1242.5000   -10.7535     8.1494     8.4918     9.0357   111.7469     9.0335     0.0221     2.5510
 1243.0000   -10.8956     8.1511     8.3160     9.0363   114.2453     9.0355     0.0298     2.5599
 1243.5000   -10.8805     8.1528     8.2575     9.0998   115.1910     9.0375     0.0260     2.5500
 1244.0000   -10.8685     8.1546     8.1427     9.1005   115.2050     8.9922     0.0159     2.5334
 1244.5000   -10.7054     8.1563     8.0854     9.0383   114.1320     8.9972     0.0128     2.5320
 1245.0000   -10.6934     8.1012     8.0285     8.9660   113.0590     9.0022     0.0159     2.5417
 1245.5000   -10.8354     8.1034     7.9169     8.8534   111.8307     9.0073     0.0283     2.5500
 1246.0000   -10.9744     8.1051     7.8612     8.7929   110.7578     9.0124     0.0477     2.5623
 1246.5000   -11.1134     8.1068     7.8600     8.7327   110.4612     9.0175     0.0508     2.5678
 1247.0000   -11.0984     8.1082     7.8591     8.7334   111.5621     9.0226     0.0368     2.5562
 1247.5000   -11.2374     8.1098     7.9127     8.7947   114.2158     9.0277     0.0407     2.5639
 1248.0000   -11.2254     8.1115     7.9666     8.8565   114.3851     9.0328     0.0446     2.5810
 1248.5000   -11.2133     8.1697     8.0208     8.9187   113.1568     9.0378     0.0461     2.5857
 1249.0000   -11.3554     8.1714     8.1315     8.9194   111.9286     9.0429     0.0430     2.6004
 1249.5000   -11.4944     8.2301     8.3587     8.9200   111.4767     9.0480     0.0345     2.5849
 1250.0000   -11.4794     8.2318     8.4744     8.9230   111.3354     9.0531     0.0260     2.5772
 1250.5000   -11.4673     8.2336     8.1329     8.9530   111.5047     9.0582     0.0275     2.5741
 1251.0000   -11.6063     8.2353     7.9682     8.9830   111.5132     9.0633     0.0334     2.5730
 1251.5000   -11.5943     8.2371     7.9165     8.9414   113.3874     9.0671     0.0406     2.5724
 1252.0000   -11.5823     8.2388     7.8651     8.9482   115.8826     9.0697     0.0476     2.5755
 1252.5000   -11.4192     8.1971     7.9790     8.9550   116.8251     9.0723     0.0467     2.5817
 1253.0000   -11.2561     8.2598     8.1498     8.9619   116.3701     9.0749     0.0457     2.5832
 1253.5000   -11.0930     8.2644     8.2099     8.9687   114.5175     9.0775     0.0289     2.5576
 1254.0000   -11.2320     8.2690     8.3278     8.9755   113.7516     9.0801     0.0367     2.5769
 1254.5000   -11.2200     8.2735     8.2729     8.9186   114.2286     9.0827     0.0474     2.5668
 1255.0000   -11.2080     8.2781     8.2772     8.9270   115.3264     9.0853     0.0381     2.5567
 1255.5000   -11.1959     8.2827     8.3382     8.9338   117.0452     9.0880     0.0264     2.5520
 1256.0000   -11.3349     8.2873     8.2833     8.9406   119.3852     9.0906     0.0194     2.5473
 1256.5000   -11.3229     8.2334     8.2295     8.8856   119.7112     9.0932     0.0163     2.5543
 1257.0000   -11.3109     8.2965     8.1761     8.8924   112.4193     9.0958     0.0232     2.5705
 1257.5000   -11.4501     8.3011     8.1231     8.8991   107.9141     9.1128     0.0309     2.5798
 1258.0000   -11.4379     8.3057     8.0703     8.9059   105.5587     9.1291     0.0379     2.5829
 1258.5000   -11.4258     8.3102     8.2440     9.0371   102.0480     9.1607     0.0417     2.5914
 1259.0000   -11.4138     8.3148     8.4206     9.2339   102.5791     9.2065     0.0510     2.5813
 1259.5000   -11.2507     8.3195     8.3660     9.5668   105.7267     9.2239     0.0277     2.5743
 1260.0000   -11.2387     8.3241     8.2543     9.8432   109.7829     9.2379     0.0215     2.5835
 1260.5000   -11.2266     8.3287     8.1999     9.7826   113.7620     9.2536     0.0346     2.5812
 1261.0000   -11.2145     8.3333     8.0905     8.6419   112.7330     9.2538     0.0346     2.5633
 1261.5000   -11.2024     8.3379     8.0380     8.2389   111.5849     9.2540     0.0299     2.5594
 1262.0000   -11.1903     8.4006     8.0422     8.3603   111.7536     9.2542     0.0144     2.5547
 1262.5000   -11.3296     8.4052     7.9348     8.6018   112.2303     9.2543     0.0159     2.5624
 1263.0000   -11.3172     8.3506     7.8289     8.8503   113.7939     9.2545     0.0228     2.5671
 1263.5000   -11.3052     8.2401     7.8322     8.9806   115.8233     9.2546     0.0251     2.5686
 1264.0000   -11.2931     8.1877     7.8899     9.0501   118.1633     9.2392     0.0235     2.5530
 1264.5000   -11.2809     8.1934     7.9480     8.9328   118.4847     9.2394     0.0212     2.5437
 1265.0000   -11.2689     8.1979     8.0622     8.8761   117.4085     9.2395     0.0173     2.5452
 1265.5000   -11.2568     8.2024     8.1216     8.7606   115.2454     9.2397     0.0149     2.5522
 1266.0000   -11.0913     8.2070     8.0127     8.7689   112.9270     9.2398     0.0219     2.5576
 1266.5000   -11.0792     8.2115     8.1286     8.9599   111.5403     9.2400     0.0265     2.5544
 1267.0000   -11.0672     8.2161     8.2454     9.2188   110.4642     9.2557     0.0218     2.5552
 1267.5000   -11.0551     8.2206     8.3062     9.0988   110.0065     9.2559     0.0249     2.5575
 1268.0000   -11.0431     8.2248     8.3096     8.9184   110.4858     9.2560     0.0326     2.5567
 1268.5000   -10.8800     8.2293     8.3131     8.6811   112.0494     9.2562     0.0349     2.5442
 1269.0000   -10.8680     8.2340     8.3165     8.5090   112.9919     9.2563     0.0287     2.5409
 1269.5000   -10.8560     8.2959     8.2055     8.5747   114.0897     9.2565     0.0240     2.5458
 1270.0000   -10.8439     8.3005     8.0952     8.8224   114.7216     9.2566     0.0193     2.5372
 1270.5000   -10.8319     8.3629     8.0994     8.9523   114.5771     9.2568     0.0224     2.5418
 1271.0000   -10.8198     8.4257     8.1028     8.7142   113.8115     9.2569     0.0340     2.5456
 1271.5000   -10.8078     8.4891     8.1061     8.5412   112.2695     9.2726     0.0339     2.5479
 1272.0000   -10.7958     8.5529     8.1658     8.6073   111.6565     9.2728     0.0300     2.5526
 1272.5000   -10.7837     8.6242     8.3407     8.7948   115.3967     9.2885     0.0246     2.5556
 1273.0000   -10.7717     8.7425     8.4606     9.1118   116.6471     9.2731     0.0214     2.5571
 1273.5000   -10.7597     8.7473     8.5821     9.3751   108.9839     9.2888     0.0206     2.5672
 1274.0000   -10.7476     8.7522     8.5857     9.5793   105.3342     9.2890     0.0253     2.5656
 1274.5000   -10.8897     8.7570     8.5892     9.4546   107.5216     9.2891     0.0252     2.5563
 1275.0000   -10.8746     8.7011     8.5326     9.1395   109.7063     9.2893     0.0205     2.5524
 1275.5000   -10.7115     8.6457     8.4773     8.9575   111.2699     9.3050     0.0213     2.5547
 1276.0000   -10.6995     8.5907     8.4817     8.8417   112.6782     9.3051     0.0268     2.5656
 1276.5000   -10.6875     8.5361     8.4266     8.9151   113.7760     9.3208     0.0409     2.5794
 1277.0000   -10.6754     8.5420     8.4301     9.1709   111.6129     9.3365     0.0460     2.5683
 1277.5000   -10.6634     8.4861     8.3754     9.2382   110.9999     9.3212     0.0279     2.5458
