~VERSION INFORMATION
 VERS.                2.0:   CWLS LOG ASCII STANDARD - VERSION 2.0
 WRAP.                 NO:   ONE LINE PER DEPTH STEP
~WELL INFORMATION
#MNEM.UNIT      DATA TYPE    INFORMATION
#----------   ------------   ------------------------------
 STRT.F          712.0000:   START DEPTH
 STOP.F         3352.0000:   STOP DEPTH
 STEP.F            0.5000:   STEP LENGTH
 NULL.          -999.2500:   NO VALUE
 COMP.    FENIX & SCISSON:   COMPANY
 WELL. FENIX & SCISSON "AX" #24-14:   WELL
 FLD .              NPR 3:   FIELD
 LOC .      S14 T38N R78W:   LOCATION
 CNTY.            NATRONA:   COUNTY
 STAT.            WYOMING:   STATE
 CTRY. UNITED STATES OF AMERICA:   COUNTRY
 SRVC.       SCHLUMBERGER:   SERVICE COMPANY
 DATE.        19-JUN-1981:   LOGDATE
 API .     49025108750000:   API NUMBER
~CURVE INFORMATION
#MNEM.UNIT       API CODE    CURVE DESCRIPTION
#----------   ------------   ------------------------------
 DEPT.F                  :   
 TENR.LBS    07 635 01 00:   TENSION
 ILD .OHMM   07 120 46 00:   DEEP INDUCTION RESISTIVITY
 SFL .OHMM   07 220 01 00:   SHALLOW FOCUSED LOG RESISTIVITY
 ILM .OHMM   07 120 44 00:   INDUCTION LOG MEDIUM RESISTIVITY
 SPR .MV     07 010 01 00:   SPONTANEOUS POTENTIAL
 TEND.LBS    45 635 01 00:   TENSION FROM DENSITY LOG
 DRHO.G/C3   45 356 01 00:   DENSITY CORRECTION
 CALD.IN     45 280 60 00:   CALIPER FROM DENSITY LOG
 GRD .GAPI   45 310 01 00:   GAMMA RAY FROM DENSITY LOG
 RHOB.G/C3   45 350 01 00:   BULK DENSITY
~PARAMETER INFORMATION
#MNEM.UNIT          VALUE    DESCRIPTION
#----------   ------------   ------------------------------
 EKB .F         5216.0000:   Kelly bushing
 EGL .F         5206.0000:   Ground level
 EDF .F         5215.0000:   Drilling floor
 EPD .F            0.0000:   Permanent datum
 TD  .F         3360.0000:   Total depth
 DATE.        19-JUN-1981:   Date logged
 CLNT.            A2DTECH:   Client Code
 SL  . 2413' FNL & 827' FWL:   Surface Location
 PD  .                 GL:   Permanent Datum
 DAPD.F                10:   Feet Above Permanent Datum
 DD  .F              3360:   Depth driller
 DL  .F              3348:   Depth logger
 BLI .F              3342:   Bottom log interval
 TLI .F               728:   Top log interval
 CS1 .IN            8.625:   Casing size
 CBD1.      8.625" @ 728':   Casing driller 1
 CBL1.F               728:   Casing logger 1
 BS1 .IN            7.875:   Bit size
 BSD1.F              3360:   Depth drilled with bit1
 DFT .                FGM:   Type fluid in hole
 DFD .                  9:   Density
 DFV .                 45:   Viscosity
 DFPH.                9.5:   pH
 DFL .                 10:   Fluid loss
 MSS .               TANK:   Source of sample
 RMS .OHMM           5.71:   Rm
 MST .F                68:   Rm Meas. temp.
 RMF .OHMM           1.27:   Rmf
 MFST.F                68:   Rmf Meas. temp.
 MFSS.               MEAS:   Source Rmf.
 RMB .OHMM           3.29:   Rm. at BHT
 BHT .F               118:   BHT.
 TCS .HRS            0800:   Time Circ. stopped
 TLAB.HRS            1130:   Time logger at bottom
 MRT .F               118:   Maximum recorded temp.
 LUN .               8039:   Logging unit number
 LUL .               CSPR:   Logging unit location
 ENGI.           G. PFARR:   Recorded By
 WITN.           R. SCOTT:   Witnessed by
 ORIG.           5" PRINT:   Origin of data
 UWI .     49025108750000:   Unique Well ID
 DICO. A2D TECHNOLOGIES, INC.:   Digitizing Company
~OTHER INFORMATION
~A   DEPT     TENR        ILD        SFL        ILM        SPR       TEND       DRHO       CALD         GRD      RHOB   
# ...
 2085.5000  1119.8430    10.7850    12.2700     9.3530   -49.5910  1171.5540     0.0100     8.2650   128.7830     2.4890
 2086.0000  1119.8430    10.8100    13.1550     9.4120   -49.5430  1172.1560     0.0070     8.2650   128.0020     2.4790
 2086.5000  1119.8430    10.7170    14.1000     9.4730   -49.4720  1172.7581     0.0030     8.2650   122.7820     2.4690
 2087.0000  1119.8430    10.6360    15.0450     9.5240   -49.4120  1173.3600     0.0050     8.2650   117.8940     2.4610
 2087.5000  1119.8430    10.5540    15.2460     9.3100   -49.0450  1173.9620     0.0070     8.2650   115.4760     2.4640
 2088.0000  1119.8430    10.4730    14.6240     9.1290   -49.0230  1174.5640     0.0100     8.2650   117.2050     2.4710
 2088.5000  1119.8430    10.2850    13.5990     8.9480   -48.6420  1175.1650     0.0100     8.2650   122.9060     2.4770
 2089.0000  1119.8430     9.9530    12.5730     8.7670   -48.2300  1175.7670     0.0060     8.2650   127.3050     2.4780
 2089.5000  1119.8430     9.6220    11.5480     8.5860   -47.8060  1176.3690     0.0010     8.2650   129.1880     2.4760
 2090.0000  1119.8430     9.2900    11.2090     8.4050   -47.3910  1176.9709     0.0030     8.2650   130.9080     2.4740
 2090.5000  1119.8430     8.9580    11.2090     8.2410   -46.9360  1177.5730     0.0070     8.2650   141.0760     2.4840
 2091.0000  1119.8430     8.7900    11.2090     7.9790   -46.7150  1178.1750     0.0110     8.2650   145.5830     2.4910
 2091.5000  1119.8430     8.6910    10.9550     7.7390   -46.8410  1178.7760     0.0130     8.2650   150.5830     2.4900
 2092.0000  1119.8430     8.5920    10.4670     7.3930   -46.9260  1179.3781     0.0120     8.2650   150.7210     2.4860
 2092.5000  1119.8430     8.4930    10.0560     7.4140   -47.0180  1179.9800     0.0110     8.2650   146.9920     2.4850
 2093.0000  1119.8430     8.3910    10.3100     7.4520   -47.1160  1180.5560     0.0100     8.2650   145.1970     2.4920
 2093.5000  1119.8430     8.3450    10.5300     7.4900   -47.2060  1180.5560     0.0080     8.2650   141.8960     2.4990
 2094.0000  1119.8430     8.2980    10.7500     7.5280   -47.3020  1180.5560     0.0050     8.2650   138.4130     2.4990
 2094.5000  1119.8430     8.2500    11.0080     7.4850   -47.3950  1180.5560     0.0020     8.2650   135.0090     2.4900
 2095.0000  1119.8430     8.2030    10.8380     7.4430   -47.4770  1180.5560     0.0040     8.2650   134.1750     2.4890
 2095.5000  1119.8430     8.1560    10.6320     7.4010   -47.4800  1180.5560     0.0090     8.2650   138.1320     2.4960
 2096.0000  1119.8430     8.0930    10.4270     7.3590   -47.4840  1180.5560     0.0190     8.2650   139.4050     2.5100
 2096.5000  1119.8430     8.1160    10.2210     7.3170   -47.4730  1180.5560     0.0310     8.2650   137.4850     2.5240
 2097.0000  1119.8430     8.1500    10.0160     7.2750   -47.4930  1180.5560     0.0360     8.2650   135.2320     2.5280
 2097.5000  1119.8430     8.1840     9.8750     7.2330   -47.4730  1180.5560     0.0390     8.2650   135.4450     2.5280
 2098.0000  1119.8430     8.2180     9.8750     7.1910   -47.4170  1180.5560     0.0300     8.2650   135.1510     2.5200
 2098.5000  1119.8430     8.2410    10.0150     7.1300   -47.0520  1180.5560     0.0210     8.2650   134.8790     2.5120
 2099.0000  1119.8430     8.4290    10.4180     7.3330   -47.0360  1180.5560     0.0130     8.2650   134.8000     2.5030
 2099.5000  1119.8430     8.6280    10.8220     7.6950   -46.6610  1180.5560     0.0070     8.2650   135.3780     2.4960
 2100.0000  1119.8430     8.8260    11.2250     8.0580   -46.7210  1180.5560     0.0050     8.2650   137.5710     2.4940
 2100.5000  1119.8430     9.0210    11.6220     8.4210   -46.7020  1180.5560     0.0070     8.2650   140.1120     2.4970
 2101.0000  1119.8430     9.1640    11.2430     8.6890   -46.7040  1180.5560     0.0090     8.2650   139.3210     2.4990
 2101.5000  1119.8430     9.3530    10.4950     8.6400   -46.7120  1180.5560     0.0100     8.2650   137.9530     2.4940
 2102.0000  1119.8430     9.3260     9.7480     8.5900   -46.6870  1180.5560     0.0110     8.2650   136.4410     2.4860
 2102.5000  1119.8430     9.2190     9.3530     8.5440   -46.7430  1180.5560     0.0100     8.2650   136.4260     2.4790
 2103.0000  1119.8430     9.0980     9.5330     8.3590   -46.3970  1180.5560     0.0080     8.2650   136.8530     2.4790
 2103.5000  1119.8430     8.9690    10.1500     8.1870   -46.3110  1180.5560     0.0080     8.2650   137.3020     2.4900
 2104.0000  1119.8430     8.8400    10.8100     8.0160   -46.3060  1180.5560     0.0110     8.2650   137.6700     2.5000
 2104.5000  1119.8430     8.7110    10.5880     7.8440   -46.3970  1180.5560     0.0140     8.2650   138.1820     2.5030
 2105.0000  1119.8430     8.5830    10.3480     7.6650   -46.7530  1180.5560     0.0190     8.2650   137.9620     2.5060
 2105.5000  1119.8430     8.4540    10.1080     7.5700   -46.6750  1180.5560     0.0240     8.2650   137.0960     2.5080
 2106.0000  1119.8430     8.3250    10.2140     7.4710   -47.2660  1180.5560     0.0240     8.2650   137.0800     2.5040
 2106.5000  1119.8430     8.1960    10.4180     7.3720   -47.1880  1180.5560     0.0160     8.2650   140.4600     2.4920
 2107.0000  1119.8430     8.0680    10.6160     7.2730   -47.0930  1180.5560     0.0080     8.2650   141.1240     2.4800
 2107.5000  1119.8430     7.9390    10.2780     7.1740   -47.0670  1180.5560     0.0050     8.2650   143.5240     2.4730
 2108.0000  1119.8430     7.8100     9.9480     7.0750   -47.3030  1180.5560     0.0070     8.2650   144.6020     2.4750
 2108.5000  1119.8430     7.6650     9.6180     6.9920   -47.4980  1180.5560     0.0090     8.2650   142.1760     2.4760
 2109.0000  1119.8430     7.6380     9.1860     6.9520   -47.5510  1180.5560     0.0120     8.2650   139.2310     2.4820
 2109.5000  1119.8430     7.6060     9.2230     6.9130   -47.8960  1180.5560     0.0200     8.2650   136.8220     2.5100
 2110.0000  1119.8430     7.5750     9.2760     6.8730   -47.5750  1180.5560     0.0320     8.2650   133.3280     2.5500
 2110.5000  1119.8430     7.5430     9.3290     6.8340   -47.2870  1180.5560     0.0380     8.2650   132.6790     2.5410
 2111.0000  1120.2371     7.5120     9.3530     6.7940   -46.9760  1180.5560     0.0230     8.2650   132.3060     2.5210
 2111.5000  1120.6580     7.4800     9.3530     6.7530   -46.6640  1180.5560     0.0150     8.2650   132.4690     2.5010
 2112.0000  1121.0780     7.4490     9.3530     6.7980   -46.3610  1180.5560     0.0130     8.2650   132.8910     2.4920
 2112.5000  1121.4990     7.4020     9.3530     6.8440   -46.0540  1180.5560     0.0100     8.2650   133.3700     2.4850
 2113.0000  1121.9189     7.4090     9.3840     6.8900   -45.8270  1180.5560     0.0050     8.2650   133.1860     2.4780
 2113.5000  1122.3400     7.4830     9.4150     6.9360   -45.6710  1180.5560     0.0030     8.2650   132.7770     2.4790
 2114.0000  1122.7610     7.5570     9.4460     6.9820   -45.5340  1180.5560     0.0130     8.2650   132.5400     2.4980
 2114.5000  1123.1810     7.6310     9.4770     7.0280   -45.5140  1180.5560     0.0260     8.2650   132.7730     2.5190
 2115.0000  1123.6021     7.7050     9.5080     7.0740   -45.1640  1180.5560     0.0220     8.2650   132.0970     2.5200
 2115.5000  1124.0220     7.7790     9.6180     7.1200   -45.3990  1180.5560     0.0150     8.2650   130.6920     2.5090
 2116.0000  1124.4430     7.8530     9.8110     7.1660   -45.6360  1180.5560     0.0080     8.2650   129.7670     2.4950
 2116.5000  1124.8640     7.9270    10.0040     7.2120   -46.6380  1180.5560     0.0030     8.2650   131.9780     2.4840
 2117.0000  1125.2841     8.0010    10.1290     7.2600   -46.6190  1180.5560     0.0080     8.2650   134.1710     2.4820
 2117.5000  1125.7050     8.0750    10.2300     7.3100   -47.1100  1180.5560     0.0130     8.2650   134.6880     2.4850
 2118.0000  1126.1250     8.1150    10.3310     7.3620   -47.0860  1180.5560     0.0180     8.2650   133.7050     2.4920
 2118.5000  1126.5460     8.1440    10.4320     7.4140   -47.0910  1180.5560     0.0230     8.2650   133.5740     2.4980
