~VERSION INFORMATION
 VERS.                2.0:   CWLS LOG ASCII STANDARD - VERSION 2.0
 WRAP.                 NO:   ONE LINE PER DEPTH STEP
~WELL INFORMATION
#MNEM.UNIT      DATA TYPE    INFORMATION
#----------   ------------   ------------------------------
 STRT.F          514.0000:   START DEPTH
 STOP.F         4154.0000:   STOP DEPTH
 STEP.F            0.5000:   STEP LENGTH
 NULL.          -999.2500:   NO VALUE
 COMP.    FENIX & SCISSON:   COMPANY
 WELL.  FENIX "MX" #86-10:   WELL
 FLD .        TEAPOT DOME:   FIELD
 LOC .      S10 T38N R78W:   LOCATION
 CNTY.            NATRONA:   COUNTY
 STAT.            WYOMING:   STATE
 CTRY. UNITED STATES OF AMERICA:   COUNTRY
 SRVC.       SCHLUMBERGER:   SERVICE COMPANY
 DATE.        30-SEP-1978:   LOGDATE
 API .     49025107290000:   API NUMBER
~CURVE INFORMATION
#MNEM.UNIT       API CODE    CURVE DESCRIPTION
#----------   ------------   ------------------------------
 DEPT.F                  :   
 SPR .MV     07 010 01 00:   SPONTANEOUS POTENTIAL
 TENR.LBS    07 635 01 00:   TENSION FROM RESISTIVITY
 SFL .OHMM   07 220 01 00:   SHALLOW FOCUSED LOG RESISTIVITY
 ILM .OHMM   07 120 44 00:   INDUCTION LOG MEDIUM RESISTIVITY
 ILD .OHMM   07 120 46 00:   INDUCTION LOG DEEP RESISTIVITY
 CALD.IN     45 280 60 00:   CALIPER FROM DENSITY LOG
 GRD .GAPI   45 310 01 00:   GAMMA RAY FROM DENSITY LOG
 TEND.LBS    45 635 01 00:   TENSION FROM DENSITY LOG
 CORR.G/C3   45 356 01 00:   DENSITY CORRECTION
 RHOB.G/C3   45 350 01 00:   BULK DENSITY
 NPHI.DEC    42 890 03 00:   NEUTRON POROSITY SANDSTONE
~PARAMETER INFORMATION
#MNEM.UNIT          VALUE    DESCRIPTION
#----------   ------------   ------------------------------
 EKB .F         5233.0000:   Kelly bushing
 EGL .F         5222.0000:   Ground level
 EDF .F            0.0000:   Drilling floor
 TD  .F         4150.0000:   Total depth
 DATE.        30-SEP-1978:   Date logged
 CLNT.            A2DTECH:   Client Code
 SL  . 1450' FSL & 600' FEL:   Surface Location
 PD  .                 GL:   Permanent Datum
 LMF .                 KB:   Log Measured From
 DMF .                 KB:   Drilling Measured From
 DAPD.F                11:   Feet Above Permanent Datum
 DD  .F              4150:   Depth driller
 DL  .F              4141:   Depth logger
 BLI .F              4135:   Bottom log interval
 TLI .F               520:   Top log interval
 CS1 .IN            9.625:   Casing size
 CBD1.      9.625" @ 529':   Casing driller 1
 CBL1.F               529:   Casing logger 1
 BS1 .IN             8.75:   Bit size
 BSD1.F              4150:   Depth drilled with bit1
 DFT .                FGM:   Type fluid in hole
 DFD .                9.5:   Density
 DFV .                 36:   Viscosity
 DFPH.                 11:   pH
 DFL .                 60:   Fluid loss
 MSS .           MUD TANK:   Source of sample
 RMS .OHMM            .57:   Rm
 MST .F                68:   Rm Meas. temp.
 RMF .OHMM           .449:   Rmf
 MFST.F                68:   Rmf Meas. temp.
 MFSS.               MEAS:   Source Rmf.
 RMB .OHMM            .27:   Rm. at BHT
 BHT .F               142:   BHT.
 TCS .HRS            1500:   Time Circ. stopped
 TLAB.HRS            0700:   Time logger at bottom
 MRT .F               142:   Maximum recorded temp.
 LUN .               8043:   Logging unit number
 LUL .               CSPR:   Logging unit location
 ENGI.             LARSON:   Recorded By
 WITN.           DINSMORE:   Witnessed by
 ORIG.           5" PRINT:   Origin of data
 UWI .     49025107290000:   Unique Well ID
 DICO. A2D TECHNOLOGIES, INC.:   Digitizing Company
 EPD .               5222:   Elevation Permanent Datum
~OTHER INFORMATION
~A   DEPT      SPR       TENR        SFL        ILM        ILD       CALD         GRD      TEND       CORR       RHOB         NPHI 
# ...
 3167.5000   -36.4540  1030.1440     6.3750     6.2810     6.1540    12.4440    94.4480  1294.8210     0.0130     2.5020     0.2340
 3168.0000   -36.4570  1030.3380     9.9400     7.4520     6.3450    12.4070    83.7350  1294.8210     0.0040     2.5260     0.2180
 3168.5000   -36.4540  1030.5330    18.8170     8.9070     6.5370    12.1480    69.1500  1294.8210     0.0000     2.5630     0.1820
 3169.0000   -36.4550  1030.7271    25.0630     8.5160     6.7280    12.0610    57.5190  1294.8210     0.0040     2.6040     0.1700
 3169.5000   -36.4550  1030.9210    25.3990     7.9500     6.8860    12.1990    59.2310  1294.8210     0.0090     2.6080     0.1550
 3170.0000   -36.4540  1031.1160    19.0220     7.3830     6.8860    12.3240    68.8550  1294.8210     0.0140     2.6030     0.1600
 3170.5000   -36.4540  1031.3101    13.5920     6.7600     6.6570    12.3720    79.7800  1294.8210     0.0220     2.5630     0.1790
 3171.0000   -36.4540  1031.5040     8.1610     6.3820     6.3110    12.2950    89.2620  1294.8210     0.0280     2.5210     0.1980
 3171.5000   -36.4550  1031.6990     6.4100     5.9630     5.9640    12.2240    91.9990  1294.8210     0.0300     2.4990     0.2150
 3172.0000   -36.4550  1031.8929     5.9020     5.5430     5.5430    12.1560    95.1830  1294.8210     0.0320     2.4910     0.2240
 3172.5000   -36.4540  1032.0880     5.7340     5.1240     5.0770    12.0870    99.0100  1294.8210     0.0320     2.5000     0.2310
 3173.0000   -36.4570  1032.2820     5.3250     4.7050     4.6110    12.0060   103.1530  1294.8210     0.0260     2.4900     0.2370
 3173.5000   -36.4500  1032.4760     4.3490     4.2850     4.1450    12.0450   106.5230  1294.8210     0.0200     2.4580     0.2550
 3174.0000   -36.4480  1032.6710     4.0580     3.8660     3.8220    12.1690   108.6910  1294.8210     0.0140     2.4250     0.2730
 3174.5000   -36.2730  1032.8650     3.7120     3.4240     3.6650    12.2180   111.4290  1294.8210     0.0080     2.3820     0.3030
 3175.0000   -36.0440  1033.0590     3.3010     3.3170     3.5080    12.1500   115.8080  1294.8210     0.0120     2.3870     0.3010
 3175.5000   -35.8510  1033.2540     3.3680     3.2030     3.3510    12.0950   119.6390  1294.8210     0.0160     2.4020     0.2970
 3176.0000   -35.7300  1033.4480     3.4510     3.0670     3.1960    12.0380   124.3360  1294.8210     0.0150     2.4160     0.2920
 3176.5000   -36.1400  1033.6420     3.5520     3.1810     3.0440    11.9890   128.1350  1294.8210     0.0160     2.4290     0.2870
 3177.0000   -36.1840  1033.8370     3.5070     3.1520     3.0110    11.9890   130.3870  1294.8210     0.0220     2.4350     0.2830
 3177.5000   -36.3010  1034.0310     3.3940     3.1140     3.0110    11.9870   130.1110  1294.8210     0.0270     2.4350     0.2800
 3178.0000   -36.4330  1034.2250     3.2810     3.0760     3.0110    11.9880   129.8620  1294.8210     0.0330     2.4340     0.2860
 3178.5000   -36.3000  1034.4200     3.1670     3.0080     3.0110    11.9330   131.3610  1294.8210     0.0440     2.4430     0.2920
 3179.0000   -36.0000  1034.6140     3.1080     2.9310     2.9920    11.8680   133.5630  1294.8210     0.0570     2.4540     0.2940
 3179.5000   -35.7100  1034.8090     3.0830     2.8530     2.9130    11.8670   135.8720  1294.8210     0.1020     2.4780     0.2950
 3180.0000   -35.4040  1035.0031     3.0590     2.7760     2.8330    11.8690   138.4080  1294.8210     0.1490     2.4970     0.2970
 3180.5000   -35.3070  1035.1970     3.0340     2.6980     2.7530    11.8790   138.7120  1294.8210     0.1890     2.5140     0.3080
 3181.0000   -35.4740  1035.3920     3.0110     2.6210     2.6740    11.8880   138.9830  1294.8210     0.1770     2.4910     0.3170
 3181.5000   -35.6240  1035.5861     2.8730     2.5430     2.5940    11.8990   139.1690  1294.8210     0.1180     2.4530     0.3120
 3182.0000   -35.5740  1035.7800     2.6720     2.4660     2.5150    11.9110   139.4230  1294.8210     0.0720     2.4120     0.3120
 3182.5000   -35.4640  1035.9750     2.4720     2.3880     2.4350    11.9960   141.1590  1294.8210     0.0480     2.3870     0.3310
 3183.0000   -35.3680  1036.1689     2.2850     2.3100     2.3560    12.0300   141.3400  1294.8210     0.0520     2.3980     0.3470
 3183.5000   -35.2760  1036.3630     2.3310     2.2330     2.2760    12.0270   140.2650  1294.8210     0.0600     2.4080     0.3660
 3184.0000   -35.5720  1036.5580     2.4190     2.1550     2.1970    12.0060   139.3600  1294.8210     0.0720     2.4170     0.3550
 3184.5000   -35.8830  1036.7520     2.5070     2.0780     2.1170    11.9860   138.7690  1294.8210     0.0820     2.4270     0.3350
 3185.0000   -36.0550  1036.9470     2.5520     2.0000     2.0460    11.9720   141.1520  1294.8210     0.0900     2.4190     0.3380
 3185.5000   -35.9840  1037.1410     2.5520     1.9230     1.9870    11.9530   146.7680  1294.8210     0.0800     2.4070     0.3550
 3186.0000   -35.9350  1037.3350     2.4850     1.8330     1.9260    11.9200   152.6780  1294.8210     0.0620     2.3970     0.3850
 3186.5000   -35.8890  1037.5300     2.4170     1.8030     1.8640    11.8930   158.6260  1294.8210     0.0420     2.3950     0.3800
 3187.0000   -35.8350  1037.7240     2.3140     1.7670     1.7990    11.7940   165.1340  1294.8210     0.0570     2.3970     0.3600
 3187.5000   -35.7860  1037.9180     2.1380     1.8940     1.8200    11.9050   168.4240  1294.8210     0.0710     2.3940     0.3490
 3188.0000   -35.7360  1038.1130     1.9730     2.0280     1.8550    11.7790   163.7880  1294.8210     0.0820     2.3580     0.3580
 3188.5000   -35.6820  1038.3070     2.3140     2.2910     2.1900    13.4250   146.4660  1294.8210     0.0530     2.2960     0.4450
 3189.0000   -35.6550  1038.5010     2.8200     2.8580     2.6690    13.2250   129.8510  1294.8210     0.0160     2.2770     0.4410
 3189.5000   -35.6570  1038.6960     4.9440     3.4250     3.1240    13.2640   111.3770  1294.8210     0.0140     2.3200     0.4000
 3190.0000   -35.6570  1038.8900     9.4790     3.9920     3.5420    12.4420    94.0560  1294.8210     0.0290     2.3900     0.3060
 3190.5000   -35.6570  1039.0850    14.0130     4.5600     3.9600    11.6070    85.6480  1294.8210     0.0680     2.5350     0.1990
 3191.0000   -35.6570  1039.2791    18.9270     5.1310     4.3780    11.5940    89.4090  1294.8210     0.1080     2.5590     0.1430
 3191.5000   -35.6570  1039.4730    16.5330     5.1310     4.8560    11.7050   104.2850  1294.8210     0.1530     2.5530     0.1320
 3192.0000   -35.6570  1039.6680    12.6310     5.2260     4.7520    11.8080   114.9190  1294.8210     0.1340     2.5180     0.1690
 3192.5000   -35.6570  1039.8621     8.7290     4.9230     4.5340    11.9130   123.7280  1294.8210     0.1020     2.4660     0.2220
 3193.0000   -35.6570  1040.0560     5.5930     4.4290     4.3160    12.0250   125.2980  1294.8210     0.0800     2.4730     0.2750
 3193.5000   -35.6580  1040.2510     5.3230     4.2090     4.0980    12.1530   127.5280  1294.8210     0.2430     2.4960     0.2940
 3194.0000   -35.6550  1040.4449     5.4080     3.9430     3.8810    12.2920   135.1160  1294.8210     0.2370     2.5290     0.2990
 3194.5000   -35.6610  1040.6390     5.6810     3.6860     3.6630    12.4020   146.4670  1294.8210     0.2110     2.5130     0.3070
 3195.0000   -35.6670  1040.8340     5.9440     3.6860     3.7790    12.4470   139.1270  1294.8210     0.1520     2.4790     0.3170
 3195.5000   -35.8330  1041.0280     5.8970     3.8220     3.9810    12.5000   130.8870  1294.8210     0.0930     2.4480     0.3170
 3196.0000   -36.0070  1041.2230     5.8270     4.0660     4.1830    12.5710   122.6160  1294.8210     0.0480     2.4480     0.3170
 3196.5000   -35.9320  1041.4170     5.7290     4.3100     4.3860    12.6650   115.1890  1294.8210     0.0160     2.4480     0.3110
 3197.0000   -35.7520  1041.6110     5.9640     4.5530     4.5880    12.5250   107.8130  1294.8210     0.0180     2.4570     0.2910
 3197.5000   -35.5710  1041.8060     6.3380     4.7970     4.7900    12.2710   101.5440  1294.8210     0.0210     2.4760     0.2780
