~VERSION INFORMATION
 VERS.                2.0:   CWLS LOG ASCII STANDARD - VERSION 2.0
 WRAP.                 NO:   ONE LINE PER DEPTH STEP
~WELL INFORMATION
#MNEM.UNIT      DATA TYPE    INFORMATION
#----------   ------------   ------------------------------
 STRT.F          216.0000:   START DEPTH
 STOP.F         3184.0000:   STOP DEPTH
 STEP.F            0.5000:   STEP LENGTH
 NULL.          -999.2500:   NO VALUE
 COMP.    FENIX & SCISSON:   COMPANY
 WELL. FENIX & SCISSON INCNRP "A" #311-14:   WELL
 FLD .                NPR:   FIELD
 LOC .      S14 T38N R78W:   LOCATION
 CNTY.            NATRONA:   COUNTY
 STAT.            WYOMING:   STATE
 CTRY. UNITED STATES OF AMERICA:   COUNTRY
 SRVC.              WELEX:   SERVICE COMPANY
 DATE.        22-JUN-1977:   LOGDATE
 API .     49025103810000:   API NUMBER
~CURVE INFORMATION
#MNEM.UNIT       API CODE    CURVE DESCRIPTION
#----------   ------------   ------------------------------
 DEPT.F                  :   
 CALD.IN     45 280 60 00:   CALIPER FROM DENSITY LOG
 GRD .GAPI   45 310 01 00:   GAMMA RAY FROM DENSITY LOG
 DPHI.DEC    45 890 12 00:   DENSITY POROSITY SANDSTONE
 RHOB.G/C3   45 350 01 00:   BULK DENSITY
 CORR.G/C3   45 356 01 00:   DENSITY CORRECTION
 SPR .MV     07 010 01 00:   SPONTANEOUS POTENTIAL
 SFLU.OHMM   07 220 01 00:   SPHERICALLY FOCUSED LOG UNAVERAGED RESISTIVITY
 ILD .OHMM   07 120 46 00:   DEEP INDUCTION RESISTIVITY
 ILM .OHMM   07 120 44 00:   INDUCTION LOG MEDIUM RESISTIVITY
~PARAMETER INFORMATION
#MNEM.UNIT          VALUE    DESCRIPTION
#----------   ------------   ------------------------------
 EKB .F         5225.0000:   Kelly bushing
 EGL .F         5215.0000:   Ground level
 TD  .F         3183.0000:   Total depth
 DATE.        22-JUN-1977:   Date logged
 CLNT.            A2DTECH:   Client Code
 CTRY.                USA:   Country
 SL  . 330' FNL & 330' FWL:   Surface Location
 PD  .                 GL:   Permanent Datum
 EPD .F              5215:   Elevation Permanent Datum
 LMF .                 KB:   Log Measured From
 DMF .                 KB:   Drilling Measured From
 DAPD.F                10:   Feet Above Permanent Datum
 DD  .F              3178:   Depth driller
 DL  .F              3183:   Depth logger
 BLI .F              3181:   Bottom log interval
 TLI .F                20:   Top log interval
 CS1 .IN            8.625:   Casing size
 CBD1.      8.625" @ 217':   Casing driller 1
 BS1 .IN            7.875:   Bit size
 BSD1.F              3178:   Depth drilled with bit1
 DFT .            KCL MUD:   Type fluid in hole
 DFD .                9.5:   Density
 DFV .                 40:   Viscosity
 DFPH.                7.5:   pH
 DFL .               13.6:   Fluid loss
 MSS .           FLOWLINE:   Source of sample
 RMS .OHMM            .36:   Rm
 MST .F                80:   Rm Meas. temp.
 RMF .OHMM            .30:   Rmf
 MFST.F                80:   Rmf Meas. temp.
 RMC .OHMM            .86:   Rmc
 MCST.F                80:   Rmc Meas. temp.
 MFSS.               FANN:   Source Rmf.
 MCSS.                KIT:   Source Rmc.
 RMB .OHMM            .25:   Rm. at BHT
 BHT .F               114:   BHT.
 TCS .HRS             2.5:   Time Circ. stopped
 MRT .F               114:   Maximum recorded temp.
 LUN .               8766:   Logging unit number
 LUL .             CASPER:   Logging unit location
 ENGI.          T. TOYNER:   Recorded By
 WITN.      B. HARRINGTON:   Witnessed by
 PWI .                  -:   Primary Well Identifier
 ORIG.           5" PRINT:   Origin of data
 UWI .     49025103810000:   Unique Well ID
 DICO. A2D TECHNOLOGIES, INC.:   Digitizing Company
~OTHER INFORMATION
~A   DEPT       CALD       GRD        DPHI       RHOB       CORR      SPR         SFLU      ILD        ILM   
# ...
  398.5000    10.2124   100.5484     0.1209     2.4527     0.0394   -50.0283     4.2691     3.5199     3.3511
  399.0000    10.2331   100.9618     0.1189     2.4548     0.0415   -49.8549     4.0408     3.4564     3.3827
  399.5000    10.2339   101.3752     0.1181     2.4548     0.0396   -49.6816     3.8601     3.4889     3.6088
  400.0000    10.2744   101.7886     0.1173     2.4569     0.0377   -49.5083     4.0054     3.5543     3.7797
  400.5000    10.2928   101.1392     0.1162     2.4621     0.0391   -49.3350     4.4288     3.6130     4.0902
  401.0000    10.2951   101.0122     0.1128     2.4669     0.0398   -49.5014     4.8146     3.6544     4.2223
  401.5000    10.3154   101.8154     0.1124     2.4680     0.0418   -49.6678     5.1350     3.8619     4.3812
  402.0000    10.3158   102.2208     0.1156     2.4630     0.0398   -49.7261     5.2307     3.9702     4.4631
  402.5000    10.3162   102.2288     0.1228     2.4550     0.0358   -49.7227     5.4271     4.1957     4.5886
  403.0000    10.3166   101.8390     0.1252     2.4449     0.0318   -49.3256     5.4276     4.4340     4.6315
  403.5000    10.3567   101.8470     0.1270     2.4420     0.0318   -49.3221     5.4281     4.6858     4.8954
  404.0000    10.3770   101.4572     0.1304     2.4380     0.0299   -49.3198     5.4788     4.7732     5.0327
  404.5000    10.3973   101.4650     0.1316     2.4360     0.0279   -49.3163     5.4793     4.7737     5.0797
  405.0000    10.3977   101.8706     0.1324     2.4340     0.0280   -49.3140     5.5304     4.9075     5.0802
  405.5000    10.3782   101.4808     0.1324     2.4340     0.0260   -49.3117     5.5820     4.9990     4.9879
  406.0000    10.3786   101.0912     0.1336     2.4330     0.0280   -49.3082     5.6340     5.0922     4.9427
  406.5000    10.3787   101.0990     0.1360     2.4290     0.0260   -49.3059     5.6866     5.2834     4.8978
  407.0000    10.3993   101.9022     0.1381     2.4241     0.0260   -49.3025     5.7396     5.3327     4.8534
  407.5000    10.3997   102.3076     0.1403     2.4191     0.0261   -49.3002     5.7932     5.4322     4.8987
  408.0000    10.4000   102.3156     0.1428     2.4161     0.0261   -49.2967     5.7937     5.4828     4.8992
  408.5000    10.4004   101.9258     0.1440     2.4151     0.0261   -49.6893     5.8476     5.2854     4.8996
  409.0000    10.3810   101.9338     0.1456     2.4121     0.0262   -49.6858     5.8482     5.3840     4.9454
  409.5000    10.3814   101.5440     0.1476     2.4091     0.0262   -49.6835     5.7952     5.3845     4.9459
  410.0000    10.3818   101.1542     0.1488     2.4051     0.0222   -49.6801     5.6902     5.3356     4.9463
  410.5000    10.4021   100.7644     0.1492     2.4041     0.0222   -49.6778     5.5870     5.3361     4.9468
  411.0000    10.4025   100.7724     0.1488     2.4042     0.0223   -49.6743     5.5876     5.3366     4.9473
  411.5000    10.4029   100.7802     0.1479     2.4052     0.0223   -49.6720     5.5881     5.3864     4.9476
  412.0000    10.4033   100.3906     0.1467     2.4092     0.0223   -49.2736     5.6402     5.3868     4.8578
  412.5000    10.3838   100.7960     0.1463     2.4103     0.0224   -49.2713     5.6929     5.4873     4.8582
  413.0000    10.3842   101.6008     0.1463     2.4103     0.0224   -49.6628     5.6930     5.4878     4.7700
  413.5000    10.3846   101.6086     0.1463     2.4103     0.0204   -49.6605     5.6550     5.5390     4.7267
  414.0000    10.3850   100.8212     0.1463     2.4103     0.0204   -49.6571     5.6172     5.4888     4.6838
  414.5000    10.3854   100.4316     0.1459     2.4103     0.0184   -49.6548     5.5797     5.3893     4.6842
  415.0000    10.4057   100.0418     0.1463     2.4104     0.0205   -49.6513     5.5424     5.3405     4.7280
  415.5000    10.3862   100.4474     0.1471     2.4054     0.0205   -49.6490     5.5054     5.1958     4.7285
  416.0000    10.3667   101.2504     0.1527     2.3994     0.0165   -49.6456     5.4686     5.1487     4.7289
  416.5000    10.3671   101.2584     0.1599     2.3904     0.0146   -49.6433     5.4320     5.0091     4.6860
  417.0000    10.3476   102.0616     0.1607     2.3814     0.0125   -49.6398     5.3919     4.9638     4.6009
  417.5000    10.3480   102.0694     0.1672     2.3744     0.0126   -49.6375     5.2457     4.8292     4.5591
  418.0000    10.3484   102.0772     0.1739     2.3664     0.0126   -49.6341     5.0568     4.6553     4.4353
  418.5000    10.3686   101.2900     0.1743     2.3594     0.0126   -49.6318     4.8301     4.5291     4.3950
  419.0000    10.3889   100.5026     0.1783     2.3574     0.0147   -50.0234     4.7864     4.2325     4.2756
  419.5000    10.4092    99.7152     0.1795     2.3544     0.0187   -50.0211     4.8756     4.1107     4.0089
  420.0000    10.4096    99.3254     0.1799     2.3524     0.0188   -50.0176     4.8761     3.9925     3.6563
  420.5000    10.3901    99.3334     0.1863     2.3464     0.0248   -49.6202     4.9670     3.8776     3.4282
  421.0000    10.3905    99.3412     0.1953     2.3304     0.0268   -49.6168     4.8770     3.7661     3.1555
  421.5000    10.4108    99.7468     0.2003     2.3174     0.0269   -49.6145     4.7448     3.6578     2.9860
  422.0000    10.4113    99.7546     0.2147     2.3024     0.0249   -49.6122     4.2496     3.5039     2.7996
  422.5000    10.4315    99.3650     0.2195     2.2834     0.0209   -49.6087     3.4089     3.4402     2.6984
  423.0000    10.4717    98.9752     0.2255     2.2764     0.0189   -49.6064     3.3163     3.4090     2.9322
  423.5000    10.5117    98.5862     0.2247     2.2804     0.0009   -49.6030     3.4093     3.4726     3.3059
  424.0000    10.6714    98.5894     0.1990     2.3045     0.0029   -49.2055     4.4924     3.5374     3.5922
  424.5000    10.6086    98.5988     0.1670     2.3647     0.0030   -49.5972     4.8355     3.7383     3.9032
  425.0000    10.5458    97.0178     0.1525     2.3998     0.0130   -49.5949     4.9710     3.8080     4.0876
  425.5000    10.4737    97.0241     0.1481     2.4108     0.0231   -49.5914     5.0174     3.9509     4.2026
  426.0000    10.5138    96.2383     0.1465     2.4108     0.0291   -49.1939     5.0179     4.0618     4.2419
  426.5000    10.5540    96.2446     0.1465     2.4078     0.0311   -49.5857     5.0647     4.1757     4.0512
  427.0000    10.5345    96.2541     0.1509     2.4008     0.0332   -49.5834     5.0651     4.3725     3.8692
  427.5000    10.5151    97.0557     0.1608     2.3909     0.0352   -49.5799     5.0193     4.3728     3.6953
  428.0000    10.5152    97.8604     0.1661     2.3778     0.0352   -49.5776     4.9738     4.3332     3.4969
  428.5000    10.5158    97.8667     0.1777     2.3628     0.0353   -49.5742     4.9287     4.1772     3.2486
  429.0000    10.5361    97.8762     0.1857     2.3478     0.0373   -49.5718     4.8394     3.9534     3.1602
  429.5000    10.5563    97.8825     0.1889     2.3308     0.0353   -49.5684     4.5383     3.8818     2.9629
  430.0000    10.6166    97.8919     0.2009     2.3198     0.0333   -49.5661     4.1783     3.7420     2.8037
  430.5000    10.6168    97.1030     0.2113     2.2998     0.0274   -49.5626     3.6742     3.5416     2.7275
  431.0000    10.6169    95.5251     0.2209     2.2888     0.0176   -49.5603     3.1720     3.3519     3.0469
  431.5000    10.6175    95.5283     0.2189     2.2848     0.0074   -49.5569     3.3521     3.3215     3.3724
  432.0000    10.6180    95.5377     0.1989     2.3299     0.0014   -49.1593     3.6083     3.3834     3.5318
  432.5000    10.6382    94.7488     0.1384     2.4123     0.0195   -48.7605     4.8874     3.5429     3.6648
  433.0000    10.6584    94.7583     0.1131     2.4682     0.0244   -48.7581     4.7548     3.7098     3.9093
  433.5000    10.6788    96.3582     0.1123     2.4723     0.0255   -48.3593     4.6259     3.8846     3.9824
  434.0000    10.6990    96.3646     0.1111     2.4753     0.0256   -48.3570     4.7557     4.0677     4.1323
  434.5000    10.7193    96.3709     0.1095     2.4823     0.0256   -47.9582     5.1046     4.2594     4.4488
