~VERSION INFORMATION
 VERS.                2.0:   CWLS LOG ASCII STANDARD - VERSION 2.0
 WRAP.                 NO:   ONE LINE PER DEPTH STEP
~WELL INFORMATION
#MNEM.UNIT      DATA TYPE    INFORMATION
#----------   ------------   ------------------------------
 STRT.F           27.5000:   START DEPTH
 STOP.F         5889.0000:   STOP DEPTH
 STEP.F            0.5000:   STEP LENGTH
 NULL.          -999.2500:   NO VALUE
 COMP.   LAWRENCE ALLISON:   COMPANY
 WELL. LAWRENCE "X" #25-11:   WELL
 FLD .        N.P.R NO. 3:   FIELD
 LOC .      S11 T38N R78W:   LOCATION
 CNTY.            NATRONA:   COUNTY
 STAT.            WYOMING:   STATE
 CTRY. UNITED STATES OF AMERICA:   COUNTRY
 SRVC.      DRESSER ATLAS:   SERVICE COMPANY
 DATE.        09-FEB-1983:   LOGDATE
 API .     49025109170000:   API NUMBER
~CURVE INFORMATION
#MNEM.UNIT       API CODE    CURVE DESCRIPTION
#----------   ------------   ------------------------------
 DEPT.F                  :   
 CN  .DEC    42 890 03 00:   NEUTRON POROSITY
 GRD .GAPI   45 310 01 00:   GAMMA RAY FROM DENSITY LOG
 CORR.G/C3   45 356 01 00:   DENSITY CORRECTION
 DEN .G/C3   45 350 01 00:   BULK DENSITY
 CALD.IN     45 280 60 00:   CALIPER FROM DENSITY LOG
 TEND.LBS    45 635 01 00:   TENSION FORM DENSITY LOG
 GRS .GAPI   60 310 01 00:   GAMMA RAY FROM SONIC LOG
 TENS.LBS    60 635 01 00:   TENSION FROM SONIC
 DT  .US/F   60 520 00 00:   DELTA TIME
 SPR .MV     11 010 01 00:   SPONTANEOUS POTENTIAL FROM RES.
 RD  .OHMM   11 220 10 00:   RESISTIVITY DEEP
 RS  .OHMM   11 220 09 00:   RESISTIVITY SHALLOW
 RMLL.OHMM   11 270 04 00:   MICRO LATEROLOG
 TENR.LBS    11 635 01 00:   TENSION FROM RES.
~PARAMETER INFORMATION
#MNEM.UNIT          VALUE    DESCRIPTION
#----------   ------------   ------------------------------
 EKB .F         5196.0000:   Kelly bushing
 EGL .F         5186.0000:   Ground level
 TD  .F         5883.0000:   Total depth
 CLNT.            A2DTECH:   Client Code
 SL  . 1989' FSL & 1148' FWL:   Surface Location
 PD  .                 GL:   Permanent Datum
 EPD .F              5186:   Elevation Permanent Datum
 LMF .                 KB:   Log Measured From
 DMF .                 KB:   Drilling Measured From
 DAPD.F                10:   Feet Above Permanent Datum
 DATE.        09-FEB-1983:   Date Logged [DD-MMM-YYYY]
 DD  .F              5883:   Depth driller
 DL  .F              5882:   Depth logger
 BLI .F              5871:   Bottom log interval
 TLI .F               700:   Top log interval
 CS1 .IN            9.625:   Casing size
 CBD1.      9.625" @ 701':   Casing driller 1
 CBL1.F               700:   Casing logger 1
 BS1 .IN             8.75:   Bit size
 BSD1.F              5883:   Depth drilled with bit1
 DFT .    HEC/DRISPAC/KCL:   Type fluid in hole
 DFD .                  9:   Density
 DFV .                 35:   Viscosity
 DFPH.                  8:   pH
 DFL .                6.4:   Fluid loss
 MSS .           FLOWLINE:   Source of sample
 RMS .OHMM           0.23:   Rm
 MST .F                50:   Rm Meas. temp.
 RMF .OHMM           0.17:   Rmf
 MFST.F                54:   Rmf Meas. temp.
 MFSS.               MEAS:   Source Rmf.
 BHT .F               176:   BHT.
 TCS .HRS              10:   Time Circ. stopped
 MRT .F               176:   Maximum recorded temp.
 LUN .               6274:   Logging unit number
 LUL .               GLTE:   Logging unit location
 ENGI.          TOLLEFSON:   Recorded By
 WITN.           JENNINGS:   Witnessed by
 ORIG.           5" PRINT:   Origin of data
 UWI .     49025109170000:   Unique Well ID
 DICO. A2D TECHNOLOGIES, INC.:   Digitizing Company
 RMC .OHMM           0.41:   Rmc
 MCST.F                54:   Rmc Meas. temp.
 MCSS.               MEAS:   Source Rmc.
~OTHER INFORMATION
~A  DEPTH       CN        GRD       CORR        DEN       CALD       TEND        GRS       TENS         DT        SPR         RD         RS       RMLL       TENR
# ...
 2747.0000     0.1422    81.9820     0.0219     2.4563     9.6500     4.3825    64.8792   -57.8314    66.5942   -43.6767    22.7656    13.5885     6.5306   -54.0697
 2747.5000     0.1299    78.6787     0.0053     2.4900     9.6500     4.3826    61.9323   -58.1326    64.4141   -43.5326    26.3086    18.1586     9.7476   -54.9821
 2748.0000     0.1200    77.7778    -0.0052     2.5013     9.6500     4.3831    59.5753   -58.4338    64.1115   -43.5396    42.0990    21.1294    15.3772   -55.8950
 2748.5000     0.1179    77.7778    -0.0082     2.4884     9.6500     4.3825    61.0532   -51.1602    67.6732   -43.3334    40.0731    22.4711    25.1158   -57.0362
 2749.0000     0.1271    78.3784    -0.0007     2.4576     9.6500     4.3825    63.4160   -59.0645    70.9508   -43.1016    36.4354    18.2423     9.1304   -57.9487
 2749.5000     0.1515    78.7121     0.0262     2.4207     9.6500     4.3825    60.7640   -66.8942    74.2285   -42.8078    29.2923    14.9148     4.4743   -51.2782
 2750.0000     0.1721    80.4805     0.0609     2.3958     9.6500     4.3825    58.7021   -74.7237    76.9367   -42.3657    22.8095    13.2500     4.2007   -52.2557
 2750.5000     0.1806    82.5826     0.0489     2.3950     9.6500     4.3825    59.6062   -75.0231    76.9337   -42.2216    21.4143    12.3531     4.0752   -45.6498
 2751.0000     0.1812    83.4835     0.0428     2.4025     9.6450     1.1122    62.2634   -67.7926    77.0058   -41.9278    20.5266    12.0907     4.2268   -46.7905
 2751.5000     0.1753    82.8829     0.0488     2.4040     9.6364    -3.2205    65.5431   -60.4870    77.2287   -41.7851    19.9500    12.1681     4.4601   -47.7034
 2752.0000     0.1716    81.3814     0.0548     2.4009     9.6299    -5.5777    67.8898   -53.2563    77.2250   -41.7907    19.9336    12.0695     4.7105   -48.6464
 2752.5000     0.1744    81.0811     0.0548     2.3963     9.6299    -5.5777    66.2695   -54.3688    76.8466   -41.7964    19.7771    11.9768     4.6424   -42.0100
 2753.0000     0.1787    82.8829     0.0561     2.3978     9.6359   -12.4360    62.3664   -56.3735    76.5433   -41.8033    19.0889    11.5581     4.3892   -43.1512
 2753.5000     0.1778    84.3881     0.0594     2.4000     9.6439   -19.8634    60.7875   -58.3782    76.2400   -41.8089    18.5527    11.3116     4.4793   -36.4074
 2754.0000     0.1718    85.2853     0.0634     2.4030     9.6520   -23.9875    65.8059   -60.3829    76.0869   -41.8145    18.1569    11.3834     4.6968   -36.8017
 2754.5000     0.1688    84.3844     0.0602     2.4045     9.6610   -17.2192    69.6436   -62.3876    76.4593   -41.9712    18.0138    11.0617     4.7588   -37.1960
 2755.0000     0.1682    83.4835     0.0437     2.3968     9.6699   -10.5669    72.5964   -64.3923    76.7566   -42.1265    17.9995    10.7512     4.3757   -37.5902
 2755.5000     0.1707    84.0841     0.0317     2.3903     9.6788    -3.8921    73.7793   -66.3970    77.1289   -42.2818    18.2361    10.6665     4.0801   -38.0005
 2756.0000     0.1783    85.2853     0.0211     2.3865     9.6877     2.7735    73.9716   -68.4017    76.8256   -42.4371    18.4795    10.5867     4.0487   -31.1981
 2756.5000     0.1867    85.5856     0.0179     2.3910     9.6966     9.4392    69.9212   -70.4064    76.5223   -42.7435    18.7188    10.8731     4.3653   -39.6129
 2757.0000     0.1928    85.5856     0.0420     2.3963     9.7055    16.1048    66.7077   -72.4111    76.2941   -43.0485    18.7002    10.7896     4.3933   -32.6315
 2757.5000     0.1883    84.6847     0.0540     2.4000     9.7144    22.7705    65.5409   -74.4158    76.0659   -43.2038    18.3013    10.4144     4.3590   -33.5271
 2758.0000     0.1781    83.1832     0.0599     2.3969     9.7233    10.7921    65.8363   -76.4205    75.9878   -43.3605    17.9108    10.2611     4.2664   -34.2439
 2758.5000     0.1727    82.8829     0.0584     2.3901     9.7301     1.6171    66.4240   -78.4252    76.0599   -43.6655    17.8966    10.4681     4.1183   -42.4812
 2759.0000     0.1694    83.1832     0.0522     2.3848     9.7272    -7.5580    66.4270   -80.1410    76.0569   -43.8208    18.1319    10.7534     4.0545   -43.3750
 2759.5000     0.1656    83.4835     0.0432     2.3826     9.7245   -15.1616    65.5527   -68.5480    75.9788   -43.9761    18.6264    11.0464     4.2859   -44.0918
 2760.0000     0.1632    83.1429     0.0356     2.3863     9.7218   -12.2731    64.6784   -65.6075    75.7506   -44.1328    18.4796    11.1143     4.7842   -44.8085
 2760.5000     0.1635    81.0811     0.0205     2.3870     9.7192    -9.3847    64.0965   -65.9639    75.7476   -43.9887    17.7135    10.3610     4.8810   -45.5252
 2761.0000     0.1663    80.7808     0.0024     2.3848     9.7165    -6.4962    63.2223   -66.2651    75.9698   -44.2099    17.0971    10.2105     4.7443   -53.7608
 2761.5000     0.1705    81.9820     0.0339     2.3862     9.7138     0.8693    62.9328   -66.5663    76.7176   -44.3683    17.2035    10.2733     4.3229   -54.6564
 2762.0000     0.1766    86.0873     0.0459     2.3907     9.7111    10.3223    69.0760   -66.8675    77.1650   -44.3788    17.6680    10.6265     4.7039   -55.3731
 2762.5000     0.1833    96.6967     0.0338     2.3997     9.7100    14.3426    74.0497   -67.1687    76.6365   -44.3873    18.4030    11.1451     5.5882   -56.0899
 2763.0000     0.1846    97.2973     0.0202     2.4096     9.7101    14.3426    71.6974   -67.4699    75.5825   -44.5455    19.4360    11.8496     6.6849   -64.3250
 2763.5000     0.1800    91.8919     0.0048     2.4170     9.7135    19.7610    65.2516   -67.7711    74.1530   -44.7037    20.2445    12.4279     7.7785   -65.0418
 2764.0000     0.1716    86.7383    -0.0039     2.4230     9.7169    25.1245    62.0582   -68.0723    73.3993   -45.0138    20.0815    12.5936     7.0885   -65.9378
 2764.5000     0.1641    83.7838     0.0291     2.4365     9.7202    31.6235    62.3655   -68.3735    73.1711   -45.0223    18.9875    12.2377     5.8475   -66.6541
 2765.0000     0.1629    85.8859     0.0486     2.4448     9.7236    34.2629    63.5769   -68.6748    73.5434   -44.8790    18.3268    11.9768     4.8811   -67.3708
 2765.5000     0.1636    87.9880     0.0500     2.4463     9.7270    34.2629    66.5118   -68.9760    74.4414   -44.7399    17.6891    11.8005     4.6469   -68.0452
 2766.0000     0.1624    89.7973     0.0349     2.4349     9.7300    32.9137    68.8609   -69.2772    75.4143   -44.7485    17.9216    11.7912     4.7409   -68.8043
 2766.5000     0.1636    90.6907     0.0334     2.4236     9.7300    30.1408    71.5346   -69.5784    75.8619   -44.9088    18.2887    12.0290     4.8705   -69.5489
 2767.0000     0.1685    89.7898     0.0483     2.4176     9.7300    27.3679    70.2399   -69.8796    75.4834   -44.9173    19.1725    12.4426     4.9681   -70.4167
 2767.5000     0.1709    89.4895     0.0528     2.4236     9.7300    24.5950    67.8991   -70.1808    74.7297   -45.2252    19.9701    12.8705     6.0678   -71.1334
 2768.0000     0.1638    90.6907     0.0662     2.4273     9.7300    21.8220    68.0705   -70.4820    74.4945   -45.3834    20.2367    12.9496     7.3597   -71.8498
 2768.5000     0.1599    91.2913     0.0647     2.4311     9.7300    19.0491    71.9333   -70.7832    74.9489   -45.6916    18.7338    12.8476     6.8627   -72.5665
 2769.0000     0.1680    91.5916     0.0631     2.4303     9.7300    16.2762    75.3592   -71.0844    75.1711   -45.7020    17.5878    12.8374     6.3540   -73.3082
 2769.5000     0.1711    90.3904     0.0661     2.4220     9.7300    13.5033    74.8589   -71.3856    75.2432   -45.7105    17.6927    12.9189     5.8839   -74.1789
 2770.0000     0.1723    87.9880     0.0676     2.4144     9.7300    10.7304    69.4158   -71.6868    75.1651   -45.7190    18.1753    13.1769     5.6405   -74.8956
 2770.5000     0.1703    84.3844     0.0705     2.4031     9.7300     7.9575    66.7871   -72.0278    75.0120   -45.5778    18.6710    13.6273     5.5206   -75.6123
 2771.0000     0.1682    78.6787     0.0644     2.3903     9.7300     5.1846    64.1585   -72.2892    74.8588   -45.4387    19.3135    14.2923     5.7904   -76.3291
