~VERSION INFORMATION
 VERS.                2.0:   CWLS LOG ASCII STANDARD - VERSION 2.0
 WRAP.                 NO:   ONE LINE PER DEPTH STEP
~WELL INFORMATION
#MNEM.UNIT      DATA TYPE    INFORMATION
#----------   ------------   ------------------------------
 STRT.F           16.0000:   START DEPTH
 STOP.F         2860.0000:   STOP DEPTH
 STEP.F            0.5000:   STEP LENGTH
 NULL.          -999.2500:   NO VALUE
 COMP.    FENIX & SCISSON:   COMPANY
 WELL. FENIX NPR 3 "AX" #22-21:   WELL
 FLD .  TEAPOT DOME - NPR:   FIELD
 LOC .      S21 T39N R78W:   LOCATION
 CNTY.            NATRONA:   COUNTY
 STAT.            WYOMING:   STATE
 CTRY. UNITED STATES OF AMERICA:   COUNTRY
 SRVC.      DRESSER ATLAS:   SERVICE COMPANY
 DATE.        07-AUG-1978:   LOGDATE
 API .     49025106790000:   API NUMBER
~CURVE INFORMATION
#MNEM.UNIT       API CODE    CURVE DESCRIPTION
#----------   ------------   ------------------------------
 DEPT.F                  :   
 CALD.IN     45 280 60 00:   CALIPER FROM DENSITY LOG
 GRD .GAPI   45 310 01 00:   GAMMA RAY FROM DENSITY LOG
 CORR.G/C3   45 356 01 00:   DENSITY CORRECTION
 RHOB.G/C3   45 350 01 00:   BULK DENSITY
 SPR .MV     05 010 01 00:   SPONTANEOUS POTENTIAL
 ILD .OHMM   05 120 46 00:   DEEP INDUCTION RESISTIVITY
 SN  .OHMM   05 040 00 00:   SHORT NORMAL
~PARAMETER INFORMATION
#MNEM.UNIT          VALUE    DESCRIPTION
#----------   ------------   ------------------------------
 EKB .F         4989.0000:   Kelly bushing
 EGL .F         4979.0000:   Ground level
 EDF .F            0.0000:   Drilling floor
 TD  .F         2847.0000:   Total depth
 DATE.        07-AUG-1978:   Date logged
 CLNT.            A2DTECH:   Client Code
 SL  . 880' FNL & 660' FWL:   Surface Location
 PD  .                 GL:   Permanent Datum
 DD  .F              2845:   Depth driller
 DL  .F              2847:   Depth logger
 BLI .F              2841:   Bottom log interval
 CS1 .IN            8.625:   Casing size
 CBD1.      8.625" @ 240':   Casing driller 1
 CBL1.F               240:   Casing logger 1
 BS1 .IN            7.875:   Bit size
 DFT .                KCL:   Type fluid in hole
 DFD .                9.2:   Density
 DFV .                 31:   Viscosity
 DFPH.               10.5:   pH
 MSS .           FLOWLINE:   Source of sample
 RMS .OHMM           1.25:   Rm
 MST .F                74:   Rm Meas. temp.
 RMF .OHMM            1.8:   Rmf
 MFST.F                76:   Rmf Meas. temp.
 RMC .OHMM              3:   Rmc
 MCST.F                78:   Rmc Meas. temp.
 MFSS.               MEAS:   Source Rmf.
 TCS .HRS               4:   Time Circ. stopped
 LUN .               3006:   Logging unit number
 LUL .               CASP:   Logging unit location
 ENGI.             MILLER:   Recorded By
 WITN.           MCGINLEY:   Witnessed by
 ORIG.           5" PRINT:   Origin of data
 UWI .     49025106790000:   Unique Well ID
 DICO. A2D TECHNOLOGIES, INC.:   Digitizing Company
 DAPD.                 10:   Feet Above Permanent Datum
 BSD1.F              2845:   Depth drilled with bit1
 EPD .F              4970:   Elevation Permanent Datum
 LMF .                 KB:   Log Measured From
 DMF .                 KB:   Drilling Measured From
 TLI .                240:   Top log interval
~OTHER INFORMATION
~A   DEPT     CALD         GRD      CORR       RHOB        SPR        ILD         SN   
# ...
 2336.5000     9.2950    50.8070     0.1470     2.3690    -1.3550    20.3730    31.5460
 2337.0000     9.3370    51.1650     0.1460     2.4080     0.0540    20.3190    32.4600
 2337.5000     9.3460    49.2670     0.1450     2.4280    -1.6550    20.2610    34.6360
 2338.0000     9.3460    46.7090     0.1440     2.4240    -2.8230    20.2030    36.5590
 2338.5000     9.3450    44.0040     0.1440     2.3950    -3.2790    20.1820    38.4820
 2339.0000     9.3460    43.6870     0.1570     2.3690    -3.8060    20.2300    40.4050
 2339.5000     9.3650    46.6340     0.1700     2.3430    -4.3310    20.2870    41.9240
 2340.0000     9.3940    48.8940     0.1860     2.3160    -4.8440    20.3420    41.0010
 2340.5000     9.4280    55.2230     0.1960     2.3080    -5.3320    20.3950    38.5110
 2341.0000     9.5020    60.9020     0.1960     2.3080    -5.6470    20.4470    36.0200
 2341.5000     9.5790    66.3390     0.1990     2.3040    -5.9460    20.5140    33.5300
 2342.0000     9.6520    70.6390     0.2000     2.2990    -6.2430    20.5560    31.0400
 2342.5000     9.7350    72.2180     0.2020     2.2990    -6.5360    18.7610    29.2730
 2343.0000     9.7420    70.2470     0.2040     2.2990    -6.8360    18.3120    28.4570
 2343.5000     9.7430    67.5000     0.2060     2.2940    -6.9210    18.1340    27.6410
 2344.0000     9.7420    61.7530     0.2180     2.2850    -6.9180    17.9550    26.8250
 2344.5000     9.7440    56.1780     0.2300     2.2770    -6.9170    17.7600    26.0090
 2345.0000     9.8070    50.1230     0.2370     2.2810    -6.9100    17.4760    25.5170
 2345.5000     9.8930    47.4950     0.2360     2.2930    -7.0550    16.8130    25.3560
 2346.0000     9.9790    49.2010     0.2350     2.3040    -7.6270    16.5080    25.1950
 2346.5000    10.0640    57.3670     0.2330     2.3030    -8.2010    15.7350    24.1140
 2347.0000    10.1500    66.4280     0.2240     2.2820    -8.7840    14.9800    22.4530
 2347.5000    10.2370    75.8480     0.2160     2.2770    -9.2630    14.2260    21.7140
 2348.0000    10.2970    81.1670     0.2070     2.2750    -9.2220    13.4710    20.8020
 2348.5000    10.2970    77.4140     0.2070     2.2680    -9.1830    12.7820    20.0050
 2349.0000    10.2990    73.4820     0.2080     2.2610    -9.1220    12.2600    19.2070
 2349.5000    10.3380    72.4510     0.2090     2.2670    -9.0740    12.0220    18.6700
 2350.0000    10.4040    75.5830     0.2100     2.2750    -9.0210    11.7840    18.4210
 2350.5000    10.4690    78.3910     0.2090     2.2760    -8.9700    11.5460    18.1490
 2351.0000    10.5350    79.6240     0.2080     2.2760    -8.9180    11.3070    17.8060
 2351.5000    10.6010    79.7510     0.2060     2.2760    -8.8660    11.2470    17.4380
 2352.0000    10.6530    80.0450     0.2040     2.2810    -8.8140    11.1110    17.2090
 2352.5000    10.6650    82.1140     0.2010     2.2880    -8.7620    10.9650    16.9610
 2353.0000    10.6800    83.8340     0.1990     2.2950    -8.7100    10.8180    16.7140
 2353.5000    10.6930    85.8810     0.1960     2.3020    -8.6590    10.6470    16.4660
 2354.0000    10.6940    86.3120     0.1940     2.3050    -8.6060    10.4540    16.2180
 2354.5000    10.6950    85.3440     0.1910     2.3070    -8.5550    10.3520    15.9700
 2355.0000    10.6940    85.1120     0.1890     2.3080    -8.5020    10.1820    15.9160
 2355.5000    10.6940    85.3860     0.1870     2.3090    -8.4990    10.0120    15.9160
 2356.0000    10.6940    83.4330     0.1840     2.3060    -8.4980     9.8960    15.9160
 2356.5000    10.6940    82.5000     0.1830     2.2990    -8.4990     9.8960    15.9150
 2357.0000    10.6960    83.1290     0.1870     2.2930    -8.4980     9.8960    15.9150
 2357.5000    10.6990    83.0080     0.1900     2.2860    -8.4980    10.0790    15.9150
 2358.0000    10.7020    82.1880     0.1930     2.2890    -8.4980    10.3070    15.9150
 2358.5000    10.7050    81.2170     0.1940     2.2930    -8.4970    10.5260    15.9150
 2359.0000    10.7080    80.2430     0.1930     2.2970    -8.4980    10.7450    15.9150
 2359.5000    10.7110    79.1400     0.1930     2.2950    -8.4970    10.9650    15.9140
 2360.0000    10.7140    79.3670     0.1920     2.2950    -8.4960    11.1840    15.9130
 2360.5000    10.7170    81.4090     0.1920     2.2900    -8.5060    11.3040    15.9630
 2361.0000    10.7210    83.0940     0.1910     2.2850    -8.3940    11.3830    16.1190
 2361.5000    10.7240    84.3730     0.1900     2.2800    -8.1150    11.4630    16.2760
 2362.0000    10.7270    81.7150     0.1920     2.2780    -7.8320    11.5420    16.4320
 2362.5000    10.7300    78.2470     0.1940     2.2750    -7.6970    11.6220    16.5880
 2363.0000    10.7330    77.8100     0.1960     2.2730    -7.7110    11.7010    16.7450
 2363.5000    10.7340    76.5080     0.1980     2.2730    -7.7090    11.7810    16.8700
 2364.0000    10.7290    75.2920     0.1970     2.2730    -7.7050    11.8610    16.9720
 2364.5000    10.7250    73.7030     0.1960     2.2750    -7.7430    11.9400    17.0740
 2365.0000    10.7210    75.0750     0.1950     2.2770    -7.8370    12.0200    17.1760
 2365.5000    10.7170    79.8920     0.1950     2.2790    -7.9270    12.0990    17.2770
 2366.0000    10.7130    84.5880     0.1940     2.2840    -8.0180    12.1790    17.4380
 2366.5000    10.7090    85.6130     0.1930     2.2920    -8.1100    12.2580    17.4280
 2367.0000    10.7050    83.3300     0.1920     2.2990    -8.2000    12.3230    17.4030
 2367.5000    10.7010    81.1130     0.1910     2.3000    -8.2940    12.3960    17.3790
 2368.0000    10.6960    78.8570     0.1900     2.2930    -8.3810    12.4580    17.3540
 2368.5000    10.6950    76.6470     0.1890     2.2870    -8.4730    12.5190    17.3300
 2369.0000    10.6870    75.0320     0.1880     2.2800    -8.3930    12.5500    17.3050
 2369.5000    10.6730    73.6090     0.1880     2.2800    -8.2470    12.5320    17.2800
 2370.0000    10.6610    72.0860     0.1870     2.2870    -8.1040    12.4640    17.2560
 2370.5000    10.6490    70.6980     0.1870     2.2940    -7.9630    12.3960    17.2310
 2371.0000    10.6370    74.2280     0.1880     2.3000    -7.8210    12.3280    17.2060
 2371.5000    10.6240    77.3460     0.1890     2.2980    -7.6790    12.2590    17.1820
 2372.0000    10.6160    78.5540     0.1890     2.2950    -7.5390    12.1910    17.1570
 2372.5000    10.6240    79.4890     0.1900     2.2920    -7.3950    12.1240    17.1330
 2373.0000    10.6350    79.7360     0.1910     2.2980    -7.2500    12.0550    17.1080
 2373.5000    10.6460    79.2090     0.1920     2.3000    -7.1230    11.9860    17.0830
 2374.0000    10.6570    78.6820     0.1930     2.2970    -6.9390    11.8830    17.0590
 2374.5000    10.6680    78.1760     0.1940     2.3080    -7.2160    11.8900    17.0340
 2375.0000    10.6790    77.3970     0.1940     2.3170    -7.8120    11.9170    17.0090
 2375.5000    10.6910    78.0250     0.1930     2.3210    -8.3220    11.9430    16.9850
 2376.0000    10.6900    80.6340     0.1920     2.3140    -8.8400    11.9680    16.9600
 2376.5000    10.6790    83.2280     0.1910     2.3080    -8.7080    11.9940    16.9350
 2377.0000    10.6690    84.1830     0.1900     2.3010    -8.5320    12.0190    16.9120
 2377.5000    10.6590    83.1440     0.1860     2.2990    -8.3660    12.0440    16.8860
 2378.0000    10.6510    81.2780     0.1820     2.3010    -8.0700    12.0700    16.8600
 2378.5000    10.6440    79.3970     0.1790     2.2970    -7.7930    12.1000    16.8160
 2379.0000    10.6370    77.5520     0.1790     2.2860    -7.4710    12.3130    16.8240
 2379.5000    10.6300    75.6150     0.1790     2.2760    -7.3860    12.5720    17.0370
 2380.0000    10.6230    74.9990     0.1780     2.2760    -7.6700    12.8300    17.2500
 2380.5000    10.6160    74.3560     0.1790     2.2760    -7.9150    13.0880    17.4680
 2381.0000    10.6120    74.4910     0.1790     2.2770    -8.1730    13.3460    17.6870
 2381.5000    10.6040    74.6610     0.1840     2.2720    -8.4290    13.6050    17.9050
