~VERSION INFORMATION
 VERS.                2.0:   CWLS LOG ASCII STANDARD - VERSION 2.0
 WRAP.                 NO:   ONE LINE PER DEPTH STEP
~WELL INFORMATION
#MNEM.UNIT      DATA TYPE    INFORMATION
#----------   ------------   ------------------------------
 STRT.F          397.0000:   START DEPTH
 STOP.F         5516.0000:   STOP DEPTH
 STEP.F            0.5000:   STEP LENGTH
 NULL.          -999.2500:   NO VALUE
 COMP.  FENIX AND SCISSON:   COMPANY
 WELL.   FENIX TPX #54-10:   WELL
 FLD . NAVAL PETROLEUM RESERVE=3:   FIELD
 LOC .      S10 T38N R78W:   LOCATION
 CNTY.            NATRONA:   COUNTY
 STAT.            WYOMING:   STATE
 CTRY. UNITED STATES OF AMERICA:   COUNTRY
 SRVC.       SCHLUMBERGER:   SERVICE COMPANY
 DATE.        03-APR-1981:   LOGDATE
 API .     49025108690000:   API NUMBER
~CURVE INFORMATION
#MNEM.UNIT       API CODE    CURVE DESCRIPTION
#----------   ------------   ------------------------------
 DEPT.F                  :   
 SPR .MV     11 010 01 00:   SPONTANEOUS POTENTIAL FROM RES.
 TENR.LBS    11 635 01 00:   TENSION FROM RES.
 LLD .OHMM   11 220 10 00:   LATEROLOG DEEP
 LLS .OHMM   11 220 09 00:   LATEROLOG LOG SHALLOW
 TEND.LBS    45 635 01 00:   TENSION FORM DENSITY LOG
 GRD .GAPI   45 310 01 00:   GAMMA RAY FROM DENSITY LOG
 NPHI.DEC    42 890 03 00:   NEUTRON POROSITY SANDSTONE
 CALD.IN     45 280 60 00:   CALIPER FROM DENSITY LOG
 CORR.G/C3   45 356 01 00:   DENSITY CORRECTION
 RHOB.G/C3   45 350 01 00:   BULK DENSITY
~PARAMETER INFORMATION
#MNEM.UNIT          VALUE    DESCRIPTION
#----------   ------------   ------------------------------
 EKB .F         5206.0000:   Kelly bushing
 EGL .F         5196.0000:   Ground level
 EDF .F            0.0000:   Drilling floor
 TD  .F         5498.0000:   Total depth
 CLNT.            A2DTECH:   Client Code
 SL  . 2080' FNL & 2150' FEL:   Surface Location
 PD  .                 GL:   Permanent Datum
 EPD .F              5196:   Elevation Permanent Datum
 LMF .                 KB:   Log Measured From
 DMF .                 KB:   Drilling Measured From
 DAPD.F                10:   Feet Above Permanent Datum
 DATE.         3-APR-1981:   Date Logged [DD-MMM-YYYY]
 DD  .F              5485:   Depth driller
 DL  .F              5498:   Depth logger
 BLI .F              5496:   Bottom log interval
 TLI .F               397:   Top log interval
 CS1 .IN                7:   Casing size
 CBD1.         7" @ 3891':   Casing driller 1
 CBL1.F              3889:   Casing logger 1
 BS1 .IN            6.125:   Bit size
 BSD1.F              5485:   Depth drilled with bit1
 DFT .           CHEM GEL:   Type fluid in hole
 DFD .                9.1:   Density
 DFV .                 42:   Viscosity
 DFPH.                9.0:   pH
 DFL .                5.0:   Fluid loss
 MSS .           MUD TANK:   Source of sample
 RMS .OHMM           0.81:   Rm
 MST .F                62:   Rm Meas. temp.
 RMF .OHMM           0.64:   Rmf
 MFST.F                62:   Rmf Meas. temp.
 MFSS.               MEAS:   Source Rmf.
 RMB .OHMM          0.031:   Rm. at BHT
 BHT .F               174:   BHT.
 TCS .HRS            0830:   Time Circ. stopped
 TLAB.HRS            2130:   Time logger at bottom
 MRT .F               174:   Maximum recorded temp.
 LUN .               8035:   Logging unit number
 LUL .               CSPR:   Logging unit location
 ENGI.             BEATIE:   Recorded By
 WITN.              FIVAS:   Witnessed by
 ORIG.           5" PRINT:   Origin of data
 UWI .     49025108690000:   Unique Well ID
 DICO. A2D TECHNOLOGIES, INC:   Digitizing Company
~OTHER INFORMATION
~A   DEPT      SPR       TENR        LLD        LLS       TEND         GRD        NPHI     CALD       CORR       RHOB   
# ...
 4718.5000   -31.7992  1542.1472    33.8952    33.2840  1658.9060   100.6042     0.1380     7.1569     0.0429     2.7196
 4719.0000   -31.9307  1540.7726    28.6016    27.5331  1659.3940   102.4619     0.1467     7.1564     0.0444     2.7113
 4719.5000   -31.9322  1539.3979    24.5228    23.5091  1660.0521   106.6465     0.1567     7.1558     0.0398     2.7023
 4720.0000   -32.2357  1537.8502    22.2199    21.0821  1645.4545   112.7607     0.1806     7.1552     0.0270     2.6925
 4720.5000   -32.3882  1539.3462    20.8525    20.3544  1646.0604   116.3142     0.1939     7.1545     0.0202     2.6789
 4721.0000   -32.3900  1541.0577    20.4112    19.7903  1646.7634   116.0121     0.1951     7.1540     0.0157     2.6684
 4721.5000   -32.3914  1542.7694    21.3397    20.0798  1647.3364   115.7100     0.1945     7.1684     0.0104     2.6601
 4722.0000   -32.3929  1544.4810    24.4800    22.7759  1647.8790   115.4079     0.1906     7.1678     0.0093     2.6623
 4722.5000   -32.0922  1546.1925    28.1606    25.8461  1648.4849   114.1944     0.1807     7.1671     0.0141     2.6766
 4723.0000   -31.9426  1547.9041    31.4977    28.5175  1679.4062   109.6677     0.1692     7.1666     0.0140     2.6819
 4723.5000   -31.9443  1549.6157    33.5427    30.3788  1649.6764   102.1148     0.1578     7.1660     0.0125     2.6748
 4724.0000   -31.9458  1551.3273    34.2432    29.7452  1650.3929   102.1148     0.1451     7.1654     0.0095     2.6675
 4724.5000   -31.9472  1553.0388    33.0484    27.7272  1635.6709   105.4381     0.1400     7.1647     0.0079     2.6629
 4725.0000   -31.9486  1554.7505    32.1226    26.9589  1636.3875   108.4592     0.1463     7.1641     0.0071     2.6592
 4725.5000   -31.9504  1556.4620    31.4427    28.1196  1637.9086   106.6465     0.1476     7.1486     0.0056     2.6568
 4726.0000   -31.9519  1558.1736    31.9004    30.2798  1652.8287   102.4169     0.1428     7.1480     0.0048     2.6553
 4726.5000   -31.9533  1559.8853    34.6639    33.7549  1683.7048    96.0725     0.1331     7.1325     0.0040     2.6673
 4727.0000   -31.9547  1561.5968    37.6980    36.2117  1684.2778    91.7905     0.1271     7.1319     0.0017     2.6726
 4727.5000   -31.9562  1563.3083    40.4261    38.3052  1684.8510    89.7281     0.1226     7.1164     0.0002     2.6642
 4728.0000   -32.1090  1565.0200    42.4482    40.2548  1655.2639    88.5196     0.1190     7.1158    -0.0017     2.6477
 4728.5000   -32.2615  1566.7316    42.7330    41.0930  1655.7574    87.9154     0.1165     7.1302    -0.0014     2.6297
 4729.0000   -32.5650  1568.4431    38.7168    38.8472  1656.4106    87.9179     0.1266     7.1296     0.0001     2.6236
 4729.5000   -32.5665  1570.1547    33.1651    31.9101  1656.9838    90.3323     0.1365     7.1290    -0.0022     2.6198
 4730.0000   -32.5683  1571.8663    30.9065    30.1661  1657.5758    92.4471     0.1429     7.1283    -0.0015     2.6183
 4730.5000   -32.5697  1573.5779    31.8544    32.3617  1658.2728    92.1450     0.1477     7.1385     0.0015     2.6641
 4731.0000   -32.5711  1575.2894    37.3286    35.7064  1658.8459    92.1237     0.1397     7.1421     0.0119     2.6851
 4731.5000   -32.5726  1577.0011    38.9215    37.7707  1659.4196    95.7704     0.1303     7.1415     0.0149     2.6919
 4732.0000   -32.5740  1578.7126    37.5666    36.7241  1660.0002   102.4169     0.1363     7.1408     0.0126     2.6747
 4732.5000   -32.5758  1580.4242    33.0962    29.9550  1660.7086   110.5740     0.1587     7.1403    -0.0002     2.6602
 4733.0000   -32.5772  1582.1359    27.9529    26.7702  1661.2817   112.9909     0.1763     7.1397    -0.0077     2.6542
 4733.5000   -32.5786  1583.8474    24.8001    24.0926  1661.8547   114.2230     0.1817     7.1391    -0.0100     2.6511
 4734.0000   -32.5801  1585.5590    22.6295    21.8358  1662.4279   115.7100     0.1886     7.1385    -0.0116     2.6503
 4734.5000   -32.5819  1587.2706    21.2369    20.6137  1663.1444   117.8248     0.1974     7.1379    -0.0085     2.6511
 4735.0000   -32.4319  1588.9822    20.6420    19.7903  1663.7175   119.0332     0.2019     7.1373    -0.0026     2.6571
 4735.5000   -32.2823  1590.6937    21.2210    20.0704  1664.2905   113.8973     0.2047     7.1367     0.0011     2.6660
 4736.0000   -32.2840  1592.4053    22.2825    20.7879  1664.8636   110.8761     0.1966     7.1511     0.0033     2.6750
 4736.5000   -31.9834  1594.1169    23.3970    21.6931  1665.4545   111.1782     0.1884     7.1504     0.0029     2.6795
 4737.0000   -31.6830  1595.8285    24.5673    22.3009  1666.1533   114.1994     0.1851     7.1498     0.0017     2.6757
 4737.5000   -31.6845  1597.5400    25.0818    22.1448  1666.7263   117.2205     0.1891     7.1343     0.0002     2.6682
 4738.0000   -31.3838  1599.2517    23.7022    21.5311  1697.5758   118.7311     0.1951     7.1281    -0.0006     2.6614
 4738.5000   -31.3852  1600.9633    22.5581    20.9345  1698.1819   118.7311     0.1988     7.1181    -0.0021     2.6591
 4739.0000   -31.3870  1602.6748    21.9262    20.9345  1683.7406   120.2417     0.2015     7.1176    -0.0029     2.6591
 4739.5000   -31.2370  1604.3865    21.6063    20.9345  1684.3136   122.9607     0.2036     7.1170    -0.0030     2.6583
 4740.0000   -31.2388  1606.0980    21.3031    20.4979  1684.8867   124.1692     0.2052     7.1164    -0.0038     2.6568
 4740.5000   -31.3913  1607.8096    21.2960    20.2119  1670.3029   122.0544     0.2055     7.1157    -0.0038     2.6537
 4741.0000   -31.3984  1609.5212    21.2894    19.7903  1671.0249   121.4501     0.2049     7.1151    -0.0038     2.6529
 4741.5000   -31.8477  1611.2328    21.2818    19.2419  1671.5980   122.3565     0.2049     7.1146    -0.0024     2.6544
 4742.0000   -32.0002  1613.0212    21.1038    18.9735  1672.1710   123.5650     0.2055     7.1140     0.0006     2.6596
 4742.5000   -32.0016  1611.8485    20.1045    18.7087  1672.7441   125.0755     0.2071     7.1147     0.0058     2.6674
 4743.0000   -32.0031  1610.6207    19.1341    18.1726  1673.3331   126.5861     0.2164     7.1300     0.0125     2.6776
 4743.5000   -32.0045  1609.3928    18.3388    17.1961  1658.7386   128.0967     0.2267     7.1421     0.0155     2.6791
 4744.0000   -32.0063  1608.1650    18.4667    16.7196  1659.4552   129.9094     0.2355     7.1415     0.0162     2.6738
 4744.5000   -32.0077  1606.9371    19.6577    16.8375  1660.0283   127.1629     0.2382     7.1409     0.0162     2.6738
 4745.0000   -32.1602  1605.7094    21.2288    17.4395  1660.6061   116.3142     0.2301     7.1403     0.0169     2.6760
 4745.5000   -32.1585  1604.4814    23.0869    20.2119  1661.3174   108.4592     0.2063     7.1396     0.0176     2.6767
 4746.0000   -32.0120  1603.2537    24.2417    21.8358  1661.8904   106.6465     0.1885     7.1391     0.0194     2.6744
 4746.5000   -32.0138  1602.0258    24.5763    22.7759  1662.4641   106.0423     0.1954     7.1385     0.0213     2.6752
 4747.0000   -32.0152  1600.7980    24.7391    22.7759  1663.0371   103.0211     0.1963     7.1379     0.0272     2.6871
 4747.5000   -31.8656  1599.5701    25.0806    23.4250  1678.9048    96.3746     0.1876     7.1372     0.0317     2.6976
 4748.0000   -31.5469  1598.3422    26.7074    25.4855  1679.4779    94.2598     0.1707     7.1367     0.0317     2.7013
 4748.5000   -31.4153  1597.1144    29.4584    27.7272  1680.0509    98.4894     0.1541     7.1361     0.0279     2.6998
 4749.0000   -31.4171  1595.8865    27.2554    28.1196  1680.6240   109.3656     0.1626     7.1355     0.0219     2.6930
 4749.5000   -31.5696  1594.6587    22.0722    25.0270  1681.2124   112.9909     0.1726     7.1349     0.0181     2.6832
 4750.0000   -31.8731  1593.4308    21.1565    22.1448  1681.9137   116.6163     0.1783     7.1342     0.0127     2.6706
 4750.5000   -32.3679  1592.2030    25.3957    22.9326  1667.1921   110.8726     0.1820     7.1337     0.0045     2.6629
 4751.0000   -32.5167  1590.9751    25.9397    26.2040  1683.0598   101.5041     0.1652     7.1331     0.0030     2.6666
 4751.5000   -32.5137  1589.7473    26.9863    30.3656  1683.6328    96.9696     0.1470     7.1325     0.0045     2.6628
