~VERSION INFORMATION
 VERS.                2.0:   CWLS LOG ASCII STANDARD - VERSION 2.0
 WRAP.                 NO:   ONE LINE PER DEPTH STEP
~WELL INFORMATION
#MNEM.UNIT      DATA TYPE    INFORMATION
#----------   ------------   ------------------------------
 STRT.F           16.0000:   START DEPTH
 STOP.F         2860.0000:   STOP DEPTH
 STEP.F            0.5000:   STEP LENGTH
 NULL.          -999.2500:   NO VALUE
 COMP.    FENIX & SCISSON:   COMPANY
 WELL. FENIX NPR 3 "AX" #22-21:   WELL
 FLD .  TEAPOT DOME - NPR:   FIELD
 LOC .      S21 T39N R78W:   LOCATION
 CNTY.            NATRONA:   COUNTY
 STAT.            WYOMING:   STATE
 CTRY. UNITED STATES OF AMERICA:   COUNTRY
 SRVC.      DRESSER ATLAS:   SERVICE COMPANY
 DATE.        07-AUG-1978:   LOGDATE
 API .     49025106790000:   API NUMBER
~CURVE INFORMATION
#MNEM.UNIT       API CODE    CURVE DESCRIPTION
#----------   ------------   ------------------------------
 DEPT.F                  :   
 CALD.IN     45 280 60 00:   CALIPER FROM DENSITY LOG
 GRD .GAPI   45 310 01 00:   GAMMA RAY FROM DENSITY LOG
 CORR.G/C3   45 356 01 00:   DENSITY CORRECTION
 RHOB.G/C3   45 350 01 00:   BULK DENSITY
 SPR .MV     05 010 01 00:   SPONTANEOUS POTENTIAL
 ILD .OHMM   05 120 46 00:   DEEP INDUCTION RESISTIVITY
 SN  .OHMM   05 040 00 00:   SHORT NORMAL
~PARAMETER INFORMATION
#MNEM.UNIT          VALUE    DESCRIPTION
#----------   ------------   ------------------------------
 EKB .F         4989.0000:   Kelly bushing
 EGL .F         4979.0000:   Ground level
 EDF .F            0.0000:   Drilling floor
 TD  .F         2847.0000:   Total depth
 DATE.        07-AUG-1978:   Date logged
 CLNT.            A2DTECH:   Client Code
 SL  . 880' FNL & 660' FWL:   Surface Location
 PD  .                 GL:   Permanent Datum
 DD  .F              2845:   Depth driller
 DL  .F              2847:   Depth logger
 BLI .F              2841:   Bottom log interval
 CS1 .IN            8.625:   Casing size
 CBD1.      8.625" @ 240':   Casing driller 1
 CBL1.F               240:   Casing logger 1
 BS1 .IN            7.875:   Bit size
 DFT .                KCL:   Type fluid in hole
 DFD .                9.2:   Density
 DFV .                 31:   Viscosity
 DFPH.               10.5:   pH
 MSS .           FLOWLINE:   Source of sample
 RMS .OHMM           1.25:   Rm
 MST .F                74:   Rm Meas. temp.
 RMF .OHMM            1.8:   Rmf
 MFST.F                76:   Rmf Meas. temp.
 RMC .OHMM              3:   Rmc
 MCST.F                78:   Rmc Meas. temp.
 MFSS.               MEAS:   Source Rmf.
 TCS .HRS               4:   Time Circ. stopped
 LUN .               3006:   Logging unit number
 LUL .               CASP:   Logging unit location
 ENGI.             MILLER:   Recorded By
 WITN.           MCGINLEY:   Witnessed by
 ORIG.           5" PRINT:   Origin of data
 UWI .     49025106790000:   Unique Well ID
 DICO. A2D TECHNOLOGIES, INC.:   Digitizing Company
 DAPD.                 10:   Feet Above Permanent Datum
 BSD1.F              2845:   Depth drilled with bit1
 EPD .F              4970:   Elevation Permanent Datum
 LMF .                 KB:   Log Measured From
 DMF .                 KB:   Drilling Measured From
 TLI .                240:   Top log interval
~OTHER INFORMATION
~A   DEPT     CALD         GRD      CORR       RHOB        SPR        ILD         SN   
# ...
 2154.5000     9.7470    96.1630     0.0800     2.5150    -7.1400     5.0200     7.3530
 2155.0000     9.7590   101.7850     0.0820     2.5170    -7.2350     5.0110     7.3200
 2155.5000     9.7700   108.2470     0.0850     2.5080    -7.2590     5.0020     7.2880
 2156.0000     9.7830   110.6230     0.0880     2.4950    -6.8040     4.9930     7.2540
 2156.5000     9.7650   107.9770     0.0910     2.4870    -6.3750     4.9850     7.2210
 2157.0000     9.7280   105.0340     0.0940     2.4880    -5.9060     4.9750     7.1880
 2157.5000     9.6980   106.0160     0.0960     2.4760    -5.8940     4.9670     7.1540
 2158.0000     9.6670   108.6290     0.1090     2.4670    -6.4290     4.9580     7.1210
 2158.5000     9.6930   107.7330     0.1320     2.4530    -6.0230     4.9460     7.0870
 2159.0000     9.7260   105.1040     0.1520     2.4710    -5.7750     4.9730     7.0540
 2159.5000     9.7430    99.5280     0.1570     2.4970    -6.0090     5.1010     7.0200
 2160.0000     9.7300    96.2280     0.1240     2.5040    -6.1270     5.2290     6.9930
 2160.5000     9.7230    97.0260     0.0940     2.5010    -6.1320     5.3560     7.1030
 2161.0000     9.7110    99.1250     0.0870     2.4990    -6.1250     5.4840     7.1940
 2161.5000     9.6980   103.0920     0.0880     2.4970    -6.2000     5.6120     7.3910
 2162.0000     9.6360   105.3390     0.0880     2.5020    -6.2960     5.7400     7.7870
 2162.5000     9.5680   104.0010     0.0880     2.5110    -6.3960     5.8680     8.1820
 2163.0000     9.5570   101.5620     0.0880     2.5130    -6.4830     5.9590     8.5780
 2163.5000     9.5880    98.8930     0.0880     2.5090    -6.6020     6.0420     8.9220
 2164.0000     9.6160    96.9280     0.0880     2.5090    -6.7390     6.0300     9.1990
 2164.5000     9.5920    95.6000     0.0880     2.5120    -6.8670     6.0040     9.1840
 2165.0000     9.5510    94.4740     0.0880     2.5150    -6.9960     5.9780     9.1620
 2165.5000     9.5050    94.7280     0.0880     2.5130    -7.1220     5.9510     9.1390
 2166.0000     9.5360    96.4970     0.0880     2.5090    -7.2600     5.9250     9.1160
 2166.5000     9.6160    98.3790     0.0900     2.5040    -7.2840     5.8990     9.0940
 2167.0000     9.6030    98.3770     0.0960     2.5000    -7.2090     5.8720     9.0710
 2167.5000     9.5870    98.2000     0.1010     2.4960    -7.1470     5.8460     9.0480
 2168.0000     9.5510    99.3000     0.1040     2.4920    -7.0830     5.8200     8.9680
 2168.5000     9.6070   103.0040     0.1040     2.4900    -7.0180     5.7930     8.7460
 2169.0000     9.5900   103.3280     0.1030     2.4880    -6.9540     5.7670     8.5230
 2169.5000     9.5500   102.5550     0.1040     2.4860    -6.8890     5.7410     8.3950
 2170.0000     9.5070   100.9270     0.1040     2.4840    -6.8260     5.7200     8.4160
 2170.5000     9.5350    99.5200     0.1100     2.4830    -6.7600     5.7310     8.4350
 2171.0000     9.5460    98.0310     0.1150     2.4810    -6.6960     5.7400     8.4550
 2171.5000     9.5410    96.6180     0.1210     2.4800    -6.6330     5.7490     8.4740
 2172.0000     9.5430    94.9560     0.1260     2.4780    -6.5590     5.7590     8.4940
 2172.5000     9.5580    95.1340     0.1320     2.4760    -6.5870     5.7680     8.5140
 2173.0000     9.4710    96.5870     0.1370     2.4780    -6.8500     5.7770     8.5330
 2173.5000     9.7240    97.9390     0.1450     2.4800    -7.0750     5.7860     8.5530
 2174.0000     9.8730    98.6150     0.1600     2.4990    -7.2740     5.7960     8.5730
 2174.5000     9.5930    97.3530     0.1500     2.5210    -6.9850     5.8040     8.5920
 2175.0000     9.6420    96.0780     0.1230     2.5400    -6.6250     5.8130     8.6120
 2175.5000     9.7350    95.4310     0.1040     2.5220    -6.8080     5.8230     8.6310
 2176.0000     9.5940    97.9310     0.1020     2.5240    -7.4800     5.7850     8.6500
 2176.5000     9.5170   100.3670     0.1000     2.5230    -7.6940     5.7340     8.6670
 2177.0000     9.5560   103.1050     0.0980     2.5130    -7.5930     5.6830     8.7050
 2177.5000     9.5870   103.8750     0.0960     2.5120    -7.5400     5.6150     8.6990
 2178.0000     9.6120   102.6460     0.0950     2.5040    -7.4700     5.6170     8.4390
 2178.5000     9.6300   102.2840     0.0930     2.4980    -7.4020     5.5760     8.2090
 2179.0000     9.6470   103.1350     0.0860     2.5020    -7.3370     5.4910     7.9710
 2179.5000     9.6650   103.6100     0.0790     2.4970    -7.2700     5.4060     7.7340
 2180.0000     9.6840   102.1620     0.0810     2.4860    -7.2040     5.3210     7.4960
 2180.5000     9.7010   100.3680     0.0910     2.4760    -7.1370     5.2360     7.2540
 2181.0000     9.7200    98.0030     0.1060     2.4720    -7.0690     5.1510     7.2290
 2181.5000     9.7450    94.8730     0.1070     2.4850    -7.0050     5.0660     7.1870
 2182.0000     9.7980    93.2240     0.1060     2.4960    -6.9370     4.9810     7.1440
 2182.5000     9.8250    92.0530     0.1040     2.4890    -6.9890     4.8960     7.1020
 2183.0000     9.8590    90.5230     0.1060     2.4750    -7.1040     4.8100     7.0590
 2183.5000     9.8920    88.6680     0.1160     2.4610    -7.2080     4.7230     7.0170
 2184.0000     9.9010    87.3390     0.1230     2.4470    -7.3010     4.6370     6.9010
 2184.5000     9.9010    86.5950     0.1240     2.4380    -7.2330     4.5500     6.6980
 2185.0000     9.9010    90.3050     0.1250     2.4380    -7.1620     4.4640     6.4980
 2185.5000     9.9000    93.6590     0.1260     2.4370    -7.0840     4.3900     6.2990
 2186.0000     9.9010    98.3870     0.1260     2.4370    -7.0110     4.3200     6.0990
 2186.5000     9.9070   101.6380     0.1310     2.4250    -6.9360     4.2440     5.9000
 2187.0000     9.9910   101.4600     0.1420     2.4060    -6.8620     4.1680     5.7000
 2187.5000    10.0760   101.9180     0.1540     2.4040    -6.7880     4.0920     5.5010
 2188.0000    10.1680   102.2940     0.1540     2.4100    -6.7130     4.0150     5.3020
 2188.5000    10.2160   104.4190     0.1650     2.3970    -6.6390     3.9390     5.0330
 2189.0000    10.0510   106.4900     0.1850     2.3880    -6.5640     3.8630     5.0510
 2189.5000     9.9810   107.7920     0.1890     2.4080    -6.4720     3.7570     5.0780
 2190.0000    10.0060   107.5650     0.1850     2.4270    -6.3470     3.7780     5.1050
 2190.5000    10.0210   108.3450     0.1640     2.4490    -6.2290     3.8120     5.1320
 2191.0000    10.0380   110.6040     0.1430     2.4680    -6.1450     3.8970     5.1590
 2191.5000    10.0670   112.8090     0.1190     2.4690    -6.3200     3.9330     5.1860
 2192.0000    10.1040   114.7830     0.1040     2.4490    -6.4720     3.9820     5.2130
 2192.5000    10.1350   114.9120     0.1070     2.4320    -6.6390     4.0300     5.2540
 2193.0000    10.1350   114.6070     0.1130     2.4270    -6.8010     4.0780     5.3630
 2193.5000    10.1270   114.3400     0.1190     2.4290    -6.9050     4.1260     5.4720
 2194.0000    10.1160   112.2840     0.1290     2.4190    -6.8660     4.1750     5.5810
 2194.5000    10.1090   109.4480     0.1440     2.4040    -6.8300     4.2530     5.6900
 2195.0000    10.1060   109.3980     0.1600     2.3960    -6.7900     4.3480     5.7990
 2195.5000    10.1670   111.3720     0.1660     2.4070    -6.7510     4.4430     5.9080
 2196.0000    10.2120   112.5780     0.1640     2.4160    -6.7130     4.5380     6.0100
 2196.5000    10.2700   111.9950     0.1620     2.4230    -6.6740     4.6330     6.1090
 2197.0000    10.2730   111.1200     0.1610     2.4040    -6.6360     4.7280     6.2080
 2197.5000    10.1790   107.3520     0.1590     2.3870    -6.5970     4.8230     6.3080
 2198.0000    10.0820   102.8450     0.1650     2.3890    -6.5580     5.0330     6.4070
 2198.5000    10.0090    98.6400     0.1710     2.3960    -6.5230     5.0330     6.5000
 2199.0000     9.8930    93.2250     0.1780     2.3790    -6.5220     5.0330     6.5590
 2199.5000     9.7000    94.5240     0.1770     2.3850    -6.5210     5.0330     6.6130
