~VERSION INFORMATION
 VERS.                2.0:   CWLS LOG ASCII STANDARD - VERSION 2.0
 WRAP.                 NO:   ONE LINE PER DEPTH STEP
~WELL INFORMATION
#MNEM.UNIT      DATA TYPE    INFORMATION
#----------   ------------   ------------------------------
 STRT.F          203.5000:   START DEPTH
 STOP.F         3126.0000:   STOP DEPTH
 STEP.F            0.5000:   STEP LENGTH
 NULL.          -999.2500:   NO VALUE
 COMP.    FENIX & SCISSON:   COMPANY
 WELL. FENIX NPR 3 "AX" #88-33:   WELL
 FLD .        TEAPOT DOME:   FIELD
 LOC .      S33 T39N R78W:   LOCATION
 CNTY.            NATRONA:   COUNTY
 STAT.            WYOMING:   STATE
 CTRY. UNITED STATES OF AMERICA:   COUNTRY
 SRVC.       SCHLUMBERGER:   SERVICE COMPANY
 DATE.        23-JAN-1978:   LOGDATE
 API .     49025105610000:   API NUMBER
~CURVE INFORMATION
#MNEM.UNIT       API CODE    CURVE DESCRIPTION
#----------   ------------   ------------------------------
 DEPT.F                  :   
 CALD.IN     45 280 60 00:   CALIPER FROM DENSITY LOG
 GRD .GAPI   45 310 01 00:   GAMMA RAY FROM DENSITY LOG
 RHOB.G/C3   45 350 01 00:   BULK DENSITY
 CORR.G/C3   45 356 01 00:   DENSITY CORRECTION
 SPR .MV     05 010 01 00:   SPONTANEOUS POTENTIAL
 SN  .OHMM   05 040 16 00:   SHORT NORMAL 16"
 ILD .OHMM   05 120 46 00:   DEEP INDUCTION RESISTIVITY
~PARAMETER INFORMATION
#MNEM.UNIT          VALUE    DESCRIPTION
#----------   ------------   ------------------------------
 EKB .F         5174.0000:   Kelly bushing
 EGL .F         5164.0000:   Ground level
 EDF .F            0.0000:   Drilling floor
 TD  .F         3115.0000:   Total depth
 DATE.        23-JAN-1978:   Date logged
 CLNT.            A2DTECH:   Client Code
 PD  .                 GL:   Permanent Datum
 EPD .F              5164:   Elevation Permanent Datum
 LMF .                 KB:   Log Measured From
 DMF .                 KB:   Drilling Measured From
 DD  .F              3115:   Depth driller
 DL  .F              3115:   Depth logger
 BLI .F              3115:   Bottom log interval
 TLI .F               210:   Top log interval
 CS1 .IN            8.625:   Casing size
 CBD1.      9.625" @ 219':   Casing driller 1
 CBL1.F               219:   Casing logger 1
 BS1 .IN            7.875:   Bit size
 BSD1.F              3115:   Depth drilled with bit1
 DFT .                GEL:   Type fluid in hole
 DFD .                8.9:   Density
 DFV .                 36:   Viscosity
 DFPH.                 10:   pH
 DFL .                7.8:   Fluid loss
 MSS .           FLOWLINE:   Source of sample
 RMS .OHMM            2.2:   Rm
 MST .F                62:   Rm Meas. temp.
 RMF .OHMM           1.94:   Rmf
 MFST.F                54:   Rmf Meas. temp.
 RMC .OHMM            3.4:   Rmc
 MCST.F                54:   Rmc Meas. temp.
 MFSS.               MEAS:   Source Rmf.
 MCSS.               MEAS:   Source Rmc.
 RMB .OHMM            1.1:   Rm. at BHT
 BHT .F               114:   BHT.
 TCS .HRS             4.5:   Time Circ. stopped
 MRT .F               114:   Maximum recorded temp.
 LUN .               2958:   Logging unit number
 LUL .             CASPER:   Logging unit location
 ENGI.           REYNOLDS:   Recorded By
 WITN.           MCGINLEY:   Witnessed by
 ORIG.           5" PRINT:   Origin of data
 UWI .     49025105610000:   Unique Well ID
 DICO. A2D TECHNOLOGIES, INC.:   Digitizing Company
 DAPD.F              5164:   Feet Above Permanent Datum
 SL  . 100' FSL & 550' FEL:   Surface Location
~OTHER INFORMATION
~A   DEPT     CALD        GRD       RHOB       CORR        SPR         SN        ILD   
# ...
 2114.5000     9.6986   112.0164     2.4734     0.0547   -40.2762    12.9390    12.1506
 2115.0000     9.6985   111.0198     2.4734     0.0547   -40.2762    13.1798    11.9290
 2115.5000     9.6984   109.2268     2.4704     0.0567   -40.2762    13.3022    11.8199
 2116.0000     9.6983   107.2351     2.4674     0.0567   -40.2762    13.4258    11.4979
 2116.5000     9.6982   109.6228     2.4664     0.0547   -40.4746    13.5506    11.1846
 2117.0000     9.6981   112.6077     2.4644     0.0547   -40.2762    13.4271    10.8796
 2117.5000     9.6781   114.7961     2.4624     0.0607   -40.2762    13.0621    10.3898
 2118.0000     9.6780   120.1694     2.4703     0.0647   -40.2762    12.5906    10.2948
 2118.5000     9.6978   124.1494     2.4683     0.0587   -40.4746    12.0250    10.2008
 2119.0000     9.6977   120.1666     2.4663     0.0547   -40.2762    11.5910    10.1075
 2119.5000     9.6777   118.3738     2.4713     0.0507   -40.6730    11.4853    10.1079
 2120.0000     9.6776   117.1781     2.4793     0.0487   -40.9221    11.4859    10.2021
 2120.5000     9.6776   116.8775     2.4813     0.0487   -40.9209    11.8079    10.7836
 2121.0000     9.6974   118.4687     2.4813     0.0487   -40.7215    12.0278    10.7837
 2121.5000     9.6774   118.6663     2.4733     0.0487   -40.5220    12.1395    10.8842
 2122.0000     9.6773   117.6698     2.4683     0.0507   -40.7200    12.1401    10.8847
 2122.5000     9.6971   118.3655     2.4663     0.0486   -39.9247    12.0295    10.8853
 2123.0000     9.6970   120.7518     2.4653     0.0486   -39.8794    12.1412    10.8858
 2123.5000     9.6770   120.3532     2.4623     0.0486   -39.6810    12.1418    10.8861
 2124.0000     9.6371   115.7743     2.4573     0.0526   -39.4825    12.1424    10.8868
 2124.5000     9.6569   114.5789     2.4543     0.0666   -39.4825    12.1428    10.8873
 2125.0000     9.6767   110.7966     2.4553     0.0866   -39.4825    12.1434    10.8877
 2125.5000     9.6567   108.8054     2.4773     0.0926   -39.4825    12.1440    10.9891
 2126.0000     9.6367   107.4112     2.4822     0.0926   -39.4825    12.1445    10.9896
 2126.5000     9.6367   105.8181     2.5002     0.0866   -40.0778    12.1451    10.8892
 2127.0000     9.6366   103.6282     2.5112     0.0686   -40.2762    12.1457    10.7897
 2127.5000     9.6166   102.8312     2.5062     0.0426   -40.5124    12.0350    10.7902
 2128.0000     9.6165   102.8297     2.4932     0.0286   -40.5116    12.0355    10.8908
 2128.5000     9.6164   104.2219     2.4752     0.0226   -40.5108    11.9259    10.8913
 2129.0000     9.6163   109.5933     2.4592     0.0246   -40.5100    11.9264    10.8918
 2129.5000     9.6162   113.5714     2.4552     0.0346   -40.5092    11.8177    10.7923
 2130.0000     9.6161   116.3556     2.4592     0.0526   -40.5084    11.9275    10.7928
 2130.5000     9.6160   116.5533     2.4682     0.0506   -40.5076    11.8188    10.2121
 2131.0000     9.6159   117.1488     2.4712     0.0586   -40.5068    11.8193    10.2125
 2131.5000     9.6357   117.1480     2.4742     0.0686   -40.5059    11.8198    10.1191
 2132.0000     9.6356   115.7535     2.4802     0.0746   -40.5051    11.8204    10.1196
 2132.5000     9.6355   119.1342     2.4832     0.0765   -40.5043    11.4991    10.1201
 2133.0000     9.6355   117.1434     2.4852     0.0885   -40.5035    11.2899    10.1205
 2133.5000     9.6354   116.9434     2.4922     0.0885   -40.5027    11.1870    10.1210
 2134.0000     9.6353   117.3397     2.4972     0.0965   -40.5018    11.0851    10.1215
 2134.5000     9.6352   116.9405     2.4982     0.0965   -40.2762    11.1881    10.1220
 2135.0000     9.6351   115.7453     2.5012     0.0945   -40.2762    11.2920    10.3110
 2135.5000     9.6350   112.9591     2.5011     0.0945   -40.2762    11.6086    10.4547
 2136.0000     9.6349   112.1625     2.4981     0.0945   -40.2762    11.8248    10.4547
 2136.5000     9.6348   106.9895     2.5011     0.0945   -39.8794    11.8254    10.4547
 2137.0000     9.6347   105.3971     2.5081     0.0945   -39.8794    11.8258    10.4547
 2137.5000     9.6545   103.8048     2.5161     0.0825   -39.8794    11.7180    10.4354
 2138.0000     9.6345   103.0081     2.5161     0.0805   -39.8794    11.6112    10.4160
 2138.5000     9.6344   100.8192     2.5161     0.0785   -39.8794    11.4000    10.3968
 2139.0000     9.6543   100.8182     2.5121     0.0785   -40.0778    11.1927    10.3775
 2139.5000     9.6542   101.2149     2.5101     0.0785   -40.2762    11.1932    10.1266
 2140.0000     9.6541   102.6061     2.5121     0.0765   -40.2762    11.1940    10.1271
 2140.5000     9.6540   103.5994     2.5161     0.0705   -40.8882    11.2976    10.1276
 2141.0000     9.6339   105.9849     2.5041     0.0645   -40.8877    11.2978    10.1280
 2141.5000     9.6339   110.3589     2.4951     0.0645   -40.8869    11.2984    10.1285
 2142.0000     9.6338   114.5342     2.4851     0.0605   -41.0846    11.2992    10.1290
 2142.5000     9.6337   114.9306     2.4831     0.0605   -41.0837    11.0938     9.9443
 2143.0000     9.6336   116.6194     2.4761     0.0605   -41.0829    10.9927     9.9447
 2143.5000     9.6335   116.8166     2.4761     0.0605   -40.8836    10.7927     9.9451
 2144.0000     9.6334   113.7336     2.4801     0.0565   -40.4859    10.7931    10.1308
 2144.5000     9.6333   111.3462     2.4821     0.0505   -39.8794    10.7937    10.1313
 2145.0000     9.6333   107.9646     2.4821     0.0504   -39.8794    10.4041    10.1317
 2145.5000     9.6332   106.5715     2.4820     0.0484   -39.8794    10.7947    10.5134
 2146.0000     9.6331   104.7802     2.4840     0.0464   -39.8794    10.8950    10.8793
 2146.5000     9.6330   107.7623     2.4810     0.0464   -40.0778    11.0978    11.2155
 2147.0000     9.6329   109.3517     2.4730     0.0484   -40.0778    11.4090    11.5308
 2147.5000     9.6328   110.5435     2.4740     0.0504   -40.0778    12.0572    11.9649
 2148.0000     9.6327   114.3194     2.4770     0.0524   -40.2762    12.0577    11.9654
 2148.5000     9.6525   109.9444     2.4770     0.0544   -40.2762    12.1698    11.8561
 2149.0000     9.6524   111.9316     2.4720     0.0564   -40.2762    12.0589    11.8566
 2149.5000     9.6523   114.0167     2.4690     0.0620   -40.2762    11.9489    11.7482
 2150.0000     9.6522   113.3207     2.4620     0.0600   -40.4746    11.9493    11.7488
 2150.5000     9.6521   110.5021     2.4620     0.0600   -40.2762    11.8403    11.5345
 2151.0000     9.6518   107.3521     2.4760     0.0584   -40.0778    11.7326    11.6420
 2151.5000     9.6517   105.5608     2.4790     0.0603   -40.0778    11.6256    11.5356
 2152.0000     9.6515   106.1549     2.4880     0.0503   -40.2762    11.6261    11.6430
 2152.5000     9.6513   106.1527     2.4890     0.0283   -40.2762    11.7343    11.6436
 2153.0000     9.6511   105.5541     2.4819     0.0163   -40.4746    11.7348    11.8610
 2153.5000     9.6509   108.1356     2.4639     0.0023   -40.4746    11.9533    11.7526
 2154.0000     9.6706   109.9224     2.4539    -0.0018   -40.6730    11.9539    11.6452
 2154.5000     9.6704   111.1124     2.4479    -0.0018   -40.6730    11.9544    11.2628
 2155.0000     9.6504   112.0031     2.4469     0.0122   -40.6730    11.6295    10.9568
 2155.5000     9.6502   112.1998     2.4519     0.0282   -40.6730    11.0053    10.3305
 2156.0000     9.6500   110.8063     2.4729     0.0442   -40.4746    10.4147     9.7747
 2156.5000     9.6498   108.5195     2.4759     0.0541   -40.4746    10.3197     9.6853
 2157.0000     9.6496   106.3311     2.4819     0.0573   -40.2762    10.2256     9.4213
 2157.5000     9.6495   105.2359     2.4829     0.0581   -39.8794    10.0396     9.0804
 2158.0000     9.6493   104.8362     2.4878     0.0581   -39.6810     9.9482     9.0808
 2158.5000     9.6491   105.8274     2.4998     0.0541   -39.6810     9.8575     8.8333
 2159.0000     9.6489   105.8252     2.5128     0.0420   -39.6810     9.7677     8.5926
 2159.5000     9.6487   100.9566     2.5078     0.0320   -39.4825     9.5900     8.5930
