~VERSION INFORMATION
 VERS.                2.0:   CWLS LOG ASCII STANDARD - VERSION 2.0
 WRAP.                 NO:   ONE LINE PER DEPTH STEP
~WELL INFORMATION
#MNEM.UNIT      DATA TYPE    INFORMATION
#----------   ------------   ------------------------------
 STRT.F          218.5000:   START DEPTH
 STOP.F         3291.0000:   STOP DEPTH
 STEP.F            0.5000:   STEP LENGTH
 NULL.          -999.2500:   NO VALUE
 COMP.    FENIX & SCISSON:   COMPANY
 WELL.   FENIX SHX #63-23:   WELL
 FLD .  TEAPOT DOME NPR-3:   FIELD
 LOC .      S23 T38N R78W:   LOCATION
 CNTY.            NATRONA:   COUNTY
 STAT.            WYOMING:   STATE
 CTRY. UNITED STATES OF AMERICA:   COUNTRY
 SRVC.           BIRDWELL:   SERVICE COMPANY
 DATE.        08-JUL-1978:   LOGDATE
 API .     49025106600000:   API NUMBER
~CURVE INFORMATION
#MNEM.UNIT       API CODE    CURVE DESCRIPTION
#----------   ------------   ------------------------------
 DEPT.F                  :   
 GRD .GAPI   45 310 01 00:   GAMMA RAY FROM DENSITY LOG
 CALD.IN     45 280 60 00:   CALIPER FROM DENSITY LOG
 CORR.G/C3   45 356 01 00:   DENSITY CORRECTION
 RHOB.G/C3   45 350 01 00:   BULK DENSITY
 GR  .GAPI   35 310 01 00:   GAMMA RAY
 NEUT.NAPI   35 330 01 00:   NEUTRON
~PARAMETER INFORMATION
#MNEM.UNIT          VALUE    DESCRIPTION
#----------   ------------   ------------------------------
 EKB .F         5368.0000:   Kelly bushing
 EGL .F         5358.0000:   Ground level
 TD  .F         3299.0000:   Total depth
 CLNT.            A2DTECH:   Client Code
 PD  .                 GL:   Permanent Datum
 EPD .F              5358:   Elevation Permanent Datum
 LMF .                 KB:   Log Measured From
 DMF .                 KB:   Drilling Measured From
 DAPD.F                10:   Feet Above Permanent Datum
 DATE.        08-JUL-1978:   Date Logged [DD-MMM-YYYY]
 DD  .F              3299:   Depth driller
 DL  .F              3291:   Depth logger
 BLI .F              3291:   Bottom log interval
 TLI .F              1430:   Top log interval
 CS1 .IN            9.625:   Casing size
 CBD1.     9.625" @ 1450':   Casing driller 1
 CBL1.F              1442:   Casing logger 1
 BS1 .IN            8.750:   Bit size
 BSD1.F              3299:   Depth drilled with bit1
 DFT .          KCL WATER:   Type fluid in hole
 BHT .F               118:   BHT.
 TCS .HRS               2:   Time Circ. stopped
 MRT .F               118:   Maximum recorded temp.
 LUN .               2958:   Logging unit number
 LUL .               CASP:   Logging unit location
 ENGI.             MILLER:   Recorded By
 WITN.           MCGINLEY:   Witnessed by
 ORIG.           5" PRINT:   Origin of data
 UWI .     49025106600000:   Unique Well ID
 DICO. A2D TECHNOLOGIES, INC.:   Digitizing Company
 SL  . 1800' FNL & 1825' FEL:   Surface Location
~OTHER INFORMATION
~A   DEPT      GRD       CALD       CORR       RHOB          GR      NEUT   
# ...
 1518.5000    77.6126     9.7213     0.0542     2.5302  -999.2500  -999.2500
 1519.0000    77.6071     9.7207     0.0572     2.5332  -999.2500  -999.2500
 1519.5000    79.3596     9.7053     0.0602     2.5379  -999.2500  -999.2500
 1520.0000    81.8467     9.6901     0.0658     2.5446  -999.2500  -999.2500
 1520.5000    83.4540     9.6749     0.0707     2.5507  -999.2500  -999.2500
 1521.0000    84.4748     9.6743     0.0738     2.5538  -999.2500  -999.2500
 1521.5000    84.3226     9.6737     0.0766     2.5583  -999.2500  -999.2500
 1522.0000    83.1425     9.6730     0.0766     2.5606  -999.2500  -999.2500
 1522.5000    83.2836     9.6725     0.0735     2.5590  -999.2500  -999.2500
 1523.0000    83.2780     9.6572     0.0734     2.5549  -999.2500  -999.2500
 1523.5000    80.7797     9.6273     0.0718     2.5505  -999.2500  -999.2500
 1524.0000    80.1876     9.5827     0.0702     2.5505  -999.2500  -999.2500
 1524.5000    80.1818     9.5820     0.0656     2.5566  -999.2500  -999.2500
 1525.0000    80.6149     9.5814     0.0640     2.5550  -999.2500  -999.2500
 1525.5000    81.6357     9.5809     0.0594     2.5481  -999.2500  -999.2500
 1526.0000    82.0714     9.5803     0.0533     2.5496  -999.2500  -999.2500
 1526.5000    82.3578     9.5651     0.0532     2.5519  -999.2500  -999.2500
 1527.0000    81.7498     9.5497     0.0532     2.5557  -999.2500  -999.2500
 1527.5000    80.7322     9.5198     0.0516     2.5462  -999.2500  -999.2500
 1528.0000    79.8468     9.5045     0.0485     2.5396  -999.2500  -999.2500
 1528.5000    79.4013     9.4893     0.0484     2.5418  -999.2500  -999.2500
 1529.0000    79.5425     9.4887     0.0514     2.5441  -999.2500  -999.2500
 1529.5000    79.9766     9.4880     0.0529     2.5439  -999.2500  -999.2500
 1530.0000    80.2643     9.4581     0.0574     2.5511  -999.2500  -999.2500
 1530.5000    80.2573     9.4281     0.0634     2.5593  -999.2500  -999.2500
 1531.0000    80.2517     9.4213     0.0664     2.5623  -999.2500  -999.2500
 1531.5000    80.3930     9.4123     0.0557     2.5470  -999.2500  -999.2500
 1532.0000    83.1847     9.3823     0.0450     2.5370  -999.2500  -999.2500
 1532.5000    83.7540     9.3964     0.0419     2.5347  -999.2500  -999.2500
 1533.0000    82.1341     9.4399     0.0418     2.5400  -999.2500  -999.2500
 1533.5000    80.8089     9.4540     0.0425     2.5408  -999.2500  -999.2500
 1534.0000    80.8033     9.4681     0.0441     2.5407  -999.2500  -999.2500
 1534.5000    81.0909     9.4674     0.0447     2.5392  -999.2500  -999.2500
 1535.0000    80.4974     9.4816     0.0446     2.5407  -999.2500  -999.2500
 1535.5000    74.6267     9.4810     0.0461     2.5455  -999.2500  -999.2500
 1536.0000    71.6886     9.4953     0.0506     2.5521  -999.2500  -999.2500
 1536.5000    70.5114     9.5096     0.0522     2.5467  -999.2500  -999.2500
 1537.0000    76.0762     9.5381     0.0565     2.5551  -999.2500  -999.2500
 1537.5000    81.4944     9.5669     0.0625     2.5665  -999.2500  -999.2500
 1538.0000    84.4214     9.5957     0.0625     2.5742  -999.2500  -999.2500
 1538.5000    85.5888     9.6245     0.0624     2.5710  -999.2500  -999.2500
 1539.0000    86.3164     9.6532     0.0618     2.5664  -999.2500  -999.2500
 1539.5000    86.8973     9.6688     0.0592     2.5656  -999.2500  -999.2500
 1540.0000    87.3509     9.6814     0.0592     2.5557  -999.2500  -999.2500
 1540.5000    87.7659     9.6807     0.0591     2.5518  -999.2500  -999.2500
 1541.0000    87.7589     9.6801     0.0591     2.5485  -999.2500  -999.2500
 1541.5000    87.6066     9.6796     0.0590     2.5464  -999.2500  -999.2500
 1542.0000    87.4544     9.6789     0.0574     2.5479  -999.2500  -999.2500
 1542.5000    87.4487     9.6783     0.0558     2.5494  -999.2500  -999.2500
 1543.0000    87.4418     9.6778     0.0558     2.5356  -999.2500  -999.2500
 1543.5000    87.1430     9.6478     0.0557     2.5325  -999.2500  -999.2500
 1544.0000    86.4042     9.6326     0.0557     2.5279  -999.2500  -999.2500
 1544.5000    85.3723     9.6172     0.0556     2.5210  -999.2500  -999.2500
 1545.0000    84.9267     9.6020     0.0555     2.5232  -999.2500  -999.2500
 1545.5000    84.7732     9.6162     0.0570     2.5232  -999.2500  -999.2500
 1546.0000    84.9156     9.6449     0.0615     2.5215  -999.2500  -999.2500
 1546.5000    85.3485     9.6590     0.0630     2.5224  -999.2500  -999.2500
 1547.0000    86.2226     9.6731     0.0675     2.5277  -999.2500  -999.2500
 1547.5000    87.2578     9.6873     0.0735     2.5315  -999.2500  -999.2500
 1548.0000    89.1426     9.7013     0.0795     2.5338  -999.2500  -999.2500
 1548.5000    90.0168     9.7007     0.0855     2.5353  -999.2500  -999.2500
 1549.0000    91.6241     9.7001     0.0885     2.5383  -999.2500  -999.2500
 1549.5000    92.9381     9.6996     0.0932     2.5405  -999.2500  -999.2500
 1550.0000    94.3988     9.7137     0.0994     2.5458  -999.2500  -999.2500
 1550.5000    93.2188     9.7277     0.1111     2.5542  -999.2500  -999.2500
 1551.0000    91.0138     9.7418     0.1094     2.5427  -999.2500  -999.2500
 1551.5000    88.4370     9.7413     0.1033     2.5381  -999.2500  -999.2500
 1552.0000    87.8161     9.6830     0.1002     2.5258  -999.2500  -999.2500
 1552.5000    87.6512     9.6818     0.0971     2.5212  -999.2500  -999.2500
 1553.0000    87.3342     9.6806     0.0970     2.5265  -999.2500  -999.2500
 1553.5000    87.1660     9.6947     0.0969     2.5242  -999.2500  -999.2500
 1554.0000    87.1531     9.6933     0.0968     2.5165  -999.2500  -999.2500
 1554.5000    87.2953     9.6921     0.0983     2.5111  -999.2500  -999.2500
 1555.0000    87.2791     9.6910     0.1058     2.5073  -999.2500  -999.2500
 1555.5000    87.5701     9.6898     0.1133     2.5034  -999.2500  -999.2500
 1556.0000    88.1650     9.7039     0.1227     2.5011  -999.2500  -999.2500
 1556.5000    90.1245     9.7179     0.1436     2.5607  -999.2500  -999.2500
 1557.0000    90.8746     9.7165     0.1101     2.5063  -999.2500  -999.2500
 1557.5000    88.7307     9.7461     0.0766     2.5132  -999.2500  -999.2500
 1558.0000    87.6332     9.7598     0.0674     2.5437  -999.2500  -999.2500
 1558.5000    87.4890     9.7432     0.0873     2.5513  -999.2500  -999.2500
 1559.0000    87.7800     9.7575     0.0855     2.5521  -999.2500  -999.2500
 1559.5000    87.3078     9.7716     0.0763     2.5474  -999.2500  -999.2500
 1560.0000    86.4437     9.7701     0.0838     2.5436  -999.2500  -999.2500
 1560.5000    84.9990     9.6917     0.0898     2.5481  -999.2500  -999.2500
 1561.0000    84.3781     9.5849     0.0928     2.5450  -999.2500  -999.2500
 1561.5000    84.0612     9.5076     0.0896     2.5450  -999.2500  -999.2500
 1562.0000    84.3526     9.4760     0.0850     2.5465  -999.2500  -999.2500
 1562.5000    85.8967     9.4749     0.0819     2.5464  -999.2500  -999.2500
 1563.0000    88.2743     9.4737     0.0773     2.5464  -999.2500  -999.2500
 1563.5000    89.3284     9.4878     0.0724     2.5441  -999.2500  -999.2500
 1564.0000    88.8563     9.4863     0.0665     2.5387  -999.2500  -999.2500
 1564.5000    87.4755     9.4852     0.0618     2.5310  -999.2500  -999.2500
 1565.0000    85.7876     9.4840     0.0542     2.5241  -999.2500  -999.2500
 1565.5000    84.2548     9.4978     0.0526     2.5210  -999.2500  -999.2500
 1566.0000    84.0931     9.5118     0.0479     2.5255  -999.2500  -999.2500
 1566.5000    84.8368     9.5107     0.0479     2.5209  -999.2500  -999.2500
 1567.0000    85.1278     9.5095     0.0463     2.5201  -999.2500  -999.2500
 1567.5000    85.2668     9.5084     0.0477     2.5262  -999.2500  -999.2500
 1568.0000    85.4025     9.5069     0.0507     2.5430  -999.2500  -999.2500
 1568.5000    86.4534     9.4906     0.0491     2.5490  -999.2500  -999.2500
 1569.0000    88.4161     9.5049     0.0460     2.5322  -999.2500  -999.2500
 1569.5000    90.0923     9.5339     0.0398     2.5253  -999.2500  -999.2500
 1570.0000    90.3658     9.5561     0.0473     2.5336  -999.2500  -999.2500
