~VERSION INFORMATION
 VERS.                2.0:   CWLS LOG ASCII STANDARD - VERSION 2.0
 WRAP.                 NO:   ONE LINE PER DEPTH STEP
~WELL INFORMATION
#MNEM.UNIT      DATA TYPE    INFORMATION
#----------   ------------   ------------------------------
 STRT.F          261.0000:   START DEPTH
 STOP.F         2875.0000:   STOP DEPTH
 STEP.F            0.5000:   STEP LENGTH
 NULL.          -999.2500:   NO VALUE
 COMP.   LAWRENCE ALLISON:   COMPANY
 WELL. LAWRENCE ALLISON "X" #85-20:   WELL
 FLD .          N.P.R. #3:   FIELD
 LOC .      S20 T39N R78W:   LOCATION
 CNTY.            NATRONA:   COUNTY
 STAT.            WYOMING:   STATE
 CTRY. UNITED STATES OF AMERICA:   COUNTRY
 SRVC.      DRESSER ATLAS:   SERVICE COMPANY
 DATE.        23-JUL-1986:   LOGDATE
 API .     49025111030000:   API NUMBER
~CURVE INFORMATION
#MNEM.UNIT       API CODE    CURVE DESCRIPTION
#----------   ------------   ------------------------------
 DEPT.F                  :   
 CORR.G/C3   45 356 01 00:   DENSITY CORRECTION
 RHOB.G/C3   45 350 01 00:   BULK DENSITY
 CNC .DEC    42 890 03 00:   NEUTRON POROSITY SANDSTONE
 GRR .GAPI   07 310 01 00:   GAMMA RAY FROM RESISTIVITY
 CALR.IN     07 280 01 00:   CALIPER FROM RESISTIVITY
 SPR .MV     07 010 01 00:   SPONTANEOUS POTENTIAL
 TENR.LBS    07 635 01 00:   TENSION FROM RESISTIVITY
 RILD.OHMM   07 120 46 00:   DEEP INDUCTION RESISTIVITY
 RILM.OHMM   07 120 44 00:   INDUCTION LOG MEDIUM RESISTIVITY
 RFOC.OHMM   07 220 04 00:   RESISTIVITY FOCUSED LOG RES.
~PARAMETER INFORMATION
#MNEM.UNIT          VALUE    DESCRIPTION
#----------   ------------   ------------------------------
 EKB .F         5007.0000:   Kelly bushing
 EGL .F         4995.0000:   Ground level
 EDF .F            0.0000:   Drilling floor
 EPD .F         4995.0000:   Permanent datum
 TD  .F         2874.0000:   Total depth
 CLNT.            A2DTECH:   Client Code
 SL  . 307' FEL & 2237' FSL:   Surface Location
 DATE.        23-JUL-1986:   Date Logged [DD-MMM-YYYY]
 DD  .F              2870:   Depth driller
 DL  .F              2874:   Depth logger
 BLI .F              2872:   Bottom log interval
 TLI .F              2205:   Top log interval
 CS1 .              8.625:   Casing size
 CBD1.      8.625" @ 261':   Casing driller 1
 CBL1.IN              261:   Casing logger 1
 BS1 .IN            7.875:   Bit size
 BSD1.F              2870:   Depth drilled with bit1
 DFT .            KCL-GEL:   Type fluid in hole
 DFD .                9.0:   Density
 DFV .                 37:   Viscosity
 MSS .           MUD TANK:   Source of sample
 RMS .OHMM          0.257:   Rm
 MST .F                89:   Rm Meas. temp.
 RMF .OHMM           0.19:   Rmf
 MFST.F                89:   Rmf Meas. temp.
 MFSS.               CALC:   Source Rmf.
 RMC .OHMM           0.32:   Rmc
 MCST.F                89:   Rmc Meas. temp.
 MCSS.               CALC:   Source Rmc.
 RMB .OHMM           0.20:   Rm. at BHT
 BHT .F               116:   BHT.
 TCS .HRS               4:   Time Circ. stopped
 MRT .F               116:   Maximum recorded temp.
 LUN .            HL 6264:   Logging unit number
 LUL .           GILLETTE:   Logging unit location
 ENGI.      P.M. FAHLSING:   Recorded By
 WITN.           JENNINGS:   Witnessed by
 ORIG.         2.5" PRINT:   Origin of data
 UWI .     49025111030000:   Unique Well ID
 DICO. A2D TECHNOLOGIES, INC.:   Digitizing Company
~OTHER INFORMATION
~A   DEPT     CORR       RHOB        CNC         GRR        CALR      SPR        TENR       RILD      RILM         RFOC 
# ...
 2438.5000     1.5509     2.4870     0.2234    95.1218     9.2594   -90.1588   -70.2138     7.9034     8.0798     9.6067
 2439.0000     1.5676     2.4906     0.2287    94.5124     9.2590   -90.4588   -69.9714     7.9012     8.0770     9.6015
 2439.5000     1.5820     2.5012     0.2299    95.1949     9.2586   -90.4647   -69.7290     7.8991     7.9648     9.5962
 2440.0000     1.5965     2.5086     0.2287    97.8024     9.2581   -90.4706   -69.4867     7.6843     7.8542     9.5910
 2440.5000     1.6027     2.5128     0.2325   101.3544     9.2521   -90.4765   -69.2443     7.4754     7.5359     9.4782
 2441.0000     1.5967     2.5123     0.2374   104.3129     9.2573   -90.6078   -69.0019     7.2722     7.2302     8.6038
 2441.5000     1.5824     2.5033     0.2378   106.0844     9.2568   -91.3353   -68.7595     7.1717     6.9372     8.0917
 2442.0000     1.5726     2.4994     0.2348   107.8560     9.2563   -92.6863   -68.5171     6.8822     6.7443     7.7608
 2442.5000     1.5666     2.5016     0.2444   109.6276     9.2559   -93.5784   -68.2747     6.6044     6.3860     7.6499
 2443.0000     1.5694     2.5044     0.2520   111.3991     9.2555   -94.4707   -68.0324     6.4248     6.1271     7.6803
 2443.5000     1.5642     2.5055     0.2559   112.5772     9.2550   -95.3628   -67.7900     6.1654     5.9594     7.6754
 2444.0000     1.5459     2.5013     0.2529   112.7521     9.2546   -95.9607   -67.5476     5.9165     5.7179     7.6712
 2444.5000     1.5277     2.4918     0.2465   109.5922     9.2541   -96.2647   -67.3052     5.7557     5.5614     7.6670
 2445.0000     1.5155     2.4841     0.2445   103.0551     9.2537   -96.4118   -67.0628     5.5233     5.4092     7.5834
 2445.5000     1.5002     2.4812     0.2509   104.8267     9.2236   -96.4177   -66.8204     5.3732     5.2612     7.2722
 2446.0000     1.4977     2.4837     0.2754   110.7526     9.2231   -96.4235   -66.5781     5.2271     5.1875     6.9358
 2446.5000     1.5250     2.4883     0.2828   113.7111     9.2227   -96.7236   -66.3357     5.1549     5.1148     6.5964
 2447.0000     1.5252     2.4893     0.2804   114.2957     9.2222   -96.7294   -66.0933     5.0147     5.0513     6.3999
 2447.5000     1.5217     2.4863     0.2745   115.4738     9.2218   -96.7365   -65.8509     4.9454     4.9811     6.5240
 2448.0000     1.4767     2.4821     0.2684   117.8388     9.2214   -96.7423   -65.6085     4.8771     4.9119     6.6113
 2448.5000     1.4647     2.4782     0.2661   119.0178     9.2209   -97.0423   -65.3661     4.8758     4.9103     6.6572
 2449.0000     1.4526     2.4825     0.2707   118.4146     9.2205   -97.0481   -65.1237     4.8084     4.9086     6.6535
 2449.5000     1.4710     2.4909     0.2727   116.0319     9.2200   -97.0540   -64.8814     4.8071     4.9069     6.6499
 2450.0000     1.5259     2.5007     0.2644   112.4622     9.2196   -97.3539   -64.6390     4.8057     4.9052     6.8313
 2450.5000     1.5686     2.5083     0.2576   107.7055     9.2191   -97.3598   -64.3966     4.8044     4.9036     7.0658
 2451.0000     1.5992     2.5167     0.2552   105.9163     9.2187   -97.3656   -64.1542     4.8031     4.9019     7.0586
 2451.5000     1.6298     2.5219     0.2548   107.6878     9.2183   -97.3714   -63.9118     4.8678     4.9002     6.5819
 2452.0000     1.6421     2.5273     0.2569   113.0202     9.2178   -97.3773   -63.6694     4.8665     4.9660     6.3649
 2452.5000     1.6483     2.5320     0.2585   117.1657     9.1877   -97.3831   -63.4271     4.9321     5.0467     6.4104
 2453.0000     1.6119     2.5362     0.2507   120.7177     9.1873   -97.0941   -63.1847     5.0671     5.1852     6.5857
 2453.5000     1.5694     2.5273     0.2438   123.0827     9.1868   -97.1007   -62.9423     5.3498     5.3440     6.8204
 2454.0000     1.5208     2.5198     0.2422   121.8869     9.1567   -97.1065   -62.6999     5.6484     5.5668     7.2025
 2454.5000     1.4844     2.5138     0.2445   117.7238     9.1563   -97.1124   -62.4575     5.9636     5.8785     7.5827
 2455.0000     1.5027     2.5139     0.2377   115.3410     9.1558   -96.8235   -62.2151     6.3830     6.3148     8.1153
 2455.5000     1.5029     2.5154     0.2346   115.9256     9.1521   -96.5358   -61.9728     6.7392     6.7608     8.8050
 2456.0000     1.5030     2.5169     0.2400   115.9168     9.1252   -96.2476   -61.7304     7.1153     7.3101     9.2954
 2456.5000     1.4970     2.5155     0.2466   112.9406     9.1248   -95.9593   -61.4880     7.5124     7.6899     9.6797
 2457.0000     1.4971     2.5125     0.2448   106.4035     9.0947   -95.6706   -61.2456     7.7181     7.8707     9.8087
 2457.5000     1.5034     2.5081     0.2427   111.1471     9.0942   -95.3827   -61.0032     7.7160     7.8676     9.9384
 2458.0000     1.5278     2.5036     0.2470   111.1218     9.0641   -95.3886   -60.7608     7.6094     7.6957     9.7971
 2458.5000     1.5462     2.4976     0.2478   109.3250     9.0637   -95.3944   -60.5185     7.4025     7.2829     9.6587
 2459.0000     1.5524     2.4992     0.2442   108.7418     9.0632   -95.4003   -60.2761     7.0074     6.7418     9.5222
 2459.5000     1.5465     2.5157     0.2421   110.0504     9.0628   -95.4061   -60.0337     6.2811     6.0396     9.2601
 2460.0000     1.5466     2.5232     0.2414   116.0043     9.0623   -95.4120   -59.7913     5.9458     5.4109     8.7620
 2460.5000     1.5343     2.5173     0.2509   118.8508     9.0619   -95.4178   -59.5489     5.5522     5.0271     7.8491
 2461.0000     1.5034     2.5038     0.2587   120.0358     9.0615   -95.4236   -59.3065     5.0450     4.7574     6.7484
 2461.5000     1.4550     2.4919     0.2671   121.8139     9.0907   -95.7236   -59.0641     4.4608     4.4806     6.2131
 2462.0000     1.4496     2.4889     0.2803   122.9988     9.0902   -95.7294   -58.8218     4.2807     4.2028     6.0420
 2462.5000     1.5061     2.4904     0.2953   123.5909     9.0897   -96.0294   -58.5794     4.1643     4.0523     5.9567
 2463.0000     1.5491     2.4920     0.3109   124.1819     9.0893   -96.0353   -58.3370     4.0511     3.9620     5.8725
 2463.5000     1.5779     2.4935     0.3073   124.7735     9.0888   -96.0412   -58.0946     4.0500     3.9397     5.9505
 2464.0000     1.5589     2.4966     0.3019   125.3650     9.0884   -96.0470   -57.8522     3.9941     3.9057     5.9469
 2464.5000     1.5407     2.5026     0.2900   125.8554     9.0879   -96.0530   -57.6098     3.8855     3.9044     5.9437
 2465.0000     1.5356     2.5058     0.2937   125.8457     9.0875   -96.0588   -57.3675     3.8844     3.9030     5.9405
 2465.5000     1.5418     2.5120     0.2954   125.8368     9.0871   -96.0647   -57.1251     3.8307     3.8488     5.8565
 2466.0000     1.5407     2.5180     0.2920   126.5438     9.0866   -96.0706   -56.8827     3.7778     3.8249     5.7738
 2466.5000     1.5299     2.5222     0.2831   127.8592     9.0862   -96.0765   -56.6403     3.7768     3.7940     5.6148
 2467.0000     1.5300     2.5191     0.2793   129.3719     9.0857   -96.0824   -56.3979     3.7757     3.7414     5.5355
 2467.5000     1.5301     2.5176     0.2813   126.7013     9.0853   -96.0882   -56.1555     3.7747     3.6894     5.5325
 2468.0000     1.5363     2.5146     0.2899   125.1988     9.0848   -95.7996   -55.9132     3.8255     3.6881     5.4543
 2468.5000     1.5348     2.5131     0.2962   125.1899     9.0844   -95.8059   -55.6708     3.8779     3.7109     5.3773
 2469.0000     1.5305     2.5119     0.2950   125.1810     9.0543   -95.5171   -55.4284     4.0947     3.7611     5.2292
 2469.5000     1.5146     2.5102     0.2894   125.1721     9.0538   -95.5235   -55.1774     4.3846     4.0255     5.2264
 2470.0000     1.4983     2.5049     0.2808   124.9852     9.0534   -95.2347   -54.7337     4.6936     4.4600     5.2235
 2470.5000     1.5026     2.4978     0.2707   124.1912     9.0530   -94.8843   -54.2899     4.9589     5.0795     6.2373
 2471.0000     1.5066     2.4922     0.2633   121.6026     9.0525   -94.3640   -53.8461     5.3849     5.7030     7.6544
 2471.5000     1.5128     2.4881     0.2571   115.2376     9.0521   -94.0059   -53.4023     5.9207     6.2754     9.3945
