~VERSION INFORMATION
 VERS.                2.0:   CWLS LOG ASCII STANDARD - VERSION 2.0
 WRAP.                 NO:   ONE LINE PER DEPTH STEP
~WELL INFORMATION
#MNEM.UNIT      DATA TYPE    INFORMATION
#----------   ------------   ------------------------------
 STRT.F          648.0000:   START DEPTH
 STOP.F         3196.0000:   STOP DEPTH
 STEP.F            0.5000:   STEP LENGTH
 NULL.          -999.2500:   NO VALUE
 COMP.    FENIX & SCISSON:   COMPANY
 WELL.   FENIX "AX" #18-2:   WELL
 FLD .             NPR #3:   FIELD
 LOC .       S2 T38N R78W:   LOCATION
 CNTY.            NATRONA:   COUNTY
 STAT.            WYOMING:   STATE
 CTRY. UNITED STATES OF AMERICA:   COUNTRY
 SRVC.              WELEX:   SERVICE COMPANY
 DATE.        05-OCT-1980:   LOGDATE
 API .     49025108500000:   API NUMBER
~CURVE INFORMATION
#MNEM.UNIT       API CODE    CURVE DESCRIPTION
#----------   ------------   ------------------------------
 DEPT.F                  :   
 GRD .GAPI   45 310 01 00:   GAMMA RAY FROM DENSITY LOG
 CALD.IN     45 280 60 00:   CALIPER FROM DENSITY LOG
 CORR.G/C3   45 356 01 00:   DENSITY CORRECTION
 RHOB.G/C3   45 350 01 00:   BULK DENSITY
 SPR .MV     07 010 01 00:   SPONTANEOUS POTENTIAL FROM RES.
 ILD .OHMM   07 120 46 00:   INDUCTION LOG DEEP RESISTIVITY
 ILM .OHMM   07 120 44 00:   INDUCTION LOG MEDIUM RESISTIVITY
 SGRD.OHMM   07 220 05 00:   SHORT GUARD RESISTIVITY
~PARAMETER INFORMATION
#MNEM.UNIT          VALUE    DESCRIPTION
#----------   ------------   ------------------------------
 EKB .F         5162.0000:   Kelly bushing
 EGL .F         5152.0000:   Ground level
 EDF .F            0.0000:   Drilling floor
 TD  .F         3200.0000:   Total depth
 CLNT.            A2DTECH:   Client Code
 PD  .                 GL:   Permanent Datum
 EPD .F              5152:   Elevation Permanent Datum
 LMF .                 KB:   Log Measured From
 DMF .                 KB:   Drilling Measured From
 DAPD.F                10:   Feet Above Permanent Datum
 DATE.        05-OCT-1980:   Date Logged [DD-MMM-YYYY]
 DD  .F              3200:   Depth driller
 DL  .F              3198:   Depth logger
 BLI .F              3196:   Bottom log interval
 TLI .F               646:   Top log interval
 CS1 .IN            8.625:   Casing size
 CBD1.      8.625" @ 647':   Casing driller 1
 CBL1.F               650:   Casing logger 1
 BS1 .IN            7.875:   Bit size
 BSD1.F              3200:   Depth drilled with bit1
 DFT .           CHEM GEL:   Type fluid in hole
 DFD .                8.6:   Density
 DFV .                 38:   Viscosity
 DFPH.                9.5:   pH
 MSS .           FLOWLINE:   Source of sample
 MFSS.               MEAS:   Source Rmf.
 MCSS.               MEAS:   Source Rmc.
 RMB .OHMM           1.24:   Rm. at BHT
 BHT .F               118:   BHT.
 TCS .HRS               5:   Time Circ. stopped
 MRT .F               118:   Maximum recorded temp.
 LUN .               1892:   Logging unit number
 LUL .             CASPER:   Logging unit location
 ORIG.           5" PRINT:   Origin of data
 UWI .     49025108500000:   Unique Well ID
 DICO. A2D TECHNOLOGIES, INC.:   Digitizing Company
 SL  . 313' FSL & 565' FWL:   Surface Location
 RMS .               2.34:   Rm
~OTHER INFORMATION
~A   DEPT       GRD      CALD       CORR       RHOB        SPR        ILD        ILM       SGRD   
  648.0000    68.0567  -999.2500  -999.2500  -999.2500  -999.2500  -999.2500  -999.2500  -999.2500
  648.5000    68.7504  -999.2500  -999.2500  -999.2500  -999.2500  -999.2500  -999.2500  -999.2500
  649.0000    64.4148  -999.2500  -999.2500  -999.2500  -999.2500  -999.2500  -999.2500  -999.2500
  649.5000    59.5390  -999.2500  -999.2500  -999.2500  -999.2500  -999.2500  -999.2500  -999.2500
  650.0000    58.6804    10.9708     0.0028     1.6392  -999.2500  -999.2500  -999.2500  -999.2500
  650.5000    58.7042    11.4868    -0.0594     1.5404   -39.8960     2.4213     3.2317     3.7806
  651.0000    59.1691    14.1500    -0.0834     1.5172   -40.0446     2.6150     3.6593     5.2220
  651.5000    60.5163    14.9456    -0.0862     1.6014   -40.0446     3.0029     4.1606     5.4088
  652.0000    63.4077    15.1529     0.0212     2.0686   -39.9760     3.4483     4.4293     5.7589
  652.5000    66.7402    11.3753     0.1389     2.4888   -39.7185     4.1842     4.8139     5.8027
  653.0000    67.4530    11.2444     0.1315     2.4850   -38.9916     4.9391     5.0547     6.2210
  653.5000    68.1112    11.1429     0.1045     2.4607   -39.0590     5.2218     5.2710     6.6696
  654.0000    70.1323    10.9972     0.0820     2.4329   -38.6205     5.3337     5.3471     6.8135
  654.5000    70.5852    10.5722     0.0656     2.4307   -38.6838     5.6086     5.4618     6.6786
  655.0000    69.9471    10.1619     0.0507     2.4346   -38.2630     6.0863     5.6564     6.3231
  655.5000    70.1974     9.9129     0.0463     2.4421   -37.9943     5.9247     6.1475     6.5698
  656.0000    71.9858     9.9000     0.0435     2.4534   -39.5852     5.6879     6.1934     7.0317
  656.5000    72.8919     9.9015     0.0421     2.4625   -42.1949     5.4231     5.9423     7.1759
  657.0000    73.3568     9.9029     0.0408     2.4752   -44.5472     5.2778     5.7805     7.2304
  657.5000    73.1600     9.8896     0.0394     2.4541   -44.6024     5.2444     5.8714     7.0385
  658.0000    72.7425     9.8914     0.0396     2.4440   -44.0620     5.2112     6.0806     7.1411
  658.5000    72.7663     9.9811     0.0413     2.4403   -43.5177     5.2147     5.9184     7.1954
  659.0000    73.0106    10.1737     0.0430     2.4411   -43.2084     5.2536     5.8397     7.2488
  659.5000    74.1471    10.3810     0.0476     2.4435   -42.8090     5.2565     6.0486     7.1065
  660.0000    74.1030    10.5883     0.0509     2.4495   -42.3666     5.2593     6.2211     6.8220
  660.5000    71.3230    10.8545     0.0571     2.4586   -42.1326     5.2260     6.4873     7.0187
  661.0000    70.2438    11.0618     0.0602     2.4729   -41.9749     5.2685     6.4981     7.0419
  661.5000    69.8204    11.2269     0.0604     2.4789   -41.3509     5.4151     6.3613     7.0254
  662.0000    69.6235    11.3631     0.0606     2.4704   -41.6776     5.5318     6.2776     6.8404
  662.5000    69.6532    11.4929     0.0607     2.4693   -41.5861     5.6504     6.1455     6.4789
  663.0000    70.1181    11.5679     0.0609     2.4784   -41.4195     5.6925     5.9064     6.6718
  663.5000    71.0242    11.6281     0.0626     2.4837   -40.7988     5.6956     6.0756     6.9519
  664.0000    72.1509    11.6741     0.0658     2.4875   -40.6538     5.6588     6.4236     6.9077
  664.5000    73.2775    11.7240     0.0704     2.4921   -40.4064     5.6626     6.5163     6.8649
  665.0000    74.8603    11.7795     0.0767     2.5004   -40.0708     5.5882     6.4305     6.8707
  665.5000    76.2206    11.8103     0.0844     2.5102   -39.5618     5.5912     6.2590     6.9708
  666.0000    75.3400    11.8412     0.0936     2.5217   -39.4025     5.5942     6.0920     7.0724
  666.5000    70.9519    11.8879     0.1028     2.5455   -39.4325     5.5588     5.9697     7.1261
  667.0000    70.3080    11.9326     0.1105     2.5590   -39.3737     5.5236     5.8515     6.9370
  667.5000    70.7788    11.9635     0.1046     2.5382   -39.3391     5.5267     5.7348     6.5241
  668.0000    70.5819    11.9943     0.0912     2.4993   -39.3730     5.5303     5.6205     6.3509
  668.5000    70.1586    12.0546     0.0868     2.4755   -39.6421     5.3829     5.4330     6.8559
  669.0000    70.4088    12.1149     0.0870     2.4696   -39.6313     5.1678     5.5243     5.6180
  669.5000    71.0943    12.1898     0.0856     2.4659   -39.6911     4.9612     5.3282     5.3931
  670.0000    70.8975    12.3089     0.0919     2.4727   -39.6819     4.7629     5.1151     6.2385
  670.5000    69.5977    12.4427     0.1026     2.4858   -39.7366     4.6353     5.0124     6.7346
  671.0000    70.7750    12.6209     0.1118     2.4915   -39.7934     4.5124     4.9131     6.2902
  671.5000    72.7393    12.7740     0.1151     2.4677   -39.8489     4.3921     5.0185     5.9979
  672.0000    73.1983    12.9179     0.1151     2.4274   -39.9044     4.2166     5.2695     5.5637
  672.5000    72.3396    13.0076     0.1122     2.3773   -39.9599     4.3667     5.0937     5.3417
  673.0000    73.0311    13.0826     0.1004     2.3236   -40.0154     4.5222     4.6918     5.0586
  673.5000    72.6136    13.1281     0.0689     2.2518   -40.0711     4.4599     4.7924     4.8905
  674.0000    70.2109    13.1590     0.0434     2.0844   -40.1266     4.5015     5.2086     5.4311
  674.5000    67.3670    13.1898     0.0315     2.0926   -40.1808     4.7539     5.4691     6.0265
  675.0000    66.0672    13.2206     0.0317     2.1967   -40.1660     4.9915     5.6251     6.1524
  675.5000    66.7527    13.2368     0.0439     2.3576   -40.0381     5.2771     5.7862     6.2431
  676.0000    65.2264    13.2529     0.0577     2.4803   -39.9118     5.5028     5.8697     6.4220
  676.5000    63.9325    13.2838     0.0669     2.4864   -39.7852     5.5821     5.9544     6.4697
  677.0000    63.7356    13.3150     0.0653     2.4655   -39.6582     5.7412     6.0821     6.2980
  677.5000    64.2065    13.3752     0.0612     2.4566   -39.5322     5.8240     6.2126     6.9900
  678.0000    65.1125    13.4502     0.0629     2.4567   -39.4488     5.9488     6.3022     7.1409
  678.5000    67.1216    13.5399     0.0691     2.4859   -39.5528     6.0346     6.3492     6.9037
  679.0000    69.5718    13.6295     0.0722     2.5195   -39.6529     6.1216     6.3089     7.1506
  679.5000    72.4631    13.7192     0.0754     2.5100   -39.7527     6.1250     6.3124     6.6329
  680.0000    74.2457    13.7942     0.0771     2.5019   -39.8524     6.1283     6.4478     7.5663
  680.5000    72.5106    13.8397     0.0772     2.4997   -39.9521     6.0894     6.4998     7.0671
  681.0000    72.0926    13.8864     0.0774     2.5035   -40.0518     6.0936     6.5898     7.2196
  681.5000    70.7918    13.9309     0.0761     2.5215   -40.1515     6.0969     6.5488     6.9797
  682.0000    68.7912    13.9473     0.0702     2.5186   -40.2512     6.1001     6.4626     8.0727
  682.5000    67.9732    13.9782     0.0613     2.5045   -40.3511     6.1034     6.3767     7.6458
  683.0000    67.5617    13.9943     0.0540     2.4782   -40.4508     6.1067     6.3363     7.2404
  683.5000    66.4825    13.9957     0.0496     2.4532   -40.5487     6.1100     6.5179     7.0471
  684.0000    65.6238    13.9821     0.0498     2.4366   -40.5304     6.1133     6.8439     7.4005
  684.5000    67.8534    13.9688     0.0529     2.4427   -40.3505     6.0745     6.9907     7.6665
  685.0000    69.6419    13.9412     0.0561     2.4480   -40.1727     6.0510     6.8513     7.7235
  685.5000    69.8803    13.9132     0.0563     2.4563   -39.9943     6.0395     6.6227     6.9706
  686.0000    67.9187    13.8690     0.0504     2.4631   -39.8152     5.9788     6.4460     6.7379
  686.5000    70.3748    13.8132     0.0461     2.4542   -39.6431     5.9154     6.3140     7.1752
  687.0000    69.7368    13.7561     0.0417     2.4431   -39.5001     5.8445     6.1915     7.0818
  687.5000    68.8604    13.7134     0.0403     2.4387   -38.8260     5.7676     6.0272     6.8465
  688.0000    68.2401    13.6561     0.0390     2.4425   -38.3470     5.7311     6.0305     6.8511
