~VERSION INFORMATION
 VERS.                2.0:   CWLS LOG ASCII STANDARD - VERSION 2.0
 WRAP.                 NO:   ONE LINE PER DEPTH STEP
~WELL INFORMATION
#MNEM.UNIT      DATA TYPE    INFORMATION
#----------   ------------   ------------------------------
 STRT.F            5.0000:   START DEPTH
 STOP.F         4012.0000:   STOP DEPTH
 STEP.F            0.5000:   STEP LENGTH
 NULL.          -999.2500:   NO VALUE
 COMP.   LAWRENCE ALLISON:   COMPANY
 WELL. LAWRENCE "X" 51 #1-15:   WELL
 FLD .                NPR:   FIELD
 LOC .      S15 T38N R78W:   LOCATION
 CNTY.            NATRONA:   COUNTY
 STAT.            WYOMING:   STATE
 CTRY. UNITED STATES OF AMERICA:   COUNTRY
 SRVC.      DRESSER ATLAS:   SERVICE COMPANY
 DATE.        03-JUN-1985:   LOGDATE
 API .     49025110270000:   API NUMBER
~CURVE INFORMATION
#MNEM.UNIT       API CODE    CURVE DESCRIPTION
#----------   ------------   ------------------------------
 DEPT.F                  :   
 NPHI.DEC    42 890 03 00:   NEUTRON POROSITY SANDSTONE
 RHOB.G/C3   45 350 01 00:   BULK DENSITY
 CORR.G/C3   45 356 01 00:   DENSITY CORRECTION
 TEND.LBS    45 635 01 00:   TENSION FROM DENSITY LOG
 CALD.IN     45 280 60 00:   CALIPER FROM DENSITY LOG
 GRR .GAPI   07 310 01 00:   GAMMA RAY FROM RESISTIVITY
 SPR .MV     07 010 01 00:   SPONTANEOUS POTENTIAL
 RSFL.OHMM   07 220 01 00:   SPHERICALLY FOCUSED LOG RES.
 RILD.OHMM   07 120 46 00:   DEEP INDUCTION RESISTIVITY
 RILM.OHMM   07 120 44 00:   INDUCTION LOG MEDIUM RESISTIVITY
 TENR.LBS    07 635 01 00:   TENSION
~PARAMETER INFORMATION
#MNEM.UNIT          VALUE    DESCRIPTION
#----------   ------------   ------------------------------
 EKB .F         5235.0000:   Kelly bushing
 EGL .F         5222.0000:   Ground level
 EDF .F            0.0000:   Drilling floor
 TD  .F         4010.0000:   Total depth
 DATE.        03-JUN-1985:   Date logged
 CLNT.            A2DTECH:   Client Code
 SL  . 202' FNL & 2478' FEL:   Surface Location
 PD  .                 GL:   Permanent Datum
 EPD .F              5222:   Elevation Permanent Datum
 LMF .                 KB:   Log Measured From
 DMF .                 KB:   Drilling Measured From
 DAPD.F                13:   Feet Above Permanent Datum
 DD  .F              4010:   Depth driller
 DL  .F              4005:   Depth logger
 BLI .F              4003:   Bottom log interval
 CS1 .IN            8.625:   Casing size
 CBD1.      8.625" @ 605':   Casing driller 1
 CBL1.F               608:   Casing logger 1
 BS1 .IN            7.875:   Bit size
 BSD1.F              4010:   Depth drilled with bit1
 DFT .            KCL/GEL:   Type fluid in hole
 DFD .                  9:   Density
 DFV .                 45:   Viscosity
 DFPH.                  8:   pH
 DFL .                9.8:   Fluid loss
 MSS .           FLOWLINE:   Source of sample
 RMS .OHMM            .40:   Rm
 MST .F                65:   Rm Meas. temp.
 RMF .OHMM            .32:   Rmf
 MFST.F                65:   Rmf Meas. temp.
 RMC .OHMM            .50:   Rmc
 MCST.F                65:   Rmc Meas. temp.
 MFSS.               MEAS:   Source Rmf.
 MCSS.               CALC:   Source Rmc.
 RMB .OHMM            .20:   Rm. at BHT
 BHT .F               130:   BHT.
 TCS .HRS               3:   Time Circ. stopped
 MRT .F               130:   Maximum recorded temp.
 LUN .               6274:   Logging unit number
 LUL .               GLTE:   Logging unit location
 ENGI.             RAUTIO:   Recorded By
 WITN.             STRONG:   Witnessed by
 ORIG.     2.5", 5" PRINT:   Origin of data
 UWI .     49025110270000:   Unique Well ID
 DICO. A2D TECHNOLOGIES, INC.:   Digitizing Company
~OTHER INFORMATION
~A    DEPT    NPHI       RHOB       CORR       TEND       CALD        GRR        SPR       RSFL       RILD       RILM       TENR   
# ...
 1957.0000  -999.2500  -999.2500  -999.2500  -999.2500  -999.2500   137.3530   -84.4080    11.4630     9.2250     9.4410   -65.0000
 1957.5000  -999.2500  -999.2500  -999.2500  -999.2500  -999.2500   135.0970   -84.5210    11.3450     9.1920     9.2690   -65.0000
 1958.0000  -999.2500  -999.2500  -999.2500  -999.2500  -999.2500   132.4760   -84.6340    11.2470     9.1000     9.3040   -65.0000
 1958.5000  -999.2500  -999.2500  -999.2500  -999.2500  -999.2500   131.9560   -84.7470    11.2740     9.1000     9.3660   -65.0000
 1959.0000  -999.2500  -999.2500  -999.2500  -999.2500  -999.2500   131.8990   -84.8580    11.2980     9.1170     9.4290   -65.0000
 1959.5000  -999.2500  -999.2500  -999.2500  -999.2500  -999.2500   130.2870   -84.9830    11.3220     9.1350     9.4910   -65.0000
 1960.0000  -999.2500  -999.2500  -999.2500  -999.2500  -999.2500   128.5730   -84.6700    11.3460     9.1530     9.5530   -65.0000
 1960.5000  -999.2500  -999.2500  -999.2500  -999.2500  -999.2500   127.2040   -84.3050    11.4100     9.1710     9.6170   -65.0000
 1961.0000  -999.2500  -999.2500  -999.2500  -999.2500  -999.2500   127.9200   -84.4640    11.5120     9.1900     9.6230   -65.0000
 1961.5000  -999.2500  -999.2500  -999.2500  -999.2500  -999.2500   130.4480   -84.6090    11.6140     9.2080     9.6300   -65.0000
 1962.0000  -999.2500  -999.2500  -999.2500  -999.2500  -999.2500   135.4100   -84.7590    11.7160     9.2260     9.6370   -65.0000
 1962.5000  -999.2500  -999.2500  -999.2500  -999.2500  -999.2500   136.8670   -84.9130    11.7770     9.2440     9.6430   -65.0000
 1963.0000  -999.2500  -999.2500  -999.2500  -999.2500  -999.2500   136.6210   -85.0680    11.6690     9.2620     9.6500   -65.0000
 1963.5000  -999.2500  -999.2500  -999.2500  -999.2500  -999.2500   133.2240   -85.2080    11.5920     9.2690     9.6570   -65.0000
 1964.0000  -999.2500  -999.2500  -999.2500  -999.2500  -999.2500   129.6780   -85.0320    11.5580     9.2690     9.6630   -65.0000
 1964.5000  -999.2500  -999.2500  -999.2500  -999.2500  -999.2500   128.1130   -84.8430    11.5410     9.2690     9.6700   -65.0000
 1965.0000  -999.2500  -999.2500  -999.2500  -999.2500  -999.2500   131.1580   -84.6540    11.5240     9.2690     9.6770   -65.0000
 1965.5000  -999.2500  -999.2500  -999.2500  -999.2500  -999.2500   133.0310   -84.6550    11.5070     9.2690     9.6830   -65.0000
 1966.0000  -999.2500  -999.2500  -999.2500  -999.2500  -999.2500   133.1510   -84.7320    11.4900     9.2690     9.6900   -65.0000
 1966.5000  -999.2500  -999.2500  -999.2500  -999.2500  -999.2500   129.0340   -84.8090    11.4720     9.2700     9.6970   -65.0000
 1967.0000  -999.2500  -999.2500  -999.2500  -999.2500  -999.2500   125.2220   -84.8860    11.4560     9.2500     9.7060   -65.0000
 1967.5000  -999.2500  -999.2500  -999.2500  -999.2500  -999.2500   124.2270   -84.9610    11.7040     9.2180     9.6520   -65.0000
 1968.0000  -999.2500  -999.2500  -999.2500  -999.2500  -999.2500   125.7800   -84.9510    11.9430     9.1890     9.5670   -65.0000
 1968.5000  -999.2500  -999.2500  -999.2500  -999.2500  -999.2500   130.0190   -84.6080    12.2190     9.1000     9.4830   -65.0000
 1969.0000  -999.2500  -999.2500  -999.2500  -999.2500  -999.2500   129.6740   -84.2750    12.1280     8.9900     9.3980   -65.0000
 1969.5000  -999.2500  -999.2500  -999.2500  -999.2500  -999.2500   128.2400   -83.9430    11.9890     8.8600     9.3140   -65.0000
 1970.0000  -999.2500  -999.2500  -999.2500  -999.2500  -999.2500   126.3710   -83.6100    11.8860     8.7300     9.2290   -65.0630
 1970.5000  -999.2500  -999.2500  -999.2500  -999.2500  -999.2500   136.6640   -83.2750    11.4670     8.6000     9.0320   -65.2020
 1971.0000  -999.2500  -999.2500  -999.2500  -999.2500  -999.2500   148.5640   -83.3830    10.7000     8.4530     8.7750   -65.3400
 1971.5000  -999.2500  -999.2500  -999.2500  -999.2500  -999.2500   157.4150   -83.6010     9.9320     8.4720     8.6900   -65.4790
 1972.0000  -999.2500  -999.2500  -999.2500  -999.2500  -999.2500   156.7920   -83.8190     9.5290     8.4940     8.6900   -65.6170
 1972.5000  -999.2500  -999.2500  -999.2500  -999.2500  -999.2500   151.1200   -84.0620    10.1760     8.5160     8.7890   -65.7560
 1973.0000  -999.2500  -999.2500  -999.2500  -999.2500  -999.2500   144.9110   -84.6770    10.6140     8.5320     8.9350   -65.8940
 1973.5000  -999.2500  -999.2500  -999.2500  -999.2500  -999.2500   138.6880   -85.2030    10.9860     8.6920     9.0810   -66.0330
 1974.0000  -999.2500  -999.2500  -999.2500  -999.2500  -999.2500   135.6620   -85.7250    11.1740     8.8390     9.2270   -66.1710
 1974.5000  -999.2500  -999.2500  -999.2500  -999.2500  -999.2500   135.9950   -86.2450    11.2170     8.9870     9.3730   -66.3100
 1975.0000  -999.2500  -999.2500  -999.2500  -999.2500  -999.2500   136.2720   -86.5910    11.2600     9.1340     9.5190   -66.4480
 1975.5000  -999.2500  -999.2500  -999.2500  -999.2500  -999.2500   132.7350   -86.1420    11.3040     9.2820     9.6650   -66.5860
 1976.0000  -999.2500  -999.2500  -999.2500  -999.2500  -999.2500   128.5850   -85.7110    11.3510     9.3550     9.7960   -66.7250
 1976.5000  -999.2500  -999.2500  -999.2500  -999.2500  -999.2500   127.1570   -85.2800    11.4980     9.3550     9.7960   -66.8630
 1977.0000  -999.2500  -999.2500  -999.2500  -999.2500  -999.2500   126.5920   -84.8430    11.7060     9.3310     9.6510   -67.0020
 1977.5000  -999.2500  -999.2500  -999.2500  -999.2500  -999.2500   122.7790   -84.8180    11.9130     9.2550     9.4470   -67.1400
 1978.0000  -999.2500  -999.2500  -999.2500  -999.2500  -999.2500   120.5980   -84.8210    12.1200     9.1790     9.2690   -67.2790
 1978.5000  -999.2500  -999.2500  -999.2500  -999.2500  -999.2500   118.8100   -84.8210    12.2190     9.1030     9.2550   -67.4170
 1979.0000  -999.2500  -999.2500  -999.2500  -999.2500  -999.2500   122.2270   -84.8220    11.6510     9.0280     9.2400   -67.5560
 1979.5000  -999.2500  -999.2500  -999.2500  -999.2500  -999.2500   125.6570   -84.8220    11.2230     8.9520     9.2250   -67.6940
 1980.0000  -999.2500  -999.2500  -999.2500  -999.2500  -999.2500   127.4190   -84.7810    10.7950     8.8760     9.2100   -67.8320
 1980.5000  -999.2500  -999.2500  -999.2500  -999.2500  -999.2500   123.0240   -84.7250    10.2570     8.8000     9.1960   -67.9710
 1981.0000  -999.2500  -999.2500  -999.2500  -999.2500  -999.2500   122.0660   -84.6700    10.6290     8.6900     9.1810   -68.1090
 1981.5000  -999.2500  -999.2500  -999.2500  -999.2500  -999.2500   123.6040   -84.6150    11.3510     8.6940     9.1660   -68.2480
 1982.0000  -999.2500  -999.2500  -999.2500  -999.2500  -999.2500   125.2890   -84.5590    11.2090     8.7000     9.1510   -68.3860
 1982.5000  -999.2500  -999.2500  -999.2500  -999.2500  -999.2500   126.4710   -84.5040    10.9520     8.7070     9.1360   -68.5250
 1983.0000  -999.2500  -999.2500  -999.2500  -999.2500  -999.2500   126.6680   -84.4490    10.8400     8.7140     9.1210   -68.6630
 1983.5000  -999.2500  -999.2500  -999.2500  -999.2500  -999.2500   127.6670   -84.3930    10.9800     8.7200     9.1060   -68.8020
 1984.0000  -999.2500  -999.2500  -999.2500  -999.2500  -999.2500   131.8760   -84.3380    11.1630     8.7270     9.0980   -68.9400
 1984.5000  -999.2500  -999.2500  -999.2500  -999.2500  -999.2500   137.2560   -84.2820    11.3510     8.7340     9.0940   -69.0790
 1985.0000  -999.2500  -999.2500  -999.2500  -999.2500  -999.2500   140.6320   -84.2250    11.1420     8.7400     9.0900   -69.2170
 1985.5000  -999.2500  -999.2500  -999.2500  -999.2500  -999.2500   140.3860   -84.3490    10.9290     8.7470     9.0870   -69.3550
 1986.0000  -999.2500  -999.2500  -999.2500  -999.2500  -999.2500   137.7500   -84.5060    10.8400     8.7530     9.0830   -69.4940
 1986.5000  -999.2500  -999.2500  -999.2500  -999.2500  -999.2500   134.3730   -84.6650    10.7410     8.7600     9.0790   -69.6320
 1987.0000  -999.2500  -999.2500  -999.2500  -999.2500  -999.2500   132.5180   -84.8180    10.7970     8.7670     9.0760   -69.7710
