~VERSION INFORMATION
 VERS.                2.0:   CWLS LOG ASCII STANDARD - VERSION 2.0
 WRAP.                 NO:   ONE LINE PER DEPTH STEP
~WELL INFORMATION
#MNEM.UNIT      DATA TYPE    INFORMATION
#----------   ------------   ------------------------------
 STRT.F           54.0000:   START DEPTH
 STOP.F         5201.0000:   STOP DEPTH
 STEP.F            0.5000:   STEP LENGTH
 NULL.          -999.2500:   NO VALUE
 COMP.   TESORO PETROLEUM:   COMPANY
 WELL. TESORO DX NPR-3 #51-26:   WELL
 FLD .        TEAPOT DOME:   FIELD
 LOC .      S26 T38N R78W:   LOCATION
 CNTY.            NATRONA:   COUNTY
 STAT.            WYOMING:   STATE
 CTRY. UNITED STATES OF AMERICA:   COUNTRY
 SRVC.      DRESSER ATLAS:   SERVICE COMPANY
 DATE.        27-AUG-1976:   LOGDATE
 API .     49025102680000:   API NUMBER
~CURVE INFORMATION
#MNEM.UNIT       API CODE    CURVE DESCRIPTION
#----------   ------------   ------------------------------
 DEPT.F                  :   
 GRD .GAPI   45 310 01 00:   GAMMA RAY FROM DENSITY LOG
 CALD.IN     45 280 60 00:   CALIPER FROM DENSITY LOG
 CORR.G/C3   45 356 01 00:   DENSITY CORRECTION
 RHOB.G/C3   45 350 01 00:   BULK DENSITY
 SPR .MV     07 010 01 00:   SPONTANEOUS POTENTIAL
 ILD .OHMM   07 120 46 00:   DEEP INDUCTION RESISTIVITY
 ILM .OHMM   07 120 44 00:   INDUCTION LOG MEDIUM RESISTIVITY
 RFOC.OHMM   07 220 04 00:   RESISTIVITY FOCUSED LOG RES.
 TEND.LBS    45 635 01 00:   TENSION FORM DENSITY LOG
 NPHI.DEC    42 890 03 00:   NEUTRON POROSITY SANDSTONE
~PARAMETER INFORMATION
#MNEM.UNIT          VALUE    DESCRIPTION
#----------   ------------   ------------------------------
 EKB .F         5453.5000:   Kelly bushing
 EGL .F         5442.0000:   Ground level
 EDF .F         5452.0000:   Drilling floor
 EPD .F            0.0000:   Permanent datum
 TD  .F         5193.0000:   Total depth
 CLNT.            A2DTECH:   Client Code
 SL  . 2000' FEL & 600' FNL:   Surface Location
 PD  .                 GL:   Permanent Datum
 DAPD.F              11.5:   Feet Above Permanent Datum
 DATE.        27-AUG-1976:   Date Logged [DD-MMM-YYYY]
 DD  .F              5193:   Depth driller
 DL  .F              5193:   Depth logger
 BLI .F              5191:   Bottom log interval
 TLI .F              1726:   Top log interval
 CS1 .IN            8.625:   Casing size
 CBD1.     8.625" @ 1724':   Casing driller 1
 CBL1.F              1726:   Casing logger 1
 BS1 .IN            7.875:   Bit size
 BSD1.F              5193:   Depth drilled with bit1
 DFT .           CHEM GEL:   Type fluid in hole
 DFD .                9.2:   Density
 DFV .                 65:   Viscosity
 DFPH.                 10:   pH
 DFL .                5.8:   Fluid loss
 MSS .           FLOWLINE:   Source of sample
 RMS .OHMM           1.70:   Rm
 MST .F                71:   Rm Meas. temp.
 RMF .OHMM              1:   Rmf
 MFST.F                68:   Rmf Meas. temp.
 MFSS.               MEAS:   Source Rmf.
 RMC .OHMM           1.30:   Rmc
 MCST.F                66:   Rmc Meas. temp.
 MCSS.               MEAS:   Source Rmc.
 RMB .OHMM           0.85:   Rm. at BHT
 BHT .F               142:   BHT.
 TCS .HRS               6:   Time Circ. stopped
 MRT .F               142:   Maximum recorded temp.
 LUN .               6145:   Logging unit number
 LUL .              GLTTE:   Logging unit location
 ENGI.        GOULD-HOYER:   Recorded By
 WITN.        WOLF-CARTER:   Witnessed by
 ORIG.           5" PRINT:   Origin of data
 UWI .     49025102680000:   Unique Well ID
 DICO. A2D TECHNOLOGIES, INC.:   Digitizing Company
~OTHER INFORMATION
~A   DEPT      GRD       CALD       CORR       RHOB        SPR         ILD        ILM      RFOC       TEND       NPHI   
# ...
 3571.5000   106.8537     8.6742     0.0597     2.5105   -37.7303     3.7536     4.3452     5.1816    77.9393     0.2582
 3572.0000   107.3672     8.6610     0.0463     2.5662   -38.0475     3.8646     4.3179     5.8711    69.4992     0.2422
 3572.5000   105.4986     8.6788     0.0355     2.5844   -38.4900     4.0015     4.3504     5.5030    68.5554     0.2237
 3573.0000   102.6589     8.6507     0.0197     2.5694   -39.0783     4.2032     4.4136     4.8144    67.6115     0.2188
 3573.5000   101.7383     8.6535     0.0093     2.5695   -39.1972     4.4150     4.5399     4.5593    66.6415     0.2241
 3574.0000    96.7666     8.6559     0.0064     2.5681   -39.1905     4.3878     4.7720     4.7884    57.9918     0.2265
 3574.5000    98.9505     8.6435     0.0036     2.5592   -39.1811     4.3009     4.9730     5.3144    49.5517     0.2289
 3575.0000   100.1791     8.6457     0.0022     2.5518   -38.9893     4.2742     5.0104     5.8174    48.6078     0.2320
 3575.5000    98.9543     8.6336     0.0024     2.5504   -38.7880     4.3072     5.0130     6.0249    55.3960     0.2331
 3576.0000    96.6749     8.6210     0.0026     2.5663   -38.5873     4.4009     5.0164     5.0183    69.2089     0.2234
 3576.5000    94.0740     8.6230     0.0027     2.5710   -38.3866     4.5285     5.0195     5.4044    75.7870     0.2264
 3577.0000    97.2217     8.6254     0.0028     2.5590   -38.1856     4.5950     5.0225     5.5643    67.1653     0.2321
 3577.5000    95.8148     8.6280     0.0030     2.5523   -37.9995     4.5979     5.0603     5.6810    57.7142     0.2257
 3578.0000    98.2462     8.6302     0.0032     2.5534   -37.9938     4.5692     5.0285     5.6852    35.2123     0.2233
 3578.5000    99.2360     8.6327     0.0048     2.5593   -37.9294     4.5106     4.9969     5.6503    19.2759     0.2295
 3579.0000   100.7045     8.6350     0.0064     2.5654   -37.7850     4.4204     4.8982     5.5930    85.7983     0.2392
 3579.5000    98.8363     8.6374     0.0081     2.5798   -37.6382     4.2740     4.6699     5.4668    54.8694     0.2404
 3580.0000    96.7216     8.6402     0.0113     2.5754   -37.6823     4.1014     4.4522     5.3219    31.6730     0.2343
 3580.5000    98.9055     8.6270     0.0150     2.5687   -37.9982     3.9941     4.3336     5.0052   113.4833     0.2358
 3581.0000    99.6565     8.6144     0.0191     2.5703   -38.3335     4.0496     4.2181     4.7064    67.0165     0.2391
 3581.5000   100.4075     8.6472     0.0209     2.5727   -38.7984     4.1416     4.4032     4.6462    88.3395     0.2418
 3582.0000   104.7406     8.6496     0.0224     2.5606   -39.2161     4.1734     4.6204     5.0519    64.9069     0.2458
 3582.5000   103.5584     8.6519     0.0225     2.5448   -39.1826     4.0907     4.6875     5.9250    41.4743     0.2591
 3583.0000   102.8994     8.6694     0.0287     2.5407   -39.0130     4.0096     4.5625     6.0534    33.2704     0.2627
 3583.5000   102.9427     8.6714     0.0303     2.5491   -38.3351     3.9763     4.2607     5.9749   122.2816     0.2443
 3584.0000    99.6340     8.6738     0.0259     2.5597   -38.2638     3.9604     4.0621     5.6193    83.6202     0.2218
 3584.5000    98.7047     8.6769     0.0246     2.5538   -38.1669     3.9915     4.0328     4.7326    75.1801     0.2145
 3585.0000    98.9868     8.6940     0.0277     2.5494   -38.0716     3.9968     4.0952     4.1542    50.9821     0.2175
 3585.5000    99.4990     8.7134     0.0340     2.5450   -37.9942     4.0532     4.2495     3.9887    13.3224     0.2205
 3586.0000   102.7932     8.7435     0.0418     2.5414   -37.9965     4.1175     4.6114     4.0889    79.6091     0.2316
 3586.5000   111.2784     8.7459     0.0522     2.5513   -38.0003     4.1731     4.9100     4.5865   101.3902     0.2325
 3587.0000   113.7011     8.7177     0.0523     2.5488   -37.8082     4.2873     5.1920     5.4164    85.2176     0.2294
 3587.5000   115.1685     8.6608     0.0420     2.5394   -37.6140     4.4171     5.3776     6.8062    46.7925     0.2252
 3588.0000   114.2479     8.6332     0.0331     2.5515   -37.8590     4.7398     5.4757     6.9059    53.3449     0.2199
 3588.5000   111.4168     8.6135     0.0243     2.5637   -38.1126     5.0568     5.5348     6.8163    74.8898     0.2122
 3589.0000   107.6305     8.5931     0.0199     2.5938   -38.3633     5.1916     5.5765     6.5900    66.4168     0.2089
 3589.5000   105.6991     8.5955     0.0171     2.6044   -38.5899     5.0878     5.5033     5.9877    50.2776     0.2091
 3590.0000   101.9771     8.5979     0.0141     2.6000   -38.6047     5.0215     5.4311     5.4030    49.3338     0.2118
 3590.5000   102.4806     8.6003     0.0084     2.5964   -38.9523     4.9915     5.3238     5.8748    48.3899     0.2151
 3591.0000    99.6582     8.6030     0.0056     2.5889   -38.9954     4.9608     5.2896     6.0021    47.4460     0.2193
 3591.5000    97.7824     8.6053     0.0057     2.5628   -38.9889     4.9489     5.3302     6.0065    46.5022     0.2244
 3592.0000    98.7722     8.6077     0.0059     2.5449   -38.9881     4.9164     5.4076     6.0944    45.5583     0.2236
 3592.5000   100.0009     8.5945     0.0060     2.5562   -38.9881     4.9034     5.5241     6.1412    44.6026     0.2201
 3593.0000   100.2743     8.6123     0.0061     2.5714   -38.9881     4.9073     5.6484     6.2311    43.4349     0.2171
 3593.5000    98.4071     8.6147     0.0063     2.5707   -38.9881     4.9457     5.6465     6.2789    34.9948     0.2149
 3594.0000    96.5312     8.6320     0.0064     2.5663   -38.9885     5.1236     5.6110     6.3708    34.0509     0.2077
 3594.5000    97.5211     8.6193     0.0066     2.5619   -38.9867     5.1988     5.5694     6.4197    33.1071     0.2110
 3595.0000   100.4214     8.6067     0.0083     2.5628   -38.9818     5.1311     5.5413     6.4256    54.6520     0.2097
 3595.5000   102.8440     8.5943     0.0091     2.5659   -38.7608     5.0995     5.4857     6.3861    98.7256     0.2088
 3596.0000    99.0578     8.6114     0.0101     2.5768   -38.6853     5.1033     5.4345     6.1741    52.7642     0.2154
 3596.5000    99.3362     8.5987     0.0132     2.5781   -38.6046     5.0718     5.4378     6.2214    29.3103     0.2190
 3597.0000    99.6441     8.5861     0.0134     2.5774   -38.5912     5.0765     5.3664     6.1821    28.1516     0.2232
 3597.5000   101.3195     8.5890     0.0150     2.5806   -38.5911     5.0803     5.2960     5.8961    27.2077     0.2234
 3598.0000   102.5481     8.5914     0.0151     2.5912   -38.5891     5.0840     5.3367     5.5071    33.9963     0.2243
 3598.5000   101.3887     8.5937     0.0160     2.5973   -38.5830     5.1231     5.4894     5.5111    40.3130     0.2270
 3599.0000   102.6173     8.5961     0.0186     2.5974   -38.6931     5.2344     5.6857     5.7925    47.1011     0.2300
 3599.5000   103.6072     8.5990     0.0231     2.5937   -38.9888     5.3853     5.8889     6.2072    45.9215     0.2339
 3600.0000   104.5970     8.6013     0.0248     2.5931   -39.4139     5.3893     6.0574     6.5643    52.4739     0.2335
 3600.5000   103.6764     8.6036     0.0249     2.5964   -39.3926     5.3934     6.1881     6.8942    51.4992     0.2293
 3601.0000   104.6749     8.6059     0.0235     2.5941   -39.3841     5.3983     6.1500     7.0436    57.8463     0.2239
 3601.5000   103.7543     8.6232     0.0178     2.5867   -39.3858     5.3280     5.9040     7.0488    49.6423     0.2154
 3602.0000   102.3561     8.6230     0.0149     2.5793   -39.3980     5.4826     5.5901     6.9573    54.9308     0.2094
 3602.5000    99.5142     8.6098     0.0121     2.5704   -39.1832     5.4872     5.3665     6.6342    63.8302     0.2097
 3603.0000    97.8638     8.5821     0.0093     2.5652   -39.1882     5.4964     5.3319     6.2820    62.9213     0.2102
 3603.5000    97.6477     8.5689     0.0079     2.5616   -39.1864     5.5344     5.5234     5.9394    62.1941     0.2132
 3604.0000    98.6409     8.5706     0.0086     2.5594   -39.1867     5.5397     5.8865     5.5189    61.4669     0.2123
 3604.5000   100.8205     8.5873     0.0097     2.5558   -39.1884     5.5048     6.1807     6.1262    60.7196     0.2114
