~VERSION INFORMATION
 VERS.                2.0:   CWLS LOG ASCII STANDARD - VERSION 2.0
 WRAP.                 NO:   ONE LINE PER DEPTH STEP
~WELL INFORMATION
#MNEM.UNIT      DATA TYPE    INFORMATION
#----------   ------------   ------------------------------
 STRT.F           32.0000:   START DEPTH
 STOP.F         5116.0000:   STOP DEPTH
 STEP.F            0.5000:   STEP LENGTH
 NULL.          -999.2500:   NO VALUE
 COMP. LAWRENCE ALLISON AND ASSOCIATES:   COMPANY
 WELL. LAWRENCE "X" #11-26:   WELL
 FLD .       N.P.R. NO. 3:   FIELD
 LOC .      S26 T38N R78W:   LOCATION
 CNTY.            NATRONA:   COUNTY
 STAT.            WYOMING:   STATE
 CTRY. UNITED STATES OF AMERICA:   COUNTRY
 SRVC.      DRESSER ATLAS:   SERVICE COMPANY
 DATE.        03-DEC-1984:   LOGDATE
 API .     49025110120000:   API NUMBER
~CURVE INFORMATION
#MNEM.UNIT       API CODE    CURVE DESCRIPTION
#----------   ------------   ------------------------------
 DEPT.F                  :   
 CALD.IN     45 280 60 00:   CALIPER FROM DENSITY LOG
 TEND.LBS    45 635 01 00:   TENSION FORM DENSITY LOG
 CORR.G/C3   45 356 01 00:   DENSITY CORRECTION
 DEN .G/C3   45 350 01 00:   BULK DENSITY
 NPHI.DEC    42 890 03 00:   NEUTRON POROSITY SANDSTONE
 GRR .GAPI   07 310 01 00:   GAMMA RAY FROM RESISTIVITY
 SPR .MV     07 010 01 00:   SPONTANEOUS POTENTIAL
 CALR.IN     07 280 01 00:   CALIPER FROM RESISTIVITY
 TENR.LBS    07 635 01 00:   TENSION FROM RESISTIVITY
 RILD.OHMM   07 120 46 00:   INDUCTION LOG DEEP RESISTIVITY
 RILM.OHMM   07 120 44 00:   INDUCTION LOG MEDIUM RESISTIVITY
 RFOC.OHMM   07 220 04 00:   RESISTIVITY FOCUSED LOG RES.
 TENS.LBS    60 635 01 00:   TENSION FROM SONIC
 DT  .US/F   60 520 00 00:   DELTA TIME
~PARAMETER INFORMATION
#MNEM.UNIT          VALUE    DESCRIPTION
#----------   ------------   ------------------------------
 EKB .F         5321.0000:   Kelly bushing
 EGL .F         5309.0000:   Ground level
 EDF .F         5320.0000:   Drilling floor
 TD  .F         5104.0000:   Total depth
 CLNT.            A2DTECH:   Client Code
 SL  . 509' FWL & 22' FNL:   Surface Location
 PD  .                 GL:   Permanent Datum
 EPD .F              5309:   Elevation Permanent Datum
 LMF .                 KB:   Log Measured From
 DMF .                 KB:   Drilling Measured From
 DAPD.F                12:   Feet Above Permanent Datum
 DATE.        03-DEC-1984:   Date Logged [DD-MMM-YYYY]
 DD  .F              5100:   Depth driller
 DL  .F              5104:   Depth logger
 BLI .F              5102:   Bottom log interval
 TLI .F              1400:   Top log interval
 CS1 .IN            9.625:   Casing size
 CBD1.     9.625' @ 1657':   Casing driller 1
 CBL1.F              1652:   Casing logger 1
 BS1 .IN            7.875:   Bit size
 DFT .            KCL GEL:   Type fluid in hole
 DFD .                90.:   Density
 DFV .                 41:   Viscosity
 DFPH.                8.9:   pH
 DFL .               12.6:   Fluid loss
 MSS .           FLOWLINE:   Source of sample
 RMS .OHMM           .327:   Rm
 MST .F                84:   Rm Meas. temp.
 RMF .OHMM            .29:   Rmf
 MFST.F                84:   Rmf Meas. temp.
 MFSS.               CALC:   Source Rmf.
 RMC .OHMM            .42:   Rmc
 MCST.F                84:   Rmc Meas. temp.
 MCSS.               CALC:   Source Rmc.
 RMB .OHMM            .23:   Rm. at BHT
 BHT .F               142:   BHT.
 TCS .HRS               4:   Time Circ. stopped
 MRT .F               142:   Maximum recorded temp.
 LUN .               6307:   Logging unit number
 LUL .               CLTE:   Logging unit location
 WITN.             STRONG:   Witnessed by
 ORIG.           5" PRINT:   Origin of data
 UWI .     49025110120000:   Unique Well ID
 DICO. A2D TECHNOLOGIES, INC.:   Digitizing Company
~OTHER INFORMATION
~A  DEPTH     CALD       TEND       CORR        DEN       NPHI        GRR        SPR       CALR       TENR       RILD       RILM       RFOC       TENS         DT
# ...
 4711.5000     7.8905   -69.0349     0.0494     2.5110     0.2219   138.5950   -33.9948     8.0275   -63.7762     4.4290     5.1916     9.3440   -65.6906    84.9596
 4712.0000     7.8934   -70.2836     0.0407     2.5021     0.2269   130.7695   -34.2901     8.0737   -63.5136     4.6481     5.5637     9.8786   -74.2838    83.3002
 4712.5000     7.8808   -71.5323     0.0259     2.4970     0.2281   132.9032   -34.5835     8.1048   -63.2222     4.9119     5.7994     9.5387   -37.8441    83.6648
 4713.0000     7.8830   -65.2635     0.0352     2.4979     0.2286   138.6524   -34.8749     8.1359   -70.4956     5.0840     5.9205     9.3495   -54.2319    84.2569
 4713.5000     7.8788   -58.9472     0.0610     2.4942     0.2310   144.7032   -34.8667     8.1369   -70.2327     5.1538     5.7178     9.4169   -85.3597    83.7943
 4714.0000     7.8728   -45.1882     0.1018     2.4666     0.2441   154.4646   -34.7066     7.9875   -71.1320     5.1526     5.4840     9.4838   -63.9350    84.4587
 4714.5000     7.8752   -31.1273     0.1215     2.4367     0.2575   170.0822   -34.8493     7.8982   -77.2207     5.1516     5.4077     6.9929   -42.2352    86.2001
 4715.0000     7.8781   -32.7066     0.1293     2.4360     0.2629   176.4303   -34.9920     7.8688   -76.9301     5.1505     5.4070     5.4502   -43.6080    88.7836
 4715.5000     7.8804   -34.2270     0.0800     2.4527     0.2608   168.3076   -35.4360     7.8399   -76.6891     5.1495     5.4061     5.1931   -74.7358    90.0477
 4716.0000     7.8824   -42.9945     0.0517     2.4753     0.2520   144.4303   -36.3298     7.8410   -76.4264     5.1483     5.5191     5.6056   -60.8186    89.8876
 4716.5000     7.8701   -51.7620     0.0399     2.4912     0.2463   127.6233   -36.9243     7.8422   -76.1636     5.2193     5.6344     7.6586   -54.4089    88.8279
 4717.0000     7.8722   -60.5295     0.0590     2.5033     0.2454   130.0542   -37.5189     7.8432   -75.8927     5.3646     5.9550     8.5603   -47.9992    87.2434
 4717.5000     7.8748   -69.2982     0.0660     2.5072     0.2450   134.5967   -37.8125     7.8743   -75.6381     5.5910     6.1217     8.6200   -49.3709    86.7085
 4718.0000     7.8770   -78.0657     0.0693     2.5066     0.2450   142.4619   -38.1056     7.8753   -75.3754     5.8706     6.1635     8.3281   -65.4837    86.9981
 4718.5000     7.8794   -71.4841     0.0770     2.5007     0.2434   147.9094   -38.0957     7.8764   -75.1126     6.1575     6.2486     8.1583   -66.5815    87.3627
 4719.0000     7.8818   -65.4892     0.0908     2.4978     0.2338   152.1503   -38.0879     7.8926   -67.3423     6.2642     6.3793     8.1599   -52.3893    87.8060
 4719.5000     7.8842   -66.7755     0.1061     2.4979     0.2299   155.8409   -37.9294     7.9087   -67.0576     6.3283     6.5577     8.4561   -53.7621    88.0283
 4720.0000     7.8870   -60.5054     0.1183     2.4956     0.2302   160.0331   -37.7710     7.9096   -66.8168     6.4150     6.7411     9.0579   -69.8749    88.0816
 4720.5000     7.8738   -61.8041     0.1051     2.4839     0.2316   163.3690   -37.4616     7.9107   -59.0465     6.4307     6.7402     9.5100   -55.9312    87.7690
 4721.0000     7.8767   -63.3155     0.0993     2.4855     0.2343   168.2132   -37.1509     7.9268   -58.7838     6.4570     6.7393     9.6446   -49.5479    87.0841
 4721.5000     7.8788   -64.5655     0.0876     2.4842     0.2384   175.1734   -37.1430     7.9431   -58.5210     6.4554     6.7384     9.3180   -43.1382    87.0015
 4722.0000     7.8814   -57.9826     0.0413     2.4768     0.2507   179.1126   -37.1351     7.9742   -58.2429     6.4097     6.6422     8.6362   -44.5099    87.4385
 4722.5000     7.8837   -51.7137     0.0055     2.4686     0.2510   178.5269   -37.1260     7.9752   -57.9954     6.3202     6.5521     8.2861   -45.6077    87.8781
 4723.0000     7.8894   -45.4436     0.0263     2.4703     0.2485   177.0363   -36.8162     8.0063   -57.7328     6.2317     6.4163     8.0054   -76.7355    88.2426
 4723.5000     7.9033   -46.9171     0.0481     2.4764     0.2434   175.5500   -36.2060     8.0134   -57.4700     6.0603     6.2834     7.9433   -85.0669    88.1574
 4724.0000     7.8907   -40.4222     0.0603     2.4810     0.2311   174.9599   -35.5957     8.0386   -57.1848     5.8138     6.0265     8.1882   -41.3936    87.9880
 4724.5000     7.8932   -41.9837     0.0786     2.4834     0.2310   175.2836   -35.2866     8.0397   -56.9358     5.4981     5.6471     9.3299   -49.9989    87.0100
 4725.0000     7.8959   -35.7149     0.0744     2.4797     0.2362   178.6956   -34.6762     8.0407   -56.6816     5.1561     5.2081     9.7956   -51.0967    86.0253
 4725.5000     7.8888   -36.9924     0.0730     2.4744     0.2375   186.1831   -34.0641     8.0266   -63.9455     4.5270     4.8585     9.8652   -59.7020    85.5653
 4726.0000     7.8701   -38.5251     0.0718     2.4687     0.2366   191.0450   -33.6045     8.0126   -58.9192     4.1652     4.5324     8.5312   -53.2923    84.5056
 4726.5000     7.8730   -39.7738     0.0705     2.4726     0.2548   194.9694   -33.1448     7.9837   -55.8776     3.9399     4.3170     7.3472   -54.4296    84.1955
 4727.0000     7.8599   -41.0225     0.0784     2.4734     0.2647   197.4003   -33.1369     7.9697   -55.6289     3.8316     4.0271     6.5589   -55.7628    84.3352
 4727.5000     7.8628   -49.6245     0.0906     2.4586     0.2571   209.0405   -32.8276     7.9405   -55.3175     3.8308     3.9164     5.8311   -64.3670    85.4494
 4728.0000     7.8651   -51.0399     0.1074     2.4429     0.2583   233.2036   -32.8180     7.9237   -55.0685     3.8833     3.8620     4.9045   -57.6834    87.0884
 4728.5000     7.8675   -52.2886     0.1532     2.4513     0.2610   223.0987   -32.9628     7.8672   -54.8423     3.9915     3.9154     3.9293   -66.5626    87.9027
 4729.0000     7.8703   -53.4588     0.1459     2.4754     0.2531   201.5764   -33.1055     7.8685   -54.5707     4.2181     4.1718     3.9580   -74.8940    87.8900
 4729.5000     7.8727   -54.7872     0.1127     2.5123     0.2336   190.7365   -33.6981     7.8695   -54.3169     4.5216     4.9551     4.8400   -16.2057    86.9802
 4730.0000     7.8893   -48.4960     0.0874     2.5297     0.2285   165.0626   -34.5919     7.8856   -54.0106     5.1184     5.8518     6.6126   -54.8410    84.4212
 4730.5000     7.8767   -49.7658     0.0727     2.5298     0.2331   169.8962   -35.1884     7.9017   -53.7914     5.6384     6.2712     9.7979   -63.4463    84.7109
 4731.0000     7.8796   -43.4970     0.0668     2.5231     0.2425   169.3082   -35.4817     7.9330   -53.5285     5.9584     6.4022     9.5384   -64.5650    86.4248
 4731.5000     7.8820   -45.0572     0.0702     2.5218     0.2452   166.9129   -35.6227     7.9340   -53.2636     5.9622     6.4459     8.9760   -65.6903    86.8669
 4732.0000     7.8693   -38.4756     0.0779     2.5250     0.2412   168.3152   -35.4639     7.9350   -45.4863     5.7062     6.0130     9.0402   -59.5072    86.6292
 4732.5000     7.8717   -40.0371     0.0887     2.5221     0.2436   173.5716   -35.4542     7.9360   -37.7252     5.3671     5.4182     9.2320   -52.8224    86.3941
 4733.0000     7.8591   -41.2858     0.1039     2.5102     0.2522   183.2245   -35.1451     7.9372   -37.4602     5.1476     5.1251     8.8577   -46.4127    86.7676
 4733.5000     7.8615   -34.7041     0.1207     2.4953     0.2594   192.2749   -35.1373     7.9381   -37.1904     4.9714     4.9155     7.8752   -47.7855    88.0126
 4734.0000     7.8726   -36.2656     0.1480     2.4706     0.2644   202.2302   -34.9788     7.9393   -36.9206     4.9021     4.8808     6.1376   -56.3908    93.8572
 4734.5000     7.8661   -37.5143     0.1768     2.4572     0.2668   209.7747   -34.8184     7.9403   -36.6303     4.9009     4.9483     4.7503   -57.4886    95.0463
 4735.0000     7.8690   -38.7630     0.1287     2.4649     0.2667   201.8339   -34.9631     7.9262   -28.9038     4.8999     5.0517     4.6532   -58.5864    94.8112
 4735.5000     7.8710   -39.9998     0.0797     2.4717     0.2649   180.2888   -35.2545     7.9425   -28.6248     4.8991     5.2294     4.8235   -52.1767    93.4517
