~VERSION INFORMATION
 VERS.                2.0:   CWLS LOG ASCII STANDARD - VERSION 2.0
 WRAP.                 NO:   ONE LINE PER DEPTH STEP
~WELL INFORMATION
#MNEM.UNIT      DATA TYPE    INFORMATION
#----------   ------------   ------------------------------
 STRT.F         2200.0000:   START DEPTH
 STOP.F         3200.0000:   STOP DEPTH
 STEP.F            0.5000:   STEP LENGTH
 NULL.          -999.2500:   NO VALUE
 COMP.   LAWRENCE ALLISON:   COMPANY
 WELL. LAWRENCE "X" #18-34:   WELL
 FLD .          NPR NO. 3:   FIELD
 LOC .      S34 T39N R78W:   LOCATION
 CNTY.            NATRONA:   COUNTY
 STAT.            WYOMING:   STATE
 CTRY. UNITED STATES OF AMERICA:   COUNTRY
 SRVC.      DRESSER ATLAS:   SERVICE COMPANY
 DATE.        14-MAY-1986:   LOGDATE
 API .     49025110720000:   API NUMBER
~CURVE INFORMATION
#MNEM.UNIT       API CODE    CURVE DESCRIPTION
#----------   ------------   ------------------------------
 DEPT.F                  :   
 CALD.IN     45 280 60 00:   CALIPER FROM DENSITY LOG
 GRD .GAPI   45 310 01 00:   GAMMA RAY FROM DENSITY LOG
 TEND.LBS    45 635 01 00:   TENSION FORM DENSITY LOG
 CORR.G/C3   45 356 01 00:   DENSITY CORRECTION
 DEN .G/C3   45 350 01 00:   BULK DENSITY
 CNC .DEC    42 890 03 00:   NEUTRON POROSITY SANDSTONE
~PARAMETER INFORMATION
#MNEM.UNIT          VALUE    DESCRIPTION
#----------   ------------   ------------------------------
 EKB .F         5192.0000:   Kelly bushing
 EGL .F         5181.0000:   Ground level
 EDF .F         5189.0000:   Drilling floor
 TD  .F         3195.0000:   Total depth
 CLNT.            A2DTECH:   Client Code
 SL  . 722' FWL & 239' FSL:   Surface Location
 PD  .                 GL:   Permanent Datum
 EPD .F              5181:   Elevation Permanent Datum
 LMF .                 KB:   Log Measured From
 DMF .                 KB:   Drilling Measured From
 DAPD.F                11:   Feet Above Permanent Datum
 DATE.        14-MAY-1986:   Date Logged [DD-MMM-YYYY]
 DD  .F              3195:   Depth driller
 DL  .F              3194:   Depth logger
 BLI .F              3192:   Bottom log interval
 TLI .F                 0:   Top log interval
 CS1 .IN            8.625:   Casing size
 CBD1.      8.625" @ 601':   Casing driller 1
 CBL1.F               596:   Casing logger 1
 BS1 .IN            7.875:   Bit size
 BSD1.F              3195:   Depth drilled with bit1
 DFT .        POLYMER-KCL:   Type fluid in hole
 DFD .                  9:   Density
 DFV .                 35:   Viscosity
 DFPH.                9.5:   pH
 DFL .               16.2:   Fluid loss
 MSS .           FLOWLINE:   Source of sample
 RMS .OHMM          0.378:   Rm
 MST .F                65:   Rm Meas. temp.
 RMF .OHMM          0.306:   Rmf
 MFST.F                65:   Rmf Meas. temp.
 MFSS.               MEAS:   Source Rmf.
 RMC .OHMM          0.472:   Rmc
 MCST.F                65:   Rmc Meas. temp.
 MCSS.               CALC:   Source Rmc.
 RMB .OHMM          0.208:   Rm. at BHT
 BHT .F               118:   BHT.
 TCS .HRS               3:   Time Circ. stopped
 MRT .F               118:   Maximum recorded temp.
 LUN .            HL-6274:   Logging unit number
 LUL .           GILLETTE:   Logging unit location
 ENGI.             RAUTIO:   Recorded By
 WITN.             STRONG:   Witnessed by
 ORIG.           5" PRINT:   Origin of data
 UWI .     49025110720000:   Unique Well ID
 DICO. A2D TECHNOLOGIES, INC.:   Digitizing Company
~OTHER INFORMATION
~A  DEPT        CALD      GRD        TEND        CORR        DEN        CNC 
# ...
 2616.0000    10.4495   109.8159   -49.6904    -0.0221     2.5362     0.2609
 2616.5000    10.4495   108.5768   -49.5436    -0.0116     2.5400     0.2557
 2617.0000    10.4495   107.6845   -41.8780    -0.0025     2.5430     0.2485
 2617.5000    10.4344   107.3740   -49.2499     0.0095     2.5452     0.2398
 2618.0000    10.4344   106.7618   -50.2083     0.0185     2.5482     0.2313
 2618.5000    10.4344   105.8480   -56.4751     0.0215     2.5489     0.2265
 2619.0000    10.4344   104.9342   -48.7728     0.0155     2.5436     0.2253
 2619.5000    10.4344   104.0204   -41.1071     0.0079     2.5374     0.2344
 2620.0000    10.4344   103.4105   -40.9603    -0.0042     2.5330     0.2519
 2620.5000    10.4344   105.5113   -40.8135    -0.0239     2.5390     0.2662
 2621.0000    10.4344   108.2190   -33.1479    -0.0390     2.5450     0.2631
 2621.5000    10.4193   109.1464   -33.0010    -0.0353     2.5496     0.2598
 2622.0000    10.4042   111.5156   -32.8542    -0.0044     2.5608     0.2562
 2622.5000    10.4042   114.2217   -32.7068     0.0273     2.5631     0.2541
 2623.0000    10.4042   115.7212   -32.5564     0.0364     2.5533     0.2581
 2623.5000    10.4042   114.4003   -32.3770     0.0358     2.5487     0.2690
 2624.0000    10.3891   112.6877   -32.2302     0.0353     2.5449     0.2811
 2624.5000    10.3891   114.2064   -32.0834     0.0348     2.5456     0.2877
 2625.0000    10.3741   115.3850   -31.9366     0.0347     2.5490     0.2806
 2625.5000    10.3741   114.4690   -31.7897     0.0332     2.5547     0.2591
 2626.0000    10.3741   112.3485   -31.6428     0.0332     2.5659     0.2603
 2626.5000    10.3590   110.8314   -31.4961     0.0316     2.5780     0.2694
 2627.0000    10.3439   110.2193   -31.3492     0.0437     2.5832     0.2715
 2627.5000    10.3439   109.9088   -38.7218     0.0482     2.5810     0.2642
 2628.0000    10.3288   109.5983   -38.5714     0.0473     2.5666     0.2603
 2628.5000    10.2986   108.9862   -38.4210     0.0010     2.5545     0.2625
 2629.0000    10.2815   107.7707   -38.2440    -0.0063     2.5530     0.2615
 2629.5000    10.2534   106.8569   -38.0972    -0.0078     2.5529     0.2568
 2630.0000    10.2232   107.1498   -37.9503     0.0072     2.5506     0.2507
 2630.5000    10.2081   107.4426   -37.8035     0.0163     2.5469     0.2547
 2631.0000    10.1931   108.3365   -37.6567     0.0238     2.5438     0.2616
 2631.5000    10.1780   111.3443   -29.9911     0.0298     2.5438     0.2665
 2632.0000    10.1629   111.6478   -29.8442     0.0300     2.5468     0.2686
 2632.5000    10.1629   109.4720   -29.6974     0.0071     2.5483     0.2638
 2633.0000    10.1478   106.4920   -29.5489    -0.0080     2.5498     0.2648
 2633.5000    10.1478   109.1960   -21.8850    -0.0001     2.5528     0.2696
 2634.0000    10.1478   112.5054   -25.4083     0.0236     2.5588     0.2632
 2634.5000    10.1478   111.5916   -28.8120     0.0343     2.5610     0.2527
 2635.0000    10.1478   109.4711   -32.2157     0.0251     2.5618     0.2545
 2635.5000    10.1478   106.1441   -35.6193     0.0130     2.5625     0.2639
 2636.0000    10.1478   105.2325   -39.0230     0.0127     2.5587     0.2709
 2636.5000    10.1478   108.8414   -42.4267     0.0328     2.5496     0.2660
 2637.0000    10.1478   110.3409   -43.3835     0.0355     2.5436     0.2581
 2637.5000    10.1478   110.3318   -43.2300     0.0234     2.5420     0.2567
 2638.0000    10.1478   109.4160   -43.0827     0.0128     2.5405     0.2658
 2638.5000    10.1322   107.5972   -42.9323    -0.0008     2.5405     0.2749
 2639.0000    10.0875   105.4768   -42.7528     0.0007     2.5412     0.2839
 2639.5000    10.0724   106.0713   -42.6060     0.0052     2.5420     0.2891
 2640.0000    10.0573   107.8746   -42.4592     0.0127     2.5442     0.2864
 2640.5000    10.0573   101.5288   -49.8678     0.0278     2.5393     0.2758
 2641.0000    10.0422    91.8668   -42.1655     0.0413     2.5064     0.2646
 2641.5000    10.0422    83.7132   -42.0187     0.0458     2.4800     0.2541
 2642.0000    10.0121    79.4769   -41.8719     0.0367     2.4430     0.2459
 2642.5000     9.9819    78.2655   -41.7250     0.0291     2.4212     0.2390
 2643.0000     9.9367    78.5586   -41.5782     0.0306     2.4189     0.2330
 2643.5000     9.9065    79.4525   -41.4286     0.0382     2.4264     0.2336
 2644.0000     9.8743    80.3509   -41.2782     0.0427     2.4324     0.2356
 2644.5000     9.8462    73.4017   -41.1010     0.0426     2.4316     0.2315
 2645.0000     9.8462    68.2647   -40.9542     0.0501     2.4332     0.2239
 2645.5000     9.8311    64.9376   -40.8074     0.0607     2.4417     0.2243
 2646.0000     9.8160    63.1188   -33.1418     0.0654     2.4497     0.2294
 2646.5000     9.7858    63.7133   -17.9573     0.0591     2.4338     0.2437
 2647.0000     9.7557    65.2266   -10.2917     0.0269     2.4157     0.2479
 2647.5000     9.7557    66.8026   -17.6692     0.0168     2.4126     0.2452
 2648.0000     9.7557    70.0195   -25.0376     0.0318     2.4194     0.2431
 2648.5000     9.7557    73.0272   -32.4076     0.0363     2.4209     0.2407
 2649.0000     9.7557    76.6383   -32.2556     0.0348     2.4231     0.2429
 2649.5000     9.7707    80.2494   -17.0397     0.0302     2.4254     0.2483
 2650.0000     9.7858    77.8266     5.6636     0.0227     2.4289     0.2528
 2650.5000     9.7866    73.5945     5.8104     0.0272     2.4251     0.2529
 2651.0000     9.7943    69.3625    -1.5983     0.0362     2.4170     0.2542
 2651.5000     9.8019    70.2608    -3.7411     0.0437     2.4222     0.2501
 2652.0000     9.8095    71.1570    -9.4234     0.0513     2.4320     0.2311
 2652.5000     9.8152    69.0334   -15.1056     0.0575     2.4365     0.2214
 2653.0000     9.8151    66.6114   -20.7878     0.0633     2.4349     0.2220
 2653.5000     9.7998    68.4126   -26.4701     0.0612     2.4273     0.2263
 2654.0000     9.7846    71.1188   -30.1722     0.0373     2.4212     0.2299
 2654.5000     9.7694    69.9034   -29.8994     0.0040     2.4235     0.2293
 2655.0000     9.7541    64.3033   -29.6810    -0.0097     2.4242     0.2230
 2655.5000     9.7389    60.2307   -29.4628     0.0069     2.4181     0.2175
 2656.0000     9.7237    59.9218   -29.2445     0.0355     2.4023     0.2166
 2656.5000     9.7235    65.0391   -29.0226     0.0294     2.3894     0.2251
 2657.0000     9.7234    67.4436   -36.3267     0.0263     2.3871     0.2330
 2657.5000     9.7383    67.7387   -36.0539     0.0278     2.3973     0.2327
 2658.0000     9.7381    69.5378   -35.8355     0.0293     2.4142     0.2241
 2658.5000     9.7531    74.0539   -35.6173     0.0201     2.4345     0.2097
 2659.0000     9.7680    75.2519   -42.9178     0.0080     2.4593     0.1994
 2659.5000     9.7679    76.1844   -35.1806    -0.0057     2.4880     0.2003
 2660.0000     9.7677    78.5504   -42.4812    -0.0254     2.5090     0.2103
 2660.5000     9.7827    81.5583   -42.2556    -0.0153     2.5029     0.2270
 2661.0000     9.7976    85.4711   -49.5089     0.0304     2.4786     0.2360
 2661.5000     9.7974    88.1773   -49.2905     0.0530     2.4486     0.2357
 2662.0000     9.7973    87.5653   -49.0723     0.0378     2.4282     0.2348
 2662.5000     9.7820    85.1433   -48.8540     0.0196     2.4138     0.2361
 2663.0000     9.7668    82.9347   -56.1545     0.0045     2.4032     0.2394
 2663.5000     9.7667    80.9004   -55.9362    -0.0047     2.4085     0.2442
 2664.0000     9.7816    79.6851   -55.7143     0.0300     2.4145     0.2548
 2664.5000     9.7965    74.2465   -55.4450     0.0360     2.4096     0.2627
 2665.0000     9.8115    72.1283   -55.2268     0.0435     2.3993     0.2639
 2665.5000     9.8415    75.1340   -55.0085     0.0540     2.3993     0.2544
 2666.0000     9.8564    83.3335   -54.7902     0.0660     2.4038     0.2403
 2666.5000     9.8864    90.4990   -54.5719     0.0554     2.4083     0.2370
 2667.0000     9.9014    89.5852   -54.3537     0.0182     2.4090     0.2476
 2667.5000     9.9012    87.7666   -46.6165    -0.0112     2.4067     0.2573
