~VERSION INFORMATION
 VERS.                2.0:   CWLS LOG ASCII STANDARD - VERSION 2.0
 WRAP.                 NO:   ONE LINE PER DEPTH STEP
~WELL INFORMATION
#MNEM.UNIT      DATA TYPE    INFORMATION
#----------   ------------   ------------------------------
 STRT.F            0.0000:   START DEPTH
 STOP.F         2870.0000:   STOP DEPTH
 STEP.F            0.5000:   STEP LENGTH
 NULL.          -999.2500:   NO VALUE
 COMP.  FENIX AND SCISSON:   COMPANY
 WELL.  FENIX "A" #304-28:   WELL
 FLD .             NPR #3:   FIELD
 LOC .      S28 T39N R78W:   LOCATION
 CNTY.            NATRONA:   COUNTY
 STAT.            WYOMING:   STATE
 CTRY. UNITED STATES OF AMERICA:   COUNTRY
 SRVC.         MCCULLOUGH:   SERVICE COMPANY
 DATE.        21-DEC-1977:   LOGDATE
 API .     49025105600000:   API NUMBER
~CURVE INFORMATION
#MNEM.UNIT       API CODE    CURVE DESCRIPTION
#----------   ------------   ------------------------------
 DEPT.F                  :   
 GR  .GAPI   30 310 01 00:   GAMMA RAY
 CALI.IN     70 280 01 00:   CALIPER
~PARAMETER INFORMATION
#MNEM.UNIT          VALUE    DESCRIPTION
#----------   ------------   ------------------------------
 EKB .F            0.0000:   Kelly bushing
 EGL .F            0.0000:   Ground level
 EDF .F         5074.7000:   Drilling floor
 EPD .F         5074.7000:   Permanent datum
 TD  .F         2868.0000:   Total depth
 DATE.        21-DEC-1977:   Date logged
 CLNT.            A2DTECH:   Client Code
 DL  .F              2868:   Depth logger
 BLI .F              2866:   Bottom log interval
 TLI .F              2000:   Top log interval
 CS1 .IN             6.25:   Casing size
 CBD1.     6.625" @ 2935':   Casing driller 1
 BS1 .IN             6.25:   Bit size
 BSD1.F              2868:   Depth drilled with bit1
 DFT .              WATER:   Type fluid in hole
 TCS .HRS             1.5:   Time Circ. stopped
 ENGI.             CONLEY:   Recorded By
 WITN.           HARRISON:   Witnessed by
 ORIG.           5" PRINT:   Origin of data
 UWI .     49025105600000:   Unique Well ID
 DICO. A2D TECHNOLOGIES, INC.:   Digitizing Company
~OTHER INFORMATION
~A    DEPT      GR         CALI 
# ...
  364.5000  -999.2500     6.9120
  365.0000  -999.2500     6.6940
  365.5000  -999.2500     6.6890
  366.0000  -999.2500     6.6880
  366.5000  -999.2500     6.6720
  367.0000  -999.2500     6.6610
  367.5000  -999.2500     6.6690
  368.0000  -999.2500     6.6760
  368.5000  -999.2500     6.6840
  369.0000  -999.2500     6.6890
  369.5000  -999.2500     6.6980
  370.0000  -999.2500     6.7070
  370.5000  -999.2500     6.7120
  371.0000  -999.2500     6.7200
  371.5000  -999.2500     6.7290
  372.0000  -999.2500     6.7230
  372.5000  -999.2500     6.7250
  373.0000  -999.2500     6.7180
  373.5000  -999.2500     6.7160
  374.0000  -999.2500     6.7140
  374.5000  -999.2500     6.7080
  375.0000  -999.2500     6.7120
  375.5000  -999.2500     6.7150
  376.0000  -999.2500     6.7160
  376.5000  -999.2500     6.7150
  377.0000  -999.2500     6.7210
  377.5000  -999.2500     6.7220
  378.0000  -999.2500     6.7220
  378.5000  -999.2500     6.7230
  379.0000  -999.2500     6.7230
  379.5000  -999.2500     6.7230
  380.0000  -999.2500     6.7260
  380.5000  -999.2500     6.7390
  381.0000  -999.2500     6.7390
  381.5000  -999.2500     6.7420
  382.0000  -999.2500     6.7450
  382.5000  -999.2500     6.7440
  383.0000  -999.2500     6.7480
  383.5000  -999.2500     6.7500
  384.0000  -999.2500     6.7570
  384.5000  -999.2500     6.7570
  385.0000  -999.2500     6.7740
  385.5000  -999.2500     6.7910
  386.0000  -999.2500     6.8070
  386.5000  -999.2500     6.8090
  387.0000  -999.2500     7.0220
  387.5000  -999.2500     6.7200
  388.0000  -999.2500     6.7210
  388.5000  -999.2500     6.7260
  389.0000  -999.2500     6.7180
  389.5000  -999.2500     6.7200
  390.0000  -999.2500     6.7190
  390.5000  -999.2500     6.7190
  391.0000  -999.2500     6.7230
  391.5000  -999.2500     6.7210
  392.0000  -999.2500     6.7210
  392.5000  -999.2500     6.7260
  393.0000  -999.2500     6.7220
  393.5000  -999.2500     6.7180
  394.0000  -999.2500     6.7160
  394.5000  -999.2500     6.7150
  395.0000  -999.2500     6.7110
  395.5000  -999.2500     6.7100
  396.0000  -999.2500     6.7080
  396.5000  -999.2500     6.7070
  397.0000  -999.2500     6.7060
  397.5000  -999.2500     6.7060
  398.0000  -999.2500     6.7080
  398.5000  -999.2500     6.7130
  399.0000  -999.2500     6.7190
  399.5000  -999.2500     6.7240
  400.0000  -999.2500     6.7290
  400.5000  -999.2500     6.7380
  401.0000  -999.2500     6.7340
  401.5000  -999.2500     6.7400
  402.0000  -999.2500     6.7450
  402.5000  -999.2500     6.7510
  403.0000  -999.2500     6.7570
  403.5000  -999.2500     6.7600
  404.0000  -999.2500     6.7660
  404.5000  -999.2500     6.7720
  405.0000  -999.2500     6.7750
  405.5000  -999.2500     6.7740
  406.0000  -999.2500     6.7680
  406.5000  -999.2500     6.8630
  407.0000  -999.2500     6.7300
  407.5000  -999.2500     6.7260
  408.0000  -999.2500     6.7220
  408.5000  -999.2500     6.7360
  409.0000  -999.2500     6.7510
  409.5000  -999.2500     6.7660
  410.0000  -999.2500     6.7550
  410.5000  -999.2500     6.7230
  411.0000  -999.2500     6.7170
  411.5000  -999.2500     6.7170
  412.0000  -999.2500     6.7100
  412.5000  -999.2500     6.7030
  413.0000  -999.2500     6.6960
  413.5000  -999.2500     6.6880
  414.0000  -999.2500     6.6800
  414.5000  -999.2500     6.6810
  415.0000  -999.2500     6.6840
  415.5000  -999.2500     6.6870
  416.0000  -999.2500     6.6910
  416.5000  -999.2500     6.6940
  417.0000  -999.2500     6.6950
  417.5000  -999.2500     6.6940
  418.0000  -999.2500     6.6920
  418.5000  -999.2500     6.6910
  419.0000  -999.2500     6.6900
  419.5000  -999.2500     6.6900
  420.0000  -999.2500     6.6940
  420.5000  -999.2500     6.6960
  421.0000  -999.2500     6.6990
  421.5000  -999.2500     6.7090
  422.0000  -999.2500     6.7100
  422.5000  -999.2500     6.7110
  423.0000  -999.2500     6.7120
  423.5000  -999.2500     6.7110
  424.0000  -999.2500     6.7060
  424.5000  -999.2500     6.7010
  425.0000  -999.2500     6.6950
  425.5000  -999.2500     6.6900
  426.0000  -999.2500     6.6940
  426.5000  -999.2500     6.7040
  427.0000  -999.2500     6.7080
  427.5000  -999.2500     6.7050
  428.0000  -999.2500     6.9620
  428.5000  -999.2500     6.6610
  429.0000  -999.2500     6.6800
  429.5000  -999.2500     6.6680
  430.0000  -999.2500     6.6640
  430.5000  -999.2500     6.6620
  431.0000  -999.2500     6.6630
  431.5000  -999.2500     6.6610
  432.0000  -999.2500     6.6590
  432.5000  -999.2500     6.6570
  433.0000  -999.2500     6.6570
  433.5000  -999.2500     6.6580
  434.0000  -999.2500     6.6560
  434.5000  -999.2500     6.6510
  435.0000  -999.2500     6.6470
  435.5000  -999.2500     6.6460
  436.0000  -999.2500     6.6440
  436.5000  -999.2500     6.6430
  437.0000  -999.2500     6.6440
  437.5000  -999.2500     6.6390
  438.0000  -999.2500     6.6350
  438.5000  -999.2500     6.6380
  439.0000  -999.2500     6.6390
  439.5000  -999.2500     6.6390
  440.0000  -999.2500     6.6400
  440.5000  -999.2500     6.6570
  441.0000  -999.2500     6.6620
  441.5000  -999.2500     6.6620
  442.0000  -999.2500     6.6530
  442.5000  -999.2500     6.6430
  443.0000  -999.2500     6.6410
  443.5000  -999.2500     6.6420
  444.0000  -999.2500     6.6400
  444.5000  -999.2500     6.6380
  445.0000  -999.2500     6.6420
  445.5000  -999.2500     6.6470
  446.0000  -999.2500     6.6440
  446.5000  -999.2500     6.6470
  447.0000  -999.2500     6.6450
  447.5000  -999.2500     6.6400
  448.0000  -999.2500     6.6360
  448.5000  -999.2500     6.6290
  449.0000  -999.2500     6.6390
  449.5000  -999.2500     6.7740
  450.0000  -999.2500     6.7390
  450.5000  -999.2500     6.7260
  451.0000  -999.2500     6.7100
  451.5000  -999.2500     6.7090
  452.0000  -999.2500     6.7140
  452.5000  -999.2500     6.7150
  453.0000  -999.2500     6.7130
  453.5000  -999.2500     6.7070
  454.0000  -999.2500     6.7030
  454.5000  -999.2500     6.7060
  455.0000  -999.2500     6.7060
  455.5000  -999.2500     6.7030
  456.0000  -999.2500     6.7010
  456.5000  -999.2500     6.6940
  457.0000  -999.2500     6.6920
  457.5000  -999.2500     6.6920
  458.0000  -999.2500     6.6890
  458.5000  -999.2500     6.6910
  459.0000  -999.2500     6.6970
  459.5000  -999.2500     6.6970
  460.0000  -999.2500     6.6970
  460.5000  -999.2500     6.6970
  461.0000  -999.2500     6.6940
  461.5000  -999.2500     6.6880
  462.0000  -999.2500     6.6850
  462.5000  -999.2500     6.6890
  463.0000  -999.2500     6.6950
  463.5000  -999.2500     6.6920
  464.0000  -999.2500     6.6880
  464.5000  -999.2500     6.6880
  465.0000  -999.2500     6.6890
  465.5000  -999.2500     6.6880
  466.0000  -999.2500     6.6890
  466.5000  -999.2500     6.6920
  467.0000  -999.2500     6.6940
  467.5000  -999.2500     6.6870
  468.0000  -999.2500     6.6790
  468.5000  -999.2500     6.6730
  469.0000  -999.2500     6.6800
  469.5000  -999.2500     6.6890
  470.0000  -999.2500     6.7060
  470.5000  -999.2500     6.7050
  471.0000  -999.2500     6.7140
  471.5000  -999.2500     6.9430
  472.0000  -999.2500     6.8120
  472.5000  -999.2500     6.7710
  473.0000  -999.2500     6.7600
  473.5000  -999.2500     6.7360
  474.0000  -999.2500     6.7180
  474.5000  -999.2500     6.7530
  475.0000  -999.2500     6.7560
  475.5000  -999.2500     6.7570
  476.0000  -999.2500     6.7600
  476.5000  -999.2500     6.7580
  477.0000  -999.2500     6.7520
  477.5000  -999.2500     6.7470
  478.0000  -999.2500     6.7510
  478.5000  -999.2500     6.7540
  479.0000  -999.2500     6.7620
  479.5000  -999.2500     6.7620
  480.0000  -999.2500     6.7610
  480.5000  -999.2500     6.7600
  481.0000  -999.2500     6.7620
  481.5000  -999.2500     6.7690
  482.0000  -999.2500     6.7620
  482.5000  -999.2500     6.7540
  483.0000  -999.2500     6.7500
  483.5000  -999.2500     6.7400
  484.0000  -999.2500     6.7360
  484.5000  -999.2500     6.7410
  485.0000  -999.2500     6.7470
  485.5000  -999.2500     6.7520
