~VERSION INFORMATION
 VERS.                2.0:   CWLS LOG ASCII STANDARD - VERSION 2.0
 WRAP.                 NO:   ONE LINE PER DEPTH STEP
~WELL INFORMATION
#MNEM.UNIT      DATA TYPE    INFORMATION
#----------   ------------   ------------------------------
 STRT.F            0.5000:   START DEPTH
 STOP.F         5758.0000:   STOP DEPTH
 STEP.F            0.5000:   STEP LENGTH
 NULL.          -999.2500:   NO VALUE
 COMP.   LAWRENCE ALLISON:   COMPANY
 WELL. LAWRENCE "X" #51-10:   WELL
 FLD .          NPR NO. 3:   FIELD
 LOC .      S10 T38N R78W:   LOCATION
 CNTY.            NATRONA:   COUNTY
 STAT.            WYOMING:   STATE
 CTRY. UNITED STATES OF AMERICA:   COUNTRY
 SRVC.      DRESSER ATLAS:   SERVICE COMPANY
 DATE.        31-JAN-1987:   LOGDATE
 API .     49025111230000:   API NUMBER
~CURVE INFORMATION
#MNEM.UNIT       API CODE    CURVE DESCRIPTION
#----------   ------------   ------------------------------
 DEPT.F                  :   
 GRR .GAPI   07 310 01 00:   GAMMA RAY FROM RESISTIVITY
 TENR.LBS    07 635 01 00:   TENSION FROM RESISTIVITY
 SPR .MV     07 010 01 00:   SPONTANEOUS POTENTIAL
 RD  .OHMM   11 220 10 00:   RESISTIVITY DEEP
 RS  .OHMM   11 220 09 00:   RESISTIVITY SHALLOW
 CNC .DEC    42 890 03 00:   NEUTRON POROSITY
 CALD.IN     45 280 60 00:   CALIPER FROM DENSITY LOG
 DEN .G/C3   45 350 01 00:   BULK DENSITY
 CORR.G/C3   45 356 01 00:   DENSITY CORRECTION
 TEND.LBS    45 635 01 00:   TENSION FORM DENSITY LOG
~PARAMETER INFORMATION
#MNEM.UNIT          VALUE    DESCRIPTION
#----------   ------------   ------------------------------
 EKB .F         5227.0000:   Kelly bushing
 EGL .F         5215.0000:   Ground level
 EDF .F            0.0000:   Drilling floor
 TD  .F         5750.0000:   Total depth
 CLNT.            A2DTECH:   Client Code
 SL  . 2356' FEL & 170' FNL:   Surface Location
 PD  .                 GL:   Permanent Datum
 EPD .F              5215:   Elevation Permanent Datum
 LMF .                 KB:   Log Measured From
 DMF .                 KB:   Drilling Measured From
 DAPD.F                12:   Feet Above Permanent Datum
 DATE.        31-JAN-1987:   Date Logged [DD-MMM-YYYY]
 DD  .F              5747:   Depth driller
 DL  .F              5750:   Depth logger
 BLI .F              5748:   Bottom log interval
 CS1 .IN            9.625:   Casing size
 CBD1.      9.625" @ 511':   Casing driller 1
 CBL1.F               512:   Casing logger 1
 BS1 .IN             8.75:   Bit size
 BSD1.F              5747:   Depth drilled with bit1
 DFT .        KCL POLYMER:   Type fluid in hole
 DFD .                9.3:   Density
 DFV .                 43:   Viscosity
 DFPH.                9.5:   pH
 MSS .           FLOWLINE:   Source of sample
 RMS .OHMM          0.247:   Rm
 MST .F                74:   Rm Meas. temp.
 RMF .OHMM          0.162:   Rmf
 MFST.F                74:   Rmf Meas. temp.
 MFSS.               MEAS:   Source Rmf.
 RMC .OHMM          0.310:   Rmc
 MCST.F                74:   Rmc Meas. temp.
 MCSS.               CALC:   Source Rmc.
 RMB .OHMM          0.109:   Rm. at BHT
 BHT .F               167:   BHT.
 TCS .HRS               5:   Time Circ. stopped
 MRT .F               167:   Maximum recorded temp.
 LUN .            HL-6274:   Logging unit number
 LUL .           GILLETTE:   Logging unit location
 ORIG.        2" 5" PRINT:   Origin of data
 UWI .     49025111230000:   Unique Well ID
 DICO. A2D TECHNOLOGIES, INC.:   Digitizing Company
 ENGI.             RAUTIO:   Recorded By
 WITN.             STRONG:   Witnessed by
 DFL .                7.8:   Fluid loss
~OTHER INFORMATION
~A  DEPTH      GRR       TENR        SPR         RD         RS        CNC       CALD        DEN       CORR       TEND
# ...
 1943.5000   123.2519  -131.3340   -63.8974    10.7139     8.7459  -999.2500  -999.2500  -999.2500  -999.2500  -999.2500
 1944.0000   124.8204  -131.2150   -63.8844    10.5663     9.0010  -999.2500  -999.2500  -999.2500  -999.2500  -999.2500
 1944.5000   123.2930  -131.0959   -63.7228    10.4932     9.1315  -999.2500  -999.2500  -999.2500  -999.2500  -999.2500
 1945.0000   117.7408  -130.9769   -63.5592    10.2772     8.8757  -999.2500  -999.2500  -999.2500  -999.2500  -999.2500
 1945.5000   114.9750  -130.8578   -63.2408    10.2772     8.8769  -999.2500  -999.2500  -999.2500  -999.2500  -999.2500
 1946.0000   116.5487  -130.7388   -62.9224     9.9960     8.5668  -999.2500  -999.2500  -999.2500  -999.2500  -999.2500
 1946.5000   118.7364  -130.6198   -62.7588     9.7847     8.2672  -999.2500  -999.2500  -999.2500  -999.2500  -999.2500
 1947.0000   120.3049  -130.5007   -63.2122     9.6553     7.9782  -999.2500  -999.2500  -999.2500  -999.2500  -999.2500
 1947.5000   120.9447  -130.3817   -63.3582     9.5885     7.7544  -999.2500  -999.2500  -999.2500  -999.2500  -999.2500
 1948.0000   120.6152  -130.2627   -63.8138     9.5885     7.7555  -999.2500  -999.2500  -999.2500  -999.2500  -999.2500
 1948.5000   118.5142  -130.1436   -64.2703     9.6553     7.9817  -999.2500  -999.2500  -999.2500  -999.2500  -999.2500
 1949.0000   116.9867  -130.0246   -64.5702     9.6553     8.0977  -999.2500  -999.2500  -999.2500  -999.2500  -999.2500
 1949.5000   115.4593  -129.9056   -64.4044     9.5885     8.1568  -999.2500  -999.2500  -999.2500  -999.2500  -999.2500
 1950.0000   115.4799  -129.7865   -64.2408     9.5223     8.0422  -999.2500  -999.2500  -999.2500  -999.2500  -999.2500
 1950.5000   121.6975  -129.6675   -64.0771     9.3262     7.8169  -999.2500  -999.2500  -999.2500  -999.2500  -999.2500
 1951.0000   125.4333  -129.5485   -63.7013     9.1266     7.6808  -999.2500  -999.2500  -999.2500  -999.2500  -999.2500
 1951.5000   125.7583  -129.4294   -63.4737     8.9461     7.3861  -999.2500  -999.2500  -999.2500  -999.2500  -999.2500
 1952.0000   123.6168  -129.3104   -63.2544     8.8469     7.0776  -999.2500  -999.2500  -999.2500  -999.2500  -999.2500
 1952.5000   123.9732  -129.1914   -63.2412     8.8474     6.9786  -999.2500  -999.2500  -999.2500  -999.2500  -999.2500
 1953.0000   122.4247  -129.0723   -63.2280     8.8480     7.2861  -999.2500  -999.2500  -999.2500  -999.2500  -999.2500
 1953.5000   119.6588  -128.9533   -63.2148     8.9718     7.4989  -999.2500  -999.2500  -999.2500  -999.2500  -999.2500
 1954.0000   117.5122  -128.8343   -63.3704     8.9724     7.7179  -999.2500  -999.2500  -999.2500  -999.2500  -999.2500
 1954.5000   119.3904  -128.7152   -63.6527     9.0354     7.9437  -999.2500  -999.2500  -999.2500  -999.2500  -999.2500
 1955.0000   120.6544  -128.5962   -64.1039     9.1331     8.1175  -999.2500  -999.2500  -999.2500  -999.2500  -999.2500
 1955.5000   119.4315  -128.4771   -64.5518     9.2900     8.1774  -999.2500  -999.2500  -999.2500  -999.2500  -999.2500
 1956.0000   118.8328  -128.3581   -64.8483     9.4854     8.0630  -999.2500  -999.2500  -999.2500  -999.2500  -999.2500
 1956.5000   121.0257  -128.2391   -64.5221     9.3559     7.7781  -999.2500  -999.2500  -999.2500  -999.2500  -999.2500
 1957.0000   119.7870  -128.1200   -64.3541     9.2278     7.5104  -999.2500  -999.2500  -999.2500  -999.2500  -999.2500
 1957.5000   116.4280  -128.0010   -64.1861     9.1017     7.3003  -999.2500  -999.2500  -999.2500  -999.2500  -999.2500
 1958.0000   115.2050  -127.8820   -64.1729     9.0397     7.3541  -999.2500  -999.2500  -999.2500  -999.2500  -999.2500
 1958.5000   122.0419  -127.7629   -64.0049     9.0403     7.6231  -999.2500  -999.2500  -999.2500  -999.2500  -999.2500
 1959.0000   124.5392  -127.6439   -64.1465     9.0410     7.9652  -999.2500  -999.2500  -999.2500  -999.2500  -999.2500
 1959.5000   124.5604  -127.5249   -64.2848     9.1044     8.4290  -999.2500  -999.2500  -999.2500  -999.2500  -999.2500
 1960.0000   126.1335  -127.4058   -64.7360     9.2317     8.6752  -999.2500  -999.2500  -999.2500  -999.2500  -999.2500
 1960.5000   128.9404  -127.2868   -64.7228     9.2964     8.4325  -999.2500  -999.2500  -999.2500  -999.2500  -999.2500
 1961.0000   129.5801  -127.1678   -64.5514     9.3617     8.1965  -999.2500  -999.2500  -999.2500  -999.2500  -999.2500
 1961.5000   131.1487  -127.0487   -64.5382     9.5585     7.9672  -999.2500  -999.2500  -999.2500  -999.2500  -999.2500
 1962.0000   137.0567  -126.9297   -64.5250     9.6478     7.9692  -999.2500  -999.2500  -999.2500  -999.2500  -999.2500
 1962.5000   139.5489  -126.8107   -64.6666     9.7601     8.1436  -999.2500  -999.2500  -999.2500  -999.2500  -999.2500
 1963.0000   136.4787  -126.6916   -64.6533     9.8286     8.4415  -999.2500  -999.2500  -999.2500  -999.2500  -999.2500
 1963.5000   135.2608  -126.5726   -64.6369     9.9436     8.7505  -999.2500  -999.2500  -999.2500  -999.2500  -999.2500
 1964.0000   137.5940  -126.4536   -64.6237    10.1057     8.8148  -999.2500  -999.2500  -999.2500  -999.2500  -999.2500
 1964.5000   143.9758  -126.3345   -64.7686    10.2539     8.6915  -999.2500  -999.2500  -999.2500  -999.2500  -999.2500
 1965.0000   144.9200  -126.2155   -64.7521    10.3908     8.7561  -999.2500  -999.2500  -999.2500  -999.2500  -999.2500
 1965.5000   141.8177  -126.0965   -64.7146    10.6176     9.0118  -999.2500  -999.2500  -999.2500  -999.2500  -999.2500
 1966.0000   136.2910  -125.9774   -64.5676    10.7575     9.2786  -999.2500  -999.2500  -999.2500  -999.2500  -999.2500
 1966.5000   133.8436  -125.8584   -64.5544    10.9837     9.6148  -999.2500  -999.2500  -999.2500  -999.2500  -999.2500
 1967.0000   131.7058  -125.7393   -64.5412    11.2498     9.8956  -999.2500  -999.2500  -999.2500  -999.2500  -999.2500
 1967.5000   130.4968  -125.6203   -64.3731    11.3716     9.8976  -999.2500  -999.2500  -999.2500  -999.2500  -999.2500
 1968.0000   132.3922  -125.5013   -64.2019    11.3725     9.7591  -999.2500  -999.2500  -999.2500  -999.2500  -999.2500
 1968.5000   130.8725  -125.3822   -63.8791    11.2947     9.5472  -999.2500  -999.2500  -999.2500  -999.2500  -999.2500
 1969.0000   129.3540  -125.2631   -63.8659    11.0637     9.5565  -999.2500  -999.2500  -999.2500  -999.2500  -999.2500
 1969.5000   130.3121  -125.1442   -64.0075    10.7596     9.3558  -999.2500  -999.2500  -999.2500  -999.2500  -999.2500
 1970.0000   132.5087  -125.0251   -64.3038    10.2549     8.8378  -999.2500  -999.2500  -999.2500  -999.2500  -999.2500
 1970.5000   131.8950  -125.0000   -64.5969     9.9071     8.3484  -999.2500  -999.2500  -999.2500  -999.2500  -999.2500
 1971.0000   132.2652  -125.0000   -64.8966     9.7043     7.9911  -999.2500  -999.2500  -999.2500  -999.2500  -999.2500
 1971.5000   134.1522  -125.0000   -65.0382     9.5717     7.8878  -999.2500  -999.2500  -999.2500  -999.2500  -999.2500
 1972.0000   135.4127  -125.0000   -65.0217     9.4408     8.0034  -999.2500  -999.2500  -999.2500  -999.2500  -999.2500
 1972.5000   132.9726  -125.0000   -65.0052     9.5731     8.2371  -999.2500  -999.2500  -999.2500  -999.2500  -999.2500
 1973.0000   131.7636  -125.0000   -64.8372     9.6402     8.4777  -999.2500  -999.2500  -999.2500  -999.2500  -999.2500
 1973.5000   131.1812  -125.0000   -64.6692     9.6811     8.8508  -999.2500  -999.2500  -999.2500  -999.2500  -999.2500
 1974.0000   128.1146  -125.0000   -64.5012     9.7757     8.5424  -999.2500  -999.2500  -999.2500  -999.2500  -999.2500
 1974.5000   124.4288  -125.0000   -64.3328     9.6422     8.3034  -999.2500  -999.2500  -999.2500  -999.2500  -999.2500
 1975.0000   122.2910  -125.0000   -64.3167     9.5102     8.1289  -999.2500  -999.2500  -999.2500  -999.2500  -999.2500
 1975.5000   126.3525  -125.0000   -63.9939     9.3158     8.0727  -999.2500  -999.2500  -999.2500  -999.2500  -999.2500
 1976.0000   130.0971  -125.0000   -63.6711     9.2522     8.0168  -999.2500  -999.2500  -999.2500  -999.2500  -999.2500
 1976.5000   131.0479  -125.0000   -63.6579     9.2528     8.0189  -999.2500  -999.2500  -999.2500  -999.2500  -999.2500
