~VERSION INFORMATION
 VERS.                2.0:   CWLS LOG ASCII STANDARD - VERSION 2.0
 WRAP.                 NO:   ONE LINE PER DEPTH STEP
~WELL INFORMATION
#MNEM.UNIT      DATA TYPE    INFORMATION
#----------   ------------   ------------------------------
 STRT.F          387.0000:   START DEPTH
 STOP.F         2921.0000:   STOP DEPTH
 STEP.F            0.5000:   STEP LENGTH
 NULL.          -999.2500:   NO VALUE
 COMP.    FENIX & SCISSON:   COMPANY
 WELL.  FENIX  "A" #21-28:   WELL
 FLD .          N.P.R. #3:   FIELD
 LOC .      S28 T39N R78W:   LOCATION
 CNTY.            NATRONA:   COUNTY
 STAT.            WYOMING:   STATE
 CTRY. UNITED STATES OF AMERICA:   COUNTRY
 SRVC.       SCHLUMBERGER:   SERVICE COMPANY
 DATE.        30-APR-1977:   LOGDATE
 API .     49025103550000:   API NUMBER
~CURVE INFORMATION
#MNEM.UNIT       API CODE    CURVE DESCRIPTION
#----------   ------------   ------------------------------
 DEPT.F                  :   
 SPR .MV     07 010 01 00:   SPONTANEOUS POTENTIAL
 ILD .OHMM   07 120 46 00:   DEEP INDUCTION RESISTIVITY
 ILM .OHMM   07 120 44 00:   INDUCTION LOG MEDIUM RESISTIVITY
 LL8 .OHMM   07 220 08 00:   LATEROLOG-8 RES.
 GRD .GAPI   45 310 01 00:   GAMMA RAY FROM DENSITY LOG
 CALD.IN     45 280 60 00:   CALIPER FROM DENSITY LOG
 CORR.G/C3   45 356 01 00:   DENSITY CORRECTION
 RHOB.G/C3   45 350 01 00:   BULK DENSITY
~PARAMETER INFORMATION
#MNEM.UNIT          VALUE    DESCRIPTION
#----------   ------------   ------------------------------
 EKB .F         4977.0000:   Kelly bushing
 EGL .F         4967.0000:   Ground level
 EDF .F            0.0000:   Drilling floor
 TD  .F         2922.0000:   Total depth
 CLNT.            A2DTECH:   Client Code
 SL  . 330' FNL & 990' FWL:   Surface Location
 DATE.        30-APR-1977:   Date Logged [DD-MMM-YYYY]
 DD  .F              2915:   Depth driller
 DL  .F              2922:   Depth logger
 BLI .F              2916:   Bottom log interval
 TLI .F               394:   Top log interval
 CS1 .              8.625:   Casing size
 CBD1.      8.625" @ 390':   Casing driller 1
 CBL1.IN              394:   Casing logger 1
 BS1 .IN            7.875:   Bit size
 BSD1.F              2915:   Depth drilled with bit1
 DFT .            KCL MUD:   Type fluid in hole
 DFD .                8.9:   Density
 DFV .                 87:   Viscosity
 DFPH.                8.5:   pH
 DFL .                9.6:   Fluid loss
 MSS .                PIT:   Source of sample
 RMS .OHMM           0.25:   Rm
 MST .F                70:   Rm Meas. temp.
 RMF .OHMM           0.22:   Rmf
 MFST.F                70:   Rmf Meas. temp.
 MFSS.               MEAS:   Source Rmf.
 RMC .OHMM           0.38:   Rmc
 MCST.F                70:   Rmc Meas. temp.
 MCSS.               CALC:   Source Rmc.
 RMB .OHMM           0.09:   Rm. at BHT
 BHT .F               109:   BHT.
 TCS .HRS            1800:   Time Circ. stopped
 TLAB.HRS            2200:   Time logger at bottom
 MRT .F               109:   Maximum recorded temp.
 LUN .                711:   Logging unit number
 LUL .             CASPER:   Logging unit location
 ENGI.              SYLER:   Recorded By
 WITN.         PETTINGILL:   Witnessed by
 ORIG.           5" PRINT:   Origin of data
 UWI .     49025103550000:   Unique Well ID
 DICO. A2D TECHNOLOGIES, INC.:   Digitizing Company
 PD  .                 GL:   Permanent Datum
 EPD .F              4967:   Elevation Permanent Datum
 LMF .                 KB:   Log Measured From
 DMF .                 KB:   Drilling Measured From
 DAPD.F                10:   Feet Above Permanent Datum
~OTHER INFORMATION
~A   DEPT      SPR        ILD        ILM        LL8         GRD      CALD       CORR       RHOB   
# ...
 2736.0000   -23.1539     6.9985     6.9450     8.2180   117.6836     9.3076     0.0174     2.5641
 2736.5000   -23.0013     6.9045     6.8943     8.2769   116.7566     9.3232     0.0151     2.5701
 2737.0000   -22.8488     6.7124     6.7001     8.3941   118.3172     9.3240     0.0136     2.5661
 2737.5000   -22.9983     6.4389     6.4780     8.1099   121.5842     9.3247     0.0128     2.5624
 2738.0000   -23.2990     6.1434     6.1377     7.4643   125.1619     9.3104     0.0198     2.5675
 2738.5000   -23.7506     5.8543     5.8083     6.7287   128.2737     9.3113     0.0275     2.5756
 2739.0000   -24.3534     5.5402     5.3093     6.3231   130.7644     9.3121     0.0198     2.5640
 2739.5000   -24.8054     5.1708     4.8532     6.0249   132.4787     9.3277     0.0136     2.5408
 2740.0000   -25.2571     4.6292     4.4057     5.8611   134.5035     9.3285     0.0167     2.5253
 2740.5000   -25.7084     4.0591     4.0833     5.7420   137.3048     9.3292     0.0182     2.5152
 2741.0000   -25.8580     3.7362     3.8110     5.7035   146.1619     9.3300     0.0159     2.5090
 2741.5000   -26.0075     3.3218     3.2957     5.5105   154.9259     9.3606     0.0174     2.4959
 2742.0000   -26.0060     2.8726     2.7722     4.1772   164.1188     9.4359     0.0236     2.4733
 2742.5000   -26.0045     2.8144     2.5694     3.1014   191.8130     9.5113     0.0484     2.4547
 2743.0000   -26.1541     2.7957     2.5173     2.4508   208.2155     9.5568     0.0744     2.4359
 2743.5000   -26.0015     2.8163     2.6431     2.2557   210.3229     9.5725     0.1036     2.4153
 2744.0000   -25.8489     2.9167     2.7753     2.2251   196.2541     9.4091     0.1190     2.4202
 2744.5000   -25.6963     3.0417     3.0801     3.5408   171.1935     9.2606     0.0624     2.4362
 2745.0000   -25.5435     3.3763     3.8727     6.2084   154.2207     9.1718     0.0120     2.4690
 2745.5000   -25.3910     4.1299     5.2273     7.8054   124.6340     9.1574     0.0213     2.5128
 2746.0000   -25.2384     5.3771     5.9247     8.4254   111.4415     9.1583     0.0508     2.5553
 2746.5000   -25.2369     6.0107     6.5317     7.9662   111.2909     9.1591     0.0337     2.5811
 2747.0000   -25.2354     6.3138     6.8028     7.3258   112.5409     9.1598     0.0213     2.5619
 2747.5000   -25.2339     6.4018     6.9411     6.9390   114.0999     9.1606     0.0252     2.5681
 2748.0000   -25.2324     6.3975     6.6147     6.6587   117.2117     9.1613     0.0283     2.5573
 2748.5000   -25.8352     6.2314     6.0465     6.4342   119.7024     9.1770     0.0190     2.5403
 2749.0000   -26.1358     6.0630     5.8018     6.2604   121.5719     9.1927     0.0120     2.5294
 2749.5000   -25.9832     5.7776     5.6058     6.1764   123.4415     9.1934     0.0081     2.5186
 2750.0000   -25.8309     5.5585     5.3631     6.0935   122.8266     9.1942     0.0058     2.5031
 2750.5000   -25.8291     5.2710     5.1608     5.9289   121.7443     9.1949     0.0019     2.5039
 2751.0000   -25.9790     4.9989     4.9860     5.7688   123.3049     9.1956    -0.0019     2.5047
 2751.5000   -25.9771     4.4751     4.7181     5.5358   127.0482     9.1984    -0.0019     2.5008
 2752.0000   -26.2781     3.2991     4.1369     5.2028   132.9384     9.2029    -0.0004     2.4877
 2752.5000   -26.4276     2.8926     3.6022     4.9239   145.5207     9.2074     0.0012     2.4807
 2753.0000   -26.7279     2.7372     2.9675     4.4703   158.4109     9.2119     0.0074     2.4761
 2753.5000   -27.0289     2.6446     2.7122     3.2965   172.8587     9.2164     0.0151     2.4683
 2754.0000   -27.1784     2.6089     2.6570     2.3482   199.9228     9.2209     0.0291     2.4583
 2754.5000   -27.1765     2.5914     2.6392     2.2223   203.9238     9.2254     0.0457     2.4459
 2755.0000   -27.0240     2.6285     2.6398     2.1771   200.0769     9.2298     0.0643     2.4304
 2755.5000   -27.0224     2.7220     2.9912     3.0588   190.9296     9.2322     0.0488     2.4203
 2756.0000   -26.7188     2.9183     3.6578     5.2902   161.8284     9.2178     0.0169     2.4335
 2756.5000   -26.5663     3.3303     4.2907     6.4701   137.7944     9.2188     0.0045     2.4847
 2757.0000   -26.4137     3.8535     4.6638     6.7005   128.1716     9.2195     0.0029     2.5312
 2757.5000   -26.4122     4.6163     5.1046     6.7964   127.7093     9.2051     0.0091     2.5483
 2758.0000   -26.4107     5.3787     5.4720     6.7987   130.3548     9.1762     0.0130     2.5623
 2758.5000   -26.2581     5.8067     5.7055     6.8011   131.6016     9.1769     0.0185     2.5708
 2759.0000   -26.2566     6.0133     5.9079     6.8034   130.3640     9.1626     0.0216     2.5650
 2759.5000   -26.2551     6.0568     6.0333     6.8058   129.2805     9.1635     0.0193     2.5479
 2760.0000   -26.2536     6.0585     6.1613     6.8081   130.8391     9.1642     0.0193     2.5347
 2760.5000   -26.2521     6.0602     6.1626     6.8105   134.8809     9.1650     0.0201     2.5339
 2761.0000   -26.2506     6.0619     6.1212     6.8129   138.7675     9.1806     0.0240     2.5425
 2761.5000   -26.4001     6.0635     6.1226     6.8152   139.3921     9.1814     0.0170     2.5417
 2762.0000   -26.5497     6.0652     6.1238     6.8650   134.4289     9.1971     0.0124     2.5355
 2762.5000   -26.5482     6.0669     6.1251     7.0116   130.7068     9.2276     0.0115     2.5346
 2763.0000   -26.9998     6.0686     6.1264     7.1614   129.7786     9.2284     0.0171     2.5432
 2763.5000   -27.1494     6.0703     6.1276     7.2131   130.7160     9.2142     0.0241     2.5541
 2764.0000   -27.2989     6.0718     6.1289     7.1658   131.9629     9.2149     0.0171     2.5501
 2764.5000   -27.2974     6.0736     6.1302     7.1686   133.2097     9.2157     0.0132     2.5415
 2765.0000   -27.2959     6.1178     6.1741     7.0723   133.6802     9.2164     0.0116     2.5424
 2765.5000   -27.2944     6.1193     6.2616     7.0749   133.9968     9.2172     0.0109     2.5373
 2766.0000   -27.2929     6.1636     6.3064     7.0773   134.9482     9.2030     0.0110     2.5323
 2766.5000   -27.5939     6.2082     6.3516     7.1786   135.2468     9.1888     0.0125     2.5424
 2767.0000   -28.0452     6.2532     6.3971     7.4342   132.7484     9.1746     0.0133     2.5455
 2767.5000   -27.8926     6.2984     6.3984     7.5931   131.3740     9.1579     0.0133     2.5470
 2768.0000   -27.7401     6.3440     6.4443     7.8092   137.7462     9.1313     0.0126     2.5486
 2768.5000   -27.5875     6.3458     6.4011     7.9209   141.4776     9.1171     0.0134     2.5509
 2769.0000   -27.1328     6.3032     6.3582     7.8689   144.7430     9.0880     0.0149     2.5509
 2769.5000   -26.9803     6.1329     6.2287     7.6564   145.6793     9.0738     0.0165     2.5493
 2770.0000   -26.8277     5.9668     6.1018     7.2964   143.8206     9.0596     0.0134     2.5485
 2770.5000   -26.5241     5.7650     5.9362     6.8576   143.3582     9.0606     0.0111     2.5493
 2771.0000   -26.3715     5.6088     5.7352     6.4900   144.4509     9.0612     0.0111     2.5493
 2771.5000   -26.3700     5.4569     5.5795     6.2711   146.0083     9.0620     0.0142     2.5501
 2772.0000   -26.2174     5.3460     5.4281     6.1869   146.3223     9.0777     0.0158     2.5485
 2772.5000   -26.2159     5.2738     5.3175     6.2321   143.6883     9.0785     0.0143     2.5446
 2773.0000   -25.9123     5.2022     5.2454     6.2776   140.5873     9.0792     0.0081     2.5322
 2773.5000   -25.7597     5.2403     5.2465     6.3674   139.6591     9.0799     0.0034     2.5190
 2774.0000   -25.7582     5.3149     5.3579     6.3257   139.3532     9.0807     0.0019     2.5089
 2774.5000   -25.9079     5.4660     5.5865     6.1976   139.6695     9.0664     0.0050     2.5105
 2775.0000   -25.9063     5.6604     5.9886     6.1570   140.4505     9.0521     0.0112     2.5136
 2775.5000   -26.0558     6.0686     6.4662     6.4671   140.2998     9.0379     0.0113     2.5182
 2776.0000   -25.9033     6.5515     7.2769     7.3813   137.5978     9.0237     0.0137     2.5353
