~VERSION INFORMATION
 VERS.                2.0:   CWLS LOG ASCII STANDARD - VERSION 2.0
 WRAP.                 NO:   ONE LINE PER DEPTH STEP
~WELL INFORMATION
#MNEM.UNIT      DATA TYPE    INFORMATION
#----------   ------------   ------------------------------
 STRT.F          150.0000:   START DEPTH
 STOP.F         2929.0000:   STOP DEPTH
 STEP.F            0.5000:   STEP LENGTH
 NULL.          -999.2500:   NO VALUE
 COMP.    FENIX & SCISSON:   COMPANY
 WELL.    FENIX AX #12-28:   WELL
 FLD .        TEAPOT DOME:   FIELD
 LOC .      S28 T39N R78W:   LOCATION
 CNTY.            NATRONA:   COUNTY
 STAT.            WYOMING:   STATE
 CTRY. UNITED STATES OF AMERICA:   COUNTRY
 SRVC.           BIRDWELL:   SERVICE COMPANY
 DATE.        06-JUN-1978:   LOGDATE
 API .     49025106420000:   API NUMBER
~CURVE INFORMATION
#MNEM.UNIT       API CODE    CURVE DESCRIPTION
#----------   ------------   ------------------------------
 DEPT.F                  :   
 SPR .MV     05 010 01 00:   SPONTANEOUS POTENTIAL
 SN  .OHMM   05 040 16 00:   SHORT NORMAL 16"
 ILD .OHMM   05 120 46 00:   INDUCTION LOG DEEP RESISTIVITY
 RHOB.G/C3   45 350 01 00:   BULK DENSITY
 CORR.G/C3   45 356 01 00:   DENSITY CORRECTION
 GRD .GAPI   45 310 01 00:   GAMMA RAY FROM DENSITY LOG
 CALD.IN     45 280 60 00:   CALIPER FROM DENSITY LOG
~PARAMETER INFORMATION
#MNEM.UNIT          VALUE    DESCRIPTION
#----------   ------------   ------------------------------
 EKB .F         5000.0000:   Kelly bushing
 EGL .F         4990.0000:   Ground level
 EDF .F            0.0000:   Drilling floor
 EPD .F         5005.0000:   Permanent datum
 TD  .F         2911.0000:   Total depth
 DATE.        06-JUN-1978:   Date logged
 CLNT.            A2DTECH:   Client Code
 SL  . 1250' FNL & 225' FWL:   Surface Location
 PD  .                 GL:   Permanent Datum
 LMF .                 KB:   Log Measured From
 DMF .                 KB:   Drilling Measured From
 DAPD.F                10:   Feet Above Permanent Datum
 DD  .F              2911:   Depth driller
 DL  .F              2912:   Depth logger
 BLI .F              2906:   Bottom log interval
 TLI .F               200:   Top log interval
 CS1 .IN            8.625:   Casing size
 CBD1.      8.625" @ 225':   Casing driller 1
 CBL1.F               225:   Casing logger 1
 BS1 .IN            7.875:   Bit size
 BSD1.F              2911:   Depth drilled with bit1
 DFT .       OIL BASE MUD:   Type fluid in hole
 DFD .                9.2:   Density
 DFV .                 35:   Viscosity
 DFPH.               10.5:   pH
 DFL .                  2:   Fluid loss
 TCS .HRS             3.5:   Time Circ. stopped
 LUN .               2958:   Logging unit number
 LUL .               CASP:   Logging unit location
 ENGI.            POINTER:   Recorded By
 WITN.           MCGINLEY:   Witnessed by
 ORIG.           5" PRINT:   Origin of data
 UWI .     49025106420000:   Unique Well ID
 DICO. A2D TECHNOLOGIES, INC.:   Digitizing Company
~OTHER INFORMATION
~A   DEPT      SPR         SN        ILD       RHOB       CORR         GRD      CALD   
# ...
  241.0000   -33.0180     9.3640     8.5330     2.2160     0.2710    77.8870    11.2150
  241.5000   -32.6140     9.5060     8.6700     2.2140     0.2780    78.3320    11.2150
  242.0000   -32.9190     9.4910     8.7510     2.2150     0.2880    76.9760    11.2140
  242.5000   -33.7250     9.4710     8.7510     2.2160     0.2980    74.2960    11.2140
  243.0000   -33.9530     9.4520     8.7510     2.2180     0.3030    71.6020    11.2130
  243.5000   -33.8670     9.4330     8.7510     2.2240     0.3060    68.7770    11.2130
  244.0000   -33.1880     9.4190     8.7510     2.2510     0.2920    69.7690    11.2120
  244.5000   -32.7770     9.3820     8.7360     2.2640     0.2790    71.6560    11.2120
  245.0000   -33.4160     9.3490     8.6100     2.2100     0.2730    73.5960    11.2110
  245.5000   -34.1780     9.3150     8.4830     2.1770     0.2840    73.7140    11.2100
  246.0000   -34.9890     9.2820     8.3570     2.1430     0.2990    70.6100    11.2100
  246.5000   -34.9240     9.2470     8.2310     2.1210     0.3150    68.4640    11.2090
  247.0000   -34.8010     9.2470     8.1290     2.1120     0.3230    66.3090    11.2090
  247.5000   -34.2460     9.2470     8.1380     2.1030     0.3290    64.1260    11.2080
  248.0000   -34.3180     9.2470     8.1470     2.0940     0.3350    64.1220    11.2080
  248.5000   -34.4610     9.2480     8.1550     2.0850     0.3410    66.4610    11.2070
  249.0000   -35.3900     9.2470     8.1640     2.0820     0.3450    66.7320    11.2070
  249.5000   -35.2810     9.2480     8.1730     2.0840     0.3430    65.9430    11.2060
  250.0000   -35.1420     9.0990     8.1820     2.0890     0.3410    65.5320    11.2060
  250.5000   -34.9330     8.9960     8.1910     2.0940     0.3390    66.2700    11.2050
  251.0000   -34.1940     9.0110     8.1990     2.0820     0.3420    66.4270    11.2040
  251.5000   -34.1570     9.0270     8.2600     2.0690     0.3490    63.1680    11.2040
  252.0000   -34.3210     9.0430     8.6160     2.0640     0.3570    60.5170    11.2030
  252.5000   -34.4890     9.0600     8.8310     2.0650     0.3650    60.7030    11.2030
  253.0000   -34.5680     9.0780     8.8090     2.0650     0.3730    60.8420    11.2020
  253.5000   -34.2610     9.0650     8.7870     2.0650     0.3810    60.9840    11.2020
  254.0000   -33.9610     9.0480     8.7650     2.0800     0.3860    59.8970    11.2010
  254.5000   -33.6680     9.0310     8.7430     2.1010     0.3840    58.6610    11.2010
  255.0000   -33.9120     9.0140     8.7200     2.1230     0.3780    58.3880    11.2000
  255.5000   -34.2340     8.9960     8.6980     2.1330     0.3720    58.6590    11.1990
  256.0000   -34.5510     8.9360     8.6760     2.1280     0.3700    59.1340    11.1990
  256.5000   -34.7610     8.8720     8.5410     2.1220     0.3680    59.6140    11.1980
  257.0000   -34.2890     8.8180     8.3680     2.1150     0.3650    60.1890    11.1980
  257.5000   -33.8400     8.7410     8.1950     2.1280     0.3630    61.1730    11.1970
  258.0000   -33.8000     8.6650     8.0220     2.1430     0.3610    62.1310    11.1970
  258.5000   -34.5940     8.5910     7.8490     2.1610     0.3580    63.0940    11.1960
  259.0000   -35.5110     8.5770     7.6760     2.1810     0.3560    63.4750    11.1960
  259.5000   -36.0070     8.5240     7.5030     2.2000     0.3540    63.3990    11.1950
  260.0000   -35.9800     8.4700     7.4650     2.2200     0.3520    63.7190    11.1940
  260.5000   -35.8680     8.4160     7.4440     2.2390     0.3490    65.6350    11.1940
  261.0000   -35.7540     8.3630     7.4240     2.2590     0.3430    65.3790    11.1930
  261.5000   -35.6250     8.3090     7.3520     2.2650     0.3350    65.1490    11.1930
  262.0000   -36.0820     8.2560     7.2370     2.2590     0.3360    65.9790    11.1920
  262.5000   -36.6870     8.2020     7.2130     2.2610     0.3370    66.6660    11.1920
  263.0000   -37.2930     8.1480     7.2130     2.2670     0.3380    66.4320    11.1910
  263.5000   -37.5150     8.0950     7.2130     2.2760     0.3390    66.2150    11.1910
  264.0000   -37.2370     8.0550     7.2130     2.2920     0.3400    66.1930    11.1900
  264.5000   -36.4290     8.0640     7.2130     2.3120     0.3400    66.4600    11.1890
  265.0000   -36.1490     8.0700     7.2130     2.3360     0.3370    66.7240    11.1890
  265.5000   -36.4160     8.0770     7.2130     2.3600     0.3190    66.9880    11.1880
  266.0000   -36.6840     8.0840     7.2130     2.3840     0.3010    67.2640    11.1880
  266.5000   -36.8790     8.0910     7.2130     2.3860     0.2830    67.7180    11.1870
  267.0000   -36.9860     8.0980     7.2130     2.3870     0.2700    68.1990    11.1870
  267.5000   -36.2760     8.1050     7.2130     2.3890     0.2580    68.6760    11.1860
  268.0000   -35.8580     8.1120     7.2130     2.3940     0.2470    68.9870    11.1860
  268.5000   -35.9600     8.1190     7.2130     2.4000     0.2360    68.6330    11.1850
  269.0000   -36.1560     8.1300     7.2130     2.4150     0.2270    68.2930    11.1840
  269.5000   -36.8250     8.1240     7.2130     2.4320     0.2190    67.9380    11.1840
  270.0000   -36.8240     8.1030     7.2130     2.4400     0.2050    68.0840    11.1830
  270.5000   -36.4710     8.0820     7.2130     2.4460     0.1910    68.3880    11.1830
  271.0000   -36.1170     8.0610     7.2130     2.4520     0.1760    68.6960    11.1820
  271.5000   -35.8690     8.0390     7.2130     2.4520     0.1620    69.0030    11.1820
  272.0000   -36.3130     8.0180     7.2120     2.4490     0.1480    69.3070    11.1810
  272.5000   -36.7450     7.9970     7.2130     2.4470     0.1340    69.6200    11.1790
  273.0000   -37.1190     7.9810     7.2130     2.4450     0.1220    70.1670    11.1760
  273.5000   -37.3780     8.0270     7.2130     2.4420     0.1150    71.5510    11.1730
  274.0000   -35.9930     8.1450     7.3880     2.4470     0.1150    72.8790    11.1700
  274.5000   -34.5080     8.5000     7.5570     2.4510     0.1150    73.9820    11.1680
  275.0000   -34.0290     8.7510     7.7260     2.4560     0.1060    73.7760    11.1650
  275.5000   -34.2980     8.6870     7.9080     2.4570     0.0970    73.5870    11.1620
  276.0000   -34.5600     8.6380     7.8510     2.4520     0.0890    73.3760    11.1590
  276.5000   -34.8110     8.5890     7.7890     2.4470     0.0860    74.7230    11.1560
  277.0000   -34.9570     8.5400     7.7270     2.4420     0.0880    76.2690    11.1530
  277.5000   -34.5320     8.4910     7.6650     2.4410     0.0890    77.6420    11.1500
  278.0000   -34.1110     8.4420     7.6030     2.4450     0.0910    73.3210    11.1470
  278.5000   -33.6730     8.3930     7.5410     2.4480     0.0890    68.5390    11.1450
  279.0000   -34.2700     8.3420     7.4830     2.4460     0.0880    68.7250    11.1420
  279.5000   -34.8210     8.2820     7.4290     2.4440     0.0860    68.9650    11.1390
  280.0000   -34.7650     8.2220     7.3790     2.4360     0.0850    69.1900    11.1360
  280.5000   -34.7210     8.1620     7.3280     2.4360     0.0840    69.3860    11.1330
  281.0000   -34.6770     8.1020     7.2770     2.4400     0.0810    70.4840    11.1300
  281.5000   -34.6270     8.0420     7.2270     2.4430     0.0780    71.6770    11.1270
  282.0000   -34.8060     7.9810     7.1760     2.4390     0.0740    72.8840    11.1240
  282.5000   -35.0420     7.8850     7.1250     2.4400     0.0710    74.0990    11.1220
  283.0000   -35.2780     7.7870     7.0750     2.4430     0.0680    74.5910    11.1190
  283.5000   -35.3470     7.6890     7.0240     2.4340     0.0670    74.6410    11.1160
  284.0000   -35.1870     7.5910     6.9510     2.4320     0.0670    74.6810    11.1130
  284.5000   -35.0290     7.4930     6.8750     2.4310     0.0690    74.7170    11.1100
  285.0000   -34.8590     7.3950     6.7980     2.4300     0.0700    74.7900    11.1070
  285.5000   -35.0280     7.2440     6.7220     2.4290     0.0740    76.3220    11.1050
  286.0000   -35.3190     7.0430     6.6330     2.4280     0.0810    77.7160    11.0840
