~VERSION INFORMATION
 VERS.                2.0:   CWLS LOG ASCII STANDARD - VERSION 2.0
 WRAP.                 NO:   ONE LINE PER DEPTH STEP
~WELL INFORMATION
#MNEM.UNIT      DATA TYPE    INFORMATION
#----------   ------------   ------------------------------
 STRT.F           44.0000:   START DEPTH
 STOP.F         6166.0000:   STOP DEPTH
 STEP.F            0.5000:   STEP LENGTH
 NULL.          -999.2500:   NO VALUE
 COMP.   TESORO PETROLEUM:   COMPANY
 WELL. TESORO 11X NPR #3-23:   WELL
 FLD .             TEAPOT:   FIELD
 LOC .      S23 T38N R78W:   LOCATION
 CNTY.            NATRONA:   COUNTY
 STAT.            WYOMING:   STATE
 CTRY. UNITED STATES OF AMERICA:   COUNTRY
 SRVC.       SCHLUMBERGER:   SERVICE COMPANY
 DATE.        29-OCT-1968:   LOGDATE
 API .     49025100170000:   API NUMBER
~CURVE INFORMATION
#MNEM.UNIT       API CODE    CURVE DESCRIPTION
#----------   ------------   ------------------------------
 DEPT.F                  :   
 SN  .OHMM   05 040 18 00:   SHORT NORMAL 18"
 RES .OHMM   05 000 00 00:   RESISTIVITY
 ILD .OHMM   05 120 46 00:   INDUCTION LOG DEEP RESISTIVITY
 SPR .MV     05 010 01 00:   SPONTANEOUS POTENTIAL FROM RES.
~PARAMETER INFORMATION
#MNEM.UNIT          VALUE    DESCRIPTION
#----------   ------------   ------------------------------
 EKB .F         5283.0000:   Kelly bushing
 EGL .F         5272.0000:   Ground level
 EDF .F            0.0000:   Drilling floor
 TD  .F         6171.0000:   Total depth
 CLNT.            A2DTECH:   Client Code
 SL  . 380' FNL & 380' FWL:   Surface Location
 PD  .                 GL:   Permanent Datum
 EPD .F              5272:   Elevation Permanent Datum
 LMF .                 KB:   Log Measured From
 DMF .                 KB:   Drilling Measured From
 DAPD.F                11:   Feet Above Permanent Datum
 DATE.        29-OCT-1968:   Date Logged [DD-MMM-YYYY]
 DD  .F              6171:   Depth driller
 DL  .F              6167:   Depth logger
 BLI .F              6166:   Bottom log interval
 TLI .F               975:   Top log interval
 CS1 .IN            10.75:   Casing size
 CBD1.      10.75" @ 975':   Casing driller 1
 CBL1.F               975:   Casing logger 1
 BS1 .IN            9.125:   Bit size
 BSD1.F              6171:   Depth drilled with bit1
 DFT .           GEL-CHEM:   Type fluid in hole
 DFD .                9.6:   Density
 DFV .                 61:   Viscosity
 DFPH.                 10:   pH
 DFL .                6.8:   Fluid loss
 MSS .           FLOWLINE:   Source of sample
 RMS .OHMM           0.89:   Rm
 MST .F                80:   Rm Meas. temp.
 RMF .OHMM           0.60:   Rmf
 MFST.F                80:   Rmf Meas. temp.
 MFSS.               MEAS:   Source Rmf.
 RMB .OHMM           0.45:   Rm. at BHT
 BHT .F               160:   BHT.
 TCS .HRS               4:   Time Circ. stopped
 MRT .F               160:   Maximum recorded temp.
 LUN .               7041:   Logging unit number
 LUL .               CSPR:   Logging unit location
 ENGI.            MANGOLD:   Recorded By
 WITN.                MAY:   Witnessed by
 ORIG.         2.5" PRINT:   Origin of data
 UWI .     49025100170000:   Unique Well ID
 DICO. A2D TECHNIOLOGIES,INC.:   Digitizing Company
~OTHER INFORMATION
~A  DEPTH       SN        RES        ILD        SPR
# ...
 6103.0000   140.9091  -999.2500   445.1552   -14.2492
 6103.5000   140.9091  -999.2500   473.7268   -14.1175
 6104.0000   142.4242  -999.2500   464.0564   -13.9586
 6104.5000   142.4242  -999.2500   454.1979   -13.9818
 6105.0000   142.4242  -999.2500   445.0577   -13.9818
 6105.5000   142.4242  -999.2500   425.2792   -13.9818
 6106.0000   142.4242  -999.2500   387.2636   -13.9818
 6106.5000   142.4242  -999.2500   343.4255   -13.9818
 6107.0000   142.4242  -999.2500   342.8848   -13.9818
 6107.5000   140.9091  -999.2500   342.5848   -14.2857
 6108.0000   140.9091  -999.2500   351.2949   -14.2857
 6108.5000   140.9091  -999.2500   378.3673   -14.4180
 6109.0000   139.3939  -999.2500   383.7150   -14.7532
 6109.5000   139.3939  -999.2500   379.8812   -14.8936
 6110.0000   139.3939  -999.2500   381.3981   -14.8936
 6110.5000   139.3939  -999.2500   389.2736   -15.1976
 6111.0000   139.3939  -999.2500   442.8692   -15.1976
 6111.5000   139.3939  -999.2500   499.9304   -15.5196
 6112.0000   139.3939  -999.2500   499.9271   -16.1094
 6112.5000   139.3939  -999.2500   499.9240   -16.1906
 6113.0000   137.8788  -999.2500   499.9210   -16.4134
 6113.5000   137.8788  -999.2500   466.4827   -16.5575
 6114.0000   137.8788  -999.2500   402.6500   -16.8933
 6114.5000   137.7854  -999.2500   378.3310   -17.3252
 6115.0000   136.1116  -999.2500   382.8874   -17.6292
 6115.5000   134.4361  -999.2500   466.4711   -17.6292
 6116.0000   133.3333  -999.2500   500.0000   -17.3252
 6116.5000   131.8182  -999.2500   500.0000   -17.6292
 6117.0000   128.7879  -999.2500   500.0000   -17.5674
 6117.5000   125.7576  -999.2500   500.0000   -17.3252
 6118.0000   125.7576  -999.2500   500.0000   -17.3252
 6118.5000   125.7576  -999.2500   500.0000   -17.0213
 6119.0000   122.7117  -999.2500   500.0000   -16.7173
 6119.5000   121.0344  -999.2500   500.0000   -16.4134
 6120.0000   119.3603  -999.2500   436.9954   -16.1094
 6120.5000   116.1710  -999.2500   281.0299   -15.8055
 6121.0000   113.6364  -999.2500   249.1121   -15.1976
 6121.5000   109.7893  -999.2500   248.0279   -15.1976
 6122.0000   107.5758  -999.2500   294.6990   -15.1976
 6122.5000   103.0303  -999.2500   421.8075   -15.3030
 6123.0000   100.0000  -999.2500   486.1825   -15.5015
 6123.5000    95.4545  -999.2500   480.1006   -15.9740
 6124.0000    92.3245  -999.2500   483.1372   -16.1094
 6124.5000    89.3939  -999.2500   472.7254   -16.4134
 6125.0000    88.9708  -999.2500   362.3100   -16.4134
 6125.5000    85.7818  -999.2500   300.7563   -16.7173
 6126.0000    84.1080  -999.2500   306.8324   -17.3252
 6126.5000    81.8182  -999.2500   331.1456   -17.6835
 6127.0000    78.7879  -999.2500   373.6959   -18.1054
 6127.5000    75.7576  -999.2500   434.4832   -18.6584
 6128.0000    72.7273  -999.2500   431.0172   -19.2981
 6128.5000    68.1569  -999.2500   373.6932   -20.0608
 6129.0000    64.9648  -999.2500   311.3801   -20.3647
 6129.5000    61.7759  -999.2500   234.7210   -20.9726
 6130.0000    59.0909  -999.2500   102.9369   -21.2766
 6130.5000    56.9100  -999.2500    79.5053   -21.8876
 6131.0000    53.7193  -999.2500    72.7594   -22.2234
 6131.5000    48.4848  -999.2500    69.7170   -22.7964
 6132.0000    46.4340  -999.2500    65.1548   -23.1983
 6132.5000    43.4214  -999.2500    60.5926   -23.4043
 6133.0000    41.9751  -999.2500    57.4785   -23.7082
 6133.5000    40.9631  -999.2500    54.2901   -23.7082
 6134.0000    40.0611  -999.2500    49.9452   -24.0122
 6134.5000    39.6111  -999.2500    49.9422   -24.0122
 6135.0000    39.3176  -999.2500    49.9240   -23.7082
 6135.5000    39.3258  -999.2500    49.6024   -23.4043
 6136.0000    39.3333  -999.2500    49.2805   -23.4043
 6136.5000    39.3423  -999.2500    48.8071   -23.4043
 6137.0000    39.5008  -999.2500    48.4853   -23.1003
 6137.5000    39.9624  -999.2500    48.3410   -23.1003
 6138.0000    40.9084  -999.2500    49.0087   -23.2738
 6138.5000    42.1121  -999.2500    49.7656   -23.4043
 6139.0000    43.3890  -999.2500    50.2187   -23.4043
 6139.5000    44.7779  -999.2500    50.2158   -23.4043
 6140.0000    47.1224  -999.2500    58.5016   -23.7082
 6140.5000    48.4931  -999.2500    68.1426   -23.7082
 6141.0000    49.2577  -999.2500    69.6596   -23.7082
 6141.5000    50.0583  -999.2500    69.6565   -23.7082
 6142.0000    50.1358  -999.2500    69.6535   -24.0122
 6142.5000    50.0000  -999.2500    71.4997   -24.0122
 6143.0000    50.0000  -999.2500    74.2071   -24.6201
 6143.5000    50.0000  -999.2500    76.3450   -24.9240
 6144.0000    50.0000  -999.2500    78.7599   -25.2280
 6144.5000    50.0000  -999.2500    78.7563   -25.8359
 6145.0000    51.5152  -999.2500    77.2336   -26.1479
 6145.5000    51.6162  -999.2500    75.7109   -26.4837
 6146.0000    54.5455  -999.2500    72.6685   -27.1230
 6146.5000    54.8485  -999.2500    68.1064   -27.7626
 6147.0000    56.4646  -999.2500    68.1033   -28.4019
 6147.5000    57.5758  -999.2500    68.1003   -29.2074
 6148.0000    56.0606  -999.2500    67.6715   -30.0912
 6148.5000    54.5455  -999.2500    65.4284   -30.6991
 6149.0000    53.7376  -999.2500    62.0122   -31.0030
 6149.5000    51.5152  -999.2500    60.4894   -31.3070
 6150.0000    50.0000  -999.2500    60.4858   -31.6310
 6150.5000    50.0000  -999.2500    60.4829   -31.9149
 6151.0000    51.5152  -999.2500    60.4800   -31.9149
 6151.5000    51.5152  -999.2500    58.9574   -31.9149
 6152.0000    54.5455  -999.2500    60.4742   -31.9149
 6152.5000    54.5455  -999.2500    60.4711   -31.9149
 6153.0000    57.5758  -999.2500    60.4681   -31.6109
 6153.5000    59.2929  -999.2500    60.4650   -31.3070
 6154.0000    60.6061  -999.2500    61.1316   -31.0030
 6154.5000    62.5253  -999.2500    61.9787   -31.0030
 6155.0000    66.6667  -999.2500    61.9752   -31.0030
 6155.5000    70.9091  -999.2500    63.4924   -31.0030
 6156.0000    75.6566  -999.2500    65.0089   -31.0030
 6156.5000    78.7879  -999.2500    66.5257   -31.0030
 6157.0000    75.7576  -999.2500    66.5228   -31.0030
 6157.5000    72.7273  -999.2500    68.0397   -31.0030
 6158.0000    68.1818  -999.2500    68.0365   -31.0030
 6158.5000    66.6667  -999.2500    68.0334   -31.0030
 6159.0000    65.1515  -999.2500    68.0304   -31.3070
 6159.5000    65.1515  -999.2500    68.0274   -31.6241
 6160.0000    65.1515  -999.2500    68.0237   -32.2188
 6160.5000    66.6667  -999.2500    68.0208   -32.6751
 6161.0000    66.6667  -999.2500    68.0179   -33.5426
 6161.5000    68.1818  -999.2500    68.0150   -34.3215
 6162.0000    70.1002  -999.2500    68.0121   -35.2964
 6162.5000    72.7273  -999.2500    68.0091   -36.4742
 6163.0000    73.3333  -999.2500    68.0061   -37.3860
 6163.5000    74.9495  -999.2500    68.0030   -38.6018
 6164.0000    78.0808  -999.2500    68.0000   -39.8176
 6164.5000    84.8485  -999.2500    67.9970   -40.7545
 6165.0000    96.9697  -999.2500    67.9939   -41.7549
 6165.5000   103.0303  -999.2500    67.9904   -43.0335
 6166.0000  -999.2500  -999.2500    67.9875  -999.2500
