~VERSION INFORMATION
 VERS.                2.0:   CWLS LOG ASCII STANDARD - VERSION 2.0
 WRAP.                 NO:   ONE LINE PER DEPTH STEP
~WELL INFORMATION
#MNEM.UNIT      DATA TYPE    INFORMATION
#----------   ------------   ------------------------------
 STRT.F            0.0000:   START DEPTH
 STOP.F         4134.5000:   STOP DEPTH
 STEP.F            0.5000:   STEP LENGTH
 NULL.          -999.2500:   NO VALUE
 COMP. LAWRENCE ALLISON & ASSOCIATES:   COMPANY
 WELL. LAWRENCE NPR 3 "X" #72-10:   WELL
 FLD .            WILDCAT:   FIELD
 LOC .      S10 T38N R78W:   LOCATION
 CNTY.            NATRONA:   COUNTY
 STAT.            WYOMING:   STATE
 CTRY. UNITED STATES OF AMERICA:   COUNTRY
 SRVC.      DRESSER ATLAS:   SERVICE COMPANY
 DATE.        29-JUL-1983:   LOGDATE
 API .     49025109390000:   API NUMBER
~CURVE INFORMATION
#MNEM.UNIT       API CODE    CURVE DESCRIPTION
#----------   ------------   ------------------------------
 DEPT.F                  :   
 CALD.IN     45 280 60 00:   CALIPER FROM DENSITY LOG
 DEN .G/C3   45 350 01 00:   BULK DENSITY
 CORR.G/C3   45 356 01 00:   DENSITY CORRECTION
 TEND.LBS    45 635 01 00:   TENSION FROM DENSITY LOG
 NPHI.DEC    42 890 03 00:   NEUTRON POROSITY SANDSTONE
 GRD .GAPI   45 310 01 00:   GAMMA RAY FROM DENSITY LOG
 SPR .MV     07 010 01 00:   SPONTANEOUS POTENTIAL
 RILD.OHMM   07 120 46 00:   DEEP INDUCTION RESISTIVITY
 RILM.OHMM   07 120 44 00:   INDUCTION LOG MEDIUM RESISTIVITY
 RFOC.OHMM   07 220 04 00:   RESISTIVITY FOCUSED LOG RES.
 TENR.LBS    07 635 01 00:   TENSION FROM RESISTIVITY
 AC  .US/F   60 250 00 00:   ACCOUSTIC
 TENS.LBS    60 635 01 00:   TENSION FROM SONIC
 GRR .GAPI   07 310 01 00:   GAMMA RAY FROM RESISTIVITY
~PARAMETER INFORMATION
#MNEM.UNIT          VALUE    DESCRIPTION
#----------   ------------   ------------------------------
 EKB .F         5182.0000:   Kelly bushing
 EGL .F         5172.0000:   Ground level
 EDF .F            0.0000:   Drilling floor
 TD  .F         4139.0000:   Total depth
 DATE.        29-JUL-1983:   Date logged
 CLNT.            A2DTECH:   Client Code
 SL  . 900' FNL & 900' FEL:   Surface Location
 PD  .                 GL:   Permanent Datum
 EPD .F              5172:   Elevation Permanent Datum
 LMF .                 KB:   Log Measured From
 DMF .                 KB:   Drilling Measured From
 DAPD.F                10:   Feet Above Permanent Datum
 DD  .F              4139:   Depth driller
 DL  .F              4134:   Depth logger
 BLI .F              4132:   Bottom log interval
 CS1 .IN            9.625:   Casing size
 CBD1.      9.625" @ 476':   Casing driller 1
 BS1 .IN            7.875:   Bit size
 BSD1.F              4139:   Depth drilled with bit1
 DFT .               LSND:   Type fluid in hole
 DFD .                6.6:   Density
 DFV .                 41:   Viscosity
 DFPH.                8.5:   pH
 DFL .                 10:   Fluid loss
 MSS .           FLOWLINE:   Source of sample
 RMS .OHMM            .27:   Rm
 MST .F                91:   Rm Meas. temp.
 RMF .OHMM            .19:   Rmf
 MFST.F                87:   Rmf Meas. temp.
 RMC .OHMM            .34:   Rmc
 MCST.F                87:   Rmc Meas. temp.
 MFSS.               MEAS:   Source Rmf.
 MCSS.               CALC:   Source Rmc.
 RMB .OHMM            .19:   Rm. at BHT
 BHT .F               130:   BHT.
 TCS .HRS               3:   Time Circ. stopped
 MRT .F               130:   Maximum recorded temp.
 LUN .               6274:   Logging unit number
 LUL .               GLTF:   Logging unit location
 ENGI.             RAUTIC:   Recorded By
 WITN.             STRONG:   Witnessed by
 ORIG.           5" PRINT:   Origin of data
 UWI .     49025109390000:   Unique Well ID
 DICO. A2D TECHNOLOGIES, INC.:   Digitizing Company
~OTHER INFORMATION
~A    DEPT    CALD        DEN       CORR       TEND       NPHI        GRD        SPR       RILD       RILM       RFOC       TENR         AC       TENS         GRR  
# ...
 1690.5000     8.7290     2.5660     0.0700   -27.1390     0.2740   121.9840   -54.2030     8.8660     8.5460     9.4380   -54.5180  -999.2500  -999.2500   117.8600
 1691.0000     8.7180     2.5560     0.0700   -27.2960     0.2640   123.7570   -53.6830     8.5610     8.2470     9.4190   -54.1530  -999.2500  -999.2500   112.8510
 1691.5000     8.7080     2.5290     0.0550   -27.4520     0.2900   125.0110   -52.4640     8.1330     7.5490     9.4000   -53.7870  -999.2500  -999.2500   110.0700
 1692.0000     8.7030     2.4820     0.0240   -27.6080     0.2990   124.1820   -51.0850     7.7050     6.8510     9.3810   -53.4220  -999.2500  -999.2500   107.6660
 1692.5000     8.6970     2.4350     0.0400   -27.7640     0.3090   121.8990   -49.9330     7.2780     6.1520     9.2430   -53.0570  -999.2500  -999.2500   106.8570
 1693.0000     8.6920     2.4140     0.0900   -27.9210     0.3210   120.6410   -48.2590     6.9180     5.7030     8.8660   -53.5230  -999.2500  -999.2500   107.1230
 1693.5000     8.6900     2.4120     0.1220   -28.0770     0.3450   121.0630   -46.6590     6.7920     5.7430     7.7250   -54.6570  -999.2500  -999.2500   107.3480
 1694.0000     8.6960     2.4380     0.0880   -28.2330     0.3000   121.8830   -45.0690     6.8060     5.8520     6.3340   -55.7900  -999.2500  -999.2500   107.6590
 1694.5000     8.7020     2.4700     0.0600   -28.3890     0.2990   120.6650   -45.2920     6.8460     5.9610     5.5990   -56.9240  -999.2500  -999.2500   111.1230
 1695.0000     8.7070     2.4970     0.0400   -28.5460     0.2950   119.4650   -46.4260     6.9180     6.1400     6.2540   -58.0580  -999.2500  -999.2500   113.8430
 1695.5000     8.7130     2.5140     0.0230   -28.7020     0.2930   120.3630   -47.6830     7.0610     6.4270     7.1060   -59.1910  -999.2500  -999.2500   114.2130
 1696.0000     8.7190     2.5300     0.0130   -28.8580     0.2890   124.2340   -48.9670     7.2560     6.7140     7.9580   -60.3250  -999.2500  -999.2500   112.1220
 1696.5000     8.7250     2.5450     0.0020   -29.0140     0.2800   127.4190   -50.2430     7.4450     7.0000     8.7850   -61.4590  -999.2500  -999.2500   108.2220
 1697.0000     8.7300     2.5390     0.0010   -29.1710     0.2740   125.3590   -51.3340     7.5840     7.2870     9.0560   -62.5930  -999.2500  -999.2500   104.4810
 1697.5000     8.7360     2.5330     0.0060   -29.3270     0.2680   122.8670   -52.1100     7.8610     7.5740     9.1140   -63.7260  -999.2500  -999.2500   102.9310
 1698.0000     8.7420     2.5290     0.0110   -29.4830     0.2630   122.5220   -52.8950     8.1260     8.0140     8.8450   -64.8600  -999.2500  -999.2500   102.5150
 1698.5000     8.7470     2.5330     0.0160   -29.6390     0.2660   121.2720   -53.6930     8.2380     8.0060     8.6260   -65.9940  -999.2500  -999.2500   104.4040
 1699.0000     8.7410     2.5350     0.0220   -29.7960     0.2710   119.9920   -54.3070     8.3140     7.9900     8.4680   -67.1280  -999.2500  -999.2500   106.3170
 1699.5000     8.7330     2.5350     0.0240   -29.9520     0.2720   119.3170   -54.9880     8.1920     7.9740     8.6830   -68.2610  -999.2500  -999.2500   108.1890
 1700.0000     8.7250     2.5330     0.0250   -30.1080     0.2720   120.7990   -55.2510     8.0880     7.9580     8.9480   -69.3950  -999.2500  -999.2500   107.6050
 1700.5000     8.7170     2.5260     0.0260   -30.2640     0.2770   122.5620   -55.3360     7.9400     7.9400     8.9100   -70.5290  -999.2500  -999.2500   106.6500
 1701.0000     8.7090     2.5130     0.0260   -30.4210     0.2850   124.3310   -55.0800     7.8680     7.7740     8.8660   -71.6630  -999.2500  -999.2500   107.0570
 1701.5000     8.7020     2.4960     0.0700   -30.5770     0.2930   126.0810   -54.7650     7.7690     7.5920     9.1980   -72.8540  -999.2500  -999.2500   106.1340
 1702.0000     8.6940     2.4820     0.1260   -30.7330     0.3010   127.2740   -54.5210     7.7240     7.4100     8.3540   -72.5780  -999.2500  -999.2500   104.6710
 1702.5000     8.6880     2.4860     0.0830   -30.8890     0.3090   125.0920   -54.2810     7.5840     7.2280     7.7960   -72.2860  -999.2500  -999.2500   103.1340
 1703.0000     8.6880     2.5030     0.0350   -31.0460     0.3090   122.7550   -54.0410     7.5140     7.0460     7.7240   -71.9950  -999.2500  -999.2500   103.6930
 1703.5000     8.6880     2.5200     0.0180   -31.2020     0.2990   126.2280   -54.0340     7.4520     7.0460     7.8300   -71.7040  -999.2500  -999.2500   106.9800
 1704.0000     8.6880     2.5340     0.0260   -31.3580     0.2960   131.0840   -54.1880     7.3480     7.0460     8.0060   -71.4120  -999.2500  -999.2500   110.2670
 1704.5000     8.6880     2.5390     0.0290   -31.5140     0.2950   135.8340   -54.3450     7.3100     7.0460     8.1830   -71.1210  -999.2500  -999.2500   109.0510
 1705.0000     8.6880     2.5400     0.0180   -31.6710     0.2930   137.0860   -54.5020     7.3100     7.0460     8.3140   -70.8300  -999.2500  -999.2500   107.6370
 1705.5000     8.6880     2.5430     0.0220   -31.8270     0.2840   134.5790   -54.6600     7.3100     7.0460     8.2590   -70.5380  -999.2500  -999.2500   106.4440
 1706.0000     8.6880     2.5490     0.0350   -31.9830     0.2780   132.0760   -54.8160     7.3100     7.0460     8.2080   -70.2470  -999.2500  -999.2500   109.3530
 1706.5000     8.6880     2.5510     0.0220   -32.1390     0.2760   129.2650   -54.9370     7.3620     7.1240     8.1620   -69.9550  -999.2500  -999.2500   111.8330
 1707.0000     8.6880     2.5510     0.0060   -32.2950     0.2720   125.2760   -54.9340     7.4660     7.2810     8.1620   -69.6640  -999.2500  -999.2500   110.8860
 1707.5000     8.6880     2.5520     0.0070   -32.4520     0.2670   120.5790   -54.9310     7.5840     7.4380     8.4150   -69.3730  -999.2500  -999.2500   111.0710
 1708.0000     8.6880     2.5580     0.0160   -32.6080     0.2610   116.4920   -54.8620     7.7240     7.5940     8.6590   -69.0810  -999.2500  -999.2500   113.6670
 1708.5000     8.6880     2.5670     0.0340   -32.7170     0.2560   113.6220   -54.7940     7.8270     7.7510     8.9030   -68.7900  -999.2500  -999.2500   111.0700
 1709.0000     8.6880     2.5770     0.0600   -32.7170     0.2500   116.5230   -54.7350     8.0120     7.9400     9.1470   -68.4990  -999.2500  -999.2500   107.7460
 1709.5000     8.6880     2.5800     0.0750   -32.7170     0.2440   123.9130   -54.7350     8.0880     7.8400     9.1980   -68.2070  -999.2500  -999.2500   108.2960
 1710.0000     8.6880     2.5790     0.0790   -32.7170     0.2500   131.0260   -54.6830     8.1620     7.6720     8.9690   -67.9160  -999.2500  -999.2500   113.8180
 1710.5000     8.6880     2.5750     0.0820   -32.7170     0.2600   137.2780   -54.5740     8.0140     7.5040     8.5930   -68.0790  -999.2500  -999.2500   119.3700
 1711.0000     8.6900     2.5680     0.0840   -32.7170     0.2700   133.9190   -54.3690     7.8990     7.3370     8.2160   -68.3410  -999.2500  -999.2500   120.5640
 1711.5000     8.6920     2.5590     0.0710   -32.7170     0.2770   130.4770   -54.1630     7.7960     7.1690     8.0070   -68.6020  -999.2500  -999.2500   118.5190
 1712.0000     8.6940     2.5560     0.0620   -32.7170     0.2840   127.3690   -53.9700     7.5840     7.0010     7.8850   -68.8630  -999.2500  -999.2500   115.0050
 1712.5000     8.6960     2.5550     0.0570   -32.7170     0.2890   124.8430   -53.8360     7.4110     6.9320     7.7620   -69.1250  -999.2500  -999.2500   111.4480
 1713.0000     8.6980     2.5540     0.0530   -32.7170     0.2970   123.7910   -53.5870     7.3770     6.8610     7.6510   -69.3860  -999.2500  -999.2500   110.4660
 1713.5000     8.7000     2.5510     0.0460   -32.7170     0.3050   122.7870   -53.3400     7.3770     6.7900     7.6300   -69.6470  -999.2500  -999.2500   112.2480
 1714.0000     8.7020     2.5420     0.0330   -32.7170     0.3120   121.3920   -53.1620     7.3770     6.7290     7.6090   -69.9090  -999.2500  -999.2500   114.1060
 1714.5000     8.7040     2.5280     0.0200   -32.7170     0.3200   118.5300   -52.6890     7.2430     6.7290     7.5880   -70.1700  -999.2500  -999.2500   114.9520
