~VERSION INFORMATION
 VERS.                2.0:   CWLS LOG ASCII STANDARD - VERSION 2.0
 WRAP.                 NO:   ONE LINE PER DEPTH STEP
~WELL INFORMATION
#MNEM.UNIT      DATA TYPE    INFORMATION
#----------   ------------   ------------------------------
 STRT.F          590.0000:   START DEPTH
 STOP.F         3428.0000:   STOP DEPTH
 STEP.F            0.5000:   STEP LENGTH
 NULL.          -999.2500:   NO VALUE
 COMP.    FENIX & SCISSON:   COMPANY
 WELL. FENIX NPR 3 "AX" #25-27:   WELL
 FLD .                NPR:   FIELD
 LOC .      S27 T39N R78W:   LOCATION
 CNTY.            NATRONA:   COUNTY
 STAT.            WYOMING:   STATE
 CTRY. UNITED STATES OF AMERICA:   COUNTRY
 SRVC.       SCHLUMBERGER:   SERVICE COMPANY
 DATE.        13-AUG-1981:   LOGDATE
 API .     49025108780000:   API NUMBER
~CURVE INFORMATION
#MNEM.UNIT       API CODE    CURVE DESCRIPTION
#----------   ------------   ------------------------------
 DEPT.F                  :   
 CALD.IN     45 280 60 00:   CALIPER FROM DENSITY LOG
 GRD .GAPI   45 310 01 00:   GAMMA RAY FROM DENSITY LOG
 CORR.G/C3   45 356 01 00:   DENSITY CORRECTION
 RHOB.G/C3   45 350 01 00:   BULK DENSITY
 NPHI.DEC    42 890 03 00:   NEUTRON POROSITY SANDSTONE
 TENR.LBS    07 635 01 00:   TENSION
 SPR .MV     07 010 01 00:   SPONTANEOUS POTENTIAL
 ILD .OHMM   07 120 46 00:   INDUCTION LOG DEEP RESISTIVITY
 ILM .OHMM   07 120 44 00:   INDUCTION LOG MEDIUM RESISTIVITY
 SFL .OHMM   07 220 01 00:   SHALLOW FOCUSED LOG RESISTIVITY
 TEND.LBS    45 635 01 00:   TENSION FROM DENSITY LOG
~PARAMETER INFORMATION
#MNEM.UNIT          VALUE    DESCRIPTION
#----------   ------------   ------------------------------
 EKB .F         5057.0000:   Kelly bushing
 EGL .F         5047.0000:   Ground level
 EDF .F            0.0000:   Drilling floor
 TD  .F         3415.0000:   Total depth
 DATE.        13-AUG-1981:   Date logged
 CLNT.            A2DTECH:   Client Code
 SL  . 2100' FSL & 1050' FWL:   Surface Location
 PD  .                 GL:   Permanent Datum
 EPD .F              5047:   Elevation Permanent Datum
 LMF .                 KB:   Log Measured From
 DMF .                 KB:   Drilling Measured From
 DAPD.F                10:   Feet Above Permanent Datum
 DD  .F              3400:   Depth driller
 DL  .F              3415:   Depth logger
 BLI .F              3409:   Bottom log interval
 TLI .F               603:   Top log interval
 CS1 .IN            9.625:   Casing size
 CBD1.      9.625" @ 607':   Casing driller 1
 CBL1.F               603:   Casing logger 1
 BS1 .IN            7.875:   Bit size
 BSD1.F              3400:   Depth drilled with bit1
 DFT .                FGM:   Type fluid in hole
 DFD .                8.7:   Density
 DFV .                 36:   Viscosity
 DFPH.                  9:   pH
 DFL .                 13:   Fluid loss
 MSS .           MUD/TANK:   Source of sample
 RMS .OHMM           1.69:   Rm
 MST .F                75:   Rm Meas. temp.
 RMF .OHMM           1.34:   Rmf
 MFST.F                75:   Rmf Meas. temp.
 MFSS.               MEAS:   Source Rmf.
 RMB .OHMM           1.09:   Rm. at BHT
 BHT .F               120:   BHT.
 TCS .HRS            2145:   Time Circ. stopped
 TLAB.HRS            0200:   Time logger at bottom
 MRT .F               120:   Maximum recorded temp.
 LUN .               8039:   Logging unit number
 LUL .               CSPR:   Logging unit location
 ENGI.            PURPICH:   Recorded By
 WITN.              FIVAS:   Witnessed by
 ORIG.           5" PRINT:   Origin of data
 UWI .     49025108780000:   Unique Well ID
 DICO. A2D TECHNOLOGIES, INC.:   Digitizing Company
~OTHER INFORMATION
~A   DEPT     CALD         GRD      CORR       RHOB         NPHI     TENR        SPR        ILD        ILM        SFL       TEND   
# ...
 1505.0000     8.9510   110.4790     0.0230     2.5480     0.3170   738.3550   -82.7960     6.8000     5.9590     8.2510   785.5170
 1505.5000     8.9520   110.1610     0.0260     2.5490     0.3240   738.3550   -82.7180     6.8280     5.9840     7.9480   785.6670
 1506.0000     8.9530   109.7850     0.0310     2.5510     0.3320   738.3550   -82.6410     6.8560     6.0090     7.7230   785.8170
 1506.5000     8.9550   110.1230     0.0340     2.5520     0.3430   738.3550   -82.6360     6.8850     6.0340     7.5310   785.9660
 1507.0000     8.9580   109.4320     0.0270     2.5460     0.3370   738.3550   -82.7040     6.9130     6.0590     7.6680   786.1160
 1507.5000     8.9600   108.5600     0.0240     2.5370     0.3290   738.3550   -82.7880     7.0010     6.0840     7.8490   786.2650
 1508.0000     8.9620   107.6800     0.0240     2.5420     0.3210   738.3550   -82.9670     6.9700     6.1610     8.0310   786.4150
 1508.5000     8.9650   106.7830     0.0340     2.5480     0.3120   738.3550   -83.3020     6.9310     6.1320     8.2120   786.5650
 1509.0000     8.9670   105.9140     0.0400     2.5520     0.3050   738.3550   -83.6290     6.8910     6.0950     8.3040   786.7140
 1509.5000     8.9690   104.7120     0.0390     2.5530     0.2940   738.3550   -83.8680     6.8740     6.0580     8.0730   786.8640
 1510.0000     8.9720   102.9910     0.0410     2.5570     0.2880   738.3550   -84.1020     6.8740     6.0490     7.8110   787.0140
 1510.5000     8.9740   104.5240     0.0440     2.5600     0.2850   738.3550   -84.3410     6.8740     6.0490     7.8760   787.1630
 1511.0000     8.9770   106.5040     0.0570     2.5700     0.2950   738.3550   -84.3090     6.8430     6.0490     7.9880   787.3130
 1511.5000     8.9790   108.5660     0.0710     2.5890     0.3040   738.3550   -84.1310     6.7910     5.9690     8.1010   787.4630
 1512.0000     8.9810   107.6190     0.0850     2.5970     0.3160   738.3550   -84.0650     6.7390     5.8670     8.1760   787.6120
 1512.5000     8.9840   105.7800     0.0880     2.5900     0.3200   738.3550   -84.1470     6.6860     5.7650     7.9140   787.7620
 1513.0000     8.9860   102.5780     0.0770     2.5700     0.3190   738.3550   -84.2340     6.6340     5.6630     7.5860   787.9120
 1513.5000     8.9880   101.4030     0.0670     2.5610     0.3180   738.3550   -84.4870     6.5820     5.6160     7.2580   788.0610
 1514.0000     8.9910   100.7500     0.0830     2.5640     0.3170   738.3550   -84.7480     6.5290     5.6030     7.1300   788.2110
 1514.5000     9.0090   101.3890     0.1010     2.5660     0.3220   738.3550   -84.8250     6.4770     5.5910     7.2260   788.3600
 1515.0000     9.0690   102.6150     0.1020     2.5550     0.3350   738.3900   -84.5200     6.4250     5.5780     7.3060   788.5100
 1515.5000     9.1290   103.9300     0.0890     2.5440     0.3440   738.5520   -84.0790     6.3720     5.5660     7.3850   788.6600
 1516.0000     9.1190   104.5430     0.0780     2.5380     0.3540   738.7130   -83.7560     6.3200     5.5530     7.4620   788.8090
 1516.5000     9.0930   104.4260     0.0880     2.5570     0.3450   738.8750   -83.4480     6.2680     5.5410     7.3310   788.9590
 1517.0000     9.0980   104.3110     0.1020     2.5760     0.3340   739.0360   -83.1800     6.2170     5.5290     7.1300   789.1090
 1517.5000     9.1220   104.1990     0.1140     2.5790     0.3380   739.1980   -82.9980     6.1720     5.5220     6.9370   789.2580
 1518.0000     9.1390   104.6620     0.1060     2.5570     0.3430   739.3590   -82.8210     6.1280     5.5610     7.0410   789.4080
 1518.5000     9.0930   105.2340     0.0900     2.5320     0.3440   739.5210   -82.6780     6.0840     5.5930     7.1950   789.5580
 1519.0000     9.0520   104.7640     0.0910     2.5110     0.3410   739.6820   -82.5360     6.0410     5.6230     7.2650   789.7070
 1519.5000     9.1220   103.8660     0.0920     2.5050     0.3380   739.8440   -82.4170     5.9970     5.4280     7.3270   789.8570
 1520.0000     9.2060   102.3930     0.1050     2.5220     0.3240   740.0060   -82.3470     5.9530     5.2430     7.1110   790.0070
 1520.5000     9.2010   101.3920     0.1290     2.5440     0.3180   740.1670   -82.2750     5.9090     5.1800     6.8740   790.1560
 1521.0000     9.1410   101.9460     0.1750     2.5640     0.3200   740.3290   -82.4100     5.7650     5.1800     6.7390   790.3060
 1521.5000     9.1470   102.4620     0.1990     2.5650     0.3570   740.4900   -82.7080     5.5060     5.0380     6.4680   790.4550
 1522.0000     9.2210   102.7570     0.2130     2.5230     0.3970   740.6520   -82.9580     5.3720     4.7350     6.2170   790.6050
 1522.5000     9.2890   102.2220     0.1760     2.4880     0.4330   740.8130   -83.1710     5.2750     4.5170     5.7610   790.7550
 1523.0000     9.2700   101.7090     0.1600     2.4750     0.4210   740.9750   -83.3820     5.2270     4.6790     5.3720   790.9040
 1523.5000     9.2390   101.4950     0.1560     2.4940     0.3970   741.1360   -83.6660     5.3170     4.8060     5.3720   791.0540
 1524.0000     9.1690   102.0000     0.1650     2.5180     0.3700   741.2980   -83.9570     5.5020     4.9330     5.8210   791.2040
 1524.5000     9.0940   101.9740     0.1710     2.5410     0.3650   741.4590   -84.4210     5.6870     5.0600     6.2330   791.3530
 1525.0000     9.0180   100.0510     0.1620     2.5420     0.3590   741.6210   -84.7860     5.8720     5.1870     6.6450   791.5030
 1525.5000     8.9760    97.8710     0.1490     2.5430     0.3490   741.7820   -85.1590     6.0570     5.3140     7.2610   791.6530
 1526.0000     9.0020    97.5430     0.1490     2.5500     0.3380   741.9440   -84.9960     6.2420     5.4410     7.2250   791.8020
 1526.5000     9.0250   100.5370     0.1680     2.5570     0.3280   742.1050   -84.7310     6.4270     5.5680     7.1540   791.9520
 1527.0000     9.0810   103.6970     0.1920     2.5700     0.3190   742.2670   -84.2080     6.6270     5.6950     7.0840   792.1020
 1527.5000     9.1450   103.1620     0.2060     2.5640     0.3240   742.4290   -83.5450     6.6270     5.8320     7.0130   792.2510
 1528.0000     9.2100   101.3710     0.1900     2.5400     0.3320   742.5900   -83.3220     6.6360     5.8320     6.9370   792.4010
 1528.5000     9.0660   101.2250     0.1450     2.5140     0.3400   742.7520   -83.1880     6.7020     5.8400     7.1760   792.5510
 1529.0000     9.0590   101.9050     0.1220     2.5010     0.3320   742.9130   -83.0570     6.7690     5.9000     7.4340   792.7000
 1529.5000     9.0670   103.4660     0.1150     2.5030     0.3360   743.0750   -82.9790     6.8350     5.9610     7.6920   792.8500
 1530.0000     9.0150   102.7480     0.1040     2.5020     0.3440   743.2360   -82.9130     6.9020     6.0210     7.8110   792.9990
 1530.5000     9.0320   101.4000     0.0880     2.5030     0.3520   743.3980   -82.8460     6.9680     6.0820     7.7960   793.1490
 1531.0000     9.0380   100.2410     0.0760     2.5100     0.3550   743.5590   -82.7590     7.0350     6.1420     7.7840   793.2990
 1531.5000     8.9310   100.4820     0.0670     2.5240     0.3390   743.7210   -82.6610     7.0810     6.2020     7.7710   793.4480
 1532.0000     8.8210   102.2780     0.0530     2.5330     0.3270   743.8820   -82.8350     7.1110     6.2370     7.7580   793.5980
 1532.5000     8.7940   104.5440     0.0380     2.5410     0.3190   744.0440   -83.1190     7.1410     6.2630     7.7400   793.7480
 1533.0000     8.7960   105.6670     0.0280     2.5550     0.3140   744.2050   -83.4010     7.1710     6.2900     7.8280   793.8970
 1533.5000     8.7980   103.5860     0.0380     2.5760     0.3090   744.3670   -83.4330     7.2010     6.3160     8.0690   794.0470
 1534.0000     8.8000   101.6040     0.0450     2.5880     0.3040   744.5280   -83.4330     7.2300     6.3420     8.3100   794.1970
 1534.5000     8.8020    99.6450     0.0430     2.5730     0.3040   744.6900   -83.4320     7.2610     6.3680     8.5580   794.3460
 1535.0000     8.8040    98.8910     0.0390     2.5580     0.3110   744.8520   -83.3500     7.2570     6.3900     8.3940   794.4960
