~VERSION INFORMATION
 VERS.                2.0:   CWLS LOG ASCII STANDARD - VERSION 2.0
 WRAP.                 NO:   ONE LINE PER DEPTH STEP
~WELL INFORMATION
#MNEM.UNIT      DATA TYPE    INFORMATION
#----------   ------------   ------------------------------
 STRT.F           34.0000:   START DEPTH
 STOP.F         2909.0000:   STOP DEPTH
 STEP.F            0.5000:   STEP LENGTH
 NULL.          -999.2500:   NO VALUE
 COMP.   TESORO PETROLEUM:   COMPANY
 WELL. TESORO NPR "A" #3-28:   WELL
 FLD .             TEAPOT:   FIELD
 LOC .      S28 T39N R78W:   LOCATION
 CNTY.            NATRONA:   COUNTY
 STAT.            WYOMING:   STATE
 CTRY. UNITED STATES OF AMERICA:   COUNTRY
 SRVC.              WELEX:   SERVICE COMPANY
 DATE.        22-JUL-1968:   LOGDATE
 API .     49025102620000:   API NUMBER
~CURVE INFORMATION
#MNEM.UNIT       API CODE    CURVE DESCRIPTION
#----------   ------------   ------------------------------
 DEPT.F                  :   
 GRD .GAPI   45 310 01 00:   GAMMA RAY FROM DENSITY LOG
 SPR .MV     05 010 01 00:   SPONTANEOUS POTENTIAL FROM RES.
 ASN .OHMM   05 041 16 00:   AMPLIFIED SHORT NORMAL 16"
 ILD .OHMM   05 120 46 00:   INDUCTION LOG DEEP
~PARAMETER INFORMATION
#MNEM.UNIT          VALUE    DESCRIPTION
#----------   ------------   ------------------------------
 EKB .F         5050.0000:   Kelly bushing
 EGL .F         5039.0000:   Ground level
 EDF .F            0.0000:   Drilling floor
 EPD .F         5039.0000:   Permanent datum
 TD  .F         2906.0000:   Total depth
 CLNT.            A2DTECH:   Client Code
 DATE.       22-JULY-1968:   Date Logged [DD-MMM-YYYY]
 DD  .F              2906:   Depth driller
 DL  .F              2906:   Depth logger
 BLI .F              2901:   Bottom log interval
 TLI .F               356:   Top log interval
 CS1 .              10.75:   Casing size
 CBD1.      10.75" @ 356':   Casing driller 1
 CBL1.IN              356:   Casing logger 1
 BS1 .IN                9:   Bit size
 DFT .     WATER BASE MUD:   Type fluid in hole
 DFD .                9.6:   Density
 DFV .                 60:   Viscosity
 DFPH.                9.0:   pH
 DFL .                  6:   Fluid loss
 MSS .               CTRC:   Source of sample
 RMS .OHMM            2.1:   Rm
 MST .F                74:   Rm Meas. temp.
 RMF .OHMM            1.6:   Rmf
 MFST.F                71:   Rmf Meas. temp.
 MFSS.               MEAS:   Source Rmf.
 RMC .OHMM            3.0:   Rmc
 MCST.F                66:   Rmc Meas. temp.
 RMB .OHMM            1.3:   Rm. at BHT
 BHT .F               120:   BHT.
 MRT .F               120:   Maximum recorded temp.
 LUN .               6869:   Logging unit number
 ORIG.         2.5" PRINT:   Origin of data
 UWI .     49025102620000:   Unique Well ID
 DICO. A2D TECHNOLOGIES, INC.:   Digitizing Company
 LUL .          NEWCASTLE:   Logging unit location
~OTHER INFORMATION
~A   DEPT      GRD        SPR         ASN         ILD 
# ...
 1129.0000  -999.2500   -31.1825    11.0676    11.4524
 1129.5000  -999.2500   -31.1887    11.2182    11.4494
 1130.0000  -999.2500   -31.1950    11.3686    11.6036
 1130.5000  -999.2500   -31.2012    11.4034    11.6005
 1131.0000  -999.2500   -31.2075    11.5645    11.7547
 1131.5000  -999.2500   -31.2138    11.6626    11.7516
 1132.0000  -999.2500   -31.2201    11.7295    11.7714
 1132.5000  -999.2500   -31.2264    11.8042    11.9028
 1133.0000  -999.2500   -31.2327    11.9544    12.0570
 1133.5000  -999.2500   -31.5534    11.9463    12.1095
 1134.0000  -999.2500   -31.5608    11.9394    12.2076
 1134.5000  -999.2500   -31.5669    11.9326    12.2044
 1135.0000  -999.2500   -31.2578    11.9258    12.2903
 1135.5000  -999.2500   -31.2646    11.9189    12.3553
 1136.0000  -999.2500   -31.2707    11.9057    12.3518
 1136.5000  -999.2500   -31.2768    11.7476    12.3487
 1137.0000  -999.2500   -30.9684    11.7406    12.1884
 1137.5000  -999.2500   -30.9749    11.5763    12.1854
 1138.0000  -999.2500   -30.9811    11.5692    12.1824
 1138.5000  -999.2500   -30.9874    11.5621    12.1792
 1139.0000  -999.2500   -30.9937    11.5550    12.1562
 1139.5000  -999.2500   -31.1252    11.5480    12.0157
 1140.0000  -999.2500   -31.3207    11.5395    12.0126
 1140.5000  -999.2500   -31.3271    11.5327    11.8522
 1141.0000  -999.2500   -31.6490    11.5258    11.8491
 1141.5000  -999.2500   -31.3396    11.6762    11.8459
 1142.0000  -999.2500   -31.0322    11.6694    11.8428
 1142.5000  -999.2500   -31.0383    11.8200    11.8390
 1143.0000  -999.2500   -31.0444    11.9702    11.8360
 1143.5000  -999.2500   -31.0505    11.9772    11.6757
 1144.0000  -999.2500   -31.0608    12.1138    11.6727
 1144.5000  -999.2500   -31.3774    12.1061    11.6697
 1145.0000  -999.2500   -31.7453    12.0991    11.6666
 1145.5000  -999.2500   -32.0189    12.0919    11.6635
 1146.0000  -999.2500   -32.0252    12.0849    11.5031
 1146.5000  -999.2500   -31.6054    12.0779    11.5000
 1147.0000  -999.2500   -31.2756    12.0707    11.4968
 1147.5000  -999.2500   -31.1006    11.9052    11.4937
 1148.0000  -999.2500   -31.1069    11.7412    11.4906
 1148.5000  -999.2500   -31.1143    11.7343    11.4874
 1149.0000  -999.2500   -31.1204    11.5703    11.4843
 1149.5000  -999.2500   -31.1265    11.4062    11.4805
 1150.0000  -999.2500   -31.1326    11.3994    11.4775
 1150.5000  -999.2500   -31.1387    11.3925    11.6321
 1151.0000  -999.2500   -31.1447    11.7217    11.6286
 1151.5000  -999.2500   -31.1509    12.0078    11.7828
 1152.0000  -999.2500   -31.4717    12.1582    11.7798
 1152.5000  -999.2500   -31.8475    12.3086    11.9340
 1153.0000  -999.2500   -32.1132    12.3003    11.9308
 1153.5000  -999.2500   -32.1195    12.2932    11.9030
 1154.0000  -999.2500   -32.0063    12.2862    11.7673
 1154.5000  -999.2500   -31.5031    12.2778    11.7642
 1155.0000  -999.2500   -31.1950    12.2710    11.6038
 1155.5000  -999.2500   -31.0174    12.1069    11.5319
 1156.0000  -999.2500   -30.8931    11.7856    11.3606
 1156.5000  -999.2500   -30.9002    10.9926    11.0320
 1157.0000  -999.2500   -30.9063    10.3568    10.8045
 1157.5000  -999.2500   -30.9124    10.0353    10.4870
 1158.0000  -999.2500   -30.9185    10.0283    10.4840
 1158.5000  -999.2500   -31.2390    10.0213    10.3237
 1159.0000  -999.2500   -31.8742    10.0141    10.3206
 1159.5000  -999.2500   -32.1950    10.1654    10.3176
 1160.0000  -999.2500   -32.2012    10.2201    10.3145
 1160.5000  -999.2500   -31.8086    10.3813    10.4688
 1161.0000  -999.2500   -31.2694    10.4576    10.6552
 1161.5000  -999.2500   -30.9610    10.6077    10.8203
 1162.0000  -999.2500   -30.9686    10.5995    10.9313
 1162.5000  -999.2500   -31.1452    10.7508    11.0849
 1163.0000  -999.2500   -31.9257    10.9009    11.3155
 1163.5000  -999.2500   -31.9318    11.0511    11.3931
 1164.0000  -999.2500   -31.3089    11.2012    11.5472
 1164.5000  -999.2500   -31.0000    11.3515    11.5436
 1165.0000  -999.2500   -30.6922    11.5019    11.6978
 1165.5000  -999.2500   -30.6983    11.5212    11.6947
 1166.0000  -999.2500   -30.3899    11.6824    11.8490
 1166.5000  -999.2500   -31.0252    11.7959    12.0031
 1167.0000  -999.2500   -31.0315    11.7877    11.8427
 1167.5000  -999.2500   -31.0378    11.7807    11.8213
 1168.0000  -999.2500   -31.0440    11.7736    11.6792
 1168.5000  -999.2500   -30.9366    11.6079    11.6358
 1169.0000  -999.2500   -30.7421    11.6010    11.5157
 1169.5000  -999.2500   -31.0629    11.5942    11.5126
 1170.0000  -999.2500   -31.0692    11.4301    11.4360
 1170.5000  -999.2500   -31.0766    11.4233    11.3491
 1171.0000  -999.2500   -31.3971    11.2592    11.1881
 1171.5000  -999.2500   -31.0887    11.0952    11.0278
 1172.0000  -999.2500   -31.0948    11.0880    11.0248
 1172.5000  -999.2500   -31.1009    11.0810    10.8645
 1173.0000  -999.2500   -31.1070    10.9167    10.8615
 1173.5000  -999.2500   -31.1132    10.7523    10.7012
 1174.0000  -999.2500   -31.1195    10.5314    10.6939
 1174.5000  -999.2500   -31.1258    10.3561    10.5226
 1175.0000  -999.2500   -31.1321    10.1808    10.3773
 1175.5000  -999.2500   -31.1384    10.0952    10.2169
 1176.0000  -999.2500   -31.1447    10.0868    10.2138
 1176.5000  -999.2500   -31.1510    10.2372    10.2107
 1177.0000  -999.2500   -31.1572    10.2304    10.2075
 1177.5000  -999.2500   -31.1648    10.2235    10.2044
 1178.0000  -999.2500   -31.1708    10.3742    10.2006
 1178.5000  -999.2500   -31.1769    10.3671    10.1976
 1179.0000  -999.2500   -31.1830    10.3506    10.1946
 1179.5000  -999.2500   -31.1891    10.1753    10.1915
 1180.0000  -999.2500   -31.1952    10.0000    10.1885
 1180.5000  -999.2500   -31.2026    10.0253    10.1854
 1181.0000  -999.2500   -31.8584    10.1757    10.1824
 1181.5000  -999.2500   -32.4717     9.7885    10.1793
 1182.0000  -999.2500   -32.4780     9.0277    10.0189
 1182.5000  -999.2500   -32.3977     8.9861     9.8585
 1183.0000  -999.2500   -32.0681     8.9825     9.6981
 1183.5000  -999.2500   -31.8667     8.8791     9.5378
 1184.0000  -999.2500   -31.5597     8.7111     9.5346
 1184.5000  -999.2500   -31.5660     8.6155     9.3743
 1185.0000  -999.2500   -31.2579     8.6407     9.3711
 1185.5000  -999.2500   -31.2651     8.7053     9.3674
 1186.0000  -999.2500   -30.9567     8.7528     9.2071
 1186.5000  -999.2500   -30.9628     8.7305     9.2041
 1187.0000  -999.2500   -31.2834     8.6108     9.2010
 1187.5000  -999.2500   -31.6039     8.5784     9.1980
 1188.0000  -999.2500   -32.2390     8.6906     9.1949
 1188.5000  -999.2500   -32.2453     8.5895     9.0346
 1189.0000  -999.2500   -32.2003     8.4568     9.0314
 1189.5000  -999.2500   -31.5560     8.3557     9.0592
 1190.0000  -999.2500   -31.3198     8.3488     9.1828
 1190.5000  -999.2500   -31.3270     8.4050     9.1793
 1191.0000  -999.2500   -31.3333     8.4968     9.2400
 1191.5000  -999.2500   -31.1808     8.6289     9.3302
 1192.0000  -999.2500   -31.0314     8.9057     9.4843
 1192.5000  -999.2500   -31.0388     9.0671     9.4805
 1193.0000  -999.2500   -31.0449     9.3747     9.6352
 1193.5000  -999.2500   -30.7365     9.5259     9.7893
 1194.0000  -999.2500   -30.7426     9.5183     9.7859
 1194.5000  -999.2500   -30.7487     9.6691     9.7829
 1195.0000  -999.2500   -30.7548     9.8192     9.9372
 1195.5000  -999.2500   -30.7610    10.0629     9.9339
 1196.0000  -999.2500   -30.7673    10.0629    10.0882
 1196.5000  -999.2500   -30.7736    10.2201    10.0849
 1197.0000  -999.2500   -30.7799    10.2201    10.0817
 1197.5000  -999.2500   -30.7862    10.0629    10.0786
 1198.0000  -999.2500   -30.9162     9.8888    10.0755
 1198.5000  -999.2500   -31.1132     9.7227    10.0723
 1199.0000  -999.2500   -31.1195     9.4340     9.9864
 1199.5000  -999.2500   -31.1270     9.4340     9.9082
 1200.0000  -999.2500   -31.1331     9.4846     9.7479
 1200.5000  -999.2500   -31.0772     9.7965     9.5877
 1201.0000  -999.2500   -31.0105     9.9357     9.4274
 1201.5000  -999.2500   -30.9438     9.9420     9.4243
