~VERSION INFORMATION
 VERS.                2.0:   CWLS LOG ASCII STANDARD - VERSION 2.0
 WRAP.                 NO:   ONE LINE PER DEPTH STEP
~WELL INFORMATION
#MNEM.UNIT      DATA TYPE    INFORMATION
#----------   ------------   ------------------------------
 STRT.F            0.0000:   START DEPTH
 STOP.F         4000.0000:   STOP DEPTH
 STEP.F            0.5000:   STEP LENGTH
 NULL.          -999.2500:   NO VALUE
 COMP. LAWRENCE &  ALLISON ASSOC.:   COMPANY
 WELL. LAWRENCE NPR 3 "TX" #14-28:   WELL
 FLD .              N P R:   FIELD
 LOC .      S28 T39N R78W:   LOCATION
 CNTY.            NATRONA:   COUNTY
 STAT.            WYOMING:   STATE
 CTRY. UNITED STATES OF AMERICA:   COUNTRY
 SRVC.      DRESSER ATLAS:   SERVICE COMPANY
 DATE.        11-APR-1984:   LOGDATE
 API .     49025109710000:   API NUMBER
~CURVE INFORMATION
#MNEM.UNIT       API CODE    CURVE DESCRIPTION
#----------   ------------   ------------------------------
 DEPT.F                  :   
 RHOB.G/C3   45 350 01 00:   BULK DENSITY
 CORR.G/C3   45 356 01 00:   DENSITY CORRECTION
 TEND.LBS    45 635 01 00:   TENSION FROM DENSITY LOG
 CNC .DEC    42 890 03 00:   NEUTRON PORISITY SANDSTONE
 DT  .US/F   60 520 00 00:   DELTA TIME
 TENS.LBS    60 635 01 00:   TENSION FROM SONIC LOG
 GRR .GAPI   07 310 01 00:   GAMMA RAY FROM RESISTIVITY
 SPR .MV     07 010 01 00:   SPONTANEOUS POTENTIAL
 CALR.IN     07 280 01 00:   CALIPER FROM RESISTIVITY
 TENR.LBS    07 635 01 00:   TENSION
 RILD.OHMM   07 120 46 00:   INDUCTION LOG DEEP RESISTIVITY
 RILM.OHMM   07 120 44 00:   INDUCTION LOG MEDIUM RESISTIVITY
 RFOC.OHMM   07 220 01 00:   RESISTIVITY FOCUSED LOG RES.
~PARAMETER INFORMATION
#MNEM.UNIT          VALUE    DESCRIPTION
#----------   ------------   ------------------------------
 EKB .F         5024.0000:   Kelly bushing
 EGL .F         5014.0000:   Ground level
 TD  .F         3996.0000:   Total depth
 DATE.        11-APR-1984:   Date logged
 CLNT.            A2DTECH:   Client Code
 SL  . 250' FWL & 2100' FNL:   Surface Location
 PD  .                 GL:   Permanent Datum
 EPD .F              5014:   Elevation Permanent Datum
 LMF .                 KB:   Log Measured From
 DMF .                 KB:   Drilling Measured From
 DD  .F              3996:   Depth driller
 DL  .F              3994:   Depth logger
 BLI .F              3992:   Bottom log interval
 CS1 .IN            8.625:   Casing size
 CBD1.      8.625" @ 404':   Casing driller 1
 CBL1.F               404:   Casing logger 1
 BS1 .IN            7.875:   Bit size
 DFT .            GEL/KCL:   Type fluid in hole
 DFD .                9.1:   Density
 DFV .                 38:   Viscosity
 DFPH.                  8:   pH
 DFL .                 14:   Fluid loss
 MSS .           FLOWLINE:   Source of sample
 RMS .OHMM           .417:   Rm
 MST .F                90:   Rm Meas. temp.
 RMF .OHMM           .313:   Rmf
 MFST.F                90:   Rmf Meas. temp.
 RMC .OHMM           .521:   Rmc
 MCST.F                90:   Rmc Meas. temp.
 MFSS.               CALC:   Source Rmf.
 RMB .OHMM            .25:   Rm. at BHT
 BHT .F               150:   BHT.
 TCS .HRS               3:   Time Circ. stopped
 MRT .F               150:   Maximum recorded temp.
 LUN .               6307:   Logging unit number
 LUL .               GLTE:   Logging unit location
 ENGI.           FAHLSING:   Recorded By
 WITN.             STRONG:   Witnessed by
 ORIG.           5" PRINT:   Origin of data
 UWI .     49025109710000:   Unique Well ID
 DICO. A2D TECHNOLOGIES, INC.:   Digitizing Company
 DAPD.F                10:   Feet Above Permanent Datum
 BSD1.F              3996:   Depth drilled with bit1
 MCSS.               CALC:   Source Rmc.
~OTHER INFORMATION
~A    DEPT    RHOB       CORR       TEND        CNC         DT       TENS         GRR       SPR       CALR       TENR       RILD       RILM       RFOC   
# ...
 3978.0000     2.5220     0.0490    14.6880     0.1870  -999.2500  -999.2500  -999.2500   -19.1910  -999.2500    73.4740     6.0450     6.9260     7.1070
 3978.5000     2.5220     0.0450    13.9120     0.1880  -999.2500  -999.2500  -999.2500   -19.3260  -999.2500    74.3950     5.7440     5.9310     6.6530
 3979.0000     2.5330     0.0330    13.1370  -999.2500  -999.2500  -999.2500  -999.2500   -19.4620  -999.2500    75.3150     5.5110     5.7610     6.1990
 3979.5000     2.5510     0.0210    12.3620  -999.2500  -999.2500  -999.2500  -999.2500   -19.5970  -999.2500    76.2360     5.5110     5.6140     5.8770
 3980.0000     2.5670     0.0100    11.5870  -999.2500  -999.2500  -999.2500  -999.2500   -19.7320  -999.2500    77.1570     5.5700     5.6140     5.8230
 3980.5000     2.5710     0.0040    10.8120  -999.2500  -999.2500  -999.2500  -999.2500   -19.8670  -999.2500    78.0780     5.6700     5.7500     6.0320
 3981.0000     2.5720     0.0040    10.0370  -999.2500  -999.2500  -999.2500  -999.2500   -20.0000  -999.2500    78.9990     5.7690     5.9260     6.3970
 3981.5000     2.5730     0.0120     9.2620  -999.2500  -999.2500  -999.2500  -999.2500   -20.1040  -999.2500    79.9190     5.8770     6.1530     6.7620
 3982.0000     2.5740     0.0240     8.4870  -999.2500  -999.2500  -999.2500  -999.2500   -20.2100  -999.2500    80.8400     5.8770     6.1010     7.1280
 3982.5000     2.5720     0.0260     7.7120  -999.2500  -999.2500  -999.2500  -999.2500   -20.3170  -999.2500    81.7610     5.7170     6.0280     7.3920
 3983.0000     2.5710     0.0210     6.9370  -999.2500  -999.2500  -999.2500  -999.2500   -20.4230  -999.2500    82.6820     5.6650     5.9550     7.1470
 3983.5000     2.5750     0.0150     6.1620  -999.2500  -999.2500  -999.2500  -999.2500   -20.5300  -999.2500    83.6030     5.6140     5.8810     6.1810
 3984.0000     2.5890     0.0570     5.3870  -999.2500  -999.2500  -999.2500  -999.2500   -20.5120  -999.2500    84.5230     5.6830     5.8230     5.4610
 3984.5000     2.6000     0.0480     4.6120  -999.2500  -999.2500  -999.2500  -999.2500   -20.4190  -999.2500    85.4440     5.7510     5.8880     5.4110
 3985.0000     2.6030     0.0360     3.8370  -999.2500  -999.2500  -999.2500  -999.2500   -20.3250  -999.2500    86.3650     5.8190     5.9530     5.7020
 3985.5000     2.6060     0.0390     3.0620  -999.2500  -999.2500  -999.2500  -999.2500   -20.2300  -999.2500    87.2860     5.8770     6.0170     6.3560
 3986.0000     2.6090     0.0440    10.0250  -999.2500  -999.2500  -999.2500  -999.2500   -20.1360  -999.2500    88.2070     5.9310     6.0810     6.9320
 3986.5000     2.6080     0.0490    41.0270  -999.2500  -999.2500  -999.2500  -999.2500   -20.0410  -999.2500    89.1270     5.9310     6.1460     6.9320
 3987.0000     2.6050     0.0570    72.0300  -999.2500  -999.2500  -999.2500  -999.2500   -19.9470  -999.2500    90.0480     5.9310     6.1530     6.6950
 3987.5000     2.6020     0.1110   101.4850  -999.2500  -999.2500  -999.2500  -999.2500   -19.8530  -999.2500    90.9690     5.9260     6.1440     6.4420
 3988.0000     2.5930     0.1700   118.8450  -999.2500  -999.2500  -999.2500  -999.2500   -19.7820  -999.2500    91.8900     5.9160     6.1380     6.4420
 3988.5000     2.5780     0.2170   113.1930  -999.2500  -999.2500  -999.2500  -999.2500   -19.7830  -999.2500    92.8110     5.9060     6.1320     6.9100
 3989.0000     2.5440     0.2370    97.2610  -999.2500  -999.2500  -999.2500  -999.2500   -19.7830  -999.2500    93.7310     5.8960     6.1260     7.3070
 3989.5000     2.5090     0.2520    80.7260  -999.2500  -999.2500  -999.2500  -999.2500   -19.7830  -999.2500    94.3110     5.8860     6.1200     7.7040
 3990.0000     2.4890     0.2500    64.1910  -999.2500  -999.2500  -999.2500  -999.2500   -19.7830  -999.2500    94.3110     5.8760     6.1140     7.9550
 3990.5000     2.4830     0.2460    24.5420  -999.2500  -999.2500  -999.2500  -999.2500  -999.2500  -999.2500    94.3110     5.8660     6.1080     7.9110
 3991.0000     2.4780     0.2420    -7.4260  -999.2500  -999.2500  -999.2500  -999.2500  -999.2500  -999.2500    94.3110     5.8560     6.1020     7.5490
 3991.5000     2.4730     0.2370   -12.2230  -999.2500  -999.2500  -999.2500  -999.2500  -999.2500  -999.2500    94.3110     5.8450     6.0970     7.1860
 3992.0000     2.4750     0.2340   -16.7330  -999.2500  -999.2500  -999.2500  -999.2500  -999.2500  -999.2500    85.8080     5.8350     6.1090     6.8240
 3992.5000     2.4770     0.2310   -21.7820  -999.2500  -999.2500  -999.2500  -999.2500  -999.2500  -999.2500    76.0480     5.8230     6.1200     6.4620
 3993.0000     2.4800     0.2290   -38.3170  -999.2500  -999.2500  -999.2500  -999.2500  -999.2500  -999.2500    66.2870     5.9580     6.1320     6.3250
 3993.5000     2.4820     0.2220   -54.8510  -999.2500  -999.2500  -999.2500  -999.2500  -999.2500  -999.2500    33.8660     6.1220     6.1430     6.3250
 3994.0000     2.4850     0.2130   -58.1050  -999.2500  -999.2500  -999.2500  -999.2500  -999.2500  -999.2500    -4.0920     6.2850  -999.2500     6.3250
 3994.5000     2.4830     0.2120   -59.8450  -999.2500  -999.2500  -999.2500  -999.2500  -999.2500  -999.2500   -42.0490  -999.2500  -999.2500  -999.2500
 3995.0000     2.4800     0.2160   -61.5860  -999.2500  -999.2500  -999.2500  -999.2500  -999.2500  -999.2500   -75.7240  -999.2500  -999.2500  -999.2500
 3995.5000     2.4710     0.2430   -63.3260  -999.2500  -999.2500  -999.2500  -999.2500  -999.2500  -999.2500   -78.7740  -999.2500  -999.2500  -999.2500
 3996.0000     2.4620     0.2430   -65.0670  -999.2500  -999.2500  -999.2500  -999.2500  -999.2500  -999.2500   -81.8240  -999.2500  -999.2500  -999.2500
 3996.5000     2.4580     0.2350   -66.8070  -999.2500  -999.2500  -999.2500  -999.2500  -999.2500  -999.2500   -84.8740  -999.2500  -999.2500  -999.2500
 3997.0000     2.4560     0.2260   -68.5480  -999.2500  -999.2500  -999.2500  -999.2500  -999.2500  -999.2500   -87.9240  -999.2500  -999.2500  -999.2500
 3997.5000     2.4530     0.2140   -70.2880  -999.2500  -999.2500  -999.2500  -999.2500  -999.2500  -999.2500   -90.9740  -999.2500  -999.2500  -999.2500
 3998.0000     2.4510     0.1940   -72.0290  -999.2500  -999.2500  -999.2500  -999.2500  -999.2500  -999.2500   -94.0240  -999.2500  -999.2500  -999.2500
 3998.5000     2.4480     0.1920   -73.7690  -999.2500  -999.2500  -999.2500  -999.2500  -999.2500  -999.2500   -95.3090  -999.2500  -999.2500  -999.2500
 3999.0000     2.4460     0.1920   -75.5100  -999.2500  -999.2500  -999.2500  -999.2500  -999.2500  -999.2500   -95.3090  -999.2500  -999.2500  -999.2500
 3999.5000     2.4430     0.1990   -76.7330  -999.2500  -999.2500  -999.2500  -999.2500  -999.2500  -999.2500   -95.3090  -999.2500  -999.2500  -999.2500
 4000.0000     2.4410     0.2100   -76.7330  -999.2500  -999.2500  -999.2500  -999.2500  -999.2500  -999.2500   -93.5270  -999.2500  -999.2500  -999.2500
