~VERSION INFORMATION
 VERS.                2.0:   CWLS LOG ASCII STANDARD - VERSION 2.0
 WRAP.                 NO:   ONE LINE PER DEPTH STEP
~WELL INFORMATION
#MNEM.UNIT      DATA TYPE    INFORMATION
#----------   ------------   ------------------------------
 STRT.F            0.0000:   START DEPTH
 STOP.F         5670.0000:   STOP DEPTH
 STEP.F            0.5000:   STEP LENGTH
 NULL.          -999.2500:   NO VALUE
 COMP.          INTEX OIL:   COMPANY
 WELL.    INTEX TP #71-15:   WELL
 FLD .             TEAPOT:   FIELD
 LOC .      S15 T38N R78W:   LOCATION
 CNTY.            NATRONA:   COUNTY
 STAT.            WYOMING:   STATE
 CTRY. UNITED STATES OF AMERICA:   COUNTRY
 SRVC.       SCHLUMBERGER:   SERVICE COMPANY
 DATE.        05-AUG-1966:   LOGDATE
 API .     49025097110000:   API NUMBER
~CURVE INFORMATION
#MNEM.UNIT       API CODE    CURVE DESCRIPTION
#----------   ------------   ------------------------------
 DEPT.F                  :   
 GRD .GAPI   45 310 01 00:   GAMMA RAY FROM DENSITY LOG
 CALD.IN     45 280 60 00:   CALIPER FROM DENSITY LOG
 CORR.G/C3   45 356 01 00:   DENSITY CORRECTION
 RHOB.G/C3   45 350 01 00:   BULK DENSITY
 SPR .MV     05 010 01 00:   SPONTANEOUS POTENTIAL FROM RES.
 ASN .OHMM   05 041 16 00:   AMPLIFIED SHORT NORMAL 16"
 ILD .OHMM   05 120 46 00:   INDUCTION LOG DEEP RESISTIVITY
~PARAMETER INFORMATION
#MNEM.UNIT          VALUE    DESCRIPTION
#----------   ------------   ------------------------------
 EKB .F         5247.5500:   Kelly bushing
 EGL .F         5236.1000:   Ground level
 EDF .F            0.0000:   Drilling floor
 EPD .F         5236.1000:   Permanent datum
 TD  .F         5670.0000:   Total depth
 CLNT.            A2DTECH:   Client Code
 SL  . 610' FNL & 710' FEL:   Surface Location
 PD  .                 GL:   Permanent Datum
 LMF .                 KB:   Log Measured From
 DMF .                 KB:   Drilling Measured From
 DAPD.F             11.45:   Feet Above Permanent Datum
 DATE.        05-AUG-1966:   Date Logged [DD-MMM-YYYY]
 DD  .F              5665:   Depth driller
 DL  .F              5670:   Depth logger
 BLI .F              5669:   Bottom log interval
 TLI .F              5551:   Top log interval
 CS1 .IN            10.75:   Casing size
 CBD1.    10.75" @ 567.9':   Casing driller 1
 CBL1.F               569:   Casing logger 1
 BS1 .IN           8.9375:   Bit size
 BSD1.F              5665:   Depth drilled with bit1
 DFT .            DEXTRID:   Type fluid in hole
 DFD .                9.4:   Density
 DFV .                 59:   Viscosity
 DFPH.                7.5:   pH
 DFL .                8.2:   Fluid loss
 MSS .           FLOWLINE:   Source of sample
 RMS .OHMM           1.80:   Rm
 MST .F                72:   Rm Meas. temp.
 RMF .OHMM           1.00:   Rmf
 MFST.F                82:   Rmf Meas. temp.
 MFSS.               MEAS:   Source Rmf.
 BHT .F               163:   BHT.
 TCS .HRS               3:   Time Circ. stopped
 MRT .F               163:   Maximum recorded temp.
 LUN .               4507:   Logging unit number
 LUL .               CSPR:   Logging unit location
 ENGI.            MANGOLD:   Recorded By
 ORIG.      2.5" 5" PRINT:   Origin of data
 UWI .     49025097110000:   Unique Well ID
 DICO. A2D TECHNOLOGIES, INC.:   Digitizing Company
~OTHER INFORMATION
~A    DEPT      GRD      CALD       CORR       RHOB        SPR        ASN        ILD   
# ...
 1729.0000    88.5449    13.7776     0.2086     2.1675   -77.8891     8.0041     6.1856
 1729.5000    88.9658    14.3444     0.2062     2.1616   -77.8747     8.0052     6.1916
 1730.0000    91.2575    14.9469     0.1932     2.1632   -77.8603     8.0210     6.2735
 1730.5000    93.9611    15.6736     0.1798     2.1812   -77.8455     8.0219     6.3542
 1731.0000    92.3608    15.1478     0.1780     2.2243   -77.8316     8.0078     6.3600
 1731.5000    92.0141    14.9819     0.1895     2.2580   -77.9643     7.9937     6.4406
 1732.0000    93.5404    15.4487     0.1960     2.2608   -77.9478     8.0427     6.5961
 1732.5000    92.6510    15.5090     0.1819     2.2360   -78.0856     8.1601     6.6768
 1733.0000    90.4143    15.4492     0.1670     2.1851   -78.0676     8.2357     6.7575
 1733.5000    89.5249    15.7799     0.1652     2.1583   -78.2018     8.3113     6.9132
 1734.0000    89.9828    15.6601     0.1769     2.1506   -78.1872     8.4019     6.9951
 1734.5000    91.3389    14.9389     0.1805     2.1642   -78.1724     8.4924     7.0757
 1735.0000    93.5932    14.7097     0.1651     2.2136   -78.1551     8.5830     7.1564
 1735.5000    94.9493    13.6739     0.1415     2.2765   -78.1407     8.7034     7.2370
 1736.0000    94.0599    12.4128     0.1074     2.3932   -78.2785     8.8108     7.2428
 1736.5000    91.7669    12.3582     0.1060     2.4112   -78.2606     8.8997     7.2486
 1737.0000    89.9985    12.4655     0.1179     2.3964   -78.2462     8.9454     7.1796
 1737.5000    89.5953    12.5791     0.1773     2.3382   -78.3804     8.9612     7.1105
 1738.0000    90.5778    12.5578     0.2382     2.2877   -78.3655     8.9472     7.0415
 1738.5000    92.4955    12.5264     0.2323     2.2438   -78.3480     8.9181     7.0487
 1739.0000    94.3381    12.5247     0.2205     2.2052   -78.4249     8.8891     7.0539
 1739.5000    93.8609    12.5767     0.2191     2.2064   -78.4715     8.8450     7.0604
 1740.0000    94.2815    12.7908     0.2325     2.2122   -78.4535     8.7992     6.9899
 1740.5000    95.0373    13.7528     0.2459     2.1997   -78.4391     8.7425     6.8474
 1741.0000    92.8772    15.5208     0.1876     2.1429   -78.5736     8.6983     6.8532
 1741.5000    92.3623    15.9004     0.1416     2.1094   -78.4101     8.6543     6.7842
 1742.0000    92.5958    15.9796     0.1378     2.1179   -78.3924     8.6554     6.7914
 1742.5000    93.0726    15.4570     0.1638     2.1614   -78.3780     8.6710     6.7972
 1743.0000    93.7365    14.5988     0.1922     2.2123   -78.3636     8.6571     6.8030
 1743.5000    94.1963    14.4838     0.2205     2.2498   -78.3492     8.6732     6.8084
 1744.0000    94.2051    14.7352     0.2330     2.2469   -78.3358     8.7187     6.8895
 1744.5000    94.6630    15.3961     0.2249     2.2290   -78.3210     8.7646     6.9701
 1745.0000    95.5700    15.3364     0.2118     2.2142   -78.3061     8.7804     6.9760
 1745.5000    95.5788    14.6760     0.2064     2.2113   -78.2912     8.8261     6.9832
 1746.0000    96.0367    13.8054     0.2142     2.2208   -78.1251     8.8569     6.9880
 1746.5000    95.1473    13.3553     0.2242     2.3419   -78.1108     8.8874     6.9200
 1747.0000    92.4614    13.4469     0.2246     2.3563   -77.9478     8.8436     6.9258
 1747.5000    90.2247    13.7502     0.2030     2.3627   -77.9334     8.7847     6.9316
 1748.0000    87.9880    14.4997     0.1774     2.3511   -77.9190     8.7707     6.8623
 1748.5000    87.5477    15.2039     0.1591     2.3112   -77.7561     8.7566     6.8683
 1749.0000    87.5943    15.1850     0.1582     2.2659   -77.7316     8.7147     6.8743
 1749.5000    89.0817    14.9487     0.1669     2.2077   -77.5751     8.6708     6.8065
 1750.0000    91.9159    14.7988     0.1847     2.1360   -77.5608     8.6568     6.8872
 1750.5000    94.7685    14.5889     0.1996     2.1556   -77.3978     8.6726     6.8930
 1751.0000    92.4212    15.0114     0.1947     2.1751   -77.3834     8.7034     6.8988
 1751.5000    89.8460    14.9991     0.1912     2.1732   -77.3690     8.7193     6.9795
 1752.0000    90.9043    14.3700     0.2099     2.1494   -77.5037     8.7351     7.0601
 1752.5000    95.0303    14.0495     0.2088     2.1377   -77.6374     8.7360     7.1408
 1753.0000    96.7979    14.1117     0.1814     2.1319   -77.6226     8.7519     7.1467
 1753.5000    96.6574    14.1402     0.2048     2.1323   -77.6051     8.7826     7.1538
 1754.0000    94.8323    13.3742     0.2185     2.1506   -77.6037     8.8149     7.1596
 1754.5000    94.6353    12.6994     0.1884     2.2387   -77.6210     8.8764     7.1654
 1755.0000    96.7217    12.7928     0.1720     2.2667   -77.6383     8.9200     7.1712
 1755.5000    98.0046    12.7568     0.1631     2.2212   -77.7789     8.9507     7.1771
 1756.0000    96.6661    12.6859     0.1627     2.2145   -77.7499     8.9516     7.1067
 1756.5000    94.8785    12.5504     0.1914     2.2147   -77.4601     8.9225     6.9641
 1757.0000    95.7855    12.8036     0.2271     2.2229   -77.4513     8.8789     6.8954
 1757.5000    97.5907    13.2103     0.2390     2.2466   -77.2930     8.8646     6.8263
 1758.0000    98.0486    13.5075     0.2465     2.3195   -77.2842     8.8658     6.7575
 1758.5000    98.0574    13.3421     0.2451     2.3835   -77.2754     8.8515     6.8441
 1759.0000    97.6168    13.3027     0.2377     2.4070   -77.2665     8.8527     6.9940
 1759.5000    97.6259    13.6862     0.2244     2.4172   -77.4094     8.8685     7.0012
 1760.0000    98.5329    13.6516     0.1844     2.4263   -77.6995     8.9292     7.0819
 1760.5000   100.3759    13.3922     0.1578     2.4348   -77.8380     8.9749     7.2375
 1761.0000   101.7694    12.9807     0.1519     2.4486   -77.8292     8.9609     7.3183
 1761.5000   103.5000    12.4612     0.1416     2.4570   -77.8203     8.9618     7.3990
 1762.0000   104.4820    12.1117     0.0764     2.5299   -77.6620     9.0224     7.4797
 1762.5000   105.4080    11.9834     0.0764     2.5590   -77.6532     9.1132     7.4856
 1763.0000   106.2205    11.9916     0.0733     2.5486   -77.7939     9.1597     7.4915
 1763.5000   102.1139    12.0141     0.0476     2.5525   -77.7848     9.2212     7.4974
 1764.0000    98.7543    11.9843     0.0259     2.5532   -78.0730     9.3002     7.4285
 1764.5000    97.2648    11.9760     0.0217     2.5437   -78.3631     9.5645     7.4344
 1765.0000    97.9117    11.9159     0.0220     2.5248   -78.3543     9.9684     7.4403
 1765.5000    99.4923    11.8859     0.0273     2.4975   -78.1960     9.8649     7.4462
 1766.0000    97.5185    11.8654     0.0585     2.4601   -78.0377     9.5076     7.3772
 1766.5000    93.6348    11.9156     0.1697     2.4007   -77.8794     9.3742     7.3831
 1767.0000    90.6870    12.1075     0.2404     2.3417   -77.7211     9.2706     7.3141
 1767.5000    89.2382    12.5541     0.2461     2.3294   -77.7123     9.1671     7.1703
 1768.0000    89.2470    13.5700     0.2368     2.3310   -77.7035     9.0934     7.1014
 1768.5000    90.6031    13.7844     0.2104     2.3279   -77.5451     9.0346     7.1088
 1769.0000    91.9592    14.5951     0.1705     2.3146   -77.2374     8.9758     7.0383
 1769.5000    93.7644    14.9907     0.1726     2.2954   -77.2286     8.9170     6.9694
 1770.0000    96.4678    14.7627     0.1826     2.2529   -77.2197     8.9329     6.9767
 1770.5000    96.4766    14.6255     0.1736     2.2188   -77.2108     8.9636     6.9826
 1771.0000    94.2399    14.7514     0.1565     2.1835   -77.2018     8.9795     6.9885
 1771.5000    92.9012    14.6958     0.1457     2.1854   -77.3427     8.9356     6.9944
 1772.0000    94.7066    14.5454     0.1570     2.2197   -77.3317     8.8761     7.0003
 1772.5000    98.3456    13.7673     0.1728     2.2283   -77.6218     8.8315     7.0062
 1773.0000    99.6643    13.8631     0.1872     2.2190   -77.6130     8.8190     7.0121
 1773.5000    98.3258    13.7390     0.1975     2.2092   -77.7559     8.8201     7.0928
 1774.0000    97.4364    13.2360     0.1876     2.2090   -77.8943     8.8658     7.0987
