~VERSION INFORMATION
 VERS.                2.0:   CWLS LOG ASCII STANDARD - VERSION 2.0
 WRAP.                 NO:   ONE LINE PER DEPTH STEP
~WELL INFORMATION
#MNEM.UNIT      DATA TYPE    INFORMATION
#----------   ------------   ------------------------------
 STRT.F            0.0000:   START DEPTH
 STOP.F         5670.0000:   STOP DEPTH
 STEP.F            0.5000:   STEP LENGTH
 NULL.          -999.2500:   NO VALUE
 COMP.          INTEX OIL:   COMPANY
 WELL.    INTEX TP #71-15:   WELL
 FLD .             TEAPOT:   FIELD
 LOC .      S15 T38N R78W:   LOCATION
 CNTY.            NATRONA:   COUNTY
 STAT.            WYOMING:   STATE
 CTRY. UNITED STATES OF AMERICA:   COUNTRY
 SRVC.       SCHLUMBERGER:   SERVICE COMPANY
 DATE.        05-AUG-1966:   LOGDATE
 API .     49025097110000:   API NUMBER
~CURVE INFORMATION
#MNEM.UNIT       API CODE    CURVE DESCRIPTION
#----------   ------------   ------------------------------
 DEPT.F                  :   
 GRD .GAPI   45 310 01 00:   GAMMA RAY FROM DENSITY LOG
 CALD.IN     45 280 60 00:   CALIPER FROM DENSITY LOG
 CORR.G/C3   45 356 01 00:   DENSITY CORRECTION
 RHOB.G/C3   45 350 01 00:   BULK DENSITY
 SPR .MV     05 010 01 00:   SPONTANEOUS POTENTIAL FROM RES.
 ASN .OHMM   05 041 16 00:   AMPLIFIED SHORT NORMAL 16"
 ILD .OHMM   05 120 46 00:   INDUCTION LOG DEEP RESISTIVITY
~PARAMETER INFORMATION
#MNEM.UNIT          VALUE    DESCRIPTION
#----------   ------------   ------------------------------
 EKB .F         5247.5500:   Kelly bushing
 EGL .F         5236.1000:   Ground level
 EDF .F            0.0000:   Drilling floor
 EPD .F         5236.1000:   Permanent datum
 TD  .F         5670.0000:   Total depth
 CLNT.            A2DTECH:   Client Code
 SL  . 610' FNL & 710' FEL:   Surface Location
 PD  .                 GL:   Permanent Datum
 LMF .                 KB:   Log Measured From
 DMF .                 KB:   Drilling Measured From
 DAPD.F             11.45:   Feet Above Permanent Datum
 DATE.        05-AUG-1966:   Date Logged [DD-MMM-YYYY]
 DD  .F              5665:   Depth driller
 DL  .F              5670:   Depth logger
 BLI .F              5669:   Bottom log interval
 TLI .F              5551:   Top log interval
 CS1 .IN            10.75:   Casing size
 CBD1.    10.75" @ 567.9':   Casing driller 1
 CBL1.F               569:   Casing logger 1
 BS1 .IN           8.9375:   Bit size
 BSD1.F              5665:   Depth drilled with bit1
 DFT .            DEXTRID:   Type fluid in hole
 DFD .                9.4:   Density
 DFV .                 59:   Viscosity
 DFPH.                7.5:   pH
 DFL .                8.2:   Fluid loss
 MSS .           FLOWLINE:   Source of sample
 RMS .OHMM           1.80:   Rm
 MST .F                72:   Rm Meas. temp.
 RMF .OHMM           1.00:   Rmf
 MFST.F                82:   Rmf Meas. temp.
 MFSS.               MEAS:   Source Rmf.
 BHT .F               163:   BHT.
 TCS .HRS               3:   Time Circ. stopped
 MRT .F               163:   Maximum recorded temp.
 LUN .               4507:   Logging unit number
 LUL .               CSPR:   Logging unit location
 ENGI.            MANGOLD:   Recorded By
 ORIG.      2.5" 5" PRINT:   Origin of data
 UWI .     49025097110000:   Unique Well ID
 DICO. A2D TECHNOLOGIES, INC.:   Digitizing Company
~OTHER INFORMATION
~A    DEPT      GRD      CALD       CORR       RHOB        SPR        ASN        ILD   
# ...
 3230.5000    81.7365    10.5949     0.0177     2.5079   -45.5882     5.4081     3.4657
 3231.0000    82.7095    10.5946     0.0315     2.4874   -45.5114     4.6194     3.2368
 3231.5000    85.7784    10.6036     0.0745     2.4545   -45.4043     4.2331     2.9498
 3232.0000    90.2695    10.6547     0.1423     2.3924   -45.3845     3.9946     2.9527
 3232.5000    95.6587    10.8294     0.1970     2.3161   -45.3700     3.9225     2.9556
 3233.0000    98.8024    11.0351     0.1689     2.2369   -45.3528     3.9388     2.9585
 3233.5000   101.0479    11.2725     0.1867     2.2666   -45.4838     3.9400     2.9614
 3234.0000   103.2934    11.3972     0.2076     2.3459   -45.4679     3.9560     2.8896
 3234.5000   105.0898    11.0197     0.1720     2.3714   -45.4507     3.9274     2.8926
 3235.0000   106.8862    10.9028     0.1350     2.3909   -45.5832     3.8836     2.8208
 3235.5000   109.1317    10.8598     0.1054     2.4104   -45.5658     3.8251     2.7498
 3236.0000   112.2755    10.7107     0.1085     2.4478   -45.5486     3.7073     2.7527
 3236.5000   115.9435    10.5020     0.1723     2.5048   -45.5314     3.5884     2.7556
 3237.0000   118.6381    10.5315     0.2139     2.5028   -45.5122     3.5118     2.6832
 3237.5000   119.4611    10.7693     0.2030     2.4395   -45.6449     3.4130     2.6115
 3238.0000   117.6647    10.9774     0.1874     2.3839   -45.6293     3.2950     2.5397
 3238.5000   117.2156    11.2152     0.1880     2.4035   -45.4626     3.2067     2.4687
 3239.0000   118.0018    11.4530     0.1955     2.4221   -45.4453     3.1185     2.3224
 3239.5000   119.4611    11.5420     0.1998     2.4264   -45.4282     3.0004     2.2506
 3240.0000   117.9642    11.3631     0.2048     2.4290   -45.4111     2.8823     2.1789
 3240.5000   116.1490    11.3033     0.2143     2.4285   -45.3938     2.8239     2.1825
 3241.0000   116.2422    11.2732     0.2315     2.4228   -45.3743     2.7949     2.1854
 3241.5000   118.4868    11.3337     0.2404     2.4102   -45.2081     2.7666     2.1137
 3242.0000   119.0111    11.4285     0.2407     2.3777   -45.1928     2.7084     2.1166
 3242.5000   116.3174    11.6364     0.2289     2.3586   -45.1747     2.6944     2.1195
 3243.0000   118.4510    11.8168     0.2067     2.3708   -45.1584     2.6657     2.1224
 3243.5000   121.2575    11.9845     0.1829     2.3723   -45.1413     2.6520     2.2000
 3244.0000   123.0539    12.2441     0.2002     2.3534   -45.1241     2.6534     2.2035
 3244.5000   125.2994    12.4021     0.2180     2.3355   -45.1037     2.6546     2.2064
 3245.0000   127.9940    12.2530     0.2285     2.3027   -44.9375     2.7303     2.3586
 3245.5000   132.0359    12.4318     0.2301     2.2594   -44.8309     2.8364     2.5107
 3246.0000   124.4012    13.0808     0.2123     2.2042   -44.6051     3.0880     2.5883
 3246.5000   113.6228    13.6211     0.1872     2.1460   -44.5884     3.6580     2.9643
 3247.0000   107.3353    13.5645     0.1487     2.0982   -44.5717     4.2106     3.3403
 3247.5000   104.1916    13.3691     0.1324     2.0968   -44.5550     4.8526     3.7215
 3248.0000   101.4970    12.3757     0.1785     2.1178   -44.5381     5.7182     3.9439
 3248.5000    99.6455    10.8947     0.2324     2.3503   -44.3714     5.9429     4.0960
 3249.0000    97.3436    10.4648     0.2543     2.4079   -44.3512     5.8990     4.1736
 3249.5000    94.7041    10.4943     0.2396     2.3779   -44.3345     5.9899     4.0272
 3250.0000    94.3114    10.6130     0.2144     2.3057   -44.4714     6.0358     4.0301
 3250.5000    94.6857    11.1562     0.2320     2.2640   -44.7537     5.9325     3.5863
 3251.0000    99.3643    11.6314     0.2368     2.2632   -44.8834     5.9486     3.6673
 3251.5000   103.4246    12.6358     0.2181     2.2963   -44.8656     5.9645     3.7470
 3252.0000   103.7425    12.9631     0.1964     2.3989   -44.8490     5.7718     3.8378
 3252.5000   101.6094    12.7838     0.1872     2.4383   -44.8318     5.4897     4.0569
 3253.0000    98.9520    11.8750     0.1752     2.4276   -44.8113     5.6844     4.2112
 3253.5000    96.5941    11.6450     0.1653     2.4272   -44.7946     6.4902     4.2345
 3254.0000    94.7609    11.5456     0.1510     2.4363   -44.7803     7.2215     4.4452
 3254.5000    93.3760    11.3747     0.1390     2.4571   -44.7631     7.2672     4.5249
 3255.0000    91.7292    11.1428     0.1202     2.4936   -44.7444     6.9406     4.7539
 3255.5000    86.6766    10.9727     0.0950     2.5614   -44.7277     6.2263     4.8336
 3256.0000    82.6347    10.8643     0.1040     2.5884   -44.7115     6.4955     4.9960
 3256.5000    83.0838    10.8332     0.1145     2.5735   -44.6943     7.5100     5.0676
 3257.0000    85.3293    10.7875     0.1071     2.5452   -44.6762     7.5855     4.9234
 3257.5000    88.9222    10.7872     0.0835     2.5333   -44.6567     7.5269     4.8539
 3258.0000    91.6168    10.7869     0.0642     2.5348   -44.6427     7.3342     4.6363
 3258.5000    92.5150    10.8461     0.0525     2.5469   -44.6256     7.1564     4.4175
 3259.0000    93.4132    10.9351     0.0555     2.5529   -44.6052     6.8384     4.2731
 3259.5000    93.8623    11.0241     0.0721     2.5590   -44.5912     6.3869     4.2784
 3260.0000    94.3114    11.1131     0.0969     2.5590   -44.5732     5.9674     4.2836
 3260.5000    96.1454    11.2020     0.1472     2.5530   -44.7059     5.9237     4.2898
 3261.0000    97.9042    11.2613     0.1922     2.5421   -44.6891     5.9096     4.3695
 3261.5000    95.8839    11.3205     0.2072     2.5163   -44.6719     5.9257     4.4840
 3262.0000    94.2366    11.3500     0.2177     2.4794   -44.7392     6.0758     4.6030
 3262.5000    93.8623    11.3795     0.1916     2.4571   -44.9339     6.5835     4.6833
 3263.0000    96.2197    11.3494     0.0915     2.4548   -45.0666     6.9869     4.8376
 3263.5000    98.2964    11.2896     0.0346     2.4779   -45.0516     7.0335     4.9173
 3264.0000    99.7006    11.1984     0.0268     2.5133   -45.0332     7.0013     4.9970
 3264.5000    99.7006    11.0788     0.0266     2.5330   -45.0172     6.9306     5.0878
 3265.0000    98.8772    11.0208     0.0335     2.5346   -44.9998     6.9316     5.2323
 3265.5000    97.4923    11.0205     0.0443     2.5256   -44.9828     6.9475     5.2373
 3266.0000    96.1078    11.0500     0.0610     2.5241   -44.9622     7.0379     5.2424
 3266.5000    94.2738    11.0559     0.0789     2.5349   -44.9455     7.1433     5.3221
 3267.0000    92.4402    11.0792     0.0908     2.5536   -44.9312     7.2933     5.4764
 3267.5000    90.7186    11.0789     0.0953     2.5662   -44.9121     7.4732     5.5561
 3268.0000    89.8204    11.1084     0.0539     2.5423   -44.8969     7.7173     5.6358
 3268.5000    89.6893    11.0783     0.0168     2.5304   -44.8797     7.8928     5.6410
 3269.0000    91.6168    11.0482     0.0123     2.5455   -44.8625     7.8193     5.5714
 3269.5000    92.5150    11.0182     0.0289     2.5709   -44.8452     7.7159     5.5018
 3270.0000    92.5150    11.0179     0.0616     2.5815   -44.8281     7.4636     5.3576
 3270.5000    92.4585    11.0176     0.0839     2.5800   -44.8076     7.4050     5.2881
 3271.0000    94.3114    11.0470     0.0778     2.5592   -44.7937     7.3464     5.0693
 3271.5000    98.3533    11.0765     0.0640     2.5324   -44.6271     7.0287     4.8517
 3272.0000   102.8443    11.1060     0.0525     2.5025   -44.6099     6.6959     4.6329
 3272.5000   104.2292    11.1651     0.0535     2.5076   -44.5913     6.3361     4.4091
 3273.0000   105.5765    11.1946     0.0789     2.5302   -44.5746     6.0093     4.1207
 3273.5000   103.4604    11.2241     0.1013     2.5403   -44.5579     5.9358     4.0524
 3274.0000   100.0749    11.2238     0.1175     2.5400   -44.5381     5.9368     3.9082
 3274.5000    98.7088    11.2532     0.1242     2.5331   -44.2896     5.8784     3.8374
 3275.0000    99.8130    11.3125     0.1210     2.5142   -44.0552     5.7602     3.7678
 3275.5000   101.6282    11.3419     0.1166     2.4538   -43.8890     5.6122     3.6236
