~VERSION INFORMATION
 VERS.                2.0:   CWLS LOG ASCII STANDARD - VERSION 2.0
 WRAP.                 NO:   ONE LINE PER DEPTH STEP
~WELL INFORMATION
#MNEM.UNIT      DATA TYPE    INFORMATION
#----------   ------------   ------------------------------
 STRT.F           31.5000:   START DEPTH
 STOP.F         4204.0000:   STOP DEPTH
 STEP.F            0.5000:   STEP LENGTH
 NULL.          -999.2500:   NO VALUE
 COMP.   LAWRENCE ALLISON:   COMPANY
 WELL. LAWRENCE 3 "X" #32-10:   WELL
 FLD .                NPR:   FIELD
 LOC .      S10 T38N R78W:   LOCATION
 CNTY.            NATRONA:   COUNTY
 STAT.            WYOMING:   STATE
 CTRY. UNITED STATES OF AMERICA:   COUNTRY
 SRVC.      DRESSER ATLAS:   SERVICE COMPANY
 DATE.        05-NOV-1983:   LOGDATE
 API .     49025109460000:   API NUMBER
~CURVE INFORMATION
#MNEM.UNIT       API CODE    CURVE DESCRIPTION
#----------   ------------   ------------------------------
 DEPT.F                  :   
 CALD.IN     45 280 60 00:   CALIPER FROM DENSITY LOG
 CNC .DEC    42 890 01 00:   NEUTRON POROSITY LIMESTONE
 CORR.G/C3   45 356 01 00:   DENSITY CORRECTION
 TEND.LBS    45 635 01 00:   TENSION FORM DENSITY LOG
 RHOB.G/C3   45 350 01 00:   BULK DENSITY
 DT  .US/F   60 520 00 00:   DELTA TIME
 TENS.LBS    60 635 01 00:   TENSION FROM SONIC
 GRR .GAPI   07 310 01 00:   GAMMA RAY FROM RESISTIVITY
 TENR.LBS    06 635 01 00:   TENSION FROM RESISTIVITY
 RFOC.OHMM   07 220 04 00:   RESISTIVITY FOCUSED LOG RES.
 RILM.OHMM   07 120 44 00:   INDUCTION LOG MEDIUM RESISTIVITY
 RILD.OHMM   07 120 46 00:   DEEP INDUCTION RESISTIVITY
 SPR .MV     07 010 01 00:   SPONTANEOUS POTENTIAL
~PARAMETER INFORMATION
#MNEM.UNIT          VALUE    DESCRIPTION
#----------   ------------   ------------------------------
 EKB .F         5237.0000:   Kelly bushing
 EGL .F         5227.0000:   Ground level
 TD  .F         4202.0000:   Total depth
 CLNT.            A2DTECH:   Client Code
 SL  . 1871' FWL & 1152' FNL:   Surface Location
 PD  .                 GL:   Permanent Datum
 EPD .F              5227:   Elevation Permanent Datum
 LMF .                 KB:   Log Measured From
 DMF .                 KB:   Drilling Measured From
 DAPD.F                10:   Feet Above Permanent Datum
 DATE.        05-NOV-1983:   Date Logged [DD-MMM-YYYY]
 DD  .F              4200:   Depth driller
 DL  .F              4202:   Depth logger
 BLI .F              4200:   Bottom log interval
 TLI .F                30:   Top log interval
 CS1 .IN            8.625:   Casing size
 CBD1.      8.625" @ 545':   Casing driller 1
 CBL1.F               545:   Casing logger 1
 BS1 .IN            7.875:   Bit size
 BSD1.F              4200:   Depth drilled with bit1
 DFT .            GEL KCL:   Type fluid in hole
 DFD .                8.9:   Density
 DFV .                 42:   Viscosity
 DFPH.                8.5:   pH
 DFL .               12.4:   Fluid loss
 MSS .           FLOWLINE:   Source of sample
 RMS .OHMM           0.43:   Rm
 MST .F                97:   Rm Meas. temp.
 RMF .OHMM           0.42:   Rmf
 MFST.F                74:   Rmf Meas. temp.
 MFSS.               MEAS:   Source Rmf.
 RMC .OHMM           0.53:   Rmc
 MCST.F                97:   Rmc Meas. temp.
 MCSS.               CALC:   Source Rmc.
 RMB .OHMM           0.32:   Rm. at BHT
 BHT .F               131:   BHT.
 TCS .HRS               3:   Time Circ. stopped
 MRT .F               131:   Maximum recorded temp.
 LUN .               6307:   Logging unit number
 LUL .               GLTE:   Logging unit location
 ENGI.            DEYOUNG:   Recorded By
 WITN.             STRONG:   Witnessed by
 ORIG.        2" 5" PRINT:   Origin of data
 UWI .     49025109460000:   Unique Well ID
 DICO. A2D TECHNOLOGIES, INC.:   Digitizing Company
~OTHER INFORMATION
~A   DEPT     CALD        CNC       CORR       TEND       RHOB         DT       TENS         GRR      TENR       RFOC       RILM       RILD        SPR   
# ...
 3229.5000     8.7870     0.3245     0.0731   -33.4616     2.2761   102.9034   -22.0235   164.1441   -19.5763     2.4525     1.9393     1.7668   -22.7539
 3230.0000     8.7843     0.3092     0.0180   -33.9194     2.3109    97.6997   -21.9941   159.0385   -20.3747     2.1932     1.9547     1.7191   -22.9216
 3230.5000     8.7816     0.3049    -0.0264   -34.2854     2.3618    94.5764   -23.6842   149.2613   -21.1731     2.6340     1.9564     1.6727   -23.9277
 3231.0000     8.7789     0.3067    -0.0308   -34.6155     2.3788    93.0973   -27.8000   145.5081   -21.9715     3.0114     1.9288     1.6389   -24.6660
 3231.5000     8.7763     0.3043    -0.0260   -35.0000     2.3820    93.4681   -27.7713   147.6284   -22.7699     3.0990     1.8659     1.6291   -24.9561
 3232.0000     8.7736     0.3040    -0.0181   -35.3846     2.3782    95.4556   -27.7419   156.2920   -23.5682     2.9941     1.8152     1.6191   -24.9377
 3232.5000     8.7709     0.3068    -0.0072   -32.6726     2.3791    96.2647   -27.7126   165.5739   -24.3666     2.6967     1.7666     1.6210   -24.9229
 3233.0000     8.7682     0.3149     0.0145   -30.0531     2.3845    96.5669   -27.6833   169.5773   -25.1650     2.7174     1.7554     1.6340   -24.9082
 3233.5000     8.7655     0.3255     0.0362   -30.3847     2.3939    97.1008   -27.6540   176.0547   -25.9634     2.7769     1.7572     1.6944   -24.8935
 3234.0000     8.7631     0.3289     0.0302   -30.7693     2.3994    98.8496   -27.6246   182.5322   -26.7618     2.6455     1.8739     1.9676   -24.7281
 3234.5000     8.7631     0.3216     0.0258   -28.0769     2.3911   100.4720   -27.5953   189.0096   -27.5601     2.4164     2.0700     2.2055   -24.5628
 3235.0000     8.7632     0.2877     0.0506   -28.5317     2.3765   100.6195   -27.5660   194.8482   -28.2964     2.2378     2.2388     2.4547   -24.5407
 3235.5000     8.7632     0.2415     0.0738   -28.8977     2.3743    96.1947   -27.5367   183.7956   -28.4730     2.1777     2.5617     2.6371   -24.6839
 3236.0000     8.7632     0.2025     0.0402   -32.3406     2.4768    85.5752   -27.5039   165.6551   -28.6497     2.4043     2.8514     2.8131   -24.8197
 3236.5000     8.7632     0.1991    -0.0027   -35.7835     2.5169    79.9705   -33.3431   129.2232   -28.8263     3.2237     3.1336     3.0025   -25.4037
 3237.0000     8.7632     0.2050    -0.0102   -36.1538     2.5317    77.9056   -33.3127   106.1929   -29.0030     7.7130     3.5028     3.2780   -25.9950
 3237.5000     8.7632     0.2256     0.0023   -36.6071     2.5094    77.8870   -33.2845    99.8795   -29.1796     8.3955     3.8693     3.6399   -26.5827
 3238.0000     8.7632     0.2628     0.0087   -33.8047     2.4772    90.1537   -33.2551   113.0681   -29.3563     7.3525     4.0684     3.9943   -27.1667
 3238.5000     8.7632     0.2699     0.0027   -33.2199     2.4756    91.7779   -33.2258   132.0167   -29.5329     5.7152     4.1581     4.0828   -27.7543
 3239.0000     8.7632     0.2715    -0.0033   -31.5385     2.4868    92.0802   -33.1965   142.2961   -29.7096     5.0404     4.0755     3.8627   -27.7396
 3239.5000     8.7632     0.2700     0.0046   -28.8403     2.4929    92.0201   -33.1672   148.1228   -29.8862     4.8337     4.0219     3.7056   -27.5742
 3240.0000     8.7632     0.2675     0.0109   -29.2979     2.4899    91.2389   -33.1378   149.4901   -30.0629     4.7669     3.9682     3.5549   -27.2583
 3240.5000     8.7632     0.2624     0.0050   -27.7147     2.4854    89.7065   -33.1085   143.0261   -30.2395     4.6748     3.8893     3.5324   -27.0930
 3241.0000     8.7632     0.2537    -0.0025   -26.8615     2.4824    87.5850   -33.0792   134.9055   -30.4162     4.8115     3.8381     3.5869   -26.6264
 3241.5000     8.7632     0.2423     0.0023   -27.3189     2.4810    85.4683   -33.0448   128.1393   -30.5928     5.1643     3.8687     3.6672   -26.4527
 3242.0000     8.7631     0.2334     0.0042   -24.6153     2.4749    84.3687   -33.0205   124.2355   -30.7695     5.6214     4.0159     3.8047   -25.9729
 3242.5000     8.7654     0.2306    -0.0021   -21.8972     2.4679    84.0180   -32.9912   125.4522   -30.9462     5.7034     4.1637     3.9751   -25.5243
 3243.0000     8.7690     0.2501    -0.0110   -19.2778     2.4744    84.3201   -32.9619   125.1629   -31.1228     5.1019     4.3121     4.1779   -25.2083
 3243.5000     8.7726     0.2427    -0.0062   -19.6742     2.4860    84.1456   -32.9320   122.0121   -31.2995     4.8946     4.4080     4.3018   -24.8923
 3244.0000     8.7763     0.2251     0.0001   -20.0000     2.4923    82.4878   -30.8701   118.0852   -31.4761     5.0725     4.4744     4.3364   -24.5764
 3244.5000     8.7799     0.2177    -0.0013   -20.3846     2.4985    81.1504   -27.0088   115.0845   -31.6528     5.4828     4.5740     4.3404   -24.5616
 3245.0000     8.7835     0.2153    -0.0072   -17.7564     2.5017    80.5605   -26.9795   116.4467   -31.8294     5.9680     4.6757     4.4064   -24.2457
 3245.5000     8.7872     0.2282    -0.0300   -18.1224     2.4995    80.1180   -26.9501   118.5018   -32.0061     6.2722     4.8135     4.5051   -24.0804
 3246.0000     8.7908     0.2369    -0.0330   -18.4884     2.4939    79.9705   -26.9208   120.5685   -32.1827     6.3648     4.9206     4.5413   -23.9150
 3246.5000     8.7945     0.2418    -0.0113   -18.8461     2.4912    79.9705   -31.1153   123.7431   -32.3594     6.3242     4.5575     4.4817   -23.9003
 3247.0000     8.7981     0.2455     0.0089   -19.2309     2.4936    80.5605   -32.7273   126.3152   -32.8634     6.1973     4.3419     4.3300   -23.8855
 3247.5000     8.8017     0.2467     0.0137   -22.7549     2.4922    81.4454   -32.6923   128.1343   -33.4039     5.9040     4.1936     4.2719   -23.5693
 3248.0000     8.8036     0.2470    -0.0018   -19.9525     2.4815    82.6254   -32.6641   130.1040   -33.9443     5.5462     4.1110     4.2171   -23.2530
 3248.5000     8.8029     0.2471    -0.0121   -17.3330     2.4816    83.9559   -26.7708   130.8689   -34.4847     4.9605     4.0856     4.2220   -23.0846
 3249.0000     8.7998     0.2467    -0.0134   -14.6221     2.4964    84.1003   -26.7426   131.3326   -35.0252     4.2837     4.1774     4.2861   -22.9229
 3249.5000     8.7968     0.2406    -0.0117   -11.9111     2.5018    83.7527   -26.7155   130.2903   -35.5656     4.1671     4.4235     4.4446   -23.3563
 3250.0000     8.7939     0.2246    -0.0100   -12.3077     2.5012    82.1087   -26.6862   124.5793   -36.1060     6.3528     4.6841     4.7078   -23.7933
 3250.5000     8.7909     0.2145    -0.0098    -9.6578     2.5005    79.9911   -26.6569   113.7478   -36.6465     6.6785     4.9252     4.9514   -23.9329
 3251.0000     8.7879     0.2191    -0.0080    -9.9999     2.5014    79.3027   -26.6276   112.7025   -37.1869     6.5913     5.1423     5.1333   -23.9144
 3251.5000     8.7849     0.2208    -0.0094   -10.3898     2.4998    79.0855   -20.7331   114.5246   -37.7273     6.3253     5.1106     5.0313   -23.8997
 3252.0000     8.7819     0.2248    -0.0108   -10.7693     2.4952    79.8348   -20.7038   117.3979   -38.2678     6.0265     5.0080     4.9651   -23.7344
 3252.5000     8.7789     0.2304    -0.0122   -11.1539     2.4868    80.7410   -20.6745   121.3255   -38.8082     5.8156     4.9421     4.9348   -23.2678
 3253.0000     8.7760     0.2365    -0.0119   -11.5794     2.4753    81.2178   -20.6452   124.9518   -39.3486     5.5521     4.9475     4.9396   -22.7997
 3253.5000     8.7730     0.2360    -0.0166   -14.9999     2.4707    81.5199   -20.6158   126.7770   -39.8891     5.4033     5.0211     4.9443   -22.4849
 3254.0000     8.7700     0.2309    -0.0331   -15.3883     2.4723    81.5929   -26.4516   125.0144   -40.4352     5.2955     5.0619     5.0560   -22.4699
 3254.5000     8.7670     0.2337    -0.0452   -15.7849     2.4763    81.4454   -26.4223   119.7112   -40.5721     5.3375     5.2112     5.2430   -22.3015
 3255.0000     8.7639     0.2377    -0.0496   -16.2119     2.4809    81.0030   -26.3901   115.6650   -40.5745     5.5330     5.3648     5.3985   -22.4411
