~VERSION INFORMATION
 VERS.                2.0:   CWLS LOG ASCII STANDARD - VERSION 2.0
 WRAP.                 NO:   ONE LINE PER DEPTH STEP
~WELL INFORMATION
#MNEM.UNIT      DATA TYPE    INFORMATION
#----------   ------------   ------------------------------
 STRT.F            0.5000:   START DEPTH
 STOP.F         4128.0000:   STOP DEPTH
 STEP.F            0.5000:   STEP LENGTH
 NULL.          -999.2500:   NO VALUE
 COMP. LAWRENCE ALLISON ASSOC WEST:   COMPANY
 WELL. LAWRENCE NPR "AX" #12-33:   WELL
 FLD .      NPR - WILDCAT:   FIELD
 LOC .      S33 T39N R78W:   LOCATION
 CNTY.            NATRONA:   COUNTY
 STAT.            WYOMING:   STATE
 CTRY. UNITED STATES OF AMERICA:   COUNTRY
 SRVC.      DRESSER ATLAS:   SERVICE COMPANY
 DATE.        04-AUG-1984:   LOGDATE
 API .     49025109720000:   API NUMBER
~CURVE INFORMATION
#MNEM.UNIT       API CODE    CURVE DESCRIPTION
#----------   ------------   ------------------------------
 DEPT.F                  :   
 CORR.G/C3   45 356 01 00:   DENSITY CORRECTION
 TEND.LBS    45 635 01 00:   TENSION FROM DENSITY LOG
 RHOB.G/C3   45 350 01 00:   BULK DENSITY
 GRR .GAPI   07 310 01 00:   GAMMA RAY FROM RESISTIVITY
 SPR .MV     07 010 01 00:   SPONTANEOUS POTENTIAL
 RFOC.OHMM   07 220 04 00:   RESISTIVITY FOCUSED LOG RES.
 RILM.OHMM   07 120 44 00:   RESISTIVITY INDUCTION LOG MEDIUM
 RILD.OHMM   07 120 46 00:   RESISTIVITY INDUCTION LOG MEDIUM
 TENR.LBS    07 635 01 00:   TENSION FROM RESISTIVITY
 CALR.IN     07 280 01 00:   CALIPER FROM RESISTIVITY
 DT  .US/F   60 520 00 00:   DELTA TIME
 TENS.LBS    60 635 01 00:   TENSION FROM SONIC
 SPHI.DEC    60 890 00 00:   SONIC POROSITY
~PARAMETER INFORMATION
#MNEM.UNIT          VALUE    DESCRIPTION
#----------   ------------   ------------------------------
 EKB .F         5170.0000:   Kelly bushing
 EGL .F         5157.0000:   Ground level
 EDF .F            0.0000:   Drilling floor
 TD  .F         4121.0000:   Total depth
 DATE.        04-AUG-1984:   Date logged
 CLNT.            A2DTECH:   Client Code
 SL  . 857' FNL & 751' FWL:   Surface Location
 PD  .                 GL:   Permanent Datum
 EPD .F              5157:   Elevation Permanent Datum
 LMF .                 KB:   Log Measured From
 DMF .                 KB:   Drilling Measured From
 DAPD.F                13:   Feet Above Permanent Datum
 DD  .F              4120:   Depth driller
 DL  .F              4121:   Depth logger
 BLI .F              4119:   Bottom log interval
 CS1 .IN            8.625:   Casing size
 CBD1.      8.625" @ 625':   Casing driller 1
 CBL1.F               624:   Casing logger 1
 BS1 .IN            7.875:   Bit size
 BSD1.F              4120:   Depth drilled with bit1
 DFT .            GEL/KCL:   Type fluid in hole
 DFD .                9.1:   Density
 DFV .                 40:   Viscosity
 DFPH.                8.5:   pH
 DFL .                 11:   Fluid loss
 MSS .               TANK:   Source of sample
 RMS .OHMM           .302:   Rm
 MST .F                84:   Rm Meas. temp.
 RMF .OHMM            .22:   Rmf
 MFST.F                84:   Rmf Meas. temp.
 RMC .OHMM            .38:   Rmc
 MCST.F                84:   Rmc Meas. temp.
 MFSS.               CALC:   Source Rmf.
 MCSS.               CALC:   Source Rmc.
 RMB .OHMM            .19:   Rm. at BHT
 BHT .F               132:   BHT.
 TCS .HRS               4:   Time Circ. stopped
 MRT .F               132:   Maximum recorded temp.
 LUN .               6307:   Logging unit number
 LUL .               GLTE:   Logging unit location
 ENGI.           FAHLSING:   Recorded By
 WITN.       ROBERT SCOTT:   Witnessed by
 ORIG.           5" PRINT:   Origin of data
 UWI .     49025109720000:   Unique Well ID
 DICO. A2D TECHNOLOGIES, INC.:   Digitizing Company
~OTHER INFORMATION
~A    DEPT    CORR       TEND       RHOB         GRR       SPR       RFOC       RILM       RILD       TENR       CALR         DT       TENS       SPHI   
# ...
 3406.5000     0.0620   -23.9860     2.5540   132.6270   -58.6870     5.6570     5.1540     4.5350   -23.3730     8.8940    85.2510   -44.7950     0.2500
 3407.0000     0.0510   -24.0590     2.5720   131.9970   -58.6650     5.7820     5.1720     4.5460   -23.4020     8.9020    84.6210   -44.7950     0.2470
 3407.5000     0.0410   -24.1320     2.5910   131.9320   -58.6650     5.9080     5.1720     4.5460   -23.4300     8.9090    83.9910   -44.7950     0.2400
 3408.0000     0.0390   -24.2060     2.6080   134.8660   -58.6650     6.0470     5.0720     4.4450   -23.4580     8.9160    83.3610   -44.7950     0.2360
 3408.5000     0.0700   -24.2790     2.5920   139.7010   -58.6800     6.0470     4.9350     4.3310   -23.4860     8.9230    82.6930   -44.7950     0.2320
 3409.0000     0.0990   -24.3520     2.5560   144.5290   -59.1610     5.9870     4.7990     4.2180   -23.5140     8.9310    83.1440   -44.7950     0.2350
 3409.5000     0.1170   -24.4250     2.5050   147.6360   -59.6740     5.5430     4.6620     4.1050   -23.5420     8.9380    84.1450   -44.7950     0.2430
 3410.0000     0.0980   -24.4990     2.4890   147.5850   -60.1860     5.1000     4.5260     3.9910   -23.5700     8.9380    85.2950   -44.7950     0.2540
 3410.5000     0.0590   -24.5720     2.4840   147.5800   -60.6980     4.9750     4.3890     3.8780   -23.5980     8.9380    87.2590   -44.7950     0.2650
 3411.0000     0.0390   -24.6450     2.4900   146.7310   -61.2100     4.9630     4.2530     3.7650   -23.6260     8.9380    88.0980   -44.7950     0.2710
 3411.5000     0.0480   -24.7180     2.4930   144.4360   -61.7210     4.9500     4.1090     3.7130   -23.6540     8.9340    88.4980   -44.7950     0.2730
 3412.0000     0.0590   -24.7920     2.4820   142.7450   -62.2340     4.9320     4.0710     3.7370   -23.6820     8.9120    88.8990   -44.7950     0.2750
 3412.5000     0.0500   -24.8650     2.4760   141.0210   -62.7500     4.8840     4.2180     3.7620   -23.7100     8.8920    89.4590   -44.7950     0.2820
 3413.0000     0.0420   -24.9380     2.4830   139.2880   -62.8480     4.8360     4.3260     3.7870   -23.7380     8.8760    90.2710   -44.7950     0.2870
 3413.5000     0.0340   -25.0170     2.4890   137.5100   -62.7120     4.8050     4.4350     3.8120   -23.7670     8.8600    90.7010   -44.7950     0.2870
 3414.0000     0.0250   -25.1280     2.4950   138.7800   -62.5480     5.1900     4.5460     3.8370   -23.7950     8.8440    89.7640   -44.7950     0.2830
 3414.5000     0.0260   -25.2400     2.4950   141.8580   -62.3830     5.3160     4.4410     3.8530   -23.8230     8.8280    88.8940   -44.7950     0.2740
 3415.0000     0.0270   -25.3510     2.4900   144.9440   -62.2580     5.3160     4.3320     3.7400   -23.8510     8.8170    88.2620   -44.7950     0.2700
 3415.5000     0.0320   -25.4620     2.4850   148.0530   -62.3120     5.1680     4.2220     3.6230   -23.8790     8.8120    88.0320   -44.7950     0.2700
 3416.0000     0.0410   -25.5740     2.4800   149.9310   -62.3620     4.9740     4.1120     3.5050   -23.9070     8.8070    88.5970   -44.7950     0.2720
 3416.5000     0.0500   -25.6850     2.4750   151.1410   -62.4110     4.7800     4.0020     3.3880   -23.9350     8.8020    89.2740   -44.7950     0.2800
 3417.0000     0.0600   -25.7960     2.4700   152.3830   -62.4320     4.5850     3.8920     3.2710   -23.9630     8.7970    90.0760   -44.7950     0.2890
 3417.5000     0.0660   -25.9080     2.4650   151.6300   -62.3430     4.3910     3.7820     3.1530   -23.9910     8.7920    91.2010   -44.7950     0.2990
 3418.0000     0.0340   -26.0190     2.4600   149.7730   -62.2560     4.1960     3.6790     3.0330   -24.0190     8.7870    92.2060   -44.7950     0.2970
 3418.5000     0.0270   -26.1300     2.4560   150.4270   -62.1690     3.9970     3.6460     3.0330   -24.0470     8.7820    93.1340   -44.7950     0.3080
 3419.0000     0.0280   -26.2420     2.4630   153.1380   -62.0790     4.0630     3.6900     3.0330   -24.0750     8.7790    93.5800   -44.7950     0.3100
 3419.5000     0.0360   -26.3530     2.4690   155.9790   -62.0530     4.2390     3.7660     3.0670   -24.1030     8.7790    93.4790   -44.7950     0.3080
 3420.0000     0.0440   -26.4640     2.4760   154.8740   -62.0520     4.4150     3.8430     3.1270   -24.1320     8.7790    93.2790   -44.7950     0.3050
 3420.5000     0.0520   -26.5760     2.4780   152.1160   -62.0520     4.5910     3.9190     3.1870   -24.1600     8.7790    92.7930   -45.0110     0.2990
 3421.0000     0.0600   -26.6870     2.4780   149.2290   -62.0520     4.7670     3.9970     3.2470   -24.1880     8.7770    92.3080   -45.2610     0.3000
 3421.5000     0.0680   -26.7980     2.4760   148.5220   -62.0470     4.8050     3.9910     3.3070   -24.2160     8.7720    91.8230   -45.5120     0.2970
 3422.0000     0.0740   -26.9100     2.4750   148.6020   -62.0320     4.7480     3.9840     3.3590   -24.2440     8.7680    91.3370   -45.7630     0.2930
 3422.5000     0.0700   -27.0210     2.4740   148.7080   -62.2790     4.6760     3.9770     3.3730   -24.2720     8.7630    91.2010   -46.0130     0.2930
 3423.0000     0.0650   -27.1320     2.4780   148.7120   -62.7500     4.6030     3.9710     3.3880   -24.3000     8.7590    91.2700   -46.2640     0.2940
 3423.5000     0.0610   -27.2440     2.4820   146.9070   -63.2210     4.5460     3.9640     3.4030   -24.3280     8.7540    91.4910   -46.5150     0.2960
 3424.0000     0.0450   -27.3550     2.4860   145.1300   -63.6340     4.5460     3.9600     3.4170   -24.3560     8.7490    91.7450   -46.7650     0.2980
 3424.5000     0.0410   -27.4660     2.4900   143.3120   -63.8640     4.5460     3.9600     3.4320   -24.3840     8.7450    91.9980   -47.0160     0.2990
 3425.0000     0.0540   -27.5780     2.4930   142.7960   -63.8480     4.5460     3.9600     3.4470   -24.4120     8.7400    92.1770   -47.2660     0.3000
 3425.5000     0.0680   -27.6890     2.4950   142.6990   -63.8450     4.5740     3.9690     3.4610   -24.4400     8.7360    92.0500   -47.5170     0.2990
 3426.0000     0.0670   -27.8000     2.4940   142.6190   -63.8390     4.6020     3.9830     3.4760   -24.4680     8.7310    91.8130   -47.7680     0.2970
 3426.5000     0.0610   -27.9120     2.4920   142.5350   -63.5280     4.6300     3.9970     3.4910   -24.4960     8.7270    91.5560   -48.0180     0.2950
 3427.0000     0.0550   -28.0230     2.4900   142.4180   -63.1820     4.6570     4.0110     3.5050   -24.5250     8.7220    91.3250   -48.2690     0.2940
 3427.5000     0.0620   -28.1340     2.4890   143.9680   -62.8350     4.6890     4.0250     3.5140   -24.5530     8.7180    91.2010   -48.5190     0.2940
 3428.0000     0.0760   -28.2460     2.4890   146.0620   -62.4890     4.7280     4.0340     3.5140   -24.5810     8.7130    91.2010   -48.7700     0.2930
 3428.5000     0.0760   -28.3570     2.4890   148.1920   -62.1420     4.7670     4.0340     3.4820   -24.6090     8.7090    91.2010   -49.0210     0.2950
 3429.0000     0.0630   -28.4680     2.4890   148.1180   -61.7950     4.8050     4.0340     3.4820   -24.6370     8.7040    91.2010   -49.2710     0.2960
 3429.5000     0.0500   -28.5800     2.4880   146.1430   -61.4480     4.7600     4.0340     3.4820   -24.6650     8.6990    91.2010   -49.5220     0.2970
 3430.0000     0.0500   -28.6910     2.4850   144.7620   -61.0990     4.6520     3.9970     3.4820   -24.6930     8.6990    91.3010   -49.7730     0.2980
 3430.5000     0.0580   -28.8020     2.4810   147.0710   -60.7460     4.5440     3.9240     3.4500   -24.7210     8.6990    91.7790   -50.0230     0.2990
 3431.0000     0.0670   -28.9140     2.4780   149.4050   -60.2950     4.4360     3.8360     3.4050   -24.7490     8.6990    92.2860   -50.2740     0.3000
 3431.5000     0.0730   -29.0250     2.4730   151.7460   -60.0510     4.3290     3.7480     3.3600   -24.7770     8.7000    92.7940   -50.5240     0.3000
 3432.0000     0.0550   -29.1360     2.4590   152.3920   -60.5310     4.2240     3.6790     3.3160   -24.8050     8.7050    93.1520   -50.7750     0.3040
