~VERSION INFORMATION
 VERS.                2.0:   CWLS LOG ASCII STANDARD - VERSION 2.0
 WRAP.                 NO:   ONE LINE PER DEPTH STEP
~WELL INFORMATION
#MNEM.UNIT      DATA TYPE    INFORMATION
#----------   ------------   ------------------------------
 STRT.F          198.0000:   START DEPTH
 STOP.F         3252.0000:   STOP DEPTH
 STEP.F            0.5000:   STEP LENGTH
 NULL.          -999.2500:   NO VALUE
 COMP. FENIX & SCISSON - U.S. NAVY:   COMPANY
 WELL.   FENIX A X #21-33:   WELL
 FLD .              NPR-3:   FIELD
 LOC .      S33 T39N R78W:   LOCATION
 CNTY.            NATRONA:   COUNTY
 STAT.            WYOMING:   STATE
 CTRY. UNITED STATES OF AMERICA:   COUNTRY
 SRVC.              WELEX:   SERVICE COMPANY
 DATE.        06-JUN-1977:   LOGDATE
 API .     49025103750000:   API NUMBER
~CURVE INFORMATION
#MNEM.UNIT       API CODE    CURVE DESCRIPTION
#----------   ------------   ------------------------------
 DEPT.F                  :   
 CALD.IN     45 280 60 00:   CALIPER FROM DENSITY LOG
 GRD .GAPI   45 310 01 00:   GAMMA RAY FROM DENSITY LOG
 RHOB.G/C3   45 350 01 00:   BULK DENSITY
 CORR.G/C3   45 356 01 00:   DENSITY CORRECTION
 NPHI.DEC    42 890 01 00:   NEUTRON POROSITY LIMESTONE
 SPR .MV     07 010 01 00:   SPONTANEOUS POTENTIAL
 GURD.OHMM   07 220 05 00:   GUARD LOG RESISTIVITY
 FORX.OHMM   07 220 00 00:   FORMATION FACTOR
~PARAMETER INFORMATION
#MNEM.UNIT          VALUE    DESCRIPTION
#----------   ------------   ------------------------------
 EKB .F         5147.0000:   Kelly bushing
 EGL .F         5137.0000:   Ground level
 EDF .F            0.0000:   Drilling floor
 EPD .F            0.0000:   Permanent datum
 TD  .F         3254.0000:   Total depth
 CLNT.            A2DTECH:   Client Code
 SL  . 660' FNL & 1320' FWL:   Surface Location
 PD  .                 GL:   Permanent Datum
 DAPD.F                10:   Feet Above Permanent Datum
 DATE.        06-JUN-1977:   Date Logged [DD-MMM-YYYY]
 DD  .F              3249:   Depth driller
 DL  .F              3254:   Depth logger
 BLI .F              3252:   Bottom log interval
 TLI .F               200:   Top log interval
 CS1 .IN            8.625:   Casing size
 CBD1.      8.625" @ 204':   Casing driller 1
 CBL1.F               221:   Casing logger 1
 BS1 .IN            7.875:   Bit size
 BSD1.F              3249:   Depth drilled with bit1
 DFT .            KCL MUD:   Type fluid in hole
 DFD .                  9:   Density
 DFV .                134:   Viscosity
 DFPH.                7.5:   pH
 DFL .                7.8:   Fluid loss
 MSS .           FLOWLINE:   Source of sample
 RMS .OHMM           0.64:   Rm
 MST .F                85:   Rm Meas. temp.
 RMF .OHMM           0.61:   Rmf
 MFST.F                85:   Rmf Meas. temp.
 MFSS.           FANN KIT:   Source Rmf.
 RMC .OHMM              1:   Rmc
 MCST.F                85:   Rmc Meas. temp.
 MCSS.           FANN KIT:   Source Rmc.
 RMB .OHMM           0.46:   Rm. at BHT
 BHT .F               116:   BHT.
 TCS .HRS             2.5:   Time Circ. stopped
 MRT .F               116:   Maximum recorded temp.
 LUN .               8611:   Logging unit number
 LUL .             CASPER:   Logging unit location
 ENGI.            C. DOAK:   Recorded By
 WITN.      B. HARRINGTON:   Witnessed by
 ORIG.           5" PRINT:   Origin of data
 UWI .     49025103750000:   Unique Well ID
 DICO. A2D TECHNOLOGIES, INC.:   Digitizing Company
~OTHER INFORMATION
~A   DEPT     CALD         GRD      RHOB       CORR       NPHI        SPR       GURD       FORX   
# ...
 1413.0000     9.7255    98.3132     2.5106     0.0305     0.3350   -43.9961     9.7771     4.4472
 1413.5000     9.7268   100.4137     2.5174     0.0276     0.3365   -43.9961     9.5161     4.4518
 1414.0000     9.6982    98.9481     2.5265     0.0262     0.3370   -43.9961     9.4490     4.4230
 1414.5000     9.6995    95.9139     2.5304     0.0296     0.3370   -43.9961     9.5342     4.4592
 1415.0000     9.6714    91.2671     2.5290     0.0310     0.3364   -43.9961     9.2120     4.5592
 1415.5000     9.6426    89.7964     2.5253     0.0311     0.3357   -43.9961     9.1570     4.6614
 1416.0000     9.6142    91.0104     2.5150     0.0297     0.3345   -43.9961     9.4859     4.6675
 1416.5000     9.6006    89.2476     2.5158     0.0269     0.3333   -43.9961     9.6240     4.5375
 1417.0000     9.5870    89.5650     2.5211     0.0255     0.3315   -43.9961     9.3044     4.4462
 1417.5000     9.5886    88.9909     2.5242     0.0242     0.3290   -43.9961     9.5051     4.5146
 1418.0000     9.5899    87.8217     2.5217     0.0243     0.3239   -43.9961    10.6914     4.6819
 1418.5000     9.6061    90.2202     2.5155     0.0229     0.3212   -43.9961     9.4510     4.8901
 1419.0000     9.6074    95.3559     2.5163     0.0231     0.3218   -43.9961    10.4149     4.9643
 1419.5000     9.6237    99.9134     2.5239     0.0262     0.3241   -43.9961     8.8352     4.9332
 1420.0000     9.6252   102.7675     2.5278     0.0264     0.3260   -43.9961     8.5378     4.8331
 1420.5000     9.6414   103.9764     2.5264     0.0280     0.3277   -43.9961     9.2842     4.8371
 1421.0000     9.6576   101.3221     2.5242     0.0266     0.3282   -43.9961     8.7320     4.8069
 1421.5000     9.6589    99.8514     2.5206     0.0268     0.3279   -43.9961     8.6183     4.5772
 1422.0000     9.6602   100.1739     2.5132     0.0269     0.3270   -43.9961     9.6306     4.4843
 1422.5000     9.6764   101.0857     2.5126     0.0285     0.3251   -43.9961     7.8378     4.6590
 1423.0000     9.6926    99.9173     2.5172     0.0287     0.3221   -43.9963     8.0622     4.7898
 1423.5000     9.6939    96.3548     2.5285     0.0318     0.3191   -43.9958     8.5837     4.7938
 1424.0000     9.7101    91.8989     2.5346     0.0319     0.3184   -43.9781     9.1388     4.6632
 1424.5000     9.7117    93.4452     2.5377     0.0335     0.3203   -43.9047     9.5309     4.5676
 1425.0000     9.7279    92.2768     2.5453     0.0339     0.3221   -43.8343    11.5663     4.7379
 1425.5000     9.7292    89.9196     2.5513     0.0383     0.3240   -43.7640     8.7865     5.1277
 1426.0000     9.7305    88.1518     2.5470     0.0400     0.3261   -43.6937     8.4940     5.2427
 1426.5000     9.7318    87.5777     2.5284     0.0341     0.3273   -43.6208     8.8784     5.0279
 1427.0000     9.7331    88.7917     2.5232     0.0268     0.3272   -43.6333    10.1764     4.9258
 1427.5000     9.7344    89.4063     2.5271     0.0239     0.3272   -43.6946     8.4549     4.8950
 1428.0000     9.7357    87.3463     2.5309     0.0225     0.3260   -43.7561     8.3435     4.8992
 1428.5000     9.7371    87.4147     2.5303     0.0197     0.3247   -43.8177     8.5838     4.9392
 1429.0000     9.7387    90.6609     2.5252     0.0198     0.3238   -43.8792    11.0072     5.0499
 1429.5000     9.7251    94.8416     2.5125     0.0214     0.3228   -43.9407     8.8966     4.9828
 1430.0000     9.7264    97.8336     2.5052     0.0231     0.3216   -44.0022     8.4820     4.8127
 1430.5000     9.7125   101.4200     2.5049     0.0262     0.3210   -44.0638     9.0429     4.7816
 1431.0000     9.7141   103.2234     2.5241     0.0293     0.3204   -44.1258     8.7322     4.8551
 1431.5000     9.7154   103.5357     2.5362     0.0355     0.3203   -44.1900     8.7389     4.9288
 1432.0000     9.7167    95.8345     2.5377     0.0371     0.3203   -44.1721    10.6043     4.9329
 1432.5000     9.7180    90.8027     2.5371     0.0372     0.3197   -44.1424     8.1127     4.9370
 1433.0000     9.7193    91.4207     2.5387     0.0373     0.3191   -44.1124     8.7573     4.9412
 1433.5000     9.7058    92.6297     2.5418     0.0405     0.3187   -44.0826    10.3387     4.8707
 1434.0000     9.6922    94.4330     2.5516     0.0436     0.3178   -44.0527     8.6491     4.8106
 1434.5000     9.6938    96.2363     2.5637     0.0482     0.3166   -44.0229     8.3045     4.6805
 1435.0000     9.6799    98.9312     2.5743     0.0499     0.3153   -43.9931     8.4254     4.6173
 1435.5000     9.6815   103.7063     2.5761     0.0500     0.3135   -43.9633     8.3718     4.5884
 1436.0000     9.6676   111.1793     2.5550     0.0486     0.3117   -43.9334    10.3006     4.6590
 1436.5000     9.6541   112.3649     2.5467     0.0458     0.3102   -43.9036     9.2492     4.8317
 1437.0000     9.6259    92.7766     2.5343     0.0429     0.3080   -43.8738     8.8046     5.0466
 1437.5000     9.6124    90.4194     2.5277     0.0416     0.3065   -43.8440     8.2240     5.1231
 1438.0000     9.5988    88.9538     2.5375     0.0417     0.3053   -43.8141     9.0628     5.0550
 1438.5000     9.6004    88.6718     2.5421     0.0418     0.3055   -43.7999     8.0127     4.9153
 1439.0000     9.6017    88.6972     2.5437     0.0420     0.3073   -43.8221     8.8299     4.8469
 1439.5000     9.6030    88.7174     2.5431     0.0421     0.3092   -43.8680     9.5314     4.7534
 1440.0000     9.6043    88.1426     2.5417     0.0422     0.3111   -43.9136    10.2869     4.8610
 1440.5000     9.6056    88.1636     2.5388     0.0406     0.3123   -43.9594     9.0934     4.9348
 1441.0000     9.5917    88.8024     2.5289     0.0350     0.3131   -44.0052    10.5904     5.0454
 1441.5000     9.5784    92.6668     2.5136     0.0321     0.3137   -44.0510    11.5088     5.1585
 1442.0000     9.5649    93.8758     2.5084     0.0308     0.3140   -44.0968     9.8987     5.3118
 1442.5000     9.5662    90.0328     2.5115     0.0324     0.3143   -44.1430     8.1677     5.2412
 1443.0000     9.5676    85.8925     2.5184     0.0356     0.3142   -44.1902     8.6721     4.9203
 1443.5000     9.5691    82.3467     2.5312     0.0387     0.3136   -44.1919     8.7019     4.7196
 1444.0000     9.5552    82.9613     2.5365     0.0388     0.3130   -44.2395     9.9957     4.6229
 1444.5000     9.5569    84.1703     2.5321     0.0374     0.3123   -44.2912     8.8360     4.6985
 1445.0000     9.5582    84.1905     2.5390     0.0376     0.3111   -44.3431     8.3678     5.0085
 1445.5000     9.5595    83.9136     2.5459     0.0362     0.3075   -44.3949     8.9090     5.0485
 1446.0000     9.5456    83.2967     2.5474     0.0334     0.3035   -44.4468    10.1600     4.9460
 1446.5000     9.5621    83.0262     2.5363     0.0275     0.3016   -44.4987     8.2132     4.8113
 1447.0000     9.5634    82.1964     2.5222     0.0216     0.2996   -44.5497     9.3038     4.7473
 1447.5000     9.5647    81.9144     2.5096     0.0173     0.2996   -44.5869     9.5591     4.8193
 1448.0000     9.5812    81.9398     2.5037     0.0174     0.2965   -44.5651     8.5772     5.0696
 1448.5000     9.5974    81.9600     2.5083     0.0191     0.2959   -44.5223     8.9492     5.1465
 1449.0000     9.6136    83.1690     2.5129     0.0222     0.2962   -44.4797     9.5095     5.2246
 1449.5000     9.6149    84.9723     2.5167     0.0238     0.2964   -44.4368    10.1397     5.2290
 1450.0000     9.6162    87.9643     2.5131     0.0254     0.2982   -44.3940     7.8638     5.1962
 1450.5000     9.5877    90.1798     2.5019     0.0224     0.3000   -44.3512     9.3457     5.0918
 1451.0000     9.5737    92.3953     2.4946     0.0182     0.2999   -44.3085    10.0147     5.0230
 1451.5000     9.5751    94.8363     2.4917     0.0183     0.3011   -44.2657     8.4338     4.9562
 1452.0000     9.5912    94.8479     2.4956     0.0184     0.3071   -44.2229     8.7316     4.8903
 1452.5000     9.5923    92.7793     2.5046     0.0185     0.3107   -44.1801     8.4388     4.8607
 1453.0000     9.5935    89.5220     2.5152     0.0216     0.3120   -44.1373     8.4497     4.8648
