~VERSION INFORMATION
 VERS.                2.0:   CWLS LOG ASCII STANDARD - VERSION 2.0
 WRAP.                 NO:   ONE LINE PER DEPTH STEP
~WELL INFORMATION
#MNEM.UNIT      DATA TYPE    INFORMATION
#----------   ------------   ------------------------------
 STRT.F          208.0000:   START DEPTH
 STOP.F         2980.0000:   STOP DEPTH
 STEP.F            0.5000:   STEP LENGTH
 NULL.          -999.2500:   NO VALUE
 COMP. FENIX & SCISSON INC:   COMPANY
 WELL. FENIX  32AX #28-28:   WELL
 FLD .        TEAPOT DOME:   FIELD
 LOC .      S28 T39N R78W:   LOCATION
 CNTY.            NATRONA:   COUNTY
 STAT.            WYOMING:   STATE
 CTRY. UNITED STATES OF AMERICA:   COUNTRY
 SRVC.           BIRDWELL:   SERVICE COMPANY
 DATE.        09-OCT-1977:   LOGDATE
 API .     49025104430000:   API NUMBER
~CURVE INFORMATION
#MNEM.UNIT       API CODE    CURVE DESCRIPTION
#----------   ------------   ------------------------------
 DEPT.F                  :   
 SPR .MV     05 010 01 00:   SPONTANEOUS POTENTIAL
 ILD .OHMM   05 120 46 00:   DEEP INDUCTION RESISTIVITY
 SN  .OHMM   05 040 16 00:   SHORT NORMAL
 GRD .GAPI   45 310 01 00:   GAMMA RAY FROM DENSITY LOG
 CALD.IN     45 280 60 00:   CALIPER FROM DENSITY LOG
 CORR.G/C3   45 356 01 00:   DENSITY CORRECTION
 DEN .G/C3   45 350 01 00:   BULK DENSITY
~PARAMETER INFORMATION
#MNEM.UNIT          VALUE    DESCRIPTION
#----------   ------------   ------------------------------
 EKB .F         5005.0000:   Kelly bushing
 EGL .F         4995.0000:   Ground level
 EDF .F            0.0000:   Drilling floor
 EPD .F         4995.0000:   Permanent datum
 TD  .F         2980.0000:   Total depth
 DATE.        09-OCT-1977:   Date logged
 CLNT.            A2DTECH:   Client Code
 SL  . 990' FNL & 1650' FWL:   Surface Location
 PD  .                 GL:   Permanent Datum
 DAPD.F                10:   Feet Above Permanent Datum
 DD  .F              2980:   Depth driller
 DL  .F              2979:   Depth logger
 BLI .F              2974:   Bottom log interval
 TLI .F               221:   Top log interval
 CS1 .IN            8.625:   Casing size
 CBD1.      8.625" @ 211':   Casing driller 1
 CBL1.F               221:   Casing logger 1
 BS1 .IN            7.875:   Bit size
 BSD1.F              2980:   Depth drilled with bit1
 DFT .            KCL GEL:   Type fluid in hole
 DFD .                8.8:   Density
 DFV .                 33:   Viscosity
 DFPH.                 11:   pH
 DFL .                6.4:   Fluid loss
 MSS .           FLOWLINE:   Source of sample
 RMS .OHMM            .52:   Rm
 MST .F                59:   Rm Meas. temp.
 RMF .OHMM            .67:   Rmf
 MFST.F                54:   Rmf Meas. temp.
 RMC .OHMM            .45:   Rmc
 MCST.F                56:   Rmc Meas. temp.
 MFSS.               MEAS:   Source Rmf.
 MCSS.               MEAS:   Source Rmc.
 RMB .OHMM            .35:   Rm. at BHT
 BHT .F                91:   BHT.
 TCS .HRS               3:   Time Circ. stopped
 MRT .F                91:   Maximum recorded temp.
 LUN .               2958:   Logging unit number
 LUL .             CASPER:   Logging unit location
 ENGI.                LAW:   Recorded By
 WITN.       W. PENINGELL:   Witnessed by
 ORIG.           5" PRINT:   Origin of data
 UWI .     49025104430000:   Unique Well ID
 DICO. A2D TECHNOLOGIES, INC.:   Digitizing Company
~OTHER INFORMATION
~A   DEPT      SPR        ILD         SN         GRD      CALD       CORR        DEN   
# ...
 1846.0000   -48.6110     8.8330     9.8570   156.8270     8.0900     0.0240     2.4910
 1846.5000   -48.9350     8.8060     9.8510   159.8580     8.0870     0.0250     2.4940
 1847.0000   -48.8060     8.7770     9.8460   162.3180     8.0850     0.0270     2.4930
 1847.5000   -48.4490     8.7470     9.8400   166.4180     8.0860     0.0300     2.4960
 1848.0000   -49.2030     8.7180     9.8350   162.1130     8.0860     0.0280     2.4910
 1848.5000   -49.1140     8.6880     9.8290   165.0000     8.0870     0.0210     2.4810
 1849.0000   -48.9980     8.6720     9.8240   168.1540     8.0870     0.0140     2.4710
 1849.5000   -49.0920     8.5670     9.8180   170.1390     8.0880     0.0080     2.4640
 1850.0000   -49.1860     8.4440     9.8130   171.4360     8.0880     0.0120     2.4670
 1850.5000   -49.2800     8.3590     9.8070   169.0410     8.0890     0.0160     2.4700
 1851.0000   -49.3750     8.3950     9.8020   167.2350     8.0890     0.0200     2.4730
 1851.5000   -49.4690     8.4360     9.7960   167.5500     8.0900     0.0250     2.4790
 1852.0000   -49.5650     8.3490     9.7900   163.5650     8.0900     0.0270     2.4950
 1852.5000   -49.4980     8.2250     9.7850   163.0400     8.0900     0.0270     2.5080
 1853.0000   -49.3640     8.3830     9.7760   164.5530     8.0910     0.0270     2.5010
 1853.5000   -49.2310     8.5140     9.7690   163.3340     8.0910     0.0230     2.4940
 1854.0000   -49.1450     8.4670     9.8670   168.2530     8.0920     0.0150     2.4880
 1854.5000   -49.0960     8.4360     9.8680   167.3980     8.0920     0.0170     2.4910
 1855.0000   -49.0470     8.4730     9.8690   172.2920     8.0930     0.0200     2.4970
 1855.5000   -48.9980     8.5050     9.8760   172.0840     8.0930     0.0180     2.4920
 1856.0000   -48.9490     8.5370     9.8800   164.9620     8.0940     0.0170     2.4890
 1856.5000   -48.9010     8.5690     9.8850   167.7690     8.0940     0.0260     2.5170
 1857.0000   -48.8510     8.6000     9.8890   170.5310     8.0950     0.0270     2.5080
 1857.5000   -48.8050     8.6320     9.8930   171.0350     8.0950     0.0230     2.4990
 1858.0000   -48.7950     8.6640     9.8980   166.4210     8.0960     0.0230     2.5110
 1858.5000   -48.5360     8.6950     9.9020   164.0940     8.0960     0.0250     2.5020
 1859.0000   -48.4430     8.7270     9.9060   169.0210     8.0970     0.0240     2.5100
 1859.5000   -48.3420     8.7590     9.9100   170.2420     8.0970     0.0130     2.4670
 1860.0000   -48.2430     8.7910     9.9150   161.3420     8.0980     0.0040     2.4710
 1860.5000   -48.2150     8.8220     9.9190   160.6060     8.0980     0.0060     2.4740
 1861.0000   -48.5740     8.8410     9.9230   156.0560     8.0990     0.0130     2.4880
 1861.5000   -48.8180     8.8520     9.9280   157.3600     8.0990     0.0220     2.4990
 1862.0000   -49.0530     8.8640     9.9320   160.6030     8.1000     0.0220     2.5030
 1862.5000   -49.2190     8.8760     9.9360   159.7200     8.1000     0.0260     2.5040
 1863.0000   -49.3150     8.8870     9.9400   161.1200     8.1010     0.0280     2.4970
 1863.5000   -49.4110     8.8990     9.9450   156.7290     8.1010     0.0180     2.4940
 1864.0000   -49.5050     8.9140     9.9490   163.1840     8.1020     0.0210     2.5010
 1864.5000   -49.5650     8.7490     9.9520   170.5030     8.1020     0.0250     2.5090
 1865.0000   -49.5200     8.4370     9.7570   166.6320     8.1030     0.0250     2.5060
 1865.5000   -49.4770     7.9840     9.5840   172.5210     8.1030     0.0210     2.4900
 1866.0000   -49.4330     7.9920     9.4110   171.0210     8.1030     0.0260     2.5030
 1866.5000   -49.3890     8.0160     9.1630   174.0310     8.1040     0.0270     2.4960
 1867.0000   -49.2990     8.0390     9.3060   172.6720     8.1040     0.0290     2.4890
 1867.5000   -49.0970     8.0580     9.5570   175.8690     8.1050     0.0310     2.5080
 1868.0000   -48.8970     8.2170     9.8090   168.6750     8.1160     0.0310     2.5010
 1868.5000   -48.7710     8.3800     9.8620   173.8710     8.1240     0.0290     2.4960
 1869.0000   -48.7880     8.5430     9.7940   167.7810     8.1230     0.0280     2.4920
 1869.5000   -49.1690     8.6720     9.7380   159.9890     8.1210     0.0300     2.4990
 1870.0000   -48.9000     8.6720     9.6820   163.6650     8.1200     0.0330     2.5050
 1870.5000   -48.5850     8.6720     9.7980   158.3140     8.1180     0.0300     2.4990
 1871.0000   -48.5720     8.6720     9.9400   153.2400     8.1170     0.0290     2.4990
 1871.5000   -48.7080     8.6720     9.8280   148.7700     8.1150     0.0320     2.5080
 1872.0000   -48.9120     8.6720     9.6330   152.4780     8.1140     0.0240     2.4960
 1872.5000   -49.1910     8.7520     9.3330   152.1460     8.1130     0.0150     2.4750
 1873.0000   -49.2220     8.7520     9.3820   154.4340     8.1110     0.0150     2.4770
 1873.5000   -49.2750     8.6740     9.4870   155.9390     8.1100     0.0140     2.4790
 1874.0000   -49.3310     8.6000     9.5920   160.2720     8.1080     0.0120     2.4810
 1874.5000   -49.3870     8.5270     9.6980   163.0180     8.1070     0.0100     2.4810
 1875.0000   -49.4430     8.4540     9.7720   167.6600     8.1050     0.0090     2.4780
 1875.5000   -49.4980     8.3800     9.7610   165.7190     8.1040     0.0130     2.4760
 1876.0000   -49.5550     8.2830     9.7390   163.4180     8.1020     0.0170     2.4810
 1876.5000   -49.5690     8.3590     9.7170   169.2810     8.1010     0.0170     2.4870
 1877.0000   -49.5700     8.2580     9.6950   164.3260     8.0990     0.0160     2.4930
 1877.5000   -49.5700     8.2070     9.6730   168.4710     8.0980     0.0140     2.4860
 1878.0000   -49.5700     8.2070     9.6510   170.9100     8.0960     0.0100     2.4750
 1878.5000   -49.5700     8.2070     9.6290   165.3000     8.0950     0.0090     2.4710
 1879.0000   -49.5700     8.2070     9.6080   165.3000     8.0940     0.0140     2.4890
 1879.5000   -49.5700     8.2070     9.5400   169.1500     8.0920     0.0190     2.5020
 1880.0000   -49.5690     8.2070     9.3940   167.6400     8.0910     0.0240     2.5140
 1880.5000   -49.5690     8.2070     9.3330   165.1580     8.0890     0.0190     2.4920
 1881.0000   -49.4940     8.2070     9.3330   167.1750     8.0880     0.0100     2.4730
 1881.5000   -49.3700     8.2070     9.4300   163.3720     8.0860     0.0050     2.4650
 1882.0000   -49.2460     8.2070     9.4470   167.3620     8.0850     0.0150     2.4760
 1882.5000   -49.1190     8.2070     9.4650   162.4690     8.0850     0.0170     2.4770
 1883.0000   -48.9860     8.2090     9.4820   160.4530     8.0850     0.0170     2.4760
 1883.5000   -49.2120     8.1250     9.5060   162.3870     8.0850     0.0170     2.4740
 1884.0000   -49.4950     8.0440     9.4700   160.3620     8.0850     0.0180     2.4780
 1884.5000   -49.7710     7.9840     9.3870   160.7610     8.0850     0.0200     2.4780
 1885.0000   -49.9640     8.1320     9.3040   161.3700     8.0850     0.0190     2.4780
 1885.5000   -49.9680     8.1090     9.2220   165.5730     8.0850     0.0190     2.4780
 1886.0000   -49.9670     8.0580     9.1390   165.9360     8.0850     0.0180     2.4780
 1886.5000   -49.9670     8.0070     9.0790   164.5790     8.0850     0.0170     2.4820
 1887.0000   -49.9680     7.9570     9.2220   167.4300     8.0850     0.0250     2.4900
 1887.5000   -49.9390     7.9110     9.4190   168.0210     8.0850     0.0290     2.5000
 1888.0000   -49.8990     7.9480     9.4010   167.1110     8.0850     0.0250     2.4930
 1888.5000   -49.8590     7.9840     9.3650   173.5410     8.0850     0.0280     2.4880
 1889.0000   -49.8190     7.9640     9.3290   167.9790     8.0850     0.0310     2.4910
 1889.5000   -49.7790     7.9460     9.2930   166.8950     8.0850     0.0280     2.4900
 1890.0000   -49.7390     7.9280     9.2570   168.6630     8.0850     0.0230     2.4770
 1890.5000   -49.6990     7.9110     9.2480   167.4120     8.0800     0.0250     2.4830
 1891.0000   -49.6590     7.8930     9.3330   171.7510     8.0650     0.0270     2.4890
