~VERSION INFORMATION
 VERS.                2.0:   CWLS LOG ASCII STANDARD - VERSION 2.0
 WRAP.                 NO:   ONE LINE PER DEPTH STEP
~WELL INFORMATION
#MNEM.UNIT      DATA TYPE    INFORMATION
#----------   ------------   ------------------------------
 STRT.F          261.0000:   START DEPTH
 STOP.F         2875.0000:   STOP DEPTH
 STEP.F            0.5000:   STEP LENGTH
 NULL.          -999.2500:   NO VALUE
 COMP.   LAWRENCE ALLISON:   COMPANY
 WELL. LAWRENCE ALLISON "X" #85-20:   WELL
 FLD .          N.P.R. #3:   FIELD
 LOC .      S20 T39N R78W:   LOCATION
 CNTY.            NATRONA:   COUNTY
 STAT.            WYOMING:   STATE
 CTRY. UNITED STATES OF AMERICA:   COUNTRY
 SRVC.      DRESSER ATLAS:   SERVICE COMPANY
 DATE.        23-JUL-1986:   LOGDATE
 API .     49025111030000:   API NUMBER
~CURVE INFORMATION
#MNEM.UNIT       API CODE    CURVE DESCRIPTION
#----------   ------------   ------------------------------
 DEPT.F                  :   
 CORR.G/C3   45 356 01 00:   DENSITY CORRECTION
 RHOB.G/C3   45 350 01 00:   BULK DENSITY
 CNC .DEC    42 890 03 00:   NEUTRON POROSITY SANDSTONE
 GRR .GAPI   07 310 01 00:   GAMMA RAY FROM RESISTIVITY
 CALR.IN     07 280 01 00:   CALIPER FROM RESISTIVITY
 SPR .MV     07 010 01 00:   SPONTANEOUS POTENTIAL
 TENR.LBS    07 635 01 00:   TENSION FROM RESISTIVITY
 RILD.OHMM   07 120 46 00:   DEEP INDUCTION RESISTIVITY
 RILM.OHMM   07 120 44 00:   INDUCTION LOG MEDIUM RESISTIVITY
 RFOC.OHMM   07 220 04 00:   RESISTIVITY FOCUSED LOG RES.
~PARAMETER INFORMATION
#MNEM.UNIT          VALUE    DESCRIPTION
#----------   ------------   ------------------------------
 EKB .F         5007.0000:   Kelly bushing
 EGL .F         4995.0000:   Ground level
 EDF .F            0.0000:   Drilling floor
 EPD .F         4995.0000:   Permanent datum
 TD  .F         2874.0000:   Total depth
 CLNT.            A2DTECH:   Client Code
 SL  . 307' FEL & 2237' FSL:   Surface Location
 DATE.        23-JUL-1986:   Date Logged [DD-MMM-YYYY]
 DD  .F              2870:   Depth driller
 DL  .F              2874:   Depth logger
 BLI .F              2872:   Bottom log interval
 TLI .F              2205:   Top log interval
 CS1 .              8.625:   Casing size
 CBD1.      8.625" @ 261':   Casing driller 1
 CBL1.IN              261:   Casing logger 1
 BS1 .IN            7.875:   Bit size
 BSD1.F              2870:   Depth drilled with bit1
 DFT .            KCL-GEL:   Type fluid in hole
 DFD .                9.0:   Density
 DFV .                 37:   Viscosity
 MSS .           MUD TANK:   Source of sample
 RMS .OHMM          0.257:   Rm
 MST .F                89:   Rm Meas. temp.
 RMF .OHMM           0.19:   Rmf
 MFST.F                89:   Rmf Meas. temp.
 MFSS.               CALC:   Source Rmf.
 RMC .OHMM           0.32:   Rmc
 MCST.F                89:   Rmc Meas. temp.
 MCSS.               CALC:   Source Rmc.
 RMB .OHMM           0.20:   Rm. at BHT
 BHT .F               116:   BHT.
 TCS .HRS               4:   Time Circ. stopped
 MRT .F               116:   Maximum recorded temp.
 LUN .            HL 6264:   Logging unit number
 LUL .           GILLETTE:   Logging unit location
 ENGI.      P.M. FAHLSING:   Recorded By
 WITN.           JENNINGS:   Witnessed by
 ORIG.         2.5" PRINT:   Origin of data
 UWI .     49025111030000:   Unique Well ID
 DICO. A2D TECHNOLOGIES, INC.:   Digitizing Company
~OTHER INFORMATION
~A   DEPT     CORR       RHOB        CNC         GRR        CALR      SPR        TENR       RILD      RILM         RFOC 
# ...
 2271.0000     1.4865     2.5009     0.2408   122.6244    10.0566   -98.6529   -40.9763     6.4950     6.1328     6.8825
 2271.5000     1.4815     2.5175     0.2366    98.1320    10.0568   -98.6559   -40.7544     6.4044     6.2159     7.6110
 2272.0000     1.4755     2.5340     0.2326    90.5722    10.0569   -98.5412   -40.5326     6.3242     6.3000     9.6971
 2272.5000     1.4741     2.5445     0.2353    98.5163    10.0572   -98.3676   -40.3107     6.4094     6.2987     9.3347
 2273.0000     1.4618     2.5175     0.2418   105.6380    10.0573   -98.0764   -40.0888     6.4957     6.3839     7.7219
 2273.5000     1.4573     2.4831     0.2423   111.5727    10.0575   -98.0794   -39.8669     6.5831     6.3826     7.1374
 2274.0000     1.4853     2.4771     0.2388   115.1335    10.0873   -97.9450   -39.6450     6.5812     6.4690     7.1593
 2274.5000     1.5061     2.4831     0.2346   116.3205    10.0874   -97.7912   -39.4231     6.5794     6.4677     7.5772
 2275.0000     1.5061     2.4876     0.2385   115.7270    10.1172   -97.7941   -39.2012     6.5775     6.4664     7.8595
 2275.5000     1.5039     2.4907     0.2421   112.7596    10.1174   -97.7971   -38.9793     6.5758     6.5539     7.8566
 2276.0000     1.4856     2.4877     0.2451   110.3858    10.1175   -97.8000   -38.7574     6.5740     6.6426     7.7261
 2276.5000     1.4624     2.4802     0.2476   110.3630    10.1177   -97.8029   -38.5355     6.4831     6.6412     7.3895
 2277.0000     1.4367     2.4787     0.2486   112.7596    10.1178   -97.5117   -38.3136     6.4632     6.6399     7.1315
 2277.5000     1.4218     2.4832     0.2490   113.3531    10.1180   -97.5147   -38.0917     6.3918     6.6385     7.5826
 2278.0000     1.4144     2.4878     0.2494   112.1662    10.1478   -97.5182   -37.8699     6.3900     6.6371     7.8719
 2278.5000     1.4419     2.4893     0.2509   111.5727    10.1479   -97.5211   -37.6480     6.3883     6.6357     7.9489
 2279.0000     1.4576     2.4877     0.2466   114.0547    10.1481   -97.5241   -37.4261     6.3866     6.6344     7.8378
 2279.5000     1.4577     2.4847     0.2438   119.9741    10.1482   -97.5270   -37.2042     6.4728     6.6330     7.5908
 2280.0000     1.4764     2.4832     0.2417   121.6617    10.1484   -97.5299   -36.9823     6.4708     6.6317     7.2485
 2280.5000     1.4976     2.4803     0.2418   119.1908    10.1782   -97.5328   -36.7604     6.5581     6.6436     7.1149
 2281.0000     1.5134     2.4807     0.2460   117.4502    10.1784   -97.5357   -36.5385     6.5819     6.7201     7.3838
 2281.5000     1.5308     2.4867     0.2473   115.5290    10.1785   -97.5387   -36.3166     6.6715     6.8111     7.6941
 2282.0000     1.5126     2.4956     0.2462   110.0094    10.1786   -97.8357   -36.0947     6.8550     6.9032     7.9733
 2282.5000     1.4578     2.4987     0.2438   107.4184    10.1788   -97.8386   -35.8728     6.9482     6.9967     8.1935
 2283.0000     1.4335     2.4983     0.2417   108.1048    10.1789   -97.8415   -35.6509     7.1080     7.0913     8.4200
 2283.5000     1.4336     2.4955     0.2423   108.6053    10.1791   -97.8444   -35.4290     7.2367     7.2095     8.4824
 2284.0000     1.4397     2.4955     0.2459   107.9010    10.1792   -97.8474   -35.2071     7.3007     7.2846     8.4258
 2284.5000     1.4519     2.4965     0.2474   105.7525    10.1794   -97.8503   -34.9853     7.3989     7.2829     8.3614
 2285.0000     1.4580     2.5053     0.2472   100.6332    10.1795   -97.8532   -34.7634     7.2963     7.1568     8.2449
 2285.5000     1.4824     2.5091     0.2453    99.7033    10.2094   -97.8561   -34.5415     7.1955     6.9614     8.0729
 2286.0000     1.5311     2.5110     0.2452   104.5899    10.2095   -98.1531   -34.3196     7.0589     6.8644     7.6881
 2286.5000     1.5555     2.5148     0.2467   111.1627    10.2096   -98.1561   -34.0977     6.8660     6.6770     7.3185
 2287.0000     1.5738     2.5269     0.2469   116.9771    10.2098   -98.1590   -33.8758     6.7154     6.5231     7.0412
 2287.5000     1.5677     2.5317     0.2397   119.8813    10.1803   -98.1619   -33.6539     6.5853     6.4043     7.2358
 2288.0000     1.5373     2.5293     0.2344   118.5123    10.1804   -98.4589   -33.4320     6.4053     6.2295     7.5789
 2288.5000     1.5313     2.5257     0.2374   116.7229    10.1806   -98.4618   -33.2101     6.2674     6.1728     7.5763
 2289.0000     1.5435     2.5257     0.2524   114.9338    10.1807   -98.4648   -32.9882     6.1065     6.0879     7.4708
 2289.5000     1.5374     2.5243     0.2691   113.1446    10.1809   -98.4677   -32.7663     5.9755     6.0867     7.2666
 2290.0000     1.5192     2.5258     0.2763   112.7596    10.1800   -98.7647   -32.5444     5.9296     6.0854     7.0680
 2290.5000     1.5314     2.5269     0.2668   113.5798    10.1515   -99.0617   -32.3225     6.0095     6.1678     6.9696
 2291.0000     1.5740     2.5288     0.2590   115.9624    10.1516   -99.3588   -32.1007     6.0480     6.1664     7.0632
 2291.5000     1.5802     2.5232     0.2560   116.0763    10.1518   -99.3618   -31.8788     6.1303     6.2499     7.2567
 2292.0000     1.5557     2.5165     0.2543   113.4401    10.1519   -99.3450   -31.6569     6.1707     6.1639     7.5583
 2292.5000     1.5433     2.5111     0.2543   110.4547    10.1553   -99.0734   -31.4350     6.1690     6.1237     7.6599
 2293.0000     1.5251     2.5072     0.2549   107.7409    10.1819   -98.7822   -31.2131     6.1673     6.0384     7.5532
 2293.5000     1.5129     2.5064     0.2567   107.9780    10.1820   -98.7511   -30.9912     6.1208     5.9131     7.4480
 2294.0000     1.5066     2.5080     0.2603   111.5569    10.1822   -98.4939   -30.7693     6.0354     5.8318     7.2444
 2294.5000     1.5012     2.5095     0.2567   113.0575    10.1823   -98.4527   -30.5474     5.8705     5.7895     7.0465
 2295.0000     1.4951     2.5102     0.2454   113.3531    10.2122   -98.2056   -30.3255     5.7101     5.7504     6.9483
 2295.5000     1.5012     2.5072     0.2358   113.3531    10.2123   -98.2089   -30.1036     5.5978     5.7923     6.7584
 2296.0000     1.5074     2.5013     0.2424   113.3531    10.2124   -98.2118   -29.8817     5.6732     5.8270     6.5737
 2296.5000     1.5159     2.5006     0.2496   113.9466    10.2126   -97.9203   -29.6598     5.6717     5.7469     6.5715
 2297.0000     1.5331     2.5053     0.2514   114.2889    10.2127   -97.6291   -30.2928     5.6698     5.6227     6.6598
 2297.5000     1.5454     2.5114     0.2490   114.5401    10.2129   -97.6324   -31.4693     5.5915     5.4391     6.9365
 2298.0000     1.5501     2.5127     0.2419   112.7596    10.2130   -97.6353   -32.6458     5.5142     5.3643     7.2248
 2298.5000     1.5518     2.5142     0.2425   110.9792    10.2132   -97.6382   -33.8222     5.4380     5.2906     7.3219
 2299.0000     1.5563     2.5157     0.2455   107.4184    10.2133   -97.6412   -34.9987     5.2902     5.2178     7.2199
 2299.5000     1.5483     2.5172     0.2473   103.8576    10.2135   -97.6441   -36.1752     5.2170     5.1460     6.9271
 2300.0000     1.5380     2.5172     0.2551   105.0445    10.2136   -97.3294   -37.3517     5.0752     5.0753     6.6462
 2300.5000     1.5567     2.5173     0.2629   107.4184    10.2035   -97.0414   -38.5282     5.0738     5.0055     6.2857
 2301.0000     1.6020     2.5173     0.2616   108.6053    10.1842   -97.0286   -39.7046     5.0037     4.9366     5.9530
 2301.5000     1.6173     2.5143     0.2580   109.7923    10.1250   -96.4331   -40.8811     4.9346     4.8687     6.1246
 2302.0000     1.5464     2.5083     0.2545   111.4080    10.0955   -95.8807   -42.0191     4.8664     4.8678     6.4699
 2302.5000     1.5199     2.5084     0.2479   112.5962    10.0660   -95.5389   -41.7899     4.8651     4.9336     6.7264
 2303.0000     1.5289     2.5054     0.2431   113.7845    10.0661   -94.9435   -41.5681     4.8637     5.0004     6.7240
 2303.5000     1.5322     2.5009     0.2408   114.9728    10.0960   -94.6449   -41.3462     4.9969     5.2083     6.5298
 2304.0000     1.5049     2.4844     0.2535   116.2964    10.0961   -93.9624   -41.1243     5.3483     5.5749     6.3615
