~VERSION INFORMATION
 VERS.                2.0:   CWLS LOG ASCII STANDARD - VERSION 2.0
 WRAP.                 NO:   ONE LINE PER DEPTH STEP
~WELL INFORMATION
#MNEM.UNIT      DATA TYPE    INFORMATION
#----------   ------------   ------------------------------
 STRT.F          648.0000:   START DEPTH
 STOP.F         3196.0000:   STOP DEPTH
 STEP.F            0.5000:   STEP LENGTH
 NULL.          -999.2500:   NO VALUE
 COMP.    FENIX & SCISSON:   COMPANY
 WELL.   FENIX "AX" #18-2:   WELL
 FLD .             NPR #3:   FIELD
 LOC .       S2 T38N R78W:   LOCATION
 CNTY.            NATRONA:   COUNTY
 STAT.            WYOMING:   STATE
 CTRY. UNITED STATES OF AMERICA:   COUNTRY
 SRVC.              WELEX:   SERVICE COMPANY
 DATE.        05-OCT-1980:   LOGDATE
 API .     49025108500000:   API NUMBER
~CURVE INFORMATION
#MNEM.UNIT       API CODE    CURVE DESCRIPTION
#----------   ------------   ------------------------------
 DEPT.F                  :   
 GRD .GAPI   45 310 01 00:   GAMMA RAY FROM DENSITY LOG
 CALD.IN     45 280 60 00:   CALIPER FROM DENSITY LOG
 CORR.G/C3   45 356 01 00:   DENSITY CORRECTION
 RHOB.G/C3   45 350 01 00:   BULK DENSITY
 SPR .MV     07 010 01 00:   SPONTANEOUS POTENTIAL FROM RES.
 ILD .OHMM   07 120 46 00:   INDUCTION LOG DEEP RESISTIVITY
 ILM .OHMM   07 120 44 00:   INDUCTION LOG MEDIUM RESISTIVITY
 SGRD.OHMM   07 220 05 00:   SHORT GUARD RESISTIVITY
~PARAMETER INFORMATION
#MNEM.UNIT          VALUE    DESCRIPTION
#----------   ------------   ------------------------------
 EKB .F         5162.0000:   Kelly bushing
 EGL .F         5152.0000:   Ground level
 EDF .F            0.0000:   Drilling floor
 TD  .F         3200.0000:   Total depth
 CLNT.            A2DTECH:   Client Code
 PD  .                 GL:   Permanent Datum
 EPD .F              5152:   Elevation Permanent Datum
 LMF .                 KB:   Log Measured From
 DMF .                 KB:   Drilling Measured From
 DAPD.F                10:   Feet Above Permanent Datum
 DATE.        05-OCT-1980:   Date Logged [DD-MMM-YYYY]
 DD  .F              3200:   Depth driller
 DL  .F              3198:   Depth logger
 BLI .F              3196:   Bottom log interval
 TLI .F               646:   Top log interval
 CS1 .IN            8.625:   Casing size
 CBD1.      8.625" @ 647':   Casing driller 1
 CBL1.F               650:   Casing logger 1
 BS1 .IN            7.875:   Bit size
 BSD1.F              3200:   Depth drilled with bit1
 DFT .           CHEM GEL:   Type fluid in hole
 DFD .                8.6:   Density
 DFV .                 38:   Viscosity
 DFPH.                9.5:   pH
 MSS .           FLOWLINE:   Source of sample
 MFSS.               MEAS:   Source Rmf.
 MCSS.               MEAS:   Source Rmc.
 RMB .OHMM           1.24:   Rm. at BHT
 BHT .F               118:   BHT.
 TCS .HRS               5:   Time Circ. stopped
 MRT .F               118:   Maximum recorded temp.
 LUN .               1892:   Logging unit number
 LUL .             CASPER:   Logging unit location
 ORIG.           5" PRINT:   Origin of data
 UWI .     49025108500000:   Unique Well ID
 DICO. A2D TECHNOLOGIES, INC.:   Digitizing Company
 SL  . 313' FSL & 565' FWL:   Surface Location
 RMS .               2.34:   Rm
~OTHER INFORMATION
~A   DEPT       GRD      CALD       CORR       RHOB        SPR        ILD        ILM       SGRD   
# ...
  972.0000    82.1525    11.9700     0.0247     2.4930   -37.2444     7.8287     8.0549     8.6563
  972.5000    82.1701    12.0007     0.0143     2.4995   -37.2287     7.7795     8.0033     8.7209
  973.0000    82.1877    12.0192     0.0084     2.4907   -37.2129     7.7317     8.0633     8.5469
  973.5000    83.0883    12.0477     0.0040     2.4766   -37.1971     7.6834     8.0108     8.3127
  974.0000    82.0058    12.0637     0.0042     2.4669   -37.1814     7.6352     7.9057     8.2662
  974.5000    78.2840    12.0797     0.0028     2.4618   -37.3133     7.5873     7.8011     8.3289
  975.0000    75.8819    12.0660     0.0048     2.4634   -37.2976     7.5930     7.6978     8.5075
  975.5000    75.0151    12.0529     0.0092     2.4680   -37.5733     7.5976     7.7014     8.6302
  976.0000    78.7771    12.0395     0.0154     2.4658   -37.7092     7.6022     7.7051     8.5755
  976.5000    80.9937    12.0114     0.0216     2.4644   -37.8411     7.6067     7.7095     8.5210
  977.0000    82.1107    11.9686     0.0248     2.4706   -37.9731     7.6113     7.7665     8.3512
  977.5000    83.0077    11.9404     0.0295     2.4844   -37.9534     7.5635     7.8238     8.3556
  978.0000    83.0249    11.8976     0.0372     2.4968   -38.0857     7.5682     7.7203     8.2467
  978.5000    79.7430    11.8683     0.0419     2.5059   -38.0694     7.4690     7.8853     8.0822
  979.0000    76.6811    11.8243     0.0390     2.5149   -38.0532     7.4221     7.7810     7.9210
  979.5000    75.1587    11.7695     0.0346     2.5083   -37.8864     7.3260     7.6220     7.8157
  980.0000    76.0557    11.7414     0.0316     2.4845   -37.8706     7.2300     7.5243     7.9295
  980.5000    77.1727    11.7277     0.0305     2.4711   -37.7071     7.1353     7.7928     8.0995
  981.0000    76.0543    11.7293     0.0291     2.4674   -37.6450     7.0904     7.8503     8.1600
  981.5000    75.4476    11.7600     0.0323     2.4728   -37.4909     7.0461     7.7991     8.0535
  982.0000    77.2287    11.8054     0.0355     2.4871   -37.2167     7.0019     7.6959     8.0014
  982.5000    80.5450    11.8802     0.0402     2.5008   -37.0532     7.0071     7.5949     8.1179
  983.0000    82.3218    11.9551     0.0419     2.5131   -37.0369     6.9621     7.4945     8.1223
  983.5000    81.6792    12.0005     0.0451     2.5217   -37.0178     6.9674     7.4386     8.1266
  984.0000    81.0323    12.0018     0.0362     2.5091   -37.0044     6.9226     7.3479     7.9645
  984.5000    83.2490    12.0031     0.0288     2.4860   -37.1340     6.9278     7.3522     7.9140
  985.0000    82.1708    11.9897     0.0244     2.4764   -37.2659     6.9320     7.3556     7.9787
  985.5000    78.4490    11.9913     0.0292     2.4922   -37.3529     6.9842     7.4100     8.1451
  986.0000    74.7273    11.9926     0.0429     2.5184   -37.3826     7.0368     7.4647     8.1494
  986.5000    75.6796    11.9939     0.0521     2.5350   -37.5143     7.1398     7.4682     7.8775
  987.0000    77.6949    11.9952     0.0477     2.5382   -37.6871     7.1441     7.4718     7.7728
  987.5000    79.1821    11.9965     0.0298     2.5299   -37.7770     7.1484     7.4247     8.1625
  988.0000    76.7800    11.9978     0.0254     2.5254   -38.0537     7.1035     7.3771     8.2234
  988.5000    75.4776    12.0138     0.0316     2.5286   -38.0379     7.1078     7.3806     7.8933
  989.0000    75.7148    12.0298     0.0424     2.5369   -38.0236     7.0631     7.3324     7.7369
  989.5000    78.3713    12.0458     0.0456     2.5407   -38.0074     6.9707     7.2855     7.7956
  990.0000    82.1275    12.0765     0.0381     2.5378   -37.9911     6.9270     7.3401     7.9081
  990.5000    83.6844    12.0925     0.0288     2.5260   -37.9748     6.8835     7.3944     7.9670
  991.0000    82.3820    12.1089     0.0204     2.5118   -37.9586     6.7943     7.3987     8.0264
  991.5000    77.1206    12.1182     0.0146     2.5045   -37.8923     6.7984     7.4533     8.1422
  992.0000    74.4985    12.1275     0.0087     2.5023   -37.6282     6.8496     7.5084     7.9798
  992.5000    74.9743    12.1368     0.0073     2.4987   -37.6124     6.9011     7.4594     7.7617
  993.0000    75.9266    12.1434     0.0044     2.4942   -37.4490     6.9530     7.4116     7.5597
  993.5000    77.6337    12.1594     0.0031     2.4883   -37.4332     6.9572     7.3649     7.9937
  994.0000    79.6304    12.1754     0.0033     2.4855   -37.2697     7.0097     7.3178     8.2216
  994.5000    80.9673    12.2061     0.0019     2.4945   -37.2540     7.0148     7.2210     8.0576
  995.0000    80.7646    12.2221     0.0021     2.4969   -37.2378     7.0191     7.0773     7.6821
  995.5000    80.1177    12.2528     0.0008     2.4932   -37.2185     6.9740     6.9828     7.6332
  996.0000    84.3182    12.2835     0.0025     2.4993   -37.3544     6.9302     6.8439     7.6375
  996.5000    83.8955    12.3155     0.0026     2.5031   -37.4863     6.8394     6.8471     7.5890
  997.0000    81.9333    12.3474     0.0028     2.4935   -37.4666     6.7509     6.8031     7.6466
  997.5000    79.7511    12.3907     0.0030     2.4906   -37.5154     6.7550     6.8064     7.6507
  998.0000    77.3490    12.4214     0.0031     2.4907   -37.5835     6.7592     6.7628     7.6012
  998.5000    73.7073    12.4668     0.0033     2.4930   -37.7149     6.7641     6.7667     7.5536
  999.0000    74.8377    12.4975     0.0050     2.4969   -37.8467     6.7681     6.7699     7.5051
  999.5000    76.4100    12.5429     0.0096     2.5037   -37.9787     6.8191     6.7731     7.5621
 1000.0000    77.5405    12.5883     0.0204     2.5112   -38.1106     6.7766     6.8777     7.4306
 1000.5000    77.5670    12.6485     0.0312     2.5180   -37.9432     6.8466     6.9305     7.8030
 1001.0000    77.8197    12.6939     0.0388     2.5196   -37.9274     6.8048     6.9406     7.1390
 1001.5000    78.2874    12.7540     0.0435     2.5145   -37.9117     6.7649     6.7512     7.2927
 1002.0000    81.4061    12.8141     0.0452     2.5093   -37.8434     6.7703     6.6638     7.8184
 1002.5000    82.9719    12.8596     0.0484     2.5132   -37.7698     6.6816     6.7162     7.8772
 1003.0000    81.4579    12.8780     0.0486     2.5215   -37.6962     6.6327     6.8619     7.7752
 1003.5000    79.9374    12.9066     0.0488     2.5230   -37.6226     6.5566     6.9133     7.7799
 1004.0000    80.4052    12.9485     0.0505     2.5208   -37.5490     6.5166     6.7311     7.7299
 1004.5000    81.3147    12.9723     0.0537     2.5202   -37.5036     6.4771     6.6424     7.5252
 1005.0000    80.8984    12.9736     0.0569     2.5263   -37.1909     6.4379     6.6015     7.4254
 1005.5000    80.4829    12.9749     0.0601     2.5346   -37.0259     6.3988     6.6076     7.4311
 1006.0000    80.9514    12.9764     0.0633     2.5400   -36.8610     6.3612     6.6126     7.3336
 1006.5000    81.6457    12.9627     0.0650     2.5415   -36.8437     6.3655     6.7097     7.2876
 1007.0000    81.8926    12.9643     0.0636     2.5386   -37.0156     6.3264     6.8091     7.3993
 1007.5000    81.6975    12.9803     0.0623     2.5312   -37.2523     6.3328     6.8614     7.6060
 1008.0000    81.2816    12.9666     0.0534     2.5201   -37.3827     6.3374     6.9141     7.7152
 1008.5000    80.2030    12.9241     0.0340     2.5024   -37.5342     6.3427     6.9192     7.4581
 1009.0000    79.3452    12.8520     0.0206     2.5002   -37.9347     6.3482     6.9723     7.9968
 1009.5000    78.2666    12.7942     0.0147     2.5026   -38.0695     6.3533     6.9775     7.8920
 1010.0000    77.1879    12.7371     0.0089     2.4929   -38.1979     6.4025     6.9345     7.5245
 1010.5000    76.7717    12.6947     0.0046     2.4892   -38.1784     6.4100     6.8919     7.5812
 1011.0000    77.0191    12.6663     0.0017     2.4908   -38.1625     6.5024     6.8495     7.5858
 1011.5000    77.2666    12.6238    -0.0011     2.4999   -38.1438     6.5989     6.8559     7.4864
 1012.0000    77.0706    12.6101    -0.0025     2.4817   -38.1266     6.6960     7.0046     7.3302
