~VERSION INFORMATION
 VERS.                2.0:   CWLS LOG ASCII STANDARD - VERSION 2.0
 WRAP.                 NO:   ONE LINE PER DEPTH STEP
~WELL INFORMATION
#MNEM.UNIT      DATA TYPE    INFORMATION
#----------   ------------   ------------------------------
 STRT.F          444.0000:   START DEPTH
 STOP.F         3018.0000:   STOP DEPTH
 STEP.F            0.5000:   STEP LENGTH
 NULL.          -999.2500:   NO VALUE
 COMP.    FENIX & SCISSON:   COMPANY
 WELL.  FENIX "AX" #25-28:   WELL
 FLD .             TEAPOT:   FIELD
 LOC .      S28 T39N R78W:   LOCATION
 CNTY.            NATRONA:   COUNTY
 STAT.            WYOMING:   STATE
 CTRY. UNITED STATES OF AMERICA:   COUNTRY
 SRVC.              WELEX:   SERVICE COMPANY
 DATE.        01-DEC-1979:   LOGDATE
 API .     49025107940000:   API NUMBER
~CURVE INFORMATION
#MNEM.UNIT       API CODE    CURVE DESCRIPTION
#----------   ------------   ------------------------------
 DEPT.F                  :   
 SPR .MV     07 010 01 00:   SPONTANEOUS POTENTIAL
 RILM.OHMM   07 120 44 00:   INDUCTION LOG MEDIUM RESISTIVITY
 RILD.OHMM   07 120 46 00:   DEEP INDUCTION RESISTIVITY
 SGRD.OHMM   07 220 05 00:   SHALLOW GUARD LOG RESISTIVITY
 TENR.LBS    07 635 01 00:   TENSION FROM RESISTIVITY
 NPHI.DEC    42 890 03 00:   NEUTRON POROSITY SANDSTONE
 GRD .GAPI   45 310 01 00:   GAMMA RAY FROM DENSITY LOG
 CALD.IN     45 280 60 00:   CALIPER FROM DENSITY LOG
 RHOB.G/C3   45 350 01 00:   BULK DENSITY
 DCOR.G/C3   45 356 01 00:   DENSITY CORRECTION
 TEND.LBS    45 635 01 00:   TENSION FROM DENSITY LOG
~PARAMETER INFORMATION
#MNEM.UNIT          VALUE    DESCRIPTION
#----------   ------------   ------------------------------
 EKB .F         5092.0000:   Kelly bushing
 EGL .F         5082.0000:   Ground level
 EDF .F            0.0000:   Drilling floor
 TD  .F         3013.5000:   Total depth
 DATE.        01-DEC-1979:   Date logged
 CLNT.            A2DTECH:   Client Code
 SL  . 2267' FSL & 1070' FWL:   Surface Location
 PD  .                 GL:   Permanent Datum
 EPD .F              5082:   Elevation Permanent Datum
 LMF .                 KB:   Log Measured From
 DMF .                 KB:   Drilling Measured From
 DAPD.F                10:   Feet Above Permanent Datum
 DD  .F              3000:   Depth driller
 DL  .F            3013.5:   Depth logger
 BLI .F              3013:   Bottom log interval
 TLI .F               350:   Top log interval
 CS1 .IN            8.625:   Casing size
 CBD1.      8.625" @ 465':   Casing driller 1
 CBL1.F               462:   Casing logger 1
 BS1 .IN            7.875:   Bit size
 BSD1.F              3000:   Depth drilled with bit1
 DFT .           CHEM GEL:   Type fluid in hole
 DFD .                8.8:   Density
 DFV .                 55:   Viscosity
 DFPH.                  9:   pH
 DFL .                6.4:   Fluid loss
 MSS .           FLOWLINE:   Source of sample
 RMS .OHMM           1.53:   Rm
 MST .F                75:   Rm Meas. temp.
 RMF .OHMM           1.24:   Rmf
 MFST.F                75:   Rmf Meas. temp.
 RMC .OHMM           1.83:   Rmc
 MCST.F                75:   Rmc Meas. temp.
 MFSS.               MEAS:   Source Rmf.
 MCSS.               MEAS:   Source Rmc.
 RMB .OHMM           1.09:   Rm. at BHT
 BHT .F               105:   BHT.
 TCS .HRS             2.5:   Time Circ. stopped
 MRT .F               105:   Maximum recorded temp.
 LUN .                965:   Logging unit number
 LUL .             CASPER:   Logging unit location
 ENGI.            BENTSEN:   Recorded By
 WITN.           P. AMEND:   Witnessed by
 ORIG.           5" PRINT:   Origin of data
 UWI .     49025107940000:   Unique Well ID
 DICO. A2D TECHNOLOGIES, INC.:   Digitizing Company
~OTHER INFORMATION
~A   DEPT      SPR       RILM       RILD       SGRD       TENR       NPHI         GRD      CALD       RHOB       DCOR       TEND   
# ...
 1115.0000   -52.6120    11.1220    10.1640    11.5880   747.5660     0.2370    64.9550     8.4150     2.4860    -0.0010  1253.7550
 1115.5000   -52.6220    11.1550    10.2650    11.4720   748.0150     0.2360    64.8800     8.4230     2.4900     0.0000  1250.4550
 1116.0000   -52.6330    11.2280    10.3870    11.5990   748.4630     0.2340    65.7100     8.4310     2.4880    -0.0010  1247.1541
 1116.5000   -52.6440    11.2950    10.5560    11.7180   748.9110     0.2350    63.4210     8.4390     2.4960     0.0050  1243.8540
 1117.0000   -52.6550    11.3620    10.7740    11.8360   749.3590     0.2390    64.4320     8.4470     2.5050     0.0100  1240.5530
 1117.5000   -52.6660    11.4300    10.9910    11.9540   749.8070     0.2420    65.2890     8.4550     2.5080     0.0080  1237.2531
 1118.0000   -52.6770    11.4970    11.0520    12.0730   750.2560     0.2450    65.1070     8.4610     2.4980    -0.0060  1236.4910
 1118.5000   -52.6880    11.5650    10.5120    12.1910   750.7040     0.2460    65.6270     8.4630     2.4850    -0.0220  1240.0270
 1119.0000   -52.6990    11.6320    10.4490    12.3100   751.1520     0.2470    64.6360     8.4650     2.4780    -0.0250  1243.5630
 1119.5000   -52.7100    11.6890    11.1550    12.4280   751.6000     0.2450    64.6740     8.4670     2.4870    -0.0140  1247.0990
 1120.0000   -52.7200    11.6890    10.6460    12.5960   752.0480     0.2450    65.5090     8.4690     2.5090     0.0080  1250.6350
 1120.5000   -52.6870    11.6890    10.5470    12.2570   752.4970     0.2460    65.1890     8.4710     2.5300     0.0320  1254.1710
 1121.0000   -52.6470    11.5800    10.7100    11.8750   752.9450     0.2470    64.6480     8.4720     2.5410     0.0360  1257.7080
 1121.5000   -52.6070    11.3660    10.6640    11.7890   753.3930     0.2460    62.7440     8.4740     2.5380     0.0310  1261.2440
 1122.0000   -52.5670    11.1870    10.4530    11.7030   753.8410     0.2440    61.0670     8.4760     2.5310     0.0270  1264.7800
 1122.5000   -52.5270    10.8630    10.1410    11.3890   754.2890     0.2480    61.4680     8.4780     2.5330     0.0290  1268.3160
 1123.0000   -52.4870    10.5390     9.8300    11.0280   754.7380     0.2520    61.5850     8.4790     2.5340     0.0310  1271.8521
 1123.5000   -52.4470    10.2150     9.5180    10.6670   755.1860     0.2540    65.1790     8.4930     2.5350     0.0320  1273.3660
 1124.0000   -52.4070     9.8910     9.2060    10.4080   755.6340     0.2540    68.8670     8.5100     2.5270     0.0250  1266.4580
 1124.5000   -52.3670     9.6170     9.0830    10.2010   756.0820     0.2530    70.9500     8.5260     2.5150     0.0190  1259.5510
 1125.0000   -52.3260     9.3410     8.9150     9.9720   756.5300     0.2520    72.9770     8.5430     2.5150     0.0220  1252.6429
 1125.5000   -52.2860     9.2540     8.7500     9.8960   756.9780     0.2540    72.4870     8.5590     2.5200     0.0260  1245.7350
 1126.0000   -52.2460     9.1760     8.7500     9.7880   757.4270     0.2560    69.3010     8.5760     2.5240     0.0290  1238.8270
 1126.5000   -52.2060     9.2410     8.7500     9.8600   757.8750     0.2560    69.4130     8.5920     2.5170     0.0280  1231.9189
 1127.0000   -52.1660     9.3050     8.7920     9.9580   758.3230     0.2550    70.0500     8.6090     2.5120     0.0280  1225.0110
 1127.5000   -52.1260     9.3690     8.8480    10.0570   758.7710     0.2540    69.8240     8.6220     2.5130     0.0270  1218.1040
 1128.0000   -52.0860     9.4340     8.9050    10.1560   759.2190     0.2560    67.6870     8.6400     2.5180     0.0280  1216.9659
 1128.5000   -52.0460     9.4980     8.9610    10.2560   759.6680     0.2550    66.7290     8.6570     2.5220     0.0300  1219.5040
 1129.0000   -52.0060     9.5630     9.0170    10.2950   760.1160     0.2550    63.7320     8.6520     2.5230     0.0280  1222.0430
 1129.5000   -51.9660     9.6270     9.0740    10.3360   760.5640     0.2560    64.5420     8.6460     2.5160     0.0230  1224.5820
 1130.0000   -51.9280     9.6910     9.1300    10.3760   760.6490     0.2580    66.7020     8.6410     2.5130     0.0290  1227.1210
 1130.5000   -51.8070     9.7560     9.1870    10.4160   760.6490     0.2600    66.4480     8.6350     2.5310     0.0370  1229.6591
 1131.0000   -51.7560     9.8200     9.2430    10.4570   760.6490     0.2610    67.0900     8.6290     2.5360     0.0450  1232.1980
 1131.5000   -51.8810     9.8850     9.3000    10.4970   760.6490     0.2610    65.9660     8.6230     2.5390     0.0470  1234.7371
 1132.0000   -52.0040     9.9490     9.3510    10.5370   760.6490     0.2580    67.4390     8.6190     2.5230     0.0290  1228.1650
 1132.5000   -52.1260    10.0130     9.3880    10.5780   760.6490     0.2570    66.3620     8.6350     2.5140     0.0180  1219.6780
 1133.0000   -52.2470    10.0780     9.4250    10.6180   760.6490     0.2580    62.8270     8.6520     2.5170     0.0260  1211.1910
 1133.5000   -52.2820    10.1420     9.6180    10.8490   760.6490     0.2560    61.0560     8.6370     2.5120     0.0250  1202.7050
 1134.0000   -52.1990    10.2070     9.8290    11.6890   760.6490     0.2570    61.7530     8.6040     2.5140     0.0320  1194.2180
 1134.5000   -52.1170    10.2710     9.9720    11.4720   760.6490     0.2590    60.3540     8.5750     2.5280     0.0400  1185.7310
 1135.0000   -52.0340    10.3520     9.8660    11.1650   760.6490     0.2590    63.4030     8.5590     2.5340     0.0470  1177.2440
 1135.5000   -51.9510    10.3110     9.7850    10.9420   760.6490     0.2580    65.7260     8.5420     2.5300     0.0460  1185.7939
 1136.0000   -51.8680    10.2560     9.7050    10.9210   760.6490     0.2550    67.4920     8.5400     2.5220     0.0480  1197.5811
 1136.5000   -51.7850    10.2000     9.6240    10.9000   760.6490     0.2550    68.9720     8.5400     2.5200     0.0520  1209.3690
 1137.0000   -51.7150    10.1450     9.5840    10.8800   760.6490     0.2550    69.1270     8.5400     2.5200     0.0540  1221.1560
 1137.5000   -51.7220    10.0900     9.5540    10.8590   760.6490     0.2570    67.5820     8.5400     2.5160     0.0580  1232.9430
 1138.0000   -51.7300    10.0350     9.5240    10.8060   760.6490     0.2610    67.3750     8.5400     2.5190     0.0640  1244.7300
 1138.5000   -51.7380     9.9790     9.4950    10.7050   760.6490     0.2650    66.1650     8.5400     2.5180     0.0610  1256.5170
 1139.0000   -51.7460     9.9240     9.4650    10.6040   760.6490     0.2710    66.0020     8.5400     2.5020     0.0480  1268.3040
 1139.5000   -51.7540     9.8690     9.4360    10.5130   760.6490     0.2730    66.2660     8.5400     2.4950     0.0400  1272.3220
 1140.0000   -51.7620     9.8140     9.4060    10.4350   760.6490     0.2750    67.2710     8.5400     2.4910     0.0400  1267.1100
 1140.5000   -51.7690     9.7580     9.3770    10.3580   760.6490     0.2770    67.3850     8.5400     2.5010     0.0480  1261.8990
 1141.0000   -51.7770     9.7030     9.3470    10.2800   760.6490     0.2790    68.5850     8.5400     2.5010     0.0460  1256.6880
 1141.5000   -51.7850     9.6730     9.3170    10.2270   761.1340     0.2770    69.3240     8.5400     2.4950     0.0360  1251.4771
 1142.0000   -51.7930     9.6470     9.2880    10.1850   761.5810     0.2730    69.0310     8.5400     2.4890     0.0270  1246.2660
 1142.5000   -51.8010     9.6200     9.2580    10.1440   762.0290     0.2740    71.6940     8.5390     2.4930     0.0220  1241.0551
 1143.0000   -51.8080     9.5940     9.2290    10.1020   762.4760     0.2740    73.2320     8.5370     2.4910     0.0160  1235.8440
 1143.5000   -51.8160     9.5670     9.1990    10.0640   762.9240     0.2750    74.4170     8.5350     2.4880     0.0040  1240.8101
 1144.0000   -51.8240     9.5400     9.1690    10.0530   763.3710     0.2740    75.3070     8.5340     2.4910     0.0030  1247.2679
 1144.5000   -51.8320     9.5140     9.1400    10.0420   763.8190     0.2760    72.7510     8.5320     2.4980     0.0050  1253.7250
 1145.0000   -51.8400     9.4870     9.1100    10.0310   764.2660     0.2760    72.7670     8.5300     2.4920     0.0030  1260.1820
