~VERSION INFORMATION
 VERS.                2.0:   CWLS LOG ASCII STANDARD - VERSION 2.0
 WRAP.                 NO:   ONE LINE PER DEPTH STEP
~WELL INFORMATION
#MNEM.UNIT      DATA TYPE    INFORMATION
#----------   ------------   ------------------------------
 STRT.F          216.0000:   START DEPTH
 STOP.F         3184.0000:   STOP DEPTH
 STEP.F            0.5000:   STEP LENGTH
 NULL.          -999.2500:   NO VALUE
 COMP.    FENIX & SCISSON:   COMPANY
 WELL. FENIX & SCISSON INCNRP "A" #311-14:   WELL
 FLD .                NPR:   FIELD
 LOC .      S14 T38N R78W:   LOCATION
 CNTY.            NATRONA:   COUNTY
 STAT.            WYOMING:   STATE
 CTRY. UNITED STATES OF AMERICA:   COUNTRY
 SRVC.              WELEX:   SERVICE COMPANY
 DATE.        22-JUN-1977:   LOGDATE
 API .     49025103810000:   API NUMBER
~CURVE INFORMATION
#MNEM.UNIT       API CODE    CURVE DESCRIPTION
#----------   ------------   ------------------------------
 DEPT.F                  :   
 CALD.IN     45 280 60 00:   CALIPER FROM DENSITY LOG
 GRD .GAPI   45 310 01 00:   GAMMA RAY FROM DENSITY LOG
 DPHI.DEC    45 890 12 00:   DENSITY POROSITY SANDSTONE
 RHOB.G/C3   45 350 01 00:   BULK DENSITY
 CORR.G/C3   45 356 01 00:   DENSITY CORRECTION
 SPR .MV     07 010 01 00:   SPONTANEOUS POTENTIAL
 SFLU.OHMM   07 220 01 00:   SPHERICALLY FOCUSED LOG UNAVERAGED RESISTIVITY
 ILD .OHMM   07 120 46 00:   DEEP INDUCTION RESISTIVITY
 ILM .OHMM   07 120 44 00:   INDUCTION LOG MEDIUM RESISTIVITY
~PARAMETER INFORMATION
#MNEM.UNIT          VALUE    DESCRIPTION
#----------   ------------   ------------------------------
 EKB .F         5225.0000:   Kelly bushing
 EGL .F         5215.0000:   Ground level
 TD  .F         3183.0000:   Total depth
 DATE.        22-JUN-1977:   Date logged
 CLNT.            A2DTECH:   Client Code
 CTRY.                USA:   Country
 SL  . 330' FNL & 330' FWL:   Surface Location
 PD  .                 GL:   Permanent Datum
 EPD .F              5215:   Elevation Permanent Datum
 LMF .                 KB:   Log Measured From
 DMF .                 KB:   Drilling Measured From
 DAPD.F                10:   Feet Above Permanent Datum
 DD  .F              3178:   Depth driller
 DL  .F              3183:   Depth logger
 BLI .F              3181:   Bottom log interval
 TLI .F                20:   Top log interval
 CS1 .IN            8.625:   Casing size
 CBD1.      8.625" @ 217':   Casing driller 1
 BS1 .IN            7.875:   Bit size
 BSD1.F              3178:   Depth drilled with bit1
 DFT .            KCL MUD:   Type fluid in hole
 DFD .                9.5:   Density
 DFV .                 40:   Viscosity
 DFPH.                7.5:   pH
 DFL .               13.6:   Fluid loss
 MSS .           FLOWLINE:   Source of sample
 RMS .OHMM            .36:   Rm
 MST .F                80:   Rm Meas. temp.
 RMF .OHMM            .30:   Rmf
 MFST.F                80:   Rmf Meas. temp.
 RMC .OHMM            .86:   Rmc
 MCST.F                80:   Rmc Meas. temp.
 MFSS.               FANN:   Source Rmf.
 MCSS.                KIT:   Source Rmc.
 RMB .OHMM            .25:   Rm. at BHT
 BHT .F               114:   BHT.
 TCS .HRS             2.5:   Time Circ. stopped
 MRT .F               114:   Maximum recorded temp.
 LUN .               8766:   Logging unit number
 LUL .             CASPER:   Logging unit location
 ENGI.          T. TOYNER:   Recorded By
 WITN.      B. HARRINGTON:   Witnessed by
 PWI .                  -:   Primary Well Identifier
 ORIG.           5" PRINT:   Origin of data
 UWI .     49025103810000:   Unique Well ID
 DICO. A2D TECHNOLOGIES, INC.:   Digitizing Company
~OTHER INFORMATION
~A   DEPT       CALD       GRD        DPHI       RHOB       CORR      SPR         SFLU      ILD        ILM   
# ...
 2953.5000     8.3123   118.7662     0.0952     2.4990     0.0159   -56.3668     5.9049     4.6066     4.8564
 2954.0000     8.3720   119.1650     0.0952     2.4990     0.0139   -56.3702     5.7961     4.6054     4.8110
 2954.5000     8.3126   119.5638     0.0948     2.4990     0.0100   -56.3755     5.8486     4.5622     4.7660
 2955.0000     8.3127   120.3594     0.0956     2.4990     0.0100   -56.3789     5.8476     4.5614     4.6780
 2955.5000     8.3128   121.1550     0.0988     2.4940     0.0100   -56.3841     5.8465     4.4774     4.6342
 2956.0000     8.3327   121.5538     0.1032     2.4870     0.0060   -55.9917     5.8454     4.3950     4.5487
 2956.5000     8.3327   121.9526     0.1048     2.4850     0.0040   -56.3928     5.7378     4.3942     4.4648
 2957.0000     8.3329   121.9546     0.1052     2.4820     0.0040   -56.3963     5.5294     4.3133     4.4230
 2957.5000     8.3330   121.1630     0.1052     2.4790     0.0040   -56.4015     5.4276     4.2734     4.3811
 2958.0000     8.3331   120.7680     0.1052     2.4820     0.0040   -56.4050     5.4266     4.1556     4.4214
 2958.5000     8.3332   120.7700     0.1028     2.4860     0.0060   -56.0142     5.4256     4.1171     4.3398
 2959.0000     8.3333   121.5656     0.0996     2.4860     0.0060   -56.4136     5.4246     4.0791     4.2992
 2959.5000     8.3334   121.9644     0.0996     2.4890     0.0080   -56.4188     5.3740     4.0035     4.2589
 2960.0000     8.4129   121.1728     0.0992     2.4940     0.0100   -56.4223     5.2267     3.9661     4.1803
 2960.5000     8.3137   121.1748     0.0988     2.4950     0.0120   -56.4275     5.0835     3.9291     4.1795
 2961.0000     8.3138   120.3830     0.0988     2.4950     0.0121   -56.4310     4.9442     3.9284     4.1404
 2961.5000     8.2941   119.1946     0.0988     2.4950     0.0121   -56.4362     4.9890     3.9276     4.1780
 2962.0000     8.2744   119.1964     0.1000     2.4930     0.0121   -56.4396     5.1750     3.9998     4.1774
 2962.5000     8.2943   118.0080     0.1012     2.4900     0.0121   -56.4449     5.4177     3.9991     4.2152
 2963.0000     8.2944   117.6132     0.1016     2.4851     0.0121   -56.4483     5.4167     4.0353     4.2928
 2963.5000     8.2747   117.6154     0.1008     2.4831     0.0081   -56.4535     5.4157     4.1858     4.3318
 2964.0000     8.2351   115.2364     0.1004     2.4841     0.0081   -56.4570     5.3159     4.2237     4.3711
 2964.5000     8.2550   114.0480     0.1004     2.4861     0.0101   -56.4605     5.5142     4.4217     4.4516
 2965.0000     8.2551   113.6530     0.1012     2.4881     0.0141   -56.4657     5.7198     4.4618     4.6180
 2965.5000     8.2750   113.6550     0.0988     2.4931     0.0142   -56.4691     5.8250     4.5438     4.6599
 2966.0000     8.2751   114.0538     0.0952     2.5001     0.0142   -56.4743     5.8239     4.5430     4.6591
 2966.5000     8.2752   115.2464     0.0904     2.5041     0.0142   -56.4778     5.8767     4.5841     4.6582
 2967.0000     8.2753   116.0420     0.0893     2.5051     0.0142   -56.0872     5.8218     4.6256     4.7440
 2967.5000     8.2953   116.0440     0.0900     2.5041     0.0162   -56.4865     5.8207     4.6248     4.7871
 2968.0000     8.2755   117.6332     0.0908     2.5031     0.0162   -56.4917     5.8196     4.6244     4.8753
 2968.5000     8.2756   117.6352     0.0933     2.5011     0.0122   -56.4952     5.9266     4.6660     4.8744
 2969.0000     8.2757   117.2404     0.0940     2.5001     0.0102   -56.1045     6.0355     4.6649     4.8740
 2969.5000     8.2560   116.4486     0.0936     2.5001     0.0102   -56.1080     5.9792     4.7073     4.9632
 2970.0000     8.2759   117.6410     0.0936     2.5001     0.0062   -55.7174     5.9233     4.7063     4.9629
 2970.5000     8.2760   117.6430     0.0935     2.5011     0.0063   -56.1167     6.0322     4.7489     4.9614
 2971.0000     8.2762   117.6450     0.0935     2.5001     0.0043   -56.1219     6.2001     4.7481     5.0068
 2971.5000     8.2762   118.4406     0.0935     2.5001     0.0023   -56.1253     6.6108     4.7037     4.9596
 2972.0000     8.2565   118.0458     0.0939     2.5001     0.0023   -56.1306     6.5495     4.7028     5.0046
 2972.5000     8.2566   118.0478     0.0951     2.4991     0.0063   -56.1340     5.9726     4.6163     4.9122
 2973.0000     8.2567   118.4466     0.0947     2.4992     0.0043   -56.1392     5.7557     4.5736     4.9119
 2973.5000     8.2568   118.8454     0.0931     2.5002     0.0043   -56.1427     5.5467     4.4889     4.8207
 2974.0000     8.2569   119.6410     0.0927     2.5032     0.0023   -56.1479     5.3453     4.3659     4.6027
 2974.5000     8.2570   121.6280     0.0883     2.5102     0.0023   -56.1514     5.3444     4.3651     4.4763
 2975.0000     8.2570   122.4224     0.0795     2.5226     0.0063   -56.1566     5.3434     4.2455     4.3937
 2975.5000     8.2572   124.0116     0.0711     2.5382     0.0148   -56.1601     5.4416     4.1292     4.3126
 2976.0000     8.2970   124.0140     0.0723     2.5362     0.0232   -55.7695     5.1013     4.0532     4.3118
 2976.5000     8.2970   124.0160     0.0727     2.5352     0.0304   -55.7730     4.9161     4.0523     4.2715
 2977.0000     8.2773   124.0180     0.0716     2.5352     0.0304   -56.1739     4.0146     4.0891     4.3103
 2977.5000     8.2774   124.0196     0.0705     2.5382     0.0304   -56.1774     4.5656     4.1261     4.3900
 2978.0000     8.2577   120.8472     0.0693     2.5412     0.0324   -55.7869     5.9061     4.2408     4.4705
 2978.5000     8.2578   119.2620     0.0683     2.5422     0.0307   -56.1861     6.0147     4.2792     4.6376
 2979.0000     8.2380   118.0738     0.0683     2.5432     0.0324   -56.1913     5.9585     4.3180     4.7668
 2979.5000     8.2381   117.6790     0.0691     2.5402     0.0304   -56.1948     5.8488     4.5622     4.9449
 2980.0000     8.2382   117.2840     0.0723     2.5362     0.0305   -56.5957     5.7409     4.6890     4.9898
 2980.5000     8.2582   115.3018     0.0727     2.5352     0.0334   -56.2034     5.7931     4.8193     4.9889
 2981.0000     8.2781   113.7166     0.0739     2.5332     0.0345   -56.2086     6.1207     4.9079     5.0342
 2981.5000     8.2782   112.5280     0.0751     2.5312     0.0325   -56.2121     6.2909     5.0443     5.0332
 2982.0000     8.2982   112.9268     0.0747     2.5322     0.0325   -56.6130     6.2321     5.0900     5.1259
 2982.5000     8.2983   113.7224     0.0751     2.5312     0.0325   -56.2208     6.2309     5.1361     5.2204
 2983.0000     8.3182   114.5180     0.0759     2.5303     0.0305   -56.2260     6.2307     5.1352     5.3165
 2983.5000     8.3183   114.9168     0.0763     2.5293     0.0285   -56.2295     6.1939     5.1342     5.1705
 2984.0000     8.3184   115.3156     0.0803     2.5253     0.0285   -55.8390     6.1705     5.1807     4.9367
 2984.5000     8.3185   115.3176     0.0811     2.5193     0.0265   -55.8424     6.4006     5.1798     4.6702
 2985.0000     8.3186   116.1132     0.0849     2.5153     0.0245   -56.2433     6.3994     5.1314     4.4181
 2985.5000     8.3385   117.7026     0.0888     2.5063     0.0226   -56.2468     6.3987     4.9451     4.2182
 2986.0000     8.3386   118.8950     0.0907     2.5023     0.0206   -56.2520     6.2229     4.8096     4.0647
 2986.5000     8.3387   120.0876     0.0935     2.5043     0.0186   -56.2555     5.8876     4.5505     4.0641
 2987.0000     8.3190   121.6768     0.0991     2.4933     0.0145   -55.8650     5.3690     4.2268     3.9890
 2987.5000     8.3191   122.8692     0.1051     2.4813     0.0126   -55.8685     4.8962     3.9624     3.9153
 2988.0000     8.3390   124.8554     0.1075     2.4773     0.0126   -55.4780     4.7871     3.8190     3.6361
 2988.5000     8.3193   126.4446     0.1079     2.4773     0.0126   -55.8772     4.2687     3.5470     3.2846
 2989.0000     8.3392   128.8276     0.1083     2.4763     0.0146   -55.4867     3.8064     3.3559     2.9945
 2989.5000     8.3393   131.2106     0.1075     2.4743     0.0146   -55.4902     3.3861     2.9769     2.8853
