~VERSION INFORMATION
 VERS.                2.0:   CWLS LOG ASCII STANDARD - VERSION 2.0
 WRAP.                 NO:   ONE LINE PER DEPTH STEP
~WELL INFORMATION
#MNEM.UNIT      DATA TYPE    INFORMATION
#----------   ------------   ------------------------------
 STRT.F          208.0000:   START DEPTH
 STOP.F         2980.0000:   STOP DEPTH
 STEP.F            0.5000:   STEP LENGTH
 NULL.          -999.2500:   NO VALUE
 COMP. FENIX & SCISSON INC:   COMPANY
 WELL. FENIX  32AX #28-28:   WELL
 FLD .        TEAPOT DOME:   FIELD
 LOC .      S28 T39N R78W:   LOCATION
 CNTY.            NATRONA:   COUNTY
 STAT.            WYOMING:   STATE
 CTRY. UNITED STATES OF AMERICA:   COUNTRY
 SRVC.           BIRDWELL:   SERVICE COMPANY
 DATE.        09-OCT-1977:   LOGDATE
 API .     49025104430000:   API NUMBER
~CURVE INFORMATION
#MNEM.UNIT       API CODE    CURVE DESCRIPTION
#----------   ------------   ------------------------------
 DEPT.F                  :   
 SPR .MV     05 010 01 00:   SPONTANEOUS POTENTIAL
 ILD .OHMM   05 120 46 00:   DEEP INDUCTION RESISTIVITY
 SN  .OHMM   05 040 16 00:   SHORT NORMAL
 GRD .GAPI   45 310 01 00:   GAMMA RAY FROM DENSITY LOG
 CALD.IN     45 280 60 00:   CALIPER FROM DENSITY LOG
 CORR.G/C3   45 356 01 00:   DENSITY CORRECTION
 DEN .G/C3   45 350 01 00:   BULK DENSITY
~PARAMETER INFORMATION
#MNEM.UNIT          VALUE    DESCRIPTION
#----------   ------------   ------------------------------
 EKB .F         5005.0000:   Kelly bushing
 EGL .F         4995.0000:   Ground level
 EDF .F            0.0000:   Drilling floor
 EPD .F         4995.0000:   Permanent datum
 TD  .F         2980.0000:   Total depth
 DATE.        09-OCT-1977:   Date logged
 CLNT.            A2DTECH:   Client Code
 SL  . 990' FNL & 1650' FWL:   Surface Location
 PD  .                 GL:   Permanent Datum
 DAPD.F                10:   Feet Above Permanent Datum
 DD  .F              2980:   Depth driller
 DL  .F              2979:   Depth logger
 BLI .F              2974:   Bottom log interval
 TLI .F               221:   Top log interval
 CS1 .IN            8.625:   Casing size
 CBD1.      8.625" @ 211':   Casing driller 1
 CBL1.F               221:   Casing logger 1
 BS1 .IN            7.875:   Bit size
 BSD1.F              2980:   Depth drilled with bit1
 DFT .            KCL GEL:   Type fluid in hole
 DFD .                8.8:   Density
 DFV .                 33:   Viscosity
 DFPH.                 11:   pH
 DFL .                6.4:   Fluid loss
 MSS .           FLOWLINE:   Source of sample
 RMS .OHMM            .52:   Rm
 MST .F                59:   Rm Meas. temp.
 RMF .OHMM            .67:   Rmf
 MFST.F                54:   Rmf Meas. temp.
 RMC .OHMM            .45:   Rmc
 MCST.F                56:   Rmc Meas. temp.
 MFSS.               MEAS:   Source Rmf.
 MCSS.               MEAS:   Source Rmc.
 RMB .OHMM            .35:   Rm. at BHT
 BHT .F                91:   BHT.
 TCS .HRS               3:   Time Circ. stopped
 MRT .F                91:   Maximum recorded temp.
 LUN .               2958:   Logging unit number
 LUL .             CASPER:   Logging unit location
 ENGI.                LAW:   Recorded By
 WITN.       W. PENINGELL:   Witnessed by
 ORIG.           5" PRINT:   Origin of data
 UWI .     49025104430000:   Unique Well ID
 DICO. A2D TECHNOLOGIES, INC.:   Digitizing Company
~OTHER INFORMATION
~A   DEPT      SPR        ILD         SN         GRD      CALD       CORR        DEN   
# ...
 2392.0000   -49.7160     7.1990     7.9840   141.6170     8.2250     0.0010     2.5390
 2392.5000   -49.5970     7.1510     7.9530   146.1150     8.2250     0.0100     2.5450
 2393.0000   -49.4770     7.2170     7.8830   145.5530     8.2250     0.0070     2.5480
 2393.5000   -49.3740     7.0550     7.8130   147.3910     8.2250     0.0100     2.5440
 2394.0000   -49.7020     6.9030     7.7440   142.0000     8.2250     0.0080     2.5450
 2394.5000   -50.0760     6.8300     7.6960   139.1730     8.2250     0.0030     2.5410
 2395.0000   -50.4460     6.8870     7.7120   137.2400     8.2250     0.0100     2.5400
 2395.5000   -50.7300     6.9300     7.7340   135.2710     8.2250     0.0160     2.5530
 2396.0000   -50.4200     6.9740     7.7560   137.5810     8.2250     0.0130     2.5490
 2396.5000   -50.5210     7.0170     7.7780   137.2230     8.2250     0.0150     2.5540
 2397.0000   -50.7290     7.0600     7.7990   139.6250     8.2250     0.0130     2.5520
 2397.5000   -50.3850     7.0860     7.8210   142.1930     8.2250     0.0110     2.5470
 2398.0000   -50.3350     7.1280     7.8430   140.0330     8.2250     0.0140     2.5530
 2398.5000   -50.4950     7.1950     7.8650   137.8140     8.2250     0.0150     2.5590
 2399.0000   -50.1910     7.2620     7.8870   141.0680     8.2250     0.0150     2.5550
 2399.5000   -49.8920     7.2840     7.9090   135.7610     8.2250     0.0180     2.5560
 2400.0000   -49.5840     7.1520     7.9300   140.3770     8.2250     0.0210     2.5600
 2400.5000   -49.5190     7.0210     7.9520   146.1850     8.2250     0.0240     2.5650
 2401.0000   -49.4550     7.0640     7.9740   148.4780     8.2250     0.0240     2.5600
 2401.5000   -49.3870     7.1510     7.9840   148.8150     8.2250     0.0140     2.5520
 2402.0000   -49.3720     6.8930     7.9380   145.2760     8.2250     0.0150     2.5470
 2402.5000   -49.3750     7.0000     7.9030   144.6150     8.2250     0.0200     2.5560
 2403.0000   -49.3540     7.1380     7.8690   146.6060     8.2250     0.0250     2.5650
 2403.5000   -48.7050     7.0210     7.8350   141.2320     8.2250     0.0260     2.5660
 2404.0000   -48.7050     7.1510     7.8000   139.8490     8.2250     0.0230     2.5650
 2404.5000   -49.0530     7.1510     7.7670   138.3980     8.2250     0.0190     2.5610
 2405.0000   -49.7320     7.1320     7.7670   136.0790     8.2250     0.0100     2.5560
 2405.5000   -50.3540     7.1100     7.7670   136.3760     8.2250     0.0070     2.5430
 2406.0000   -50.2150     7.0880     7.7670   133.3630     8.2250     0.0110     2.5460
 2406.5000   -50.3250     6.9650     7.7510   134.2800     8.2250     0.0150     2.5490
 2407.0000   -50.5540     6.7060     7.7180   136.6230     8.2250     0.0190     2.5520
 2407.5000   -50.7860     6.5840     7.5900   151.7210     8.2250     0.0110     2.5510
 2408.0000   -51.0190     6.4430     7.3300   154.7270     8.2250     0.0050     2.5330
 2408.5000   -51.2520     6.2540     7.1770   154.2650     8.2250     0.0070     2.5220
 2409.0000   -51.3990     6.1170     7.0660   158.3720     8.2250     0.0030     2.5280
 2409.5000   -51.4780     6.1170     6.9570   163.6590     8.2250     0.0070     2.5360
 2410.0000   -51.5630     6.1170     6.8910   152.8990     8.2250     0.0090     2.5360
 2410.5000   -51.2650     6.1170     6.8300   159.9130     8.2250     0.0080     2.5400
 2411.0000   -50.8950     6.1000     6.9570   158.7980     8.2250     0.0080     2.5370
 2411.5000   -50.5210     6.0800     6.8440   166.4030     8.2250     0.0130     2.5360
 2412.0000   -50.1780     6.0620     6.7120   158.5830     8.2250     0.0190     2.5480
 2412.5000   -50.3220     5.9830     6.6290   157.5970     8.2250     0.0210     2.5520
 2413.0000   -50.4770     5.8250     6.5760   165.2140     8.2250     0.0210     2.5500
 2413.5000   -50.3220     5.5810     6.5110   159.8190     8.2250     0.0280     2.5590
 2414.0000   -49.8270     5.7900     6.4470   158.7100     8.2250     0.0360     2.5670
 2414.5000   -49.5670     5.6840     6.4050   155.9240     8.2250     0.0330     2.5650
 2415.0000   -49.3660     5.6840     6.5640   156.6850     8.2250     0.0330     2.5740
 2415.5000   -49.3580     5.6840     6.7290   156.4330     8.2250     0.0250     2.5800
 2416.0000   -49.8740     5.7900     6.8940   158.8470     8.2250     0.0110     2.5590
 2416.5000   -50.5390     6.0000     7.0590   155.7150     8.2250     0.0090     2.5550
 2417.0000   -50.5680     6.2460     7.2170   149.1370     8.2250     0.0090     2.5580
 2417.5000   -50.5640     6.4920     7.3330   137.4390     8.2250     0.0130     2.5550
 2418.0000   -50.5630     6.7380     7.5260   141.9410     8.2250     0.0140     2.5580
 2418.5000   -50.5650     6.8330     7.6840   140.9150     8.2250     0.0150     2.5580
 2419.0000   -50.5060     6.9680     7.7670   143.7680     8.2250     0.0200     2.5690
 2419.5000   -50.4370     7.0860     7.7670   144.6880     8.2250     0.0280     2.5720
 2420.0000   -50.4160     7.0500     7.7670   136.6760     8.2250     0.0250     2.5700
 2420.5000   -50.5170     7.0120     7.7670   141.4380     8.2250     0.0210     2.5630
 2421.0000   -50.4330     6.9730     7.7670   146.5450     8.2250     0.0220     2.5620
 2421.5000   -50.4930     6.9570     7.7670   141.5610     8.2250     0.0250     2.5640
 2422.0000   -50.5510     6.9570     7.7670   138.2020     8.2250     0.0270     2.5650
 2422.5000   -49.9510     6.9570     7.7670   140.6030     8.2250     0.0250     2.5610
 2423.0000   -49.4170     6.9570     7.7670   138.6330     8.2250     0.0250     2.5630
 2423.5000   -49.7310     6.9570     7.7660   139.3990     8.2250     0.0280     2.5650
 2424.0000   -49.4410     6.9560     7.8030   136.8890     8.2250     0.0270     2.5630
 2424.5000   -49.9710     7.0360     7.8580   139.8430     8.2250     0.0260     2.5640
 2425.0000   -49.8590     7.0990     7.9140   138.0850     8.2250     0.0330     2.5670
 2425.5000   -49.6290     7.1620     7.9840   141.0940     8.2250     0.0240     2.5700
 2426.0000   -49.8560     7.2220     7.9770   144.9460     8.2250     0.0210     2.5540
 2426.5000   -49.1510     7.2620     7.9630   146.8430     8.2250     0.0060     2.5340
 2427.0000   -49.4310     7.3020     7.9490   140.6820     8.2250     0.0060     2.5380
 2427.5000   -49.6720     7.3420     7.9360   136.3090     8.2250     0.0070     2.5430
 2428.0000   -49.8030     7.4190     7.9220   144.7020     8.2250     0.0080     2.5480
 2428.5000   -49.9300     7.3090     7.8820   140.8670     8.2250     0.0090     2.5460
 2429.0000   -50.0560     7.1720     7.7440   139.1500     8.2250     0.0080     2.5430
 2429.5000   -50.1660     7.0360     7.6070   146.6350     8.2250     0.0070     2.5430
 2430.0000   -50.3030     6.8990     7.4690   143.1220     8.2250     0.0080     2.5420
 2430.5000   -50.1600     6.7620     7.3310   146.1280     8.2250     0.0100     2.5380
 2431.0000   -50.6820     6.6250     7.1930   144.3200     8.2250     0.0090     2.5390
 2431.5000   -51.3240     6.5840     7.1390   146.1280     8.2250     0.0040     2.5280
 2432.0000   -50.7550     6.4410     7.1150   145.2470     8.2250    -0.0010     2.5170
 2432.5000   -50.3740     6.3460     7.0920   146.7540     8.2250     0.0030     2.5260
 2433.0000   -50.5390     6.4050     7.0560   142.8600     8.2250     0.0070     2.5330
 2433.5000   -50.3210     6.2260     7.0010   139.9540     8.2250     0.0110     2.5360
 2434.0000   -49.9730     6.1170     6.9570   140.8800     8.2250     0.0140     2.5390
 2434.5000   -49.9650     6.1830     6.9310   146.5580     8.2250     0.0160     2.5390
 2435.0000   -49.9670     6.2880     6.8930   144.1760     8.2250     0.0120     2.5340
 2435.5000   -49.9670     6.2720     6.9020   144.5220     8.2250     0.0120     2.5390
 2436.0000   -49.9650     6.2340     6.9220   140.3630     8.2250     0.0150     2.5450
 2436.5000   -50.0630     6.1970     6.9420   139.4750     8.2250     0.0150     2.5440
 2437.0000   -50.1970     6.1590     6.9570   143.8790     8.2250     0.0110     2.5390
