~VERSION INFORMATION
 VERS.                2.0:   CWLS LOG ASCII STANDARD - VERSION 2.0
 WRAP.                 NO:   ONE LINE PER DEPTH STEP
~WELL INFORMATION
#MNEM.UNIT      DATA TYPE    INFORMATION
#----------   ------------   ------------------------------
 STRT.F          206.0000:   START DEPTH
 STOP.F         3218.0000:   STOP DEPTH
 STEP.F            0.5000:   STEP LENGTH
 NULL.          -999.2500:   NO VALUE
 COMP.    FENIX & SCISSON:   COMPANY
 WELL.     FENIX AX #16-2:   WELL
 FLD .              NPR 3:   FIELD
 LOC .       S2 T38N R78W:   LOCATION
 CNTY.            NATRONA:   COUNTY
 STAT.            WYOMING:   STATE
 CTRY. UNITED STATES OF AMERICA:   COUNTRY
 SRVC.       SCHLUMBERGER:   SERVICE COMPANY
 DATE.        10-OCT-1977:   LOGDATE
 API .     49025105780000:   API NUMBER
~CURVE INFORMATION
#MNEM.UNIT       API CODE    CURVE DESCRIPTION
#----------   ------------   ------------------------------
 DEPT.F                  :   
 GRD .GAPI   45 310 01 00:   GAMMA RAY FROM DENSITY LOG
 CALD.IN     45 280 60 00:   CALIPER FROM DENSITY LOG
 RHOB.G/C3   45 350 01 00:   BULK DENSITY
 CORR.G/C3   45 356 01 00:   DENSITY CORRECTION
 SPR .MV     07 010 01 00:   SPONTANEOUS POTENTIAL FROM RES.
 RILD.OHMM   07 120 46 00:   DEEP INDUCTION RESISTIVITY
 RILM.OHMM   07 120 44 00:   INDUCTION LOG MEDIUM RESISTIVITY
 RLL8.OHMM   07 220 08 00:   LATEROLOG-8 RES.
~PARAMETER INFORMATION
#MNEM.UNIT          VALUE    DESCRIPTION
#----------   ------------   ------------------------------
 EKB .F         5123.0000:   Kelly bushing
 EGL .F         5113.0000:   Ground level
 EDF .F            0.0000:   Drilling floor
 TD  .F         3220.0000:   Total depth
 CLNT.            A2DTECH:   Client Code
 SL  . 1772' FSL & 576' FWL:   Surface Location
 PD  .                 GL:   Permanent Datum
 EPD .F              5113:   Elevation Permanent Datum
 LMF .                 KB:   Log Measured From
 DMF .                 KB:   Drilling Measured From
 DAPD.F                10:   Feet Above Permanent Datum
 DATE.        10-OCT-1977:   Date Logged [DD-MMM-YYYY]
 DD  .F              3220:   Depth driller
 DL  .F              3218:   Depth logger
 BLI .F              3212:   Bottom log interval
 TLI .F               223:   Top log interval
 CS1 .IN            8.625:   Casing size
 CBD1.      8.625" @ 222':   Casing driller 1
 CBL1.F               223:   Casing logger 1
 BS1 .IN            7.875:   Bit size
 BSD1.F              3220:   Depth drilled with bit1
 DFT .                KCL:   Type fluid in hole
 DFD .                8.6:   Density
 DFV .                 32:   Viscosity
 DFPH.                 11:   pH
 MSS .            MUD PIT:   Source of sample
 RMS .OHMM           0.29:   Rm
 MST .F                82:   Rm Meas. temp.
 RMF .OHMM          0.228:   Rmf
 MFST.F                81:   Rmf Meas. temp.
 MFSS.               MEAS:   Source Rmf.
 RMB .OHMM           0.21:   Rm. at BHT
 BHT .F               122:   BHT.
 TCS .HRS            0600:   Time Circ. stopped
 MRT .F               122:   Maximum recorded temp.
 LUN .               5642:   Logging unit number
 ENGI. CHALUPSKY PETERSON:   Recorded By
 WITN.     WES PETTINGILL:   Witnessed by
 ORIG.           5" PRINT:   Origin of data
 UWI .     49025105780000:   Unique Well ID
 DICO. A2D TECHNOLOGIES, INC.:   Digitizing Company
 TLAB.HRS            1000:   Time logger at bottom
 LUL .               CSPR:   Logging unit location
~OTHER INFORMATION
~A   DEPT       GRD      CALD       RHOB       CORR        SPR       RILD       RILM       RLL8   
# ...
  611.0000   100.0331    11.6094     2.4935     0.0056   -49.0630    10.4384     9.0214     9.9954
  611.5000   101.6862    11.6046     2.4921    -0.0003   -48.9687    10.3018     8.9402     9.5991
  612.0000    98.6850    11.5911     2.4944     0.0058   -49.2604    10.1670     8.8480     9.3450
  612.5000    96.1335    11.5473     2.4966     0.0007   -49.6052    10.0368     8.7935     9.0976
  613.0000    97.1864    11.4882     2.4944     0.0052   -50.2381     9.9054     8.7395     8.7946
  613.5000    99.8906    11.3983     2.4906     0.0120   -51.0272     9.7758     8.5646     8.6154
  614.0000   106.0482    11.3559     2.4877     0.0061   -51.8217     9.6479     8.5119     8.4545
  614.5000   108.6022    11.3273     2.4854    -0.0044   -52.7525     9.5216     8.3973     8.4017
  615.0000   109.5046    11.3285     2.4824    -0.0089   -53.7658     9.3328     8.3457     8.5282
  615.5000   109.9565    11.2997     2.4770    -0.0149   -54.8880     9.1425     8.2353     8.5950
  616.0000   109.6577    11.2856     2.4675     0.0003   -56.4514     8.9611     8.1264     8.5432
  616.5000   108.7583    11.2871     2.4675    -0.0019   -56.5869     8.7809     8.0189     8.4331
  617.0000   107.5426    11.2730     2.4727    -0.0064   -56.5950     8.7257     7.9145     8.3244
  617.5000   106.6391    11.2594     2.4795    -0.0038   -56.2882     8.6139     7.6993     8.1604
  618.0000   106.2101    11.2456     2.4885     0.0043   -55.6038     8.5622     7.4897     7.9416
  618.5000   107.7135    11.2468     2.4976     0.0119   -54.9692     8.5718     7.3320     7.7261
  619.0000   112.9702    11.2330     2.5013     0.0180   -54.1297     8.5814     7.2410     7.3763
  619.5000   114.6233    11.2191     2.4991     0.0166   -52.7568     8.4691     7.2498     7.2796
  620.0000   114.7749    11.2206     2.5045     0.0076   -51.3381     8.4789     7.3090     7.5444
  620.5000   114.1758    11.2368     2.5096     0.0069   -50.3737     8.4276     7.3161     7.6563
  621.0000   111.4746    11.2379     2.5059     0.0183   -50.1981     8.3770     7.3758     7.8239
  621.5000   105.1698    11.2391     2.5067     0.0056   -50.0047     8.3887     7.4359     7.8852
  622.0000   103.6697    11.2250     2.5119     0.0141   -50.0707     8.3383     7.4428     8.0022
  622.5000   103.2207    11.2415     2.5209     0.0193   -50.1708     8.2859     7.5039     8.0648
  623.0000   103.0701    11.2426     2.5112     0.0073   -50.9179     8.1798     7.4577     8.1331
  623.5000   101.8726    11.2438     2.5082     0.0066   -51.7778     8.1306     7.3591     8.2504
  624.0000    98.7209    11.2600     2.5120     0.0150   -52.6554     8.0814     7.2028     8.2007
  624.5000    97.3710    11.2612     2.5328     0.0097   -53.3643     8.0330     6.9656     8.2079
  625.0000    96.9220    11.2774     2.5521    -0.0053   -54.5882     7.9849     6.7743     8.1021
  625.5000    96.4731    11.2938     2.5548    -0.0045   -56.0181     7.8804     6.5914     7.6722
  626.0000    97.0751    11.2797     2.5511    -0.0036   -57.0641     7.8238     6.5979     7.2650
  626.5000    99.4790    11.2961     2.5398     0.0153   -57.7361     7.6777     6.6043     6.7381
  627.0000   103.2342    11.2973     2.5218     0.0199   -58.0029     7.5772     6.5621     6.7909
  627.5000   107.4800    11.2985     2.5008     0.0191   -57.9177     7.4248     6.4769     6.9886
  628.0000   109.4375    11.2996     2.4783     0.0140   -57.9605     7.3782     6.4369     7.1468
  628.5000   110.7465    11.3158     2.4723    -0.0063   -57.9707     7.2816     6.3520     7.2986
  629.0000   110.8980    11.3320     2.4716    -0.0130   -57.3536     7.1863     6.2680     7.2530
  629.5000   109.9986    11.3481     2.4778    -0.0107   -56.5763     7.0438     6.1777     7.2093
  630.0000   108.1983    11.3495     2.4799    -0.0046   -55.4096     7.0012     5.9753     7.1164
  630.5000   108.9505    11.3507     2.4754    -0.0038   -54.0307     6.9593     5.7698     6.9295
  631.0000   108.6517    11.3668     2.4792    -0.0014   -52.6013     6.8683     5.6127     6.4269
  631.5000   107.5961    11.3680     2.4799     0.0009   -52.1813     6.8271     5.6196     5.9196
  632.0000   107.3033    11.3692     2.4694     0.0048   -51.6996     6.8366     5.7882     5.4463
  632.5000   110.9087    11.3704     2.4604     0.0131   -51.4629     6.8934     5.9618     5.8184
  633.0000   113.7630    11.3865     2.4596     0.0041   -51.5784     7.1012     6.2737     6.6063
  633.5000   114.9657    11.4027     2.4719     0.0125   -51.9576     7.4737     6.5083     7.4673
  634.0000   112.7149    11.4189     2.4871     0.0050   -52.3720     7.8659     6.8007     7.8450
  634.5000   111.9653    11.4203     2.4980     0.0179   -52.7621     8.2196     7.0598     8.0725
  635.0000   113.1683    11.4365     2.5018     0.0059   -53.3463     8.5281     7.3198     8.3065
  635.5000   114.3710    11.4377     2.4973     0.0075   -54.0712     8.6605     7.5394     8.4883
  636.0000   113.6217    11.4538     2.4951     0.0212   -54.7590     8.7324     7.7655     8.5548
  636.5000   111.3709    11.4550     2.4936     0.0182   -55.5175     8.8057     7.8289     8.6218
  637.0000   109.7207    11.4712     2.4959     0.0090   -56.2567     8.9424     7.9493     8.7497
  637.5000   108.8213    11.4723     2.5026     0.0032   -56.9929     8.9525     7.8998     8.7576
  638.0000   107.2732    11.4735     2.5124     0.0131   -57.7107     8.9625     7.9075     8.7670
  638.5000   104.2235    11.4747     2.5154     0.0154   -58.1505     8.9725     7.8049     8.7142
  639.0000   101.6185    11.4609     2.5072     0.0049   -58.3297     8.9826     7.8125     8.6616
  639.5000   102.3711    11.4470     2.4952     0.0125   -57.9432     8.8650     7.8201     8.6094
  640.0000   103.8741    11.4485     2.4877     0.0073   -57.7483     8.8774     7.8278     8.5556
  640.5000   104.9266    11.4497     2.4892     0.0059   -57.0890     8.8874     7.8354     8.5040
  641.0000   105.0779    11.4509     2.4937     0.0090   -55.7785     8.8959     7.8431     8.4528
  641.5000   104.4791    11.4520     2.4952     0.0181   -54.1929     8.9073     7.8508     8.4035
  642.0000   104.6307    11.4532     2.4908     0.0076   -52.8280     8.9173     7.8022     8.3530
  642.5000   105.8334    11.4544     2.4885     0.0117   -52.3552     8.9265     7.7544     8.3605
  643.0000   107.4865    11.4555     2.4885     0.0183   -52.1580     8.9372     7.7069     8.4276
  643.5000   110.0408    11.4567     2.4870     0.0199   -52.0253     8.8832     7.7146     8.4937
  644.0000   110.4922    11.4591     2.4818     0.0064   -52.0362     8.8935     7.6669     8.5011
  644.5000   108.8424    11.4591     2.4683    -0.0041   -52.4519     8.8401     7.6763     8.5677
  645.0000   107.3424    11.4603     2.4586    -0.0101   -52.9631     8.8503     7.6291     8.6348
  645.5000   105.9925    11.4317     2.4563    -0.0138   -53.5922     8.7992     7.5804     8.6424
  646.0000   105.3934    11.4026     2.4638    -0.0115   -54.6461     8.7439     7.4819     8.4721
  646.5000   105.2447    11.3888     2.4744    -0.0076   -55.7546     8.6295     7.4341     8.2479
  647.0000   106.1474    11.3750     2.4819    -0.0006   -56.7160     8.5166     7.2854     7.5921
  647.5000   109.0018    11.3612     2.4864     0.0046   -57.5530     8.3476     7.0870     7.0316
  648.0000   111.7059    11.3476     2.4669    -0.0006   -58.3874     8.1775     6.7962     6.5816
  648.5000   112.6083    11.3488     2.4512    -0.0104   -59.2318     7.9582     6.5617     6.1467
  649.0000   112.4593    11.3650     2.4504     0.0010   -60.0899     7.6875     6.2372     5.9017
  649.5000   112.3106    11.4113     2.4497    -0.0004   -60.5904     7.3206     5.7846     5.6665
  650.0000   112.4626    11.3972     2.4384    -0.0034   -60.7217     6.7266     5.4682     5.4406
  650.5000   110.2268    11.3987     2.4257     0.0050   -60.6907     6.0719     4.9887     5.2238
  651.0000   108.2644    11.3998     2.4039     0.0035   -60.3660     4.7643     4.4867     4.8114
