~VERSION INFORMATION
 VERS.                2.0:   CWLS LOG ASCII STANDARD - VERSION 2.0
 WRAP.                 NO:   ONE LINE PER DEPTH STEP
~WELL INFORMATION
#MNEM.UNIT      DATA TYPE    INFORMATION
#----------   ------------   ------------------------------
 STRT.F           57.0000:   START DEPTH
 STOP.F         5817.0000:   STOP DEPTH
 STEP.F            0.5000:   STEP LENGTH
 NULL.          -999.2500:   NO VALUE
 COMP. DEPARTMENT OF ENERGY:   COMPANY
 WELL. DEPARTMENT NPR 371 "X" #1-4:   WELL
 FLD .              NPR-3:   FIELD
 LOC .       S4 T38N R78W:   LOCATION
 CNTY.            NATRONA:   COUNTY
 STAT.            WYOMING:   STATE
 CTRY. UNITED STATES OF AMERICA:   COUNTRY
 SRVC.       SCHLUMBERGER:   SERVICE COMPANY
 DATE.        25-AUG-2002:   LOGDATE
 API .     49025230480000:   API NUMBER
~CURVE INFORMATION
#MNEM.UNIT       API CODE    CURVE DESCRIPTION
#----------   ------------   ------------------------------
 DEPT.F                  :   
 HCAL.IN     07 280 01 00:   HRLT CALIPER
 RLA1.OHMM   06 120 01 00:   HRLT RESISTIVITY 1
 RLA2.OHMM   06 120 02 00:   HRLT RESISTIVITY 2
 RLA3.OHMM   06 120 03 00:   HRLT RESISTIVITY 3
 RXOZ.OHMM   06 270 04 00:   STAN RES. MICROCFL RESISTIVITY
 TENR.LBS    06 635 01 00:   TENSION FROM RESITIVITY
 GRR .GAPI   07 310 01 00:   GAMMA RAY FROM RESISTIVITY
 SPHI.DEC    60 890 22 00:   SONIC POROSITY SANDSTONE
 DT  .US/F   60 520 00 00:   DELTA TIME
 TENS.LBS    60 635 01 00:   TENSION FROM SONIC
 RT  .OHMM   06 120 00 00:   HRLT TRUE RESISTIVITY
~PARAMETER INFORMATION
#MNEM.UNIT          VALUE    DESCRIPTION
#----------   ------------   ------------------------------
 EKB .F         5196.0000:   Kelly bushing
 EGL .F         5186.0000:   Ground level
 EDF .F         5194.0000:   Drilling floor
 TD  .F         5803.0000:   Total depth
 CLNT.            A2DTECH:   Client Code
 SL  . 794' FEL & 333' FNL:   Surface Location
 PD  .                 GL:   Permanent Datum
 EPD .F              5186:   Elevation Permanent Datum
 LMF .                 KB:   Log Measured From
 DMF .                 KB:   Drilling Measured From
 DAPD.F                10:   Feet Above Permanent Datum
 DATE.        25-AUG-2002:   Date Logged [DD-MMM-YYYY]
 DD  .F              5800:   Depth driller
 DL  .F              5803:   Depth logger
 BLI .F              5803:   Bottom log interval
 TLI .F               656:   Top log interval
 CS1 .IN            9.625:   Casing size
 CBD1.      9.625" @ 660':   Casing driller 1
 CBL1.F               656:   Casing logger 1
 BS1 .IN            8.750:   Bit size
 BSD1.F              5800:   Depth drilled with bit1
 DFT .           GEL CHEM:   Type fluid in hole
 DFD .                  9:   Density
 DFV .                 36:   Viscosity
 DFPH.                8.5:   pH
 DFL .                7.6:   Fluid loss
 MSS .           FLOWLINE:   Source of sample
 RMS .OHMM          0.846:   Rm
 MST .F                90:   Rm Meas. temp.
 RMF .OHMM          0.670:   Rmf
 MFST.F                90:   Rmf Meas. temp.
 MFSS.               MEAS:   Source Rmf.
 RMC .OHMM          1.075:   Rmc
 MCST.F                90:   Rmc Meas. temp.
 MCSS.               CALC:   Source Rmc.
 TCS .HRS            0300:   Time Circ. stopped
 TLAB.HRS            0915:   Time logger at bottom
 MRT .F               156:   Maximum recorded temp.
 LUN .               2211:   Logging unit number
 LUL .             CASPER:   Logging unit location
 ENGI.        J.L. FLORES:   Recorded By
 WITN.        STEVE HARDY:   Witnessed by
 ORIG.        2" 5" PRINT:   Origin of data
 UWI .     49025230480000:   Unique Well ID
 DICO. A2D TECHNOLOGIES, INC.:   Digitizing Company
~OTHER INFORMATION
~A   DEPT     HCAL       RLA1       RLA2       RLA3       RXOZ       TENR         GRR      SPHI         DT       TENS         RT   
# ...
 5425.0000     9.9266   910.7932   938.0108   973.8298   304.2768  2674.1572    35.1772     0.0230    54.4638  2277.4802   372.1791
 5425.5000     9.8658   989.5347   918.8937  1022.1623   310.7405  2674.9841    33.8106     0.0260    54.9933  2277.2036   421.5476
 5426.0000     9.7672   873.3242   881.7933   853.8530   317.3417  2675.6462    35.1614     0.0311    55.2962  2276.9231   470.9023
 5426.5000     9.7290   792.4022   789.6084   791.2710   321.8430  2676.4731    35.8341     0.0347    55.7500  2276.6213   497.7060
 5427.0000     9.7285   775.9318   757.6585   769.6694   326.3983  2677.1353    37.6379     0.0359    55.9020  2276.3040   484.1187
 5427.5000     9.7280   680.0563   727.0236   638.5020   331.0282  2727.5486    38.5372     0.0359    55.9026  2275.9583   487.4803
 5428.0000     9.7124   575.7279   590.9509   511.6747   322.0399  2678.4592    38.3019     0.0350    55.9033  2275.6814   552.1432
 5428.5000     9.6817   395.9098   436.0258   415.7537   304.7237  2679.4519    39.8809     0.0347    56.2819  2275.4148   421.5476
 5429.0000     9.6209   279.9159   300.2225   284.1495   290.3453  2680.0999    53.6939     0.0365    56.6602  2275.0588   296.1955
 5429.5000     9.5903   224.1929   245.7173   219.9644   267.2083  2680.9409    60.2578     0.0404    57.1141  2274.8115   257.9130
 5430.0000     9.5595   232.0480   216.9942   235.7246   227.8518  2681.6030    61.1554     0.0443    57.3415  2274.5051   256.1345
 5430.5000     9.5591   259.2039   234.2075   265.1516   254.6546  2682.4307    52.5380     0.0482    58.0220  2274.2053   266.9928
 5431.0000     9.5434   291.5513   259.8596   294.1530   296.6945  2683.0920    47.3178     0.0503    58.3248  2273.8826   294.1530
 5431.5000     9.5128   321.1977   292.3275   324.0760   345.6747  2683.9197    43.9119     0.0515    58.3257  2273.6047   354.5808
 5432.0000     9.4973   358.7865   317.6864   347.2957   414.0573  2734.3330    40.5043     0.0521    58.3263  2258.2202   427.4223
 5432.5000     9.4514   334.6921   345.2452   306.6230   456.3613  2735.1599    39.8175     0.0524    58.3270  2252.3784   410.0395
 5433.0000     9.4359   253.6071   292.5153   247.4239   322.7101  2735.8220    42.0746     0.0530    58.6300  2242.5337   324.0760
 5433.5000     9.4354   200.3285   228.1043   194.2038   237.8896  2736.6497    49.0917     0.0542    59.3860  2242.2322   250.8720
 5434.0000     9.4198   168.9695   165.9874   136.4550   172.9474  2737.3132    50.8956     0.0563    60.0684  2241.8945   169.1034
 5434.5000     9.4344   132.4237   107.3937   100.6371   114.0961  2738.1387    50.6619     0.0632    61.2003  2226.4890   101.3359
 5435.0000     9.4037    95.8778    74.4582    69.7396    67.3672  2738.8059    49.0670     0.0865    63.6179  2226.1892    73.7091
 5435.5000     9.3580    68.3725    58.0628    51.4337    43.8323  2739.6277    49.7398     0.1010    65.9036  2225.9429    89.4682
 5436.0000     9.3123    87.1200    66.6885    60.7259    30.7803  2740.2986    43.8397     0.1115    67.2448  2225.6125   117.1855
 5436.5000     9.2815    97.9952    78.7413    76.8339    29.9427  2741.1167    36.5819     0.1175    67.2455  2240.4224   127.3318
 5437.0000     9.2660    89.5306    92.9696    70.7115    29.7421  2741.7913    34.3072     0.1145    66.7121  2240.1206   110.8745
 5437.5000     9.2654    82.3685    76.6261    62.4303    29.3387  2742.6064    34.3002     0.1106    66.4916  2239.8191   104.1800
 5438.0000     9.2499    76.8394    70.0536    59.0681    28.7416  2743.2834    35.1977     0.1130    67.1722  2254.6484   102.7481
 5438.5000     9.2343    74.7226    67.6834    58.2563    28.1541  2744.0295    35.4173     0.1202    68.2612  2254.2986   102.7481
 5439.0000     9.2187    76.2808    66.3100    58.6608    27.9655  2744.9231    35.6351     0.1281    69.2131  2269.0801   100.6371
 5439.5000     9.2031    72.1469    64.0704    58.2563    28.1670  2745.5845    36.9875     0.1287    68.7606  2268.7783    99.2539
 5440.0000     9.2027    67.7699    58.9813    55.1189    29.3701  2746.2681    38.3382     0.1202    67.7041  2268.4167    99.9431
 5440.5000     9.2021    71.6202    56.2030    52.8773    31.7052  2747.0144    39.0110     0.1138    66.7229  2283.2922   118.8186
 5441.0000     9.2016    98.4901    77.8049    98.5694    34.2260  2747.7607    37.6426     0.1093    66.0438  2282.9463   213.9594
 5441.5000     9.1860   154.5072   131.6220   143.2274    80.8990  2748.5071    36.5027     0.1056    65.1384  2282.6548   254.3682
 5442.0000     9.1855   133.5480   141.0668   132.7298   137.0688  2749.2534    36.2673     0.1005    64.8369  2282.3235   198.2775
 5442.5000     9.1624   129.8769   128.0862   130.0028    80.9312  2749.9998    37.1666     0.0969    64.2334  2282.0515   229.2893
 5443.0000     9.1393   178.5922   136.3356   159.9965    67.5921  2750.7458    39.4236     0.0893    62.8748  2281.7498   294.1530
 5443.5000     9.1237   226.0037   164.3551   191.5345    70.4792  2751.4922    39.6423     0.0838    62.4221  2281.4480   302.4087
 5444.0000     9.1081   257.7559   179.8520   211.0186   112.1918  2752.2385    37.3685     0.0829    62.4230  2281.1465   274.4863
 5444.5000     9.1076   257.7008   202.3296   208.1183   149.1241  2752.9849    36.3410     0.0829    62.4239  2280.8015   261.5073
 5445.0000     9.1070   270.4527   208.0484   212.4839   106.1787  2753.7312    35.0868     0.0814    62.1980  2280.5244   284.1495
 5445.5000     9.0753   300.0166   222.9842   232.4847    67.6624  2754.4775    34.2858     0.0787    61.7455  2280.2415   300.3233
 5446.0000     9.0748   262.9541   232.4727   208.1183    56.1196  2755.2236    33.7114     0.0746    61.3687  2279.9019   252.6140
 5446.5000     9.0742   210.6044   194.2675   176.2723    94.4303  2755.9700    33.7035     0.0741    61.3694  2279.6382   215.4451
 5447.0000     9.0586   196.4612   169.2127   167.9373   135.4662  2756.7163    35.5083     0.0750    61.5967  2279.3364   199.6543
 5447.5000     9.0581   204.7651   171.6006   198.2775   116.3176  2757.4626    35.1604     0.0774    61.9752  2279.0347   263.3232
 5448.0000     9.0576   245.1418   220.1506   234.0990    95.8049  2758.2090    29.3746     0.0801    62.5046  2278.7256   308.7522
 5448.5000     9.0570   219.3654   252.8404   205.2578   131.8403  2758.9553    27.6672     0.0834    63.0340  2278.3796   218.4475
 5449.0000     9.0564   175.6962   191.7988   176.2723   140.3534  2759.7014    25.5068     0.0867    63.4125  2278.1299   183.7450
 5449.5000     9.0710   152.9234   164.7680   145.2234   108.6167  2760.4478    24.8191     0.0873    63.4132  2277.8281   162.2262
 5450.0000     9.0704   148.7151   143.5134   137.4025    70.6691  2761.1941    24.5846     0.0870    63.2628  2292.6094   163.6552
 5450.5000     9.0700   161.5771   145.5431   139.3174    33.4211  2761.9404    24.0102     0.0867    63.3392  2292.6094   175.4557
 5451.0000     9.0694   166.1184   159.2662   151.3799    32.0638  2762.6865    23.2092     0.0870    63.6420  2307.6924   201.5623
 5451.5000     9.0689   178.1850   173.0823   171.4601    50.0926  2763.4329    23.0880     0.0885    63.7938  2292.6094   220.6125
 5452.0000     9.0683   196.5044   191.3519   183.7450   123.5699  2764.1792    24.5529     0.0883    63.7915  2292.6094   225.3310
 5452.5000     9.0829   213.7222   202.3884   190.2137    87.9338  2764.9255    25.4513     0.0873    63.4894  2292.6094   231.7473
 5453.0000     9.0974   222.9743   214.0423   194.2038    87.3561  2765.6716    26.3497     0.0866    63.3327  2292.6094   245.0307
 5453.5000     9.1120   227.8368   223.2561   196.9102    80.4256  2766.4180    28.4944     0.0855    62.9607  2292.6094   262.6832
 5454.0000     9.1416   232.8051   226.5091   202.4367    72.0024  2767.1643    31.5454     0.0839    62.5831  2292.6094   281.6074
 5454.5000     9.1711   229.7238   223.4958   203.8424    71.5344  2767.9106    36.5224     0.0821    62.3565  2292.6094   252.2190
 5455.0000     9.1858   222.1129   213.0805   196.9102   122.9998  2768.6567    40.8195     0.0799    61.9789  2292.6094   230.6325
