~VERSION INFORMATION
 VERS.                2.0:   CWLS LOG ASCII STANDARD - VERSION 2.0
 WRAP.                 NO:   ONE LINE PER DEPTH STEP
~WELL INFORMATION
#MNEM.UNIT      DATA TYPE    INFORMATION
#----------   ------------   ------------------------------
 STRT.F          200.0000:   START DEPTH
 STOP.F         3124.0000:   STOP DEPTH
 STEP.F            0.5000:   STEP LENGTH
 NULL.          -999.2500:   NO VALUE
 COMP.    FENIX & SCISSON:   COMPANY
 WELL. FENIX SCISSON #18-27:   WELL
 FLD .                NPR:   FIELD
 LOC .      S27 T39N R78W:   LOCATION
 CNTY.            NATRONA:   COUNTY
 STAT.            WYOMING:   STATE
 CTRY. UNITED STATES OF AMERICA:   COUNTRY
 SRVC.              WELEX:   SERVICE COMPANY
 DATE.        26-SEP-1977:   LOGDATE
 API .     49025104210000:   API NUMBER
~CURVE INFORMATION
#MNEM.UNIT       API CODE    CURVE DESCRIPTION
#----------   ------------   ------------------------------
 DEPT.F                  :   
 CALD.IN     45 280 60 00:   CALIPER FROM DENSITY LOG
 GRD .GAPI   45 310 01 00:   GAMMA RAY FROM DENSITY LOG
 RHOB.G/C3   45 350 01 00:   BULK DENSITY
 CORR.G/C3   45 356 01 00:   DENSITY CORRECTION
 NPHI.DEC    42 890 03 00:   NEUTRON POROSITY SANDSTONE
 SPR .MV     07 010 01 00:   SPONTANEOUS POTENTIAL
 GURD.OHMM   07 220 05 00:   GUARD LOG RESISTIVITY
 ILD .OHMM   07 120 46 00:   DEEP INDUCTION RESISTIVITY
 ILM .OHMM   07 120 44 00:   INDUCTION LOG MEDIUM RESISTIVITY
 TENR.LBS    07 635 01 00:   TENSION FROM RESISTIVITY
~PARAMETER INFORMATION
#MNEM.UNIT          VALUE    DESCRIPTION
#----------   ------------   ------------------------------
 EKB .F         5080.0000:   Kelly bushing
 EGL .F         5070.0000:   Ground level
 EDF .F            0.0000:   Drilling floor
 EPD .F            0.0000:   Permanent datum
 TD  .F         3117.0000:   Total depth
 DATE.        26-SEP-1977:   Date logged
 CLNT.            A2DTECH:   Client Code
 SL  . 330' FSL & 1650' FWL:   Surface Location
 PD  .                 GL:   Permanent Datum
 DAPD.F                10:   Feet Above Permanent Datum
 DD  .F              3115:   Depth driller
 DL  .F              3117:   Depth logger
 BLI .F              3115:   Bottom log interval
 TLI .F               200:   Top log interval
 CS1 .IN            8.625:   Casing size
 CBD1.      8.625" @ 219':   Casing driller 1
 CBL1.F               220:   Casing logger 1
 BS1 .IN            7.875:   Bit size
 BSD1.F              3115:   Depth drilled with bit1
 DFT .            KCL MUD:   Type fluid in hole
 DFD .                9.1:   Density
 DFV .                 35:   Viscosity
 DFPH.                 11:   pH
 DFL .               17.2:   Fluid loss
 MSS .           FLOWLINE:   Source of sample
 RMS .OHMM            .59:   Rm
 MST .F                98:   Rm Meas. temp.
 RMF .OHMM            .56:   Rmf
 MFST.F                98:   Rmf Meas. temp.
 RMC .OHMM            .24:   Rmc
 MCST.F                98:   Rmc Meas. temp.
 MFSS.               MEAS:   Source Rmf.
 MCSS.               MEAS:   Source Rmc.
 RMB .OHMM            .48:   Rm. at BHT
 BHT .F               116:   BHT.
 TCS .HRS               4:   Time Circ. stopped
 MRT .F               116:   Maximum recorded temp.
 LUN .               8611:   Logging unit number
 LUL .             CASPER:   Logging unit location
 ENGI.            C. DOAK:   Recorded By
 WITN.         PETTINGILL:   Witnessed by
 ORIG.           5" PRINT:   Origin of data
 UWI .     49025104210000:   Unique Well ID
 DICO. A2D TECHNOLOGIES, INC.:   Digitizing Company
~OTHER INFORMATION
~A   DEPT     CALD        GRD       RHOB       CORR         NPHI      SPR       GURD        ILD        ILM        TENR  
# ...
  401.0000     9.6045    76.7376     2.3966     0.0448     0.2761   -35.0137    13.6216    11.0313    12.0246   347.9622
  401.5000     9.6443    74.3633     2.3857     0.0407     0.2781   -35.0053    13.6275    11.1378    11.8109   347.4619
  402.0000     9.6643    73.2748     2.3817     0.0369     0.2777   -34.9970    13.8859    11.2454    11.8150   327.0188
  402.5000     9.6843    82.2880     2.3837     0.0349     0.2753   -35.5821    13.8920    11.2503    11.8202   346.4613
  403.0000     9.7044    85.1600     2.3877     0.0389     0.2709   -35.7715    13.1572    11.2542    11.8253   345.9610
  403.5000     9.7045    80.7078     2.3858     0.0389     0.2682   -35.9610    12.8022    11.2591    12.0498   345.4607
  404.0000     9.7245    80.9078     2.3868     0.0389     0.2670   -36.1504    12.8078    11.4726    12.2785   344.9604
  404.5000     9.7247    82.0980     2.3927     0.0429     0.2650   -36.5377    13.8417    11.9077    12.6271   354.4317
  405.0000     9.7447    84.2778     2.3997     0.0469     0.2634   -36.7271    13.5969    11.9118    12.9855   353.9315
  405.5000     9.7449    84.6759     2.4017     0.0509     0.2606   -37.1144    14.2408    11.9160    12.9912   343.4594
  406.0000     9.7451    83.4897     2.4007     0.0510     0.2518   -37.1043    22.1178    11.9222    12.9968   343.0592
  406.5000     9.7453    84.2838     2.4007     0.0510     0.2475   -37.2536    13.6147    11.9274    12.7659   352.5307
  407.0000     9.7256    84.6819     2.4017     0.0530     0.2479   -37.4865    13.3716    11.9326    12.5390   352.0304
  407.5000     9.6863    84.6839     2.4027     0.0550     0.2491   -37.6742    13.3775    11.9378    12.3161   351.5301
  408.0000     9.6468    84.6859     2.3998     0.0550     0.2494   -37.8637    13.2610    11.3034    12.0973   351.0298
  408.5000     9.6074    86.3701     2.4008     0.0570     0.2455   -38.2509    13.2668    11.0013    11.8823   350.5295
  409.0000     9.5087    85.5800     2.4028     0.0570     0.2427   -38.4403    13.2726    10.9056    11.6711   350.0292
  409.5000     9.4890    82.1176     2.4078     0.0571     0.2407   -39.0252    13.2784    10.8107    11.6762   349.5289
  410.0000     9.4497    77.3673     2.4107     0.0571     0.2395   -40.0057    13.4008    10.5218    11.6813   349.0285
  410.5000     9.3904    74.0029     2.4147     0.0571     0.2367   -39.2062    13.3622    10.1471    11.7942   348.5282
  411.0000     9.3313    72.8167     2.4177     0.0551     0.2351   -39.1978    13.3681    10.0588    12.2409   348.0279
  411.5000     9.2722    74.9970     2.4177     0.0552     0.2319   -39.3872    13.3739    10.1559    12.5884   347.5276
  412.0000     9.2129    77.4733     2.4118     0.0512     0.2292   -39.9721    13.3786    10.3485    12.4788   347.0272
  412.5000     9.2130    75.3966     2.4108     0.0453     0.2292   -39.7660    13.3856    10.1840    11.9239   346.5269
  413.0000     9.1934    74.8046     2.4138     0.0413     0.2303   -39.9553    13.2691    10.0763    11.4987   346.0265
  413.5000     9.1936    75.0046     2.4188     0.0373     0.2319   -40.1447    13.1537     9.9886    11.2944   345.5262
  414.0000     9.1938    76.3928     2.4228     0.0394     0.2347   -40.3340    13.0392     9.9017    11.3003   354.9984
  414.5000     9.1940    78.5731     2.4277     0.0394     0.2443   -40.5234    13.0449     9.9060    10.7968   354.4981
  415.0000     9.1942    81.3474     2.4327     0.0384     0.2451   -40.5150    12.9303     9.9103    11.5188   353.9978
  415.5000     9.1944    82.7352     2.4337     0.0375     0.2463   -40.5066    12.9360     9.9146    11.6302   353.4974
  416.0000     9.1946    84.5195     2.4337     0.0335     0.2455   -40.3004    12.9416     9.9190    11.6353   333.0516
  416.5000     9.1949    86.0057     2.4278     0.0335     0.2415   -40.4898    13.0666     9.8665    12.7591   352.4968
  417.0000     9.2148    84.7215     2.4238     0.0295     0.2387   -40.6791    13.3144     9.7805    12.0802   351.9964
  417.5000     9.2348    82.3472     2.4198     0.0256     0.2355   -40.6707    13.5669     9.6067    10.6281   351.4961
  418.0000     9.2350    80.3689     2.4119     0.0236     0.2343   -40.6623    12.7285     9.5230    10.4392   360.9687
  418.5000     9.2550    79.7768     2.4069     0.0177     0.2351   -40.6539    12.7374     9.3537    10.3473   350.4954
  419.0000     9.2552    79.7788     2.4050     0.0177     0.2387   -40.8432    12.4427     9.2722    10.3518   349.9950
  419.5000     9.2752    81.7611     2.4000     0.0078     0.2431   -40.8348    12.4449     9.2763    10.3554   349.4947
  420.0000     9.2952    84.9315     2.3881     0.0058     0.2447   -40.8264    12.4503     9.2803    10.3609   358.9675
  420.5000     9.2954    86.8130     2.3782     0.0018     0.2439   -40.6203    12.4558     9.2836    10.3654   358.5672
  421.0000     9.3154    83.3513     2.3722     0.0019     0.2415   -40.4142    12.4612     9.3733    10.3699   348.0936
  421.5000     9.3156    84.1454     2.3662     0.0019     0.2371   -40.6035    12.4667     9.5513    10.4702   357.5666
  422.0000     9.3356    85.4336     2.3682     0.0079     0.2295   -40.5951    12.4721     9.6436    10.6690   357.0662
  422.5000     9.3754    82.3672     2.3812     0.0079     0.2220   -40.3890    12.4776     9.8267    10.7712   346.5925
  423.0000     9.3756    81.1810     2.3881     0.0193     0.2172   -40.1845    12.4830     9.9217    10.8753   346.0921
  423.5000     9.3759    79.2028     2.3872     0.0238     0.2160   -40.1761    12.7898    10.0176    10.9814   345.5917
  424.0000     9.3760    77.3225     2.3782     0.0218     0.2120   -40.1677    12.7954    10.1145    10.9852   355.0648
  424.5000     9.4158    78.4147     2.3733     0.0179     0.2057   -40.1593    12.8010    10.1180    10.8905   354.5645
  425.0000     9.4160    79.2088     2.3643     0.0139     0.1961   -40.1509    12.8054    10.0307    10.7956   354.0641
  425.5000     9.4360    80.8934     2.3604     0.0120     0.1929   -40.1425    12.8110     9.9433    10.6037   353.5637
  426.0000     9.4560    72.2818     2.3604     0.0020     0.1921   -39.9364    12.6996     9.8567    10.6084   353.0633
  426.5000     9.4958    71.4917     2.3624     0.0095     0.1945   -40.1257    12.7062     9.7708    10.6130   352.5630
  427.0000     9.5158    72.8799     2.3644     0.0100     0.1973   -40.1173    12.5956     9.6857    10.8145   352.0626
  427.5000     9.5160    73.8720     2.3684     0.0140     0.2045   -40.1089    12.3720     9.5135    11.1205   351.5622
  428.0000     9.5162    76.0523     2.3793     0.0200     0.2192   -40.1005    12.3774     9.6055    11.4373   351.0618
  428.5000     9.5165    76.8464     2.3863     0.0260     0.2292   -40.2898    12.2697     9.4348    11.6544   350.5614
  429.0000     9.5760    76.6504     2.3912     0.0300     0.2335   -40.6718    12.2750     9.3526    11.0343   350.0610
  429.5000     9.5762    75.6623     2.3952     0.0320     0.2347   -40.5481    12.2804     9.2103     9.9781   349.5606
  430.0000     9.6160    75.6643     2.4022     0.0340     0.2327   -40.2646    12.2847     9.0993     9.8007   349.0601
  430.5000     9.6162    76.0623     2.4112     0.0380     0.2315   -40.0586    12.2901     8.9968     9.8041   348.5597
  431.0000     9.5966    76.6584     2.4251     0.0420     0.2307   -39.6548    12.2954     8.9177     9.9911   348.0593
  431.5000     9.5968    77.0561     2.4350     0.0460     0.2280   -39.4487    12.2997     8.9216     9.9955   347.5589
  432.0000     9.6762    79.6324     2.4350     0.0480     0.2280   -39.0450    12.3062     8.9262     9.9998   347.0584
  432.5000     9.6764    81.7123     2.4251     0.0480     0.2284   -38.8389    12.3115     8.9301    10.0042   356.5324
  433.0000     9.7162    79.0423     2.4221     0.0500     0.2303   -37.8421    12.3169     8.9332    10.0086   356.0320
  433.5000     9.7362    77.8562     2.4192     0.0546     0.2315   -37.2407    12.3212     9.1035    10.0121   355.5316
  434.0000     9.7364    76.6700     2.4162     0.0600     0.2351   -36.4416    12.3277     9.5350    10.2963   355.0312
