~VERSION INFORMATION
 VERS.                2.0:   CWLS LOG ASCII STANDARD - VERSION 2.0
 WRAP.                 NO:   ONE LINE PER DEPTH STEP
~WELL INFORMATION
#MNEM.UNIT      DATA TYPE    INFORMATION
#----------   ------------   ------------------------------
 STRT.F          200.0000:   START DEPTH
 STOP.F         3078.0000:   STOP DEPTH
 STEP.F            0.5000:   STEP LENGTH
 NULL.          -999.2500:   NO VALUE
 COMP.   FENIX & SCISSION:   COMPANY
 WELL. FENIX NPR 72 "A" #3-28:   WELL
 FLD .              NPR-3:   FIELD
 LOC .      S28 T39N R78W:   LOCATION
 CNTY.            NATRONA:   COUNTY
 STAT.            WYOMING:   STATE
 CTRY. UNITED STATES OF AMERICA:   COUNTRY
 SRVC.              WELEX:   SERVICE COMPANY
 DATE.        06-JUN-1977:   LOGDATE
 API .     49025103770000:   API NUMBER
~CURVE INFORMATION
#MNEM.UNIT       API CODE    CURVE DESCRIPTION
#----------   ------------   ------------------------------
 DEPT.F                  :   
 CORR.G/C3   45 356 01 00:   DENSITY CORRECTION
 RHOB.G/C3   45 350 01 00:   BULK DENSITY
 CALD.IN     45 280 60 00:   CALIPER FROM DENSITY LOG
 SPR .MV     07 010 01 00:   SPONTANEOUS POTENTIAL
 GURD.OHMM   07 220 05 00:   GUARD LOG RESISTIVITY
 ILM .OHMM   07 120 44 00:   INDUCTION LOG MEDIUM RESISTIVITY
 ILD .OHMM   07 120 46 00:   DEEP INDUCTION RESISTIVITY
 GRD .GAPI   45 310 01 00:   GAMMA RAY FROM DENSITY LOG
~PARAMETER INFORMATION
#MNEM.UNIT          VALUE    DESCRIPTION
#----------   ------------   ------------------------------
 EKB .F         5022.0000:   Kelly bushing
 EGL .F         5011.0000:   Ground level
 EDF .F            0.0000:   Drilling floor
 EPD .F         5011.0000:   Permanent datum
 TD  .F         3081.0000:   Total depth
 DATE.        06-JUN-1977:   Date logged
 CLNT.            A2DTECH:   Client Code
 SL  . 990' FNL & 990' FEL:   Surface Location
 PD  .                 GL:   Permanent Datum
 DAPD.F                11:   Feet Above Permanent Datum
 DD  .F              3041:   Depth driller
 DL  .F              3081:   Depth logger
 BLI .F              3079:   Bottom log interval
 TLI .F               200:   Top log interval
 CS1 .IN            8.625:   Casing size
 CBD1.      8.625" @ 200':   Casing driller 1
 CBL1.F               218:   Casing logger 1
 BS1 .IN            7.875:   Bit size
 BSD1.F              3041:   Depth drilled with bit1
 DFT .            KCL MUD:   Type fluid in hole
 DFD .                8.8:   Density
 DFV .                 38:   Viscosity
 DFPH.                7.5:   pH
 DFL .                5.8:   Fluid loss
 MSS .           FLOWLINE:   Source of sample
 RMS .OHMM           1.19:   Rm
 MST .F                89:   Rm Meas. temp.
 RMF .OHMM           1.05:   Rmf
 MFST.F                89:   Rmf Meas. temp.
 RMC .OHMM           2.17:   Rmc
 MCST.F                89:   Rmc Meas. temp.
 MFSS.               FANN:   Source Rmf.
 MCSS.                KIT:   Source Rmc.
 RMB .OHMM           0.98:   Rm. at BHT
 BHT .F               108:   BHT.
 TCS .HRS             2.5:   Time Circ. stopped
 MRT .F               108:   Maximum recorded temp.
 LUN .               8611:   Logging unit number
 LUL .             CASPER:   Logging unit location
 ENGI.          T. JOYNER:   Recorded By
 WITN.      W. PETTINGILL:   Witnessed by
 ORIG.           5" PRINT:   Origin of data
 UWI .     49025103770000:   Unique Well ID
 DICO. A2D TECHNOLOGIES, INC.:   Digitizing Company
~OTHER INFORMATION
~A   DEPT     CORR       RHOB         CALD      SPR       GURD        ILM        ILD         GRD  
# ...
  969.5000     0.0160     2.4730     9.5320   -51.9740     9.3390    10.1280    10.5370   109.0960
  970.0000     0.0180     2.4760     9.5080   -51.9660     9.3450    10.1490    10.5370   110.2460
  970.5000     0.0190     2.4790     9.4840   -51.9580     9.3510    10.1700    10.5370   110.2480
  971.0000     0.0180     2.4800     9.4610   -51.9500     9.3630    10.1910    10.5370   110.2560
  971.5000     0.0180     2.4750     9.4380   -51.9430     9.3780    10.2110    10.5370   110.2980
  972.0000     0.0170     2.4700     9.4140   -51.9350     9.3930    10.2320    10.5370   108.4660
  972.5000     0.0160     2.4720     9.3910   -51.9270     9.4080    10.2510    10.5370   105.9170
  973.0000     0.0160     2.4750     9.3680   -51.9200     9.4230    10.1610    10.5370   103.2850
  973.5000     0.0160     2.4770     9.3440   -51.9120     9.4380    10.0780    10.5380   104.2000
  974.0000     0.0170     2.4740     9.3240   -51.9040     9.3670     9.9950    10.4590   105.4090
  974.5000     0.0170     2.4730     9.3330   -51.8960     9.2850     9.9120    10.3710   106.6500
  975.0000     0.0160     2.4730     9.3430   -51.8890     9.2040     9.8290    10.2840   106.9630
  975.5000     0.0150     2.4680     9.3530   -51.8810     9.1220     9.7460    10.1960   106.5740
  976.0000     0.0140     2.4640     9.3630   -51.8740     9.0410     9.6620    10.1080   105.5250
  976.5000     0.0130     2.4680     9.3730   -51.8650     8.9590     9.5790    10.0430   104.4730
  977.0000     0.0110     2.4630     9.3830   -51.9180     8.8780     9.4960     9.9990   103.6510
  977.5000     0.0090     2.4570     9.3990   -52.0060     8.7960     9.4340     9.9550   105.6970
  978.0000     0.0080     2.4500     9.4140   -52.0160     8.6920     9.4150     9.9120   107.7090
  978.5000     0.0060     2.4490     9.4300   -51.9180     8.8100     9.3960     9.8710   109.7910
  979.0000     0.0060     2.4490     9.4430   -51.8630     9.0170     9.3770     9.8390   111.0130
  979.5000     0.0060     2.4510     9.4520   -51.8630     8.9340     9.3580     9.8060   110.2610
  980.0000     0.0060     2.4520     9.4600   -51.8630     8.8210     9.2820     9.7730   109.5070
  980.5000     0.0070     2.4540     9.4690   -51.8630     8.7090     9.1840     9.7400   110.1240
  981.0000     0.0070     2.4520     9.4770   -51.8630     8.5990     9.0870     9.7070   110.8690
  981.5000     0.0070     2.4490     9.4740   -51.8630     8.5090     8.9900     9.6750   111.6520
  982.0000     0.0080     2.4520     9.4660   -51.8630     8.3790     8.8930     9.6420   111.1350
  982.5000     0.0080     2.4550     9.4580   -51.8630     8.3870     8.7720     9.6040   110.1210
  983.0000     0.0090     2.4540     9.4510   -51.8630     8.4020     8.7970     9.5380   110.3990
  983.5000     0.0100     2.4530     9.4430   -51.8630     8.4170     8.8290     9.4730   111.0010
  984.0000     0.0100     2.4530     9.4380   -51.8630     8.4320     8.8620     9.4070   110.2230
  984.5000     0.0110     2.4600     9.4330   -51.8630     8.4470     8.8950     9.3530   109.4580
  985.0000     0.0110     2.4670     9.4290   -51.8630     8.4560     8.9340     9.2840   109.3060
  985.5000     0.0120     2.4750     9.4250   -51.8630     8.2320     8.8370     9.2140   109.7720
  986.0000     0.0120     2.4760     9.4210   -51.8630     8.0770     8.7130     9.1430   110.2410
  986.5000     0.0130     2.4760     9.4190   -51.8630     8.1460     8.6130     9.1030   108.9700
  987.0000     0.0130     2.4740     9.4170   -51.8620     8.2040     8.6390     9.1290   106.3050
  987.5000     0.0140     2.4710     9.4140   -51.9040     8.2270     8.6660     9.1500   103.7620
  988.0000     0.0140     2.4680     9.4120   -51.9580     8.2270     8.6930     9.1710   101.9320
  988.5000     0.0140     2.4660     9.4100   -52.0130     8.2270     8.7190     9.2040   101.9720
  989.0000     0.0150     2.4670     9.4080   -52.0680     8.3060     8.7460     9.2540   101.9740
  989.5000     0.0150     2.4670     9.4060   -52.1230     8.4370     8.7720     9.3040   101.9940
  990.0000     0.0150     2.4670     9.4030   -52.1780     8.5670     9.1660     9.3530   101.0050
  990.5000     0.0150     2.4670     9.4020   -52.2320     8.6970     9.5530     9.7870    99.6410
  991.0000     0.0150     2.4680     9.4050   -52.2870     9.0020     9.9400    10.2120    98.2650
  991.5000     0.0150     2.4680     9.4080   -52.3420     9.5420    10.3280    10.6380    96.8860
  992.0000     0.0150     2.4660     9.4110   -52.3980    10.0820    10.7150    11.0630    95.7190
  992.5000     0.0150     2.4620     9.4140   -52.4440    10.6220    11.1020    11.4880    96.7310
  993.0000     0.0150     2.4610     9.4170   -52.2530    11.0670    11.4900    11.9140    97.7250
  993.5000     0.0130     2.4590     9.4200   -52.0540    11.2150    11.8770    12.1900    98.7090
  994.0000     0.0100     2.4570     9.4240   -51.8670    11.3630    12.1090    12.4390    98.7420
  994.5000     0.0070     2.4540     9.4300   -51.8620    11.4430    12.1500    12.6880    97.8270
  995.0000     0.0070     2.4520     9.4360   -51.8630    11.4430    12.1920    12.7940    96.9140
  995.5000     0.0070     2.4510     9.4420   -51.8630    11.4430    12.2340    12.8250    96.3070
  996.0000     0.0060     2.4540     9.4470   -51.8630    11.4430    12.2750    12.8560    96.0130
  996.5000     0.0060     2.4610     9.4530   -51.8630    11.4430    12.3140    12.8870    95.7190
  997.0000     0.0060     2.4680     9.4590   -51.8630    11.3270    12.1320    12.7560    95.4250
  997.5000     0.0100     2.4710     9.4650   -51.8630    11.1930    11.9240    12.6000    95.1270
  998.0000     0.0130     2.4700     9.4710   -51.8630    11.0590    11.7160    12.4450    94.9150
  998.5000     0.0160     2.4720     9.4770   -51.8630    10.9260    11.4430    12.3560    95.8160
  999.0000     0.0180     2.4730     9.4760   -51.8630    10.8310    11.5350    12.2750    96.6930
  999.5000     0.0200     2.4740     9.4700   -51.8630    11.0260    11.6690    12.2010    97.5620
 1000.0000     0.0220     2.4780     9.4630   -51.8630    11.1330    11.7620    12.2580    98.4390
 1000.5000     0.0240     2.4820     9.4550   -51.8630    10.6340    11.5890    12.3100    99.3920
 1001.0000     0.0250     2.4850     9.4460   -51.8630    10.7570    11.4430    12.3610    98.6180
 1001.5000     0.0250     2.4810     9.4370   -51.8630    10.9340    11.5140    12.4130    97.5240
 1002.0000     0.0240     2.4780     9.4280   -51.8630    11.1100    11.5930    12.4640    96.4450
 1002.5000     0.0230     2.4750     9.4190   -51.8630    11.2860    11.6730    12.5420    96.0420
 1003.0000     0.0210     2.4730     9.4100   -51.8590    11.3390    11.7520    12.5310    97.5860
 1003.5000     0.0190     2.4710     9.4020   -51.8450    11.3390    11.8700    12.5100    99.0670
 1004.0000     0.0170     2.4700     9.4020   -51.8310    11.3390    11.8080    12.4890   100.5370
 1004.5000     0.0170     2.4700     9.4020   -51.8170    11.2540    11.6820    12.4670   101.7150
 1005.0000     0.0170     2.4680     9.4020   -51.8030    11.0840    11.5560    12.4460   102.1310
 1005.5000     0.0160     2.4670     9.4020   -51.7890    10.9310    11.4430    12.4260   102.5570
 1006.0000     0.0160     2.4640     9.4120   -51.7750    10.9960    11.6190    12.3720   103.6700
 1006.5000     0.0150     2.4580     9.4240   -51.7620    11.0550    11.7620    12.3230   105.4620
 1007.0000     0.0150     2.4540     9.4350   -51.7480    11.1330    11.7000    12.2740   106.6340
 1007.5000     0.0130     2.4540     9.4470   -51.7340    11.0180    11.6430    12.2240   104.3970
 1008.0000     0.0120     2.4570     9.4580   -51.7200    10.7890    11.5860    12.1740   102.2580
 1008.5000     0.0120     2.4610     9.4700   -51.7060    10.5370    11.5290    12.1250   101.3800
 1009.0000     0.0130     2.4640     9.4820   -51.6920    10.5150    11.4720    12.0860   101.7470
 1009.5000     0.0140     2.4680     9.4930   -51.6790    10.4920    11.4050    12.0720   102.1000
