~VERSION INFORMATION
 VERS.                2.0:   CWLS LOG ASCII STANDARD - VERSION 2.0
 WRAP.                 NO:   ONE LINE PER DEPTH STEP
~WELL INFORMATION
#MNEM.UNIT      DATA TYPE    INFORMATION
#----------   ------------   ------------------------------
 STRT.F           29.5000:   START DEPTH
 STOP.F         2719.5000:   STOP DEPTH
 STEP.F            0.5000:   STEP LENGTH
 NULL.          -999.2500:   NO VALUE
 COMP.          INTEX OIL:   COMPANY
 WELL. INTEX NPR 3 "AX" #82-20:   WELL
 FLD .             TEAPOT:   FIELD
 LOC .      S20 T39N R78W:   LOCATION
 CNTY.            NATRONA:   COUNTY
 STAT.            WYOMING:   STATE
 CTRY. UNITED STATES OF AMERICA:   COUNTRY
 SRVC.       SCHLUMBERGER:   SERVICE COMPANY
 DATE.        19-MAY-1956:   LOGDATE
 API .     49025095270000:   API NUMBER
~CURVE INFORMATION
#MNEM.UNIT       API CODE    CURVE DESCRIPTION
#----------   ------------   ------------------------------
 DEPT.F                  :   
 CALD.IN     45 280 60 00:   CALIPER FROM DENSITY LOG
 GRD .GAPI   45 310 01 00:   GAMMA RAY FROM DENSITY LOG
 CORR.G/C3   45 356 01 00:   DENSITY CORRECTION
 RHOB.G/C3   45 350 01 00:   BULK DENSITY
 SPR .MV     05 010 01 00:   SPONTANEOUS POTENTIAL
 ILD .OHMM   05 120 46 00:   DEEP INDUCTION RESISTIVITY
 SN  .OHMM   05 040 00 00:   SHORT NORMAL
~PARAMETER INFORMATION
#MNEM.UNIT          VALUE    DESCRIPTION
#----------   ------------   ------------------------------
 EKB .F         5014.3000:   Kelly bushing
 EGL .F         5004.0000:   Ground level
 EDF .F            0.0000:   Drilling floor
 TD  .F         2717.0000:   Total depth
 DATE.        19-MAY-1956:   Date logged
 CLNT.            A2DTECH:   Client Code
 PD  .                 GL:   Permanent Datum
 EPD .F              5004:   Elevation Permanent Datum
 LMF .                 KB:   Log Measured From
 DMF .                 KB:   Drilling Measured From
 DAPD.F              10.3:   Feet Above Permanent Datum
 DD  .F              2717:   Depth driller
 DL  .F              2717:   Depth logger
 BLI .F              2716:   Bottom log interval
 TLI .F               100:   Top log interval
 CS1 .IN            10.75:   Casing size
 CBD1.       10.75" @ 30':   Casing driller 1
 BS1 .IN            7.875:   Bit size
 BSD1.F              2717:   Depth drilled with bit1
 DFT .        GEL/CAUSTIC:   Type fluid in hole
 DFD .                9.7:   Density
 DFV .                 35:   Viscosity
 DFPH.                7.6:   pH
 DFL .                8.8:   Fluid loss
 MSS .           FLOWLINE:   Source of sample
 RMS .OHMM           1.68:   Rm
 MST .F                58:   Rm Meas. temp.
 RMF .OHMM           1.17:   Rmf
 MFST.F                68:   Rmf Meas. temp.
 MFSS.                 FP:   Source Rmf.
 RMB .OHMM              1:   Rm. at BHT
 BHT .F               101:   BHT.
 TCS .HRS               4:   Time Circ. stopped
 MRT .F               101:   Maximum recorded temp.
 LUN .               4507:   Logging unit number
 LUL .               CSPR:   Logging unit location
 ENGI.            MANGOLD:   Recorded By
 WITN.             TUTTLE:   Witnessed by
 ORIG.           5" PRINT:   Origin of data
 UWI .     49025095270000:   Unique Well ID
 DICO. A2D TECHNOLOGIES, INC.:   Digitizing Company
~OTHER INFORMATION
~A   DEPT     CALD         GRD      CORR       RHOB        SPR        ILD         SN   
# ...
 1986.0000     9.0610    92.8440     0.0750     2.4690   -42.1310     6.0600     9.2560
 1986.5000     9.0730    86.9710     0.0610     2.4310   -42.0510     6.2940     9.5770
 1987.0000     9.0710    80.4640     0.0530     2.4400   -42.1120     6.5290     9.8970
 1987.5000     9.0630    76.7020     0.0630     2.4530   -42.2350     6.7640    10.2190
 1988.0000     9.0550    77.8630     0.0730     2.4660   -42.3570     7.0000    10.5400
 1988.5000     9.0530    79.2070     0.0820     2.4860   -42.4800     7.2360    10.8520
 1989.0000     9.0530    80.5630     0.0790     2.4780   -42.6030     7.4710    11.1550
 1989.5000     9.0320    82.8440     0.0650     2.4650   -42.7260     7.7070    11.4580
 1990.0000     9.0470    84.8780     0.0630     2.4760   -42.8480     7.9420    11.7610
 1990.5000     9.0610    83.4860     0.0710     2.4860   -42.9710     8.1780    12.0660
 1991.0000     9.0740    80.2810     0.0650     2.4720   -43.0380     8.3930    12.3640
 1991.5000     9.0090    77.2490     0.0570     2.4630   -42.8740     8.4540    12.3730
 1992.0000     8.9170    76.0310     0.0630     2.4790   -43.2670     8.5110    12.2680
 1992.5000     8.9150    75.0970     0.0700     2.4970   -43.0690     8.5680    12.1560
 1993.0000     8.9150    78.0330     0.0720     2.4910   -42.8710     8.6880    12.0450
 1993.5000     8.9150    78.1980     0.0650     2.4760   -42.8710     8.6990    11.9790
 1994.0000     8.9150    75.0240     0.0620     2.4840   -42.8720     8.6980    12.6360
 1994.5000     8.9150    77.1980     0.0680     2.4940   -42.8640     8.5760    13.0990
 1995.0000     8.9150    79.4250     0.0750     2.4850   -43.0820     8.3730    13.1160
 1995.5000     8.9130    78.7130     0.0910     2.4640   -43.2710     8.1590    13.0400
 1996.0000     8.9110    76.4960     0.0790     2.4340   -43.2540     7.9440    12.6040
 1996.5000     8.9090    74.5030     0.0720     2.4430   -43.2260     7.7300    12.1690
 1997.0000     8.9070    76.7580     0.0830     2.4770   -43.1990     7.5150    11.7350
 1997.5000     8.9050    80.7470     0.0780     2.4730   -43.1710     7.3000    11.3030
 1998.0000     8.9040    81.5550     0.0970     2.4840   -43.1440     7.0850    10.8760
 1998.5000     8.9020    81.4150     0.1080     2.4860   -43.1170     6.8700    10.6130
 1999.0000     8.9000    84.4950     0.0830     2.4630   -43.0890     6.6550    10.7720
 1999.5000     8.8980    89.8940     0.0660     2.4490   -43.0620     6.4400    10.9410
 2000.0000     8.8960    90.1440     0.0810     2.4570   -43.0340     6.2250    10.9100
 2000.5000     8.8990    90.4130     0.0880     2.4670   -43.0070     6.0140    10.3150
 2001.0000     8.9130    90.3460     0.0850     2.4750   -42.9790     5.7970     9.7390
 2001.5000     8.9270    90.4570     0.0730     2.4590   -42.9520     5.8310     9.1700
 2002.0000     8.9400    91.9230     0.0610     2.4410   -42.9240     5.9400     8.7650
 2002.5000     8.9540    97.2080     0.0600     2.4270   -42.8970     6.1600     8.8840
 2003.0000     8.9670   104.9380     0.0640     2.4150   -42.8720     6.7480     9.4580
 2003.5000     8.9810   112.7240     0.0670     2.3960   -42.8980     7.3220    10.4570
 2004.0000     8.9940   120.5010     0.0530     2.3660   -42.9270     7.8950    11.7850
 2004.5000     9.0080   120.2060     0.0370     2.3670   -42.9570     8.4680    13.2990
 2005.0000     9.0140   113.4900     0.0450     2.3840   -42.9870     9.0450    14.2380
 2005.5000     9.0070   107.6300     0.0690     2.4080   -43.0170     9.6410    14.8090
 2006.0000     8.9880   105.4940     0.0790     2.4310   -43.0470     9.6660    14.7990
 2006.5000     8.9580   112.8290     0.0690     2.3950   -43.0700     9.1400    14.7440
 2007.0000     8.9560   118.6200     0.0480     2.3990   -43.0690     8.5500    14.1760
 2007.5000     8.9580   121.6660     0.0600     2.4030   -43.0690     7.9600    13.4380
 2008.0000     8.9610   124.6520     0.0650     2.4030   -43.0690     7.3700    12.6970
 2008.5000     8.9640   124.9210     0.0470     2.3950   -43.0690     6.7790    11.9540
 2009.0000     8.9660   123.4830     0.0620     2.4030   -43.0690     6.1900    11.2110
 2009.5000     8.9690   122.6720     0.0770     2.4050   -43.0700     5.6010    10.3080
 2010.0000     8.9710   126.9740     0.0850     2.4020   -43.0750     5.0090     9.2440
 2010.5000     8.9730   131.4620     0.0850     2.4080   -42.8650     4.6750     8.1840
 2011.0000     8.9780   132.3700     0.0830     2.3960   -42.6210     4.5220     7.1240
 2011.5000     8.9920   134.0430     0.0750     2.3850   -42.3740     4.3710     6.3050
 2012.0000     8.9980   139.6720     0.0840     2.3870   -42.1260     4.2210     6.0880
 2012.5000     9.1130   134.2080     0.0860     2.3790   -42.0810     4.0740     6.0900
 2013.0000     9.2280   125.7170     0.0760     2.4490   -42.0800     3.9320     6.0800
 2013.5000     9.3420   117.1650     0.0940     2.5100   -42.0790     3.9470     6.0430
 2014.0000     9.4470   108.6520     0.1080     2.5040   -42.0790     4.1450     6.0080
 2014.5000     9.5020   101.6870     0.0880     2.4940   -42.0790     4.2880     5.9730
 2015.0000     9.5630    99.4280     0.0670     2.4830   -42.0790     4.4290     5.9390
 2015.5000     9.6240    99.9090     0.0530     2.4800   -42.0790     4.5710     5.9000
 2016.0000     9.6850   101.5810     0.0610     2.4650   -42.0790     4.7120     6.0010
 2016.5000     9.7480   103.2380     0.0540     2.4480   -42.0790     4.7930     6.0670
 2017.0000     9.7610   104.9430     0.0440     2.4310   -42.0780     4.7170     6.2130
 2017.5000     9.7570   104.9150     0.0580     2.4520   -42.0790     4.7130     6.3610
 2018.0000     9.7520   104.0220     0.0780     2.4910   -42.1210     4.7120     6.5090
 2018.5000     9.7450   103.1240     0.0950     2.5290   -42.3600     4.7120     6.5830
 2019.0000     9.7290    99.8940     0.1020     2.5490   -42.5320     4.7120     6.5830
 2019.5000     9.6990    94.5230     0.1040     2.5490   -42.6980     4.7120     6.5840
 2020.0000     9.7050    93.1490     0.1050     2.5490   -42.8610     4.7120     6.5840
 2020.5000     9.7710    96.8300     0.1120     2.5480   -42.7790     4.7120     6.5830
 2021.0000     9.8340    97.5430     0.1080     2.5430   -42.6800     4.7120     6.5650
 2021.5000     9.8980    97.3420     0.0880     2.5260   -42.5810     4.7120     6.4920
 2022.0000     9.9590    94.8190     0.0540     2.5010   -42.4830     4.7120     6.4210
 2022.5000     9.8990    92.1100     0.0700     2.4780   -42.3840     4.7130     6.3510
 2023.0000     9.8330    89.4450     0.0640     2.4770   -42.2860     4.7130     6.2890
 2023.5000     9.7650    90.0250     0.0750     2.4760   -42.1870     4.7470     6.3590
 2024.0000     9.7090    90.8730     0.0780     2.4860   -42.0850     4.8170     6.4380
 2024.5000     9.6830    91.8410     0.0350     2.4670   -42.1480     4.8860     6.5170
 2025.0000     9.6850    95.6600     0.0460     2.4580   -42.2820     4.9550     6.5960
 2025.5000     9.6860    98.9410     0.0660     2.4740   -42.4170     5.0250     6.6750
 2026.0000     9.6860    98.9550     0.0690     2.4790   -42.5510     5.0940     6.7540
 2026.5000     9.6860   101.8960     0.0870     2.4690   -42.6660     5.1640     6.8340
 2027.0000     9.6860   102.2250     0.0830     2.4730   -42.5610     5.2330     6.9130
 2027.5000     9.6860   101.4250     0.0810     2.4650   -42.4560     5.3020     6.9920
 2028.0000     9.6860   101.4430     0.0850     2.4760   -42.3530     5.3710     7.0700
 2028.5000     9.6860    99.9970     0.0800     2.4820   -42.2490     5.4050     7.0010
 2029.0000     9.6860    98.9270     0.0670     2.4700   -42.1450     5.3090     6.9760
 2029.5000     9.6860    99.4640     0.0550     2.4530   -42.0420     5.1160     6.7560
 2030.0000     9.6860   100.1500     0.0640     2.4620   -41.9390     4.9240     6.5100
 2030.5000     9.6860   100.8470     0.0650     2.4650   -41.8950     4.7320     6.2620
 2031.0000     9.6860   100.2560     0.0570     2.4710   -41.9550     4.5390     6.0150
