~VERSION INFORMATION
 VERS.                2.0:   CWLS LOG ASCII STANDARD - VERSION 2.0
 WRAP.                 NO:   ONE LINE PER DEPTH STEP
~WELL INFORMATION
#MNEM.UNIT      DATA TYPE    INFORMATION
#----------   ------------   ------------------------------
 STRT.F          602.0000:   START DEPTH
 STOP.F         5553.0000:   STOP DEPTH
 STEP.F            0.5000:   STEP LENGTH
 NULL.          -999.2500:   NO VALUE
 COMP.         U. S. NAVY:   COMPANY
 WELL. U. S. 1-TP-33 NPR #3-33:   WELL
 FLD . TEAPOT NAVAL RESERVE:   FIELD
 LOC .      S33 T39N R78W:   LOCATION
 CNTY.            NATRONA:   COUNTY
 STAT.            WYOMING:   STATE
 CTRY. UNITED STATES OF AMERICA:   COUNTRY
 SRVC.       SCHLUMBERGER:   SERVICE COMPANY
 DATE.        24-JUN-1952:   LOGDATE
 API .     49025065260000:   API NUMBER
~CURVE INFORMATION
#MNEM.UNIT       API CODE    CURVE DESCRIPTION
#----------   ------------   ------------------------------
 DEPT.F                  :   
 SPR .MV     01 010 01 00:   SPONTANEOUS POTENTIAL FROM RES.
 ASN .OHMM   01 041 16 00:   AMPLIFIED SHORT NORMAL 16"
 LAT .OHMM   01 070 08 00:   LATERAL 8'
 LN  .OHMM   01 060 64 00:   LONG NORMAL 64"
~PARAMETER INFORMATION
#MNEM.UNIT          VALUE    DESCRIPTION
#----------   ------------   ------------------------------
 EKB .F         5160.0000:   Kelly bushing
 EGL .F         5147.0000:   Ground level
 TD  .F         5553.0000:   Total depth
 CLNT.            A2DTECH:   Client Code
 DATE.        24-JUN-1952:   Date Logged [DD-MMM-YYYY]
 DD  .F              5549:   Depth driller
 DL  .F              5553:   Depth logger
 BLI .F              5553:   Bottom log interval
 TLI .F               602:   Top log interval
 CBL1.F               602:   Casing logger 1
 BSD1.F              5549:   Depth drilled with bit1
 DFT .           GYP BASE:   Type fluid in hole
 DFD .                9.8:   Density
 DFV .                 44:   Viscosity
 MSS .           FLOWLINE:   Source of sample
 RMS .OHMM            1.4:   Rm
 MST .F                60:   Rm Meas. temp.
 RMB .OHMM           0.48:   Rm. at BHT
 BHT .F               175:   BHT.
 TCS .HRS             1.5:   Time Circ. stopped
 MRT .F               175:   Maximum recorded temp.
 LUN .                563:   Logging unit number
 ENGI.             SANDER:   Recorded By
 WITN.            GRIBBIN:   Witnessed by
 ORIG.      1" 2.5" PRINT:   Origin of data
 UWI .     49025065260000:   Unique Well ID
 DICO. A2D TECHNOLOGIES, INC.:   Digitizing Company
~OTHER INFORMATION
~A  DEPTH      SPR        ASN        LAT         LN
# ...
 3887.0000   -47.8095     8.9834     4.3174     6.4917
 3887.5000   -47.8037     9.1435     4.5178     6.8403
 3888.0000   -47.7981     9.2467     4.6630     7.1983
 3888.5000   -47.7925     9.3421     4.9485     7.3893
 3889.0000   -48.0677     9.4667     5.2342     7.0531
 3889.5000   -48.0617     9.6727     5.6602     6.7766
 3890.0000   -48.0001     9.9055     6.1608     6.5002
 3890.5000   -47.7701     9.6843     6.7307     6.3625
 3891.0000   -47.7645     9.7826     7.1376     6.2250
 3891.5000   -47.4785     9.8810     7.4202     6.3654
 3892.0000   -47.1103     8.4078     7.4216     6.6446
 3892.5000   -46.7289     7.1306     7.1421     6.7848
 3893.0000   -45.9646     6.4089     6.5817     6.9251
 3893.5000   -45.2895     6.0206     5.7404     6.9265
 3894.0000   -44.8188     5.6855     4.8991     6.5112
 3894.5000   -44.2458     5.4083     4.0578     6.2347
 3895.0000   -44.0748     5.3259     3.6378     6.0972
 3895.5000   -44.0692     5.3613     3.4986     5.9550
 3896.0000   -44.0636     5.5056     3.5001     5.8222
 3896.5000   -44.0579     5.6113     3.5015     5.8236
 3897.0000   -44.0523     5.6911     3.5029     5.8436
 3897.5000   -44.0467     5.7250     3.5043     5.9653
 3898.0000   -44.0411     5.7604     3.3652     6.1056
 3898.5000   -44.0344     5.8109     3.3666     6.2458
 3899.0000   -43.7485     5.8678     3.2275     6.2472
 3899.5000   -43.7429     5.9246     3.3694     6.2903
 3900.0000   -43.4570     5.9723     3.3708     6.3889
 3900.5000   -43.5741     6.0561     3.5126     6.4412
 3901.0000   -43.7383     6.1583     3.5140     6.5306
 3901.5000   -43.7383     6.2421     3.6561     6.5802
 3902.0000   -43.7383     6.3815     3.7980     6.6501
 3902.5000   -44.0187     6.5208     3.9398     6.6667
 3903.0000   -44.0187     6.6799     4.0817     6.6667
 3903.5000   -44.2991     6.8928     4.0831     6.6667
 3904.0000   -44.2991     7.1256     4.3654     6.6667
 3904.5000   -44.2991     7.3283     4.5072     6.6667
 3905.0000   -44.2991     7.4398     4.6491     6.7129
 3905.5000   -44.5794     7.5133     4.9314     6.8472
 3906.0000   -44.8598     7.5311     5.0732     6.9444
 3906.5000   -44.8598     7.3506     5.2151     7.0833
 3907.0000   -44.5794     7.1178     5.2165     7.1111
 3907.5000   -44.5794     6.8783     5.2179     7.2222
 3908.0000   -44.5794     6.6774     5.2193     7.2222
 3908.5000   -44.2991     6.5386     5.3611     7.2222
 3909.0000   -44.2991     6.3998     5.3626     7.2222
 3909.5000   -44.2991     6.2888     5.3640     7.2222
 3910.0000   -44.2991     6.1611     5.3654     7.3611
 3910.5000   -44.2991     6.0780     5.3668     7.7062
 3911.0000   -44.2991     6.0339     5.3682     7.7048
 3911.5000   -44.2991     6.0064     5.3696     7.8467
 3912.0000   -44.2991     5.9789     5.2303     7.9885
 3912.5000   -44.2991     5.9514     5.0915     8.1303
 3913.0000   -44.2991     5.9794     4.8120     8.2722
 3913.5000   -44.4607     6.0032     4.5325     8.5573
 3914.0000   -44.5794     5.9645     4.2530     8.8424
 3914.5000   -44.5794     5.7739     4.2210     9.1282
 3915.0000   -44.5794     5.7028     4.5367     9.4150
 3915.5000   -44.5794     5.7672     4.5381     9.6977
 3916.0000   -44.8598     6.3311     4.6799     9.8396
 3916.5000   -44.8598     6.8330     4.8218     9.9887
 3917.0000   -44.8598     7.0993     4.9636    10.2845
 3917.5000   -45.0141     7.4959     5.1055    10.8382
 3918.0000   -45.1402     8.4435     5.2473    10.9923
 3918.5000   -45.2925     9.9349     5.9510    11.1218
 3919.0000   -45.4206    10.5550     6.9355    10.7865
 3919.5000   -45.8514    11.9151     7.7796    10.4026
 3920.0000   -46.1308    14.7056     8.7642    10.5635
 3920.5000   -46.2617    16.2451     9.7487    10.9935
 3921.0000   -45.9813    16.8172    10.7333    11.4237
 3921.5000   -45.9813    16.7512    11.5774    11.7103
 3922.0000   -45.9813    16.2011    12.2810    11.9715
 3922.5000   -45.8365    15.2998    12.7038    11.9699
 3923.0000   -45.5569    14.2546    13.1265    11.9393
 3923.5000   -45.2776    13.2132    13.4088    11.6497
 3924.0000   -45.1402    12.1005    13.4102    11.5034
 3924.5000   -44.8598    10.9880    13.5521    11.3569
 3925.0000   -44.7196    10.1453    12.7108    11.2464
 3925.5000   -44.4403    10.0557    11.8695    11.1017
 3926.0000   -44.2991     9.9589    11.0282    11.2437
 3926.5000   -44.2991     9.4870     9.4847    11.2829
 3927.0000   -44.2991     9.2928     8.3625    11.3842
 3927.5000   -44.2991     9.1542     7.5212    11.0518
 3928.0000   -44.1643     9.0711     6.8203    10.9054
 3928.5000   -44.0187     9.0992     6.4004    10.8066
 3929.0000   -44.0187     9.4844     5.9804    10.6128
 3929.5000   -44.0187     9.9512     5.7009    10.3739
 3930.0000   -44.0187    10.3686     5.5618    10.2292
 3930.5000   -44.0187    10.8606     5.5633    10.0845
 3931.0000   -44.0187    11.3422     5.7051    10.2266
 3931.5000   -44.0187    11.4064     5.9874    10.4833
 3932.0000   -44.0187    11.1161     6.1293    11.0583
 3932.5000   -43.8927    10.7750     6.2711    11.6332
 3933.0000   -43.7383    10.4971     6.1321    12.1456
 3933.5000   -43.7383    10.4353     5.8526    12.5115
 3934.0000   -43.7383    10.5133     5.7136    12.7192
 3934.5000   -44.0187    10.7136     5.5745    12.7951
 3935.0000   -44.2991    10.9315     5.5759    12.6504
 3935.5000   -44.4196    11.2100     5.5773    12.6490
 3936.0000   -44.6991    11.5682     5.7192    12.6476
 3936.5000   -44.8598    11.9059     6.2824    12.7203
 3937.0000   -45.1402    12.2651     6.8456    12.8640
 3937.5000   -45.1402    12.5208     7.5492    13.0074
 3938.0000   -45.0243    12.7415     7.9720    13.1509
 3938.5000   -44.8598    12.9381     8.5352    13.2135
 3939.0000   -45.1402    12.6345     9.0984    13.2120
 3939.5000   -45.1402    12.4390     9.8020    13.2106
 3940.0000   -45.1402    12.1056    10.2248    13.0656
 3940.5000   -45.1402    11.9670    10.6475    13.0642
 3941.0000   -45.1402    11.5506    11.0703    12.4897
 3941.5000   -45.1402    11.1342    11.3526    12.0585
 3942.0000   -45.1402    10.8567    11.4944    11.6273
 3942.5000   -44.8598    10.5792    11.4958    11.1960
 3943.0000   -44.7532    10.3017    11.6377    10.7648
 3943.5000   -44.1936    10.1631    11.7795    10.4769
 3944.0000   -43.9140     9.8856    11.7809    10.3322
 3944.5000   -43.6348     9.9222    11.7823    10.1875
 3945.0000   -43.3552     9.7750    11.6480    10.1860
 3945.5000   -43.1776     9.1919    11.3638    10.0414
 3946.0000   -43.1776     8.8311    10.9438     9.8967
 3946.5000   -43.1776     8.5536    10.8048     9.7520
 3947.0000   -43.1776     8.2761    10.3848     9.6075
 3947.5000   -43.1776     7.9986    10.2458     9.3995
 3948.0000   -43.1776     7.7767     9.8259     9.1098
 3948.5000   -43.1776     7.5547     9.6868     8.9635
 3949.0000   -43.1776     7.4717     9.4073     8.6739
 3949.5000   -43.1776     7.4442     9.2683     8.5974
 3950.0000   -43.1776     7.4445     8.9888     8.4527
 3950.5000   -43.2454     7.5837     8.7093     8.4513
 3951.0000   -43.7202     7.6673     8.7116     8.3749
 3951.5000   -43.4314     7.6953     8.8525     8.2285
 3952.0000   -43.4231     7.6400     8.9944     8.0821
 3952.5000   -43.4147     7.1403     8.9958     8.0158
 3953.0000   -43.1260     7.0017     8.9972     8.0143
 3953.5000   -43.1176     6.9187     8.9986     8.0129
 3954.0000   -43.1092     6.8911     9.1404     8.0115
 3954.5000   -43.1009     7.0581     9.1419     8.1533
 3955.0000   -43.0925     7.5028     9.1433     8.4381
 3955.5000   -43.3645     7.8364     9.2851     8.5800
 3956.0000   -43.3561     8.1145     9.2865     9.0083
 3956.5000   -43.6281     8.3370     9.2879     9.1502
 3957.0000   -43.6198     8.5317     9.2893     9.5786
 3957.5000   -43.8918     8.7542     9.2907     9.8637
 3958.0000   -43.8834     9.1079     9.1443    10.1488
 3958.5000   -43.8750     9.5628     8.8642    10.2908
 3959.0000   -44.1470     9.8662     8.5927    10.5757
 3959.5000   -44.1387    10.1442     8.5941    10.8608
