~VERSION INFORMATION
 VERS.                2.0:   CWLS LOG ASCII STANDARD - VERSION 2.0
 WRAP.                 NO:   ONE LINE PER DEPTH STEP
~WELL INFORMATION
#MNEM.UNIT      DATA TYPE    INFORMATION
#----------   ------------   ------------------------------
 STRT.F          220.0000:   START DEPTH
 STOP.F         3284.5000:   STOP DEPTH
 STEP.F            0.5000:   STEP LENGTH
 NULL.          -999.2500:   NO VALUE
 COMP.    FENIX & SCISSON:   COMPANY
 WELL. FENIX HARPEL "A" #85-28:   WELL
 FLD .              NPR-3:   FIELD
 LOC .      S28 T39N R78W:   LOCATION
 CNTY.            NATRONA:   COUNTY
 STAT.            WYOMING:   STATE
 CTRY. UNITED STATES OF AMERICA:   COUNTRY
 SRVC.      DRESSER ATLAS:   SERVICE COMPANY
 DATE.        07-AUG-1977:   LOGDATE
 API .     49025104040000:   API NUMBER
~CURVE INFORMATION
#MNEM.UNIT       API CODE    CURVE DESCRIPTION
#----------   ------------   ------------------------------
 DEPT.F                  :   
 GRD .GAPI   45 310 01 00:   GAMMA RAY FROM DENSITY LOG
 CALD.IN     45 280 60 00:   CALIPER FROM DENSITY LOG
 CORR.G/C3   45 356 01 00:   DENSITY CORRECTION
 RHOB.G/C3   45 350 01 00:   BULK DENSITY
 TEND.LBS    45 635 01 00:   TENSION FORM DENSITY LOG
 NPHI.DEC    42 890 03 00:   NEUTRON POROSITY SANDSTONE
 SPR .MV     11 010 01 00:   SPONTANEOUS POTENTIAL FROM RES.
 TENR.LBS    11 635 01 00:   TENSION FROM RES.
 LLD .OHMM   11 220 10 00:   LATEROLOG LOG DEEP
 LLS .OHMM   11 220 09 00:   LATEROLOG SHALLOW
 RXO .OHMM   11 270 04 00:   FLUSHED ZONE RESISTIVITY
~PARAMETER INFORMATION
#MNEM.UNIT          VALUE    DESCRIPTION
#----------   ------------   ------------------------------
 EKB .F         5059.0000:   Kelly bushing
 EGL .F         5049.0000:   Ground level
 EDF .F            0.0000:   Drilling floor
 EPD .F            0.0000:   Permanent datum
 TD  .F         3240.0000:   Total depth
 CLNT.            A2DTECH:   Client Code
 SL  . 2310' FSL & 330' FEL:   Surface Location
 PD  .                 GL:   Permanent Datum
 DAPD.F                10:   Feet Above Permanent Datum
 DATE.        07-AUG-1977:   Date Logged [DD-MMM-YYYY]
 DD  .F              3240:   Depth driller
 DL  .F              3267:   Depth logger
 BLI .F              3265:   Bottom log interval
 TLI .F               224:   Top log interval
 CS1 .IN            8.625:   Casing size
 CBD1.      8.625" @ 254':   Casing driller 1
 CBL1.F               224:   Casing logger 1
 BS1 .IN            7.875:   Bit size
 BSD1.F              3240:   Depth drilled with bit1
 DFT .                KCL:   Type fluid in hole
 DFD .                8.8:   Density
 DFV .                 36:   Viscosity
 DFPH.               10.5:   pH
 DFL .                9.6:   Fluid loss
 MSS .         CIRCULATED:   Source of sample
 RMS .OHMM           0.22:   Rm
 MST .F                78:   Rm Meas. temp.
 RMF .OHMM           0.16:   Rmf
 MFST.F                78:   Rmf Meas. temp.
 MFSS.               MEAS:   Source Rmf.
 RMC .OHMM           0.28:   Rmc
 MCST.F                78:   Rmc Meas. temp.
 MCSS.               MEAS:   Source Rmc.
 RMB .OHMM           0.14:   Rm. at BHT
 BHT .F               125:   BHT.
 TCS .HRS               7:   Time Circ. stopped
 MRT .F               125:   Maximum recorded temp.
 LUN .               6134:   Logging unit number
 LUL .              GLTTE:   Logging unit location
 ENGI.              GOULD:   Recorded By
 WITN.         HARRINGTON:   Witnessed by
 ORIG.      2.5" 5" PRINT:   Origin of data
 UWI .     49025104040000:   Unique Well ID
 DICO. A2D TECHNOLOGIES, INC.:   Digitizing Company
~OTHER INFORMATION
~A   DEPT      GRD       CALD       CORR       RHOB       TEND         NPHI      SPR       TENR        LLD        LLS        RXO   
# ...
 1013.0000    52.5182     9.0408     0.0143     2.4999   989.2749     0.3320   -72.3503   715.8683    12.4035    10.7407     7.6278
 1013.5000    51.6473     9.0425     0.0219     2.5187   983.1643     0.3233   -72.3578   716.9162    12.3992    10.4455     7.5199
 1014.0000    50.4787     9.0444     0.0296     2.5376   970.0409     0.3119   -72.3653   718.1642    12.6205    10.1583     7.5162
 1014.5000    51.8400     9.0460     0.0342     2.5415   983.1570     0.3115   -72.3736   719.1490    12.6610    10.4400     7.5430
 1015.0000    52.4572     9.0480     0.0344     2.5432   981.1179     0.3178   -72.3807   720.1337    11.9560    10.6311     7.6139
 1015.5000    50.6934     9.0495     0.0301     2.5372   979.0784     0.3192   -72.3877   721.1184    11.7824    11.0265     7.5054
 1016.0000    50.8642     9.0362     0.0208     2.5186   976.6736     0.3123   -72.3952   722.1556    12.9003    11.1768     7.3985
 1016.5000    50.5885     9.0228     0.0065     2.4963   974.6802     0.3092   -72.4027   753.1437    12.7195    11.0201     7.3951
 1017.0000    49.7176     9.0248     0.0037     2.5040   972.9608     0.3047   -72.3034   754.1916    12.3694    10.5701     7.3919
 1017.5000    50.4836     9.0269     0.0069     2.4973   970.5269     0.3067   -72.1183   755.2395    12.7113    10.4225     7.3883
 1018.0000    51.5473     9.0284     0.0100     2.5110   968.8821     0.3226   -72.1272   726.5344    12.6461    10.4196     7.3847
 1018.5000    50.8252     9.0301     0.0132     2.4969   966.8427     0.3138   -72.1343   727.5191    12.1964    10.3411     7.3812
 1019.0000    52.7816     9.0320     0.0119     2.4932   964.7123     0.3003   -72.1413   728.5038    12.0156     9.9913     7.3776
 1019.5000    51.4698     9.0335     0.0075     2.5069   962.7186     0.2981   -71.8490   729.4910    12.8690     9.8515     7.4295
 1020.0000    49.4055     9.0356     0.0017     2.5003   960.7250     0.3020   -71.8563   730.5389    12.6887    10.1242     7.4728
 1020.5000    47.0373     9.0371     0.0019     2.4824   958.6857     0.3106   -71.8638   731.5869    12.5109    10.2911     7.4689
 1021.0000    49.4366     9.0387     0.0021     2.4960   956.2395     0.3175   -71.8713   732.6347    12.7251    10.1189     7.5693
 1021.5000    50.1917     9.0407     0.0023     2.5142   969.3517     0.3259   -72.1781   733.6826    13.0308    10.3996     7.7772
 1022.0000    48.8671     9.0422     0.0071     2.5210   967.8565     0.3220   -72.1856   734.9045    12.6044    10.3966     7.8816
 1022.5000    50.6712     9.0442     0.0086     2.5107   996.0743     0.3230   -72.4937   735.8892    12.5832    10.1106     7.8775
 1023.0000    50.9798     9.0458     0.0103     2.5041  1011.6810     0.3155   -72.8002   736.8739    12.6627    10.2399     7.8288
 1023.5000    49.8040     9.0474     0.0090     2.5117  1036.9060     0.3091   -72.8073   737.8743    12.6579    10.3880     7.7622
 1024.0000    52.5010     9.0494     0.0076     2.5306  1050.1511     0.3058   -72.8144   738.9222    12.8295    10.2424     7.6516
 1024.5000    53.1072     9.0509     0.0048     2.5135  1078.3232     0.3132   -72.8219   739.9702    12.4701    10.5264     7.5434
 1025.0000    50.7447     9.0375     0.0095     2.4956  1091.3899     0.3222   -72.8293   741.0179    12.1052    10.3794     7.4367
 1025.5000    50.3746     9.0246     0.0171     2.5081  1089.3503     0.3264   -72.8368   742.0659    11.8200     9.9555     7.4333
 1026.0000    53.1550     9.0263     0.0278     2.5202  1087.3112     0.3176   -72.8443   743.2747    11.3983    10.1034     7.4297
 1026.5000    50.9376     9.0128     0.0294     2.5261  1064.1670     0.3019   -72.8532   744.2592    11.3405    10.6618     7.4562
 1027.0000    48.5664     9.0149     0.0281     2.5277  1050.8849     0.2983   -72.8603   745.2440    11.3935    10.1436     7.5263
 1027.5000    48.4372     9.0015     0.0253     2.5233  1035.5646     0.2995   -72.8673   746.2574    11.5492     9.4097     7.6837
 1028.0000    47.8373     9.0035     0.0240     2.5167  1033.5713     0.3015   -72.8744   747.3055    11.7138     9.4072     7.8352
 1028.5000    46.6268     9.0052     0.0241     2.5146  1047.1816     0.3135   -72.8817   748.3533    11.8956     9.6682     7.8317
 1029.0000    48.4850     9.0071     0.0228     2.5177  1060.2936     0.3155   -72.9482   749.4012    12.2480    10.0932     7.9368
 1029.5000    50.8806     9.0087     0.0245     2.5216  1057.8016     0.3173   -73.1961   750.4492    12.7653    10.4979     7.8884
 1030.0000    51.7845     9.0107     0.0292     2.5322  1055.6421     0.3232   -73.2036   751.6447    13.2431    10.8386     7.8857
 1030.5000    50.3148     9.0122     0.0338     2.5384  1038.7462     0.3274   -73.2111   752.6295    12.7034    10.9467     7.7750
 1031.0000    49.5817     8.9945     0.0310     2.5363  1036.7069     0.3375   -73.2197   753.6141    12.3555    10.4884     7.7723
 1031.5000    50.9394     8.9858     0.0252     2.5289  1034.6676     0.3318   -73.2268   752.0901    13.0536    10.7793     7.7692
 1032.0000    52.1409     8.9726     0.0179     2.5095  1017.1238     0.3203   -73.5333   725.6436    13.0016    10.7966     7.7667
 1032.5000    50.0759     8.9593     0.0091     2.4909  1015.1305     0.3044   -73.5404   726.7964    12.3483    10.4802     7.8721
 1033.0000    50.8347     8.9613     0.0018     2.4851  1013.1367     0.2989   -73.5479   727.8444    13.2921    11.1136     7.8694
 1033.5000    49.2125     8.9633     0.0080     2.4946  1011.1432     0.2992   -73.5554   729.0901    13.2295    11.2236     7.8667
 1034.0000    48.6283     8.9649     0.0141     2.5294  1009.3655     0.3015   -73.5629   730.0746    12.5113    10.7955     7.8640
 1034.5000    49.0931     8.9665     0.0203     2.5410  1022.2618     0.3166   -73.5704   760.9995    12.8586    10.5463     7.8612
 1035.0000    48.8095     8.9684     0.0249     2.5449  1020.3926     0.3288   -73.5792   761.9843    13.3990    11.0596     7.8585
 1035.5000    49.2713     8.9550     0.0281     2.5525  1018.2746     0.3239   -73.5863   763.0239    13.2102    10.9051     7.8554
 1036.0000    50.6252     8.9417     0.0313     2.5594  1001.0093     0.3178   -73.5933   764.0718    13.0293    10.6053     7.8529
 1036.5000    50.4911     8.9438     0.0329     2.5498   999.1691     0.3274   -73.6004   765.1198    13.2585    10.9095     7.8503
 1037.0000    49.9106     8.9304     0.0316     2.5409   997.1301     0.3298   -73.6078   766.1677    13.2048    11.0482     7.8477
 1037.5000    49.3301     8.9175     0.0273     2.5321   995.1945     0.3204   -73.6153   767.4002    13.0213    10.7945     7.8450
 1038.0000  -999.2500     8.9191  -999.2500     2.5240  1008.1572     0.3246   -73.6227   738.4449    12.8399    10.4484     7.8423
 1038.5000  -999.2500     8.9211  -999.2500     2.5083  1006.1180     0.3212   -73.6302   739.4294    12.6616    10.3018     7.8396
 1039.0000  -999.2500     8.9226  -999.2500  -999.2500  1018.9268     0.3113   -73.6377   740.4191    12.6592    10.2991     7.8364
 1039.5000  -999.2500     8.9391  -999.2500  -999.2500  1016.9329     0.3022   -73.3469   741.4671    13.2163    10.2964     7.8339
 1040.0000  -999.2500     8.9411  -999.2500  -999.2500  1015.1056     0.3067   -73.3540   742.5150    13.7456    10.2938     7.8313
 1040.5000  -999.2500     8.9426  -999.2500  -999.2500  1013.0666     0.3012   -73.3611   743.5629    13.6186    10.3100     7.7216
 1041.0000  -999.2500     8.9298  -999.2500  -999.2500  1010.9523     0.3057   -73.3716   744.6108    13.0993    10.4315     7.7189
 1041.5000  -999.2500     8.9313  -999.2500  -999.2500  1024.0648     0.3191   -73.5688   775.7702    12.6456    10.4283     7.7163
 1042.0000  -999.2500     8.9329  -999.2500  -999.2500  1022.0546     0.3131   -73.7305   776.7550    12.4701    10.4254     7.7557
 1042.5000  -999.2500     8.9349  -999.2500  -999.2500  1020.0154     0.2998   -73.4356   777.7398    12.4676    10.4220     7.8180
 1043.0000  -999.2500     8.9364  -999.2500  -999.2500  1017.9757     0.3020   -73.4408   778.7426    12.4652    10.4193     7.8149
