~VERSION INFORMATION
 VERS.                2.0:   CWLS LOG ASCII STANDARD - VERSION 2.0
 WRAP.                 NO:   ONE LINE PER DEPTH STEP
~WELL INFORMATION
#MNEM.UNIT      DATA TYPE    INFORMATION
#----------   ------------   ------------------------------
 STRT.F          176.5000:   START DEPTH
 STOP.F         3010.0000:   STOP DEPTH
 STEP.F            0.5000:   STEP LENGTH
 NULL.          -999.2500:   NO VALUE
 COMP.    FENIX & SCISSON:   COMPANY
 WELL.   FENIX "A" #36-28:   WELL
 FLD .              NPR 3:   FIELD
 LOC .      S28 T39N R78W:   LOCATION
 CNTY.            NATRONA:   COUNTY
 STAT.            WYOMING:   STATE
 CTRY. UNITED STATES OF AMERICA:   COUNTRY
 SRVC.       SCHLUMBERGER:   SERVICE COMPANY
 DATE.        19-AUG-1977:   LOGDATE
 API .     49025104150000:   API NUMBER
~CURVE INFORMATION
#MNEM.UNIT       API CODE    CURVE DESCRIPTION
#----------   ------------   ------------------------------
 DEPT.F                  :   
 SPR .MV     07 010 01 00:   SPONTANEOUS POTENTIAL
 ILM .OHMM   07 120 44 00:   INDUCTION LOG MEDIUM RESISTIVITY
 ILD .OHMM   07 120 46 00:   INDUCTION LOG DEEP RESISTIVITY
 LL8 .OHMM   07 220 08 00:   LATEROLOG-8 RESISTIVITY
 GRD .GAPI   45 310 01 00:   GAMMA RAY FROM DENSITY LOG
 CALD.IN     45 280 60 00:   CALIPER FROM DENSITY LOG
 RHOB.G/C3   45 350 01 00:   BULK DENSITY
 DCOR.G/C3   45 356 01 00:   DENSITY CORRECTION
~PARAMETER INFORMATION
#MNEM.UNIT          VALUE    DESCRIPTION
#----------   ------------   ------------------------------
 EKB .F         5107.0000:   Kelly bushing
 EGL .F         5097.0000:   Ground level
 EDF .F            0.0000:   Drilling floor
 TD  .F         3012.0000:   Total depth
 DATE.        19-AUG-1977:   Date logged
 CLNT.            A2DTECH:   Client Code
 SL  . 1650' FSL & 1650' FWL:   Surface Location
 PD  .                 GL:   Permanent Datum
 EPD .F              5097:   Elevation Permanent Datum
 LMF .                 KB:   Log Measured From
 DMF .                 KB:   Drilling Measured From
 DAPD.F                10:   Feet Above Permanent Datum
 DD  .F              3010:   Depth driller
 DL  .F              3011:   Depth logger
 BLI .F              3005:   Bottom log interval
 TLI .F               215:   Top log interval
 CS1 .IN            8.625:   Casing size
 CBD1.      8.625" @ 205':   Casing driller 1
 CBL1.F               215:   Casing logger 1
 BS1 .IN            7.875:   Bit size
 BSD1.F              3010:   Depth drilled with bit1
 DFT .                FGM:   Type fluid in hole
 DFD .                8.8:   Density
 DFV .                 33:   Viscosity
 DFPH.               10.5:   pH
 DFL .               10.6:   Fluid loss
 MSS .            MUD PIT:   Source of sample
 RMS .OHMM            .19:   Rm
 MST .F                76:   Rm Meas. temp.
 RMF .OHMM            .17:   Rmf
 MFST.F                78:   Rmf Meas. temp.
 MFSS.               MEAS:   Source Rmf.
 RMB .OHMM            .13:   Rm. at BHT
 BHT .F               112:   BHT.
 TCS .HRS            0700:   Time Circ. stopped
 TLAB.HRS            1400:   Time logger at bottom
 MRT .F               112:   Maximum recorded temp.
 LUN .               5642:   Logging unit number
 ENGI.          CHALUPSKY:   Recorded By
 WITN.     WES PETTINGILL:   Witnessed by
 ORIG.           5" PRINT:   Origin of data
 UWI .     49025104150000:   Unique Well ID
 DICO. A2D TECHNOLOGIES, INC.:   Digitizing Company
 LUL .               CSPR:   Logging unit location
~OTHER INFORMATION
~A   DEPT      SPR        ILM        ILD        LL8        GRD       CALD       RHOB       DCOR   
# ...
 1310.5000   -71.1440     7.3250     7.7170     8.2120   120.6090     8.6610     2.4990     0.0790
 1311.0000   -71.3790     7.2800     7.6530     8.0320   123.0730     8.6770     2.4650     0.0540
 1311.5000   -71.6140     7.2800     7.6160     7.9060   125.8280     8.6920     2.4390     0.0450
 1312.0000   -71.8480     7.2800     7.6040     8.2380   129.3450     8.7070     2.4460     0.0500
 1312.5000   -72.0600     7.2800     7.5920     8.4930   131.0720     8.7150     2.4170     0.0390
 1313.0000   -72.1280     7.2800     7.5800     8.7480   128.3000     8.7130     2.4220     0.0220
 1313.5000   -72.1910     7.2800     7.5680     8.8240   125.1870     8.7110     2.4190     0.0210
 1314.0000   -72.2540     7.2800     7.5560     8.6330   122.0910     8.7090     2.4610     0.0440
 1314.5000   -72.1590     7.2800     7.5440     8.3590   120.4660     8.7060     2.4430     0.0710
 1315.0000   -72.0480     7.2760     7.5320     8.2010   123.3700     8.7040     2.4520     0.0660
 1315.5000   -71.9410     7.2610     7.5200     8.1060   126.4160     8.7020     2.4710     0.0760
 1316.0000   -71.9390     7.2460     7.5080     8.0390   125.3620     8.7000     2.4880     0.0900
 1316.5000   -72.2440     7.2320     7.4960     7.9790   124.5300     8.6980     2.4420     0.0690
 1317.0000   -72.1490     7.2170     7.4840     8.0720   125.6660     8.6960     2.4200     0.0460
 1317.5000   -72.0230     7.2020     7.4890     8.1570   126.1210     8.7020     2.3980     0.0220
 1318.0000   -71.8950     7.1880     7.4950     8.2420   125.6370     8.7090     2.4080     0.0150
 1318.5000   -71.8620     7.1730     7.5010     8.3520   123.9270     8.7160     2.4290     0.0330
 1319.0000   -71.8600     7.1580     7.5070     8.2320   122.2460     8.7220     2.4330     0.0340
 1319.5000   -71.8640     7.1430     7.5130     8.0600   122.1360     8.7290     2.4220     0.0300
 1320.0000   -72.2170     7.1290     7.5190     7.9060   123.4670     8.7360     2.4300     0.0390
 1320.5000   -72.6140     7.1140     7.5250     8.0010   125.2800     8.7420     2.4230     0.0460
 1321.0000   -73.0150     7.0990     7.5310     8.1060   126.8950     8.7490     2.4160     0.0390
 1321.5000   -73.4290     7.0830     7.5370     8.2010   126.0420     8.7550     2.4100     0.0390
 1322.0000   -73.5500     7.1210     7.5430     8.1730   123.0130     8.7490     2.4240     0.0420
 1322.5000   -73.6580     7.1640     7.5490     8.1260   120.2130     8.7440     2.4140     0.0310
 1323.0000   -73.7640     7.2070     7.5940     8.1740   118.9880     8.7380     2.4210     0.0380
 1323.5000   -73.7780     7.2490     7.6780     8.2690   119.7980     8.7350     2.4240     0.0510
 1324.0000   -73.5180     7.2920     7.7630     8.3640   121.6150     8.7330     2.4100     0.0530
 1324.5000   -73.2620     7.3470     7.8470     8.5070   123.4320     8.7320     2.4250     0.0520
 1325.0000   -73.4280     7.3280     7.9060     8.4750   124.6200     8.7310     2.4450     0.0710
 1325.5000   -73.6330     7.3000     7.8440     8.4100   124.7950     8.7290     2.4750     0.0820
 1326.0000   -73.4130     7.2720     7.7960     8.3460   124.7660     8.7280     2.4580     0.0720
 1326.5000   -73.1490     7.2450     7.7480     8.2810   123.6560     8.7260     2.4250     0.0600
 1327.0000   -72.8820     7.2140     7.7000     8.2170   121.9650     8.7250     2.4300     0.0520
 1327.5000   -72.6950     7.2360     7.6520     8.1530   119.1660     8.7240     2.4390     0.0570
 1328.0000   -73.5200     7.2610     7.6050     8.0880   115.2090     8.7220     2.4470     0.0610
 1328.5000   -74.2290     7.2850     7.5520     8.0240   116.6870     8.7210     2.4280     0.0400
 1329.0000   -73.8380     7.3100     7.6160     7.9790   119.6520     8.7190     2.4410     0.0470
 1329.5000   -73.3850     7.3340     7.6870     8.0970   122.6240     8.7180     2.4610     0.0560
 1330.0000   -72.9350     7.3590     7.7580     8.1880   125.6080     8.7170     2.4460     0.0620
 1330.5000   -72.4860     7.3830     7.8290     8.2790   128.0620     8.7260     2.4370     0.0520
 1331.0000   -72.3480     7.4150     7.9000     8.3700   128.3550     8.7660     2.4530     0.0590
 1331.5000   -72.5220     7.4070     7.9790     8.5070   126.0880     8.7920     2.4660     0.0480
 1332.0000   -72.6950     7.3950     7.9430     8.4760   124.0450     8.7770     2.4780     0.0430
 1332.5000   -72.8520     7.3840     7.9030     8.4150   122.0680     8.7640     2.4860     0.0730
 1333.0000   -72.8770     7.3720     7.8630     8.3540   120.9040     8.7500     2.4490     0.0530
 1333.5000   -72.8990     7.3600     7.8230     8.2930   120.1450     8.7370     2.4300     0.0300
 1334.0000   -72.9210     7.3490     7.7830     8.2010   119.3900     8.7240     2.4540     0.0460
 1334.5000   -72.9430     7.3370     7.7430     8.3140   118.6370     8.7180     2.4680     0.0570
 1335.0000   -72.9650     7.3260     7.6920     8.5400   117.8850     8.7250     2.4510     0.0400
 1335.5000   -72.9870     7.3140     7.7250     8.7440   117.2290     8.7310     2.4380     0.0280
 1336.0000   -73.0090     7.3020     7.7730     8.5290   116.7210     8.7380     2.4300     0.0350
 1336.5000   -73.0320     7.2910     7.8210     8.3520   117.0660     8.7440     2.4440     0.0610
 1337.0000   -73.0450     7.2800     7.8690     8.4950   117.5990     8.7510     2.4580     0.0520
 1337.5000   -72.9310     7.3630     7.9170     8.5850   119.8430     8.7540     2.4720     0.0630
 1338.0000   -72.8190     7.4370     7.9650     8.4340   123.3990     8.7500     2.4850     0.0690
 1338.5000   -72.7080     7.5120     8.0140     8.3520   126.9430     8.7460     2.4640     0.0540
 1339.0000   -72.4980     7.5870     8.0620     8.5220   130.7480     8.7430     2.4890     0.0630
 1339.5000   -72.1880     7.6620     8.1100     8.6530   129.3020     8.7390     2.5080     0.0730
 1340.0000   -71.8830     7.7370     8.1580     8.7440   126.4220     8.7360     2.4600     0.0550
 1340.5000   -71.7300     7.8340     8.2010     8.6920   123.7310     8.7300     2.4110     0.0280
 1341.0000   -72.0070     7.7810     8.1190     8.6640   121.4610     8.7220     2.4070     0.0180
 1341.5000   -72.2690     7.7070     8.0450     9.2070   122.5950     8.7130     2.4390     0.0220
 1342.0000   -72.4290     7.6320     7.9710     9.5820   124.5550     8.7050     2.4630     0.0410
 1342.5000   -72.3040     7.5570     7.8960     9.0690   122.9220     8.6970     2.5050     0.0680
 1343.0000   -72.1850     7.4820     7.8220     8.6030   119.2390     8.6960     2.4810     0.0620
 1343.5000   -72.0660     7.4080     7.7480     8.2760   115.3460     8.6960     2.4910     0.0520
 1344.0000   -72.1880     7.3330     7.6740     8.4290   113.0210     8.6960     2.5110     0.0660
 1344.5000   -72.3600     7.2710     7.6030     8.2980   115.0570     8.6960     2.4680     0.0460
 1345.0000   -72.8520     7.2420     7.5420     8.1120   116.5260     8.6960     2.4720     0.0630
 1345.5000   -73.6410     7.2120     7.4810     7.9060   115.5730     8.6960     2.4820     0.0520
 1346.0000   -73.8480     7.1820     7.4200     8.0170   116.8370     8.6960     2.4660     0.0380
 1346.5000   -73.4580     7.1520     7.3600     8.1390   118.5890     8.6960     2.4490     0.0280
 1347.0000   -73.1020     7.1230     7.2800     8.2010   120.5230     8.6970     2.4340     0.0380
 1347.5000   -72.7240     7.0930     7.3260     8.0170   119.5490     8.6990     2.4200     0.0290
 1348.0000   -72.4120     7.0630     7.3920     7.8340   118.6760     8.7010     2.4330     0.0230
 1348.5000   -72.2620     7.0190     7.4580     7.9060   120.1420     8.7040     2.4490     0.0380
 1349.0000   -71.9210     7.0660     7.5240     8.0340   121.5780     8.7060     2.4650     0.0500
 1349.5000   -71.5500     7.1610     7.5890     8.2210   123.0190     8.7080     2.4560     0.0410
 1350.0000   -71.1530     7.2560     7.6550     8.4070   123.8480     8.7100     2.4440     0.0310
 1350.5000   -70.9640     7.3510     7.7210     8.5930   122.5330     8.7130     2.4320     0.0470
