~VERSION INFORMATION
 VERS.                2.0:   CWLS LOG ASCII STANDARD - VERSION 2.0
 WRAP.                 NO:   ONE LINE PER DEPTH STEP
~WELL INFORMATION
#MNEM.UNIT      DATA TYPE    INFORMATION
#----------   ------------   ------------------------------
 STRT.F            5.5000:   START DEPTH
 STOP.F         3006.0000:   STOP DEPTH
 STEP.F            0.5000:   STEP LENGTH
 NULL.          -999.2500:   NO VALUE
 COMP.    FENIX & SCISSON:   COMPANY
 WELL.  FENIX "AX" #28-28:   WELL
 FLD .  TEAPOT DOME NPR-3:   FIELD
 LOC .      S28 T39N R78W:   LOCATION
 CNTY.            NATRONA:   COUNTY
 STAT.            WYOMING:   STATE
 CTRY. UNITED STATES OF AMERICA:   COUNTRY
 SRVC.           BIRDWELL:   SERVICE COMPANY
 DATE.        23-JAN-1980:   LOGDATE
 API .     49025107960000:   API NUMBER
~CURVE INFORMATION
#MNEM.UNIT       API CODE    CURVE DESCRIPTION
#----------   ------------   ------------------------------
 DEPT.F                  :   
 GRD .GAPI   45 310 01 00:   GAMMA RAY FROM DENSITY LOG
 CALD.IN     45 280 60 00:   CALIPER FROM DENSITY LOG
 DPHI.DEC    45 890 12 00:   DENSITY POROSITY SANDSTONE
 NPHI.DEC    42 890 03 00:   NEUTRON POROSITY SANDSTONE
 CORR.G/C3   45 356 01 00:   DENSITY CORRECTION
 SPR .MV     05 010 01 00:   SPONTANEOUS POTENTIAL FROM RES.
 ILD .OHMM   05 120 40 00:   INDUCTION LOG DEEP RESISTIVITY
 SN  .OHMM   05 040 16 00:   SHORT NORMAL 16"
~PARAMETER INFORMATION
#MNEM.UNIT          VALUE    DESCRIPTION
#----------   ------------   ------------------------------
 EKB .F         5120.0000:   Kelly bushing
 EGL .F         5110.0000:   Ground level
 EDF .F         5119.0000:   Drilling floor
 EPD .F         5110.0000:   Permanent datum
 TD  .F         3006.0000:   Total depth
 CLNT.            A2DTECH:   Client Code
 SL  . 600' FSL & 1300' FWL:   Surface Location
 PD  .                 GL:   Permanent Datum
 DAPD.F                 9:   Feet Above Permanent Datum
 DATE.        23-JAN-1980:   Date Logged [DD-MMM-YYYY]
 DD  .F              3006:   Depth driller
 DL  .F              3006:   Depth logger
 BLI .F              3006:   Bottom log interval
 TLI .F                10:   Top log interval
 CS1 .IN            8.625:   Casing size
 CBD1.      8.625" @ 440':   Casing driller 1
 CBL1.F               460:   Casing logger 1
 BS1 .IN            7.875:   Bit size
 BSD1.F              3006:   Depth drilled with bit1
 DFT .       GEL MUD FULL:   Type fluid in hole
 DFD .                  9:   Density
 DFV .                 46:   Viscosity
 DFPH.                 11:   pH
 DFL .               17.2:   Fluid loss
 MSS .           MUD TANK:   Source of sample
 RMS .OHMM            1.9:   Rm
 MST .F                60:   Rm Meas. temp.
 RMF .OHMM            .73:   Rmf
 MFST.F                62:   Rmf Meas. temp.
 MFSS.               MEAS:   Source Rmf.
 RMC .OHMM            .95:   Rmc
 MCST.F                62:   Rmc Meas. temp.
 TCS .HRS               5:   Time Circ. stopped
 MRT .F               110:   Maximum recorded temp.
 LUN .               3029:   Logging unit number
 LUL .             CASPER:   Logging unit location
 ENGI.           T. WOLFF:   Recorded By
 WITN.           DINSMORE:   Witnessed by
 ORIG.           5" PRINT:   Origin of data
 UWI .     49025107960000:   Unique Well ID
 DICO. A2D TECHNOLOGIES, INC.:   Digitizing Company
~OTHER INFORMATION
~A    DEPT      GRD      CALD       DPHI         NPHI     CORR        SPR        ILD         SN   
# ...
 1139.5000    88.1378     9.5256     0.2464     0.0951     0.0031   -37.4042    11.4819    10.3315
 1140.0000    90.2370     9.5285     0.2472     0.0974     0.0080   -37.4380    11.4973    10.4127
 1140.5000    93.0869     9.5155     0.2490     0.0937     0.0142   -37.8792    11.5894    10.4945
 1141.0000    92.9146     9.5184     0.2510     0.0907     0.0235   -38.5750    11.6822    10.6527
 1141.5000    92.5336     9.5207     0.2504     0.0904     0.0238   -38.6140    11.8574    10.7364
 1142.0000    94.4905     9.5231     0.2425     0.0918     0.0240   -38.6056    11.9592    10.8983
 1142.5000    94.3609     9.5254     0.2485     0.0834     0.0243   -38.2044    12.1348    10.9061
 1143.0000    95.1326     9.5277     0.2539     0.0864     0.0140   -37.7724    12.2320    10.9152
 1143.5000    96.6327     9.5301     0.2550     0.0905     0.0067   -39.4382    12.4153    10.9228
 1144.0000    97.8488     9.5324     0.2483     0.0911     0.0070   -39.9249    12.5148    10.9303
 1144.5000    97.5711     9.5199     0.2339     0.0947     0.0103   -40.6945    12.5282    11.0162
 1145.0000    98.4910     9.5223     0.2363     0.0982     0.0135   -40.3915    12.7160    11.0239
 1145.5000    96.5898     9.5246     0.2398     0.0897     0.0198   -40.1418    12.7297    11.0315
 1146.0000    94.6824     9.5270     0.2338     0.0840     0.0352   -39.4848    12.5686    10.9606
 1146.5000    95.8986     9.5447     0.2299     0.0864     0.0323   -39.0092    12.5826    10.9685
 1147.0000    95.1826     9.5316     0.2328     0.0860     0.0357   -39.6276    12.5089    10.9777
 1147.5000    95.0593     9.5345     0.2289     0.0812     0.0404   -39.6101    12.4362    10.9853
 1148.0000    96.3681     9.5368     0.2258     0.0799     0.0407   -39.4689    12.3672    10.9129
 1148.5000   100.9071     9.5392     0.2288     0.0934     0.0281   -37.9921    12.2953    10.8428
 1149.0000   101.2138     9.5261     0.2380     0.0918     0.0216   -38.5535    12.3085    10.8522
 1149.5000   100.7942     9.5290     0.2455     0.0837     0.0249   -38.5630    12.2365    10.7059
 1150.0000    91.9300     9.5456     0.2529     0.0834     0.0206   -37.5279    11.9989    10.5615
 1150.5000    89.5843     9.5336     0.2408     0.0864     0.0224   -37.3097    11.9197    10.4212
 1151.0000    90.7941     9.5064     0.2402     0.0845     0.0257   -38.3248    11.7002    10.4293
 1151.5000    94.3743     9.5095     0.2429     0.0832     0.0199   -38.8956    11.6115    10.4373
 1152.0000    98.6952     9.5119     0.2386     0.0832     0.0171   -39.3185    11.5370    10.3711
 1152.5000   100.6396     9.5144     0.2362     0.0832     0.0220   -39.4444    11.4630    10.3791
 1153.0000    94.5963     9.5169     0.2395     0.0795     0.0298   -39.4222    11.4730    10.3113
 1153.5000    92.3987     9.5193     0.2427     0.0741     0.0361   -39.4000    11.4810    10.3212
 1154.0000    92.7200     9.5218     0.2475     0.0725     0.0394   -38.7808    11.4074    10.3292
 1154.5000    92.9145     9.5242     0.2586     0.0728     0.0366   -38.3200    11.4973    10.2636
 1155.0000    97.2195     9.5267     0.2541     0.0749     0.0369   -39.4778    11.5071    10.2717
 1155.5000    95.7627     9.5143     0.2552     0.0823     0.0402   -39.7577    11.5976    10.2798
 1156.0000    94.4478     9.5174     0.2540     0.0815     0.0466   -39.4341    11.6057    10.2143
 1156.5000    95.9601     9.5199     0.2396     0.0780     0.0528   -38.9678    11.6085    10.2973
 1157.0000    97.9107     9.5069     0.2380     0.0792     0.0531   -38.5015    11.6048    10.3790
 1157.5000    94.0834     9.5100     0.2425     0.0848     0.0383   -39.0777    11.6011    10.3870
 1158.0000    93.5093     9.5266     0.2485     0.0902     0.0265   -39.3522    11.5975    10.3941
 1158.5000    95.3179     9.5143     0.2499     0.0886     0.0237   -39.6266    11.5938    10.4022
 1159.0000    96.8240     9.5173     0.2343     0.0871     0.0270   -39.4511    11.5902    10.4111
 1159.5000    96.6753     9.5198     0.2213     0.0793     0.0378   -38.3922    11.5865    10.4937
 1160.0000    94.6320     9.5223     0.2195     0.0699     0.0426   -38.0741    11.6714    10.5766
 1160.5000    95.1263     9.5396     0.2237     0.0663     0.0459   -39.5629    11.6796    10.5851
 1161.0000    99.0027     9.5426     0.2240     0.0669     0.0432   -39.1557    11.7714    10.6691
 1161.5000   100.3546     9.5593     0.2248     0.0746     0.0265   -38.0030    11.9489    10.6774
 1162.0000    96.9779     9.5024     0.2359     0.0922     0.0181   -38.2829    12.0500    10.6858
 1162.5000    92.8544     9.5055     0.2412     0.0901     0.0259   -38.5519    12.2248    10.7708
 1163.0000    90.5025     9.5080     0.2406     0.0811     0.0352   -38.6837    12.3227    10.7792
 1163.5000    90.8296     9.5104     0.2388     0.0786     0.0446   -38.8100    12.4196    10.7891
 1164.0000    94.2617     9.5129     0.2396     0.0780     0.0478   -38.7826    12.5173    10.8747
 1164.5000    98.2863     9.5153     0.2288     0.0854     0.0360   -38.3163    12.6157    11.0395
 1165.0000    99.4961     9.5178     0.2180     0.0920     0.0227   -38.0036    12.8060    11.1271
 1165.5000    97.4466     9.5203     0.2092     0.0857     0.0245   -39.9022    12.9991    11.1357
 1166.0000    98.0700     9.5233     0.2098     0.0790     0.0323   -40.4730    13.1013    11.2241
 1166.5000   100.4650     9.5258     0.2155     0.0753     0.0281   -40.6000    13.1104    11.3131
 1167.0000   101.0823     9.5283     0.2232     0.0792     0.0162   -40.2811    13.2135    11.3219
 1167.5000   101.1069     9.5307     0.2334     0.0909     0.0165   -39.6667    13.3175    11.3306
 1168.0000    99.6500     9.5177     0.2357     0.0893     0.0229   -39.2004    13.3270    11.3393
 1168.5000    93.7487     9.5054     0.2381     0.0830     0.0262   -39.4748    13.3365    11.2674
 1169.0000    91.9956     9.5084     0.2408     0.0824     0.0264   -39.2993    13.3461    11.1959
 1169.5000    90.5387     9.5123     0.2385     0.0865     0.0312   -38.9812    13.2562    11.0480
 1170.0000    91.4523     9.5134     0.2377     0.0841     0.0390   -38.2186    12.8964    10.9758
 1170.5000    93.8508     9.5159     0.2403     0.0763     0.0408   -38.0540    12.5446    10.8307
 1171.0000    92.6867     9.5189     0.2415     0.0648     0.0471   -38.9156    12.2875    10.7864
 1171.5000    92.8656     9.5214     0.2433     0.0654     0.0428   -39.1955    12.2961    10.7080
 1172.0000    96.2977     9.5238     0.2453     0.0800     0.0341   -39.3218    12.3047    10.6297
 1172.5000    96.9149     9.5263     0.2474     0.0854     0.0192   -39.4481    12.4014    10.5571
 1173.0000    94.5630     9.5287     0.2417     0.0856     0.0195   -39.4208    12.4989    10.7192
 1173.5000    95.9271     9.5312     0.2353     0.0826     0.0244   -39.3989    12.5077    10.9595
 1174.0000    90.6184     9.5337     0.2245     0.0733     0.0397   -39.3770    12.6060    11.0465
 1174.5000    92.2727     9.5212     0.2330     0.0636     0.0505   -39.3552    12.7052    11.2941
 1175.0000    94.3714     9.5237     0.2370     0.0687     0.0417   -39.1852    12.9891    11.3028
 1175.5000    94.7032     9.5114     0.2274     0.0680     0.0375   -38.8470    13.0914    11.3116
 1176.0000    95.6058     9.5144     0.2253     0.0824     0.0302   -38.5489    13.1008    11.3203
 1176.5000    95.3342     9.5466     0.2285     0.0823     0.0305   -39.1196    13.1118    11.3290
 1177.0000    96.8465     9.5490     0.2297     0.0811     0.0368   -39.3886    13.0254    11.3377
 1177.5000    98.3526     9.5515     0.2291     0.0749     0.0431   -39.3667    13.0368    11.2658
 1178.0000    99.7044     9.5540     0.2245     0.0732     0.0433   -38.9004    13.0459    11.1944
 1178.5000    95.5870     9.5564     0.2200     0.0738     0.0406   -39.3230    13.0541    11.0443
 1179.0000    94.5746     9.5589     0.2209     0.0737     0.0439   -39.5975    12.9690    10.8983
 1179.5000    93.4140     9.5762     0.2271     0.0728     0.0351   -39.5756    12.7964    10.9067
