~VERSION INFORMATION
 VERS.                2.0:   CWLS LOG ASCII STANDARD - VERSION 2.0
 WRAP.                 NO:   ONE LINE PER DEPTH STEP
~WELL INFORMATION
#MNEM.UNIT      DATA TYPE    INFORMATION
#----------   ------------   ------------------------------
 STRT.F          196.5000:   START DEPTH
 STOP.F         2376.0000:   STOP DEPTH
 STEP.F            0.5000:   STEP LENGTH
 NULL.          -999.2500:   NO VALUE
 COMP.    FENIX & SCISSON:   COMPANY
 WELL. FENIX & SCISSON NPR-3 #55-10:   WELL
 FLD .  TEAPOT DOME NPR-3:   FIELD
 LOC .      S10 T38N R78W:   LOCATION
 CNTY.            NATRONA:   COUNTY
 STAT.            WYOMING:   STATE
 CTRY. UNITED STATES OF AMERICA:   COUNTRY
 SRVC.           BIRDWELL:   SERVICE COMPANY
 DATE.        09-MAY-1979:   LOGDATE
 API .     49025107780000:   API NUMBER
~CURVE INFORMATION
#MNEM.UNIT       API CODE    CURVE DESCRIPTION
#----------   ------------   ------------------------------
 DEPT.F                  :   
 CALD.IN     45 280 60 00:   CALIPER FROM DENSITY LOG
 GRD .GAPI   45 310 01 00:   GAMMA RAY FROM DENSITY LOG
 RHOB.G/C3   45 350 01 00:   BULK DENSITY
 CORR.G/C3   45 356 01 00:   DENSITY CORRECTION
~PARAMETER INFORMATION
#MNEM.UNIT          VALUE    DESCRIPTION
#----------   ------------   ------------------------------
 EKB .F         5203.0000:   Kelly bushing
 EGL .F         5193.0000:   Ground level
 EDF .F            0.0000:   Drilling floor
 TD  .F         2376.0000:   Total depth
 CLNT.            A2DTECH:   Client Code
 SL  . 2283' FSL & 2107' FEL:   Surface Location
 PD  .                 GL:   Permanent Datum
 EPD .F              5193:   Elevation Permanent Datum
 LMF .                 KB:   Log Measured From
 DMF .                 KB:   Drilling Measured From
 DAPD.F                10:   Feet Above Permanent Datum
 DATE.        09-MAY-1979:   Date Logged [DD-MMM-YYYY]
 DD  .F              2360:   Depth driller
 DL  .F              2376:   Depth logger
 BLI .F              2376:   Bottom log interval
 TLI .F               196:   Top log interval
 CS1 .IN            9.625:   Casing size
 CBD1.             9.625":   Casing driller 1
 CBL1.F               545:   Casing logger 1
 BS1 .IN             8.75:   Bit size
 BSD1.F              2360:   Depth drilled with bit1
 DFT .                AIR:   Type fluid in hole
 TCS .HRS               3:   Time Circ. stopped
 LUN .               2959:   Logging unit number
 LUL .             CASPER:   Logging unit location
 ENGI.         B. ROLLINS:   Recorded By
 WITN.             RHODES:   Witnessed by
 ORIG.           5" PRINT:   Origin of data
 UWI .     49025107780000:   Unique Well ID
 DICO. A2D TECHNIOLOGIES,INC.:   Digitizing Company
~OTHER INFORMATION
~A  DEPTH     CALD        GRD       RHOB       CORR
# ...
 1948.5000     8.9263   146.1710     2.4445     0.0434
 1949.0000     8.8943   144.2043     2.4353     0.0358
 1949.5000     8.8476   146.3100     2.4352     0.0372
 1950.0000     8.8311   150.2258     2.4398     0.0402
 1950.5000     8.8145   144.9408     2.4413     0.0325
 1951.0000     8.8281   140.5609     2.4397     0.0278
 1951.5000     8.8263   136.3233     2.4366     0.0250
 1952.0000     8.8381   132.1625     2.4319     0.0249
 1952.5000     8.8384   127.7214     2.4254     0.0324
 1953.0000     8.8538   126.0564     2.4246     0.0429
 1953.5000     8.8541   119.5648     2.4404     0.0534
 1954.0000     8.8544   117.7490     2.4585     0.0594
 1954.5000     8.8547   125.2846     2.4712     0.0667
 1955.0000     8.8550   136.7418     2.4810     0.0711
 1955.5000     8.8553   144.2774     2.4787     0.0620
 1956.0000     8.8556   156.3177     2.4569     0.0544
 1956.5000     8.8408   159.8115     2.4448     0.0467
 1957.0000     8.8562   163.4350     2.4358     0.0420
 1957.5000     8.8565   164.0350     2.4275     0.0343
 1958.0000     8.8568   157.2421     2.4463     0.0383
 1958.5000     8.8420   149.9978     2.4628     0.0465
 1959.0000     8.8424   146.9768     2.4575     0.0403
 1959.5000     8.8427   144.5591     2.4485     0.0327
 1960.0000     8.8278   140.6330     2.4431     0.0281
 1960.5000     8.8281   136.8578     2.4425     0.0250
 1961.0000     8.8435   134.5909     2.4417     0.0235
 1961.5000     8.8287   133.2290     2.4469     0.0309
 1962.0000     8.8139   135.6378     2.4567     0.0399
 1962.5000     8.7538   146.3423     2.4680     0.0474
 1963.0000     8.7238   151.1644     2.4620     0.0533
 1963.5000     8.7090   152.0649     2.4431     0.0487
 1964.0000     8.7094   150.9237     2.4348     0.0426
 1964.5000     8.7248   143.7533     2.4295     0.0380
 1965.0000     8.7251   136.6658     2.4273     0.0334
 1965.5000     8.7254   133.1923     2.4340     0.0394
 1966.0000     8.7408   131.3779     2.4408     0.0468
 1966.5000     8.7562   133.3342     2.4445     0.0528
 1967.0000     8.7867   142.3795     2.4453     0.0559
 1967.5000     8.8021   146.8999     2.4370     0.0587
 1968.0000     8.8024   149.3088     2.4263     0.0345
 1968.5000     8.8178   149.6071     2.4188     0.0148
 1969.0000     8.8182   148.2440     2.4158     0.0057
 1969.5000     8.8185   148.3915     2.4271    -0.0019
 1970.0000     8.8188   148.9895     2.4452     0.0131
 1970.5000     8.8342   139.1809     2.4474     0.0265
 1971.0000     8.8647   136.3107     2.4346     0.0340
 1971.5000     8.8801   136.7587     2.4248     0.0324
 1972.0000     8.8804   135.3846     2.4308     0.0294
 1972.5000     8.9109   132.2925     2.4474     0.0383
 1973.0000     8.9263   130.7111     2.4594     0.0443
 1973.5000     8.9266   129.8016     2.4737     0.0487
 1974.0000     8.9269   131.3055     2.4910     0.0517
 1974.5000     8.9272   134.9209     2.5030     0.0516
 1975.0000     8.9275   137.4806     2.4834     0.0455
 1975.5000     8.9127   138.9844     2.4676     0.0438
 1976.0000     8.8979   138.5275     2.4555     0.0393
 1976.5000     8.8831   135.3556     2.4503     0.0392
 1977.0000     8.8683   131.5804     2.4541     0.0391
 1977.5000     8.8686   130.5882     2.4609     0.0391
 1978.0000     8.8689   132.4765     2.4685     0.0405
 1978.5000     8.8692   135.0361     2.4781     0.0404
 1979.0000     8.8695   137.5989     2.4841     0.0419
 1979.5000     8.8698   139.1314     2.4871     0.0448
 1980.0000     8.8701   137.3862     2.4863     0.0462
 1980.5000     8.8553   131.5481     2.4712     0.0446
 1981.0000     8.8556   128.6779     2.4576     0.0265
 1981.5000     8.8559   128.6734     2.4501     0.0113
 1982.0000     8.8562   128.2165     2.4411     0.0022
 1982.5000     8.8414   127.6087     2.4569    -0.0039
 1983.0000     8.8417   127.1529     2.4614    -0.0025
 1983.5000     8.8268   132.5772     2.4561     0.0035
 1984.0000     8.8120   137.2485     2.4508     0.0094
 1984.5000     8.8124   140.2606     2.4621     0.0139
 1985.0000     8.8127   142.0661     2.4771     0.0199
 1985.5000     8.7979   142.9666     2.4869     0.0245
 1986.0000     8.7982   142.6605     2.4929     0.0260
 1986.5000     8.7985   141.7511     2.4706     0.0302
 1987.0000     8.8139   139.7738     2.4650     0.0376
 1987.5000     8.8142   134.9296     2.4695     0.0451
 1988.0000     8.8296   132.8386     2.4800     0.0556
 1988.5000     8.8450   132.3807     2.4687     0.0600
 1989.0000     8.8605   130.5663     2.4567     0.0509
 1989.5000     8.8759   127.5453     2.4536     0.0418
 1990.0000     8.8762   128.5966     2.4566     0.0417
 1990.5000     8.8765   129.3463     2.4544     0.0432
 1991.0000     8.8768   129.9452     2.4461     0.0237
 1991.5000     8.8771   128.5833     2.4287    -0.0007
 1992.0000     8.8925   121.0373     2.4151    -0.0189
 1992.5000     8.9230   119.6754     2.4150    -0.0175
 1993.0000     8.9233   119.8218     2.4355    -0.0055
 1993.5000     8.9387   119.8173     2.4769     0.0080
 1994.0000     8.9390   119.9638     2.4776     0.0170
 1994.5000     8.9393   119.0543     2.4746     0.0184
 1995.0000     8.9396   114.9477     2.4903     0.0231
 1995.5000     8.9399   111.3239     2.5135     0.0339
 1996.0000     8.9402   110.2684     2.5287     0.0513
 1996.5000     8.9254   112.3988     2.5219     0.0573
 1997.0000     8.9257   115.4110     2.5061     0.0482
 1997.5000     8.9411   117.9706     2.4956     0.0300
 1998.0000     8.9414   120.0778     2.4895     0.0164
 1998.5000     8.9417   121.5816     2.4948     0.0193
 1999.0000     8.9421   123.2363     2.5083     0.0253
 1999.5000     8.9423   123.9860     2.5158     0.0327
 2000.0000     8.9426   124.4351     2.5188     0.0372
 2000.5000     8.9416   123.2229     2.5007     0.0416
 2001.0000     8.9287   122.0118     2.4887     0.0416
 2001.5000     8.9157   122.0074     2.4811     0.0339
 2002.0000     8.9027   121.8521     2.4917     0.0233
 2002.5000     8.8897   120.7918     2.4999     0.0247
 2003.0000     8.8822   119.2579     2.5052     0.0337
 2003.5000     8.8822   117.0965     2.4927     0.0397
 2004.0000     8.8671   115.4732     2.4708     0.0286
 2004.5000     8.8520   116.0972     2.4539     0.0137
 2005.0000     8.8520   116.5463     2.4780     0.0034
 2005.5000     8.8369   116.6916     2.4938     0.0275
 2006.0000     8.8520   122.1170     2.5074     0.0485
 2006.5000     8.8499   126.5460     2.4825     0.0409
 2007.0000     8.8369   128.3757     2.4667     0.0107
 2007.5000     8.8369   130.8199     2.4712     0.0061
 2008.0000     8.8369   130.6887     2.4772     0.0287
 2008.5000     8.8520   127.6146     2.4696     0.0286
 2009.0000     8.8520   122.9261     2.4583     0.0180
 2009.5000     8.8822   119.1554     2.4523     0.0059
 2010.0000     8.8822   120.2112     2.4620     0.0088
 2010.5000     8.8973   122.3228     2.4757     0.0269
 2011.0000     8.8973   124.1327     2.4877     0.0359
 2011.5000     8.8973   125.9427     2.4944     0.0388
 2012.0000     8.8973   127.3001     2.4967     0.0357
 2012.5000     8.8973   128.3560     2.4974     0.0342
 2013.0000     8.8822   126.9985     2.4981     0.0281
 2013.5000     8.8822   123.6802     2.4762     0.0220
 2014.0000     8.8822   122.3228     2.4475     0.0156
 2014.5000     8.8822   121.2670     2.4588    -0.0009
 2015.0000     8.8822   122.1719     2.4761     0.0108
 2015.5000     8.8671   129.8643     2.4888     0.0323
 2016.0000     8.8822   133.3333     2.4948     0.0443
 2016.5000     8.8822   135.5958     2.4917     0.0458
 2017.0000     8.8671   136.1991     2.4818     0.0412
 2017.5000     8.8520   135.7341     2.4735     0.0336
 2018.0000     8.8520   136.9225     2.4728     0.0290
 2018.5000     8.8369   140.1362     2.4690     0.0319
 2019.0000     8.8369   144.0422     2.4855     0.0349
 2019.5000     8.8369   145.0980     2.4847     0.0409
 2020.0000     8.8218   142.2323     2.4891     0.0453
 2020.5000     8.8218   140.2715     2.4929     0.0498
 2021.0000     8.8369   139.2157     2.4973     0.0512
