~VERSION INFORMATION
 VERS.                2.0:   CWLS LOG ASCII STANDARD - VERSION 2.0
 WRAP.                 NO:   ONE LINE PER DEPTH STEP
~WELL INFORMATION
#MNEM.UNIT      DATA TYPE    INFORMATION
#----------   ------------   ------------------------------
 STRT.F          212.5000:   START DEPTH
 STOP.F         3098.0000:   STOP DEPTH
 STEP.F            0.5000:   STEP LENGTH
 NULL.          -999.2500:   NO VALUE
 COMP.    FENIX & SCISSON:   COMPANY
 WELL. FENIX NPR 77 "A" #3-33:   WELL
 FLD .                NPR:   FIELD
 LOC .      S33 T39N R78W:   LOCATION
 CNTY.            NATRONA:   COUNTY
 STAT.            WYOMING:   STATE
 CTRY. UNITED STATES OF AMERICA:   COUNTRY
 SRVC.       SCHLUMBERGER:   SERVICE COMPANY
 DATE.        07-MAY-1977:   LOGDATE
 API .     49025103700000:   API NUMBER
~CURVE INFORMATION
#MNEM.UNIT       API CODE    CURVE DESCRIPTION
#----------   ------------   ------------------------------
 DEPT.F                  :   
 SPR .MV     07 010 01 00:   SPONTANEOUS POTENTIAL
 LL8 .OHMM   11 220 08 00:   LATERALOG-8 RESISTIVITY
 ILD .OHMM   07 120 46 00:   DEEP INDUCTION RESISTIVITY
 CALD.IN     45 280 60 00:   CALIPER FROM DENSITY LOG
 GRD .GAPI   45 310 01 00:   GAMMA RAY FROM DENSITY LOG
 RHOB.G/C3   45 350 01 00:   BULK DENSITY
 CORR.G/C3   45 356 01 00:   DENSITY CORRECTION
 ILM .OHMM   07 120 44 00:   INDUCTION LOG MEDIUM RESISTIVITY
~PARAMETER INFORMATION
#MNEM.UNIT          VALUE    DESCRIPTION
#----------   ------------   ------------------------------
 EKB .F         5152.0000:   Kelly bushing
 EGL .F         5141.0000:   Ground level
 TD  .F         3097.0000:   Total depth
 DATE.        07-MAY-1977:   Date logged
 CLNT.            A2DTECH:   Client Code
 SL  . 990' FEL & 990' FSL:   Surface Location
 PD  .                 GL:   Permanent Datum
 EPD .F              5141:   Elevation Permanent Datum
 LMF .                 KB:   Log Measured From
 DMF .                 KB:   Drilling Measured From
 DAPD.F                11:   Feet Above Permanent Datum
 DD  .F              3096:   Depth driller
 DL  .F              3097:   Depth logger
 BLI .F              3091:   Bottom log interval
 TLI .F               222:   Top log interval
 CS1 .IN            8.625:   Casing size
 CBD1.      8.625" @ 200':   Casing driller 1
 CBL1.F               222:   Casing logger 1
 BS1 .IN            7.875:   Bit size
 BSD1.F              3096:   Depth drilled with bit1
 DFT .                KCL:   Type fluid in hole
 DFD .                9.2:   Density
 DFV .                 38:   Viscosity
 DFPH.                  8:   pH
 DFL .                7.6:   Fluid loss
 MSS .           FLOWLINE:   Source of sample
 RMS .OHMM           .191:   Rm
 MST .F                76:   Rm Meas. temp.
 RMF .OHMM           .185:   Rmf
 MFST.F                76:   Rmf Meas. temp.
 MFSS.               MEAS:   Source Rmf.
 RMB .OHMM           .126:   Rm. at BHT
 BHT .F               115:   BHT.
 TCS .HRS            1200:   Time Circ. stopped
 TLAB.HRS            1530:   Time logger at bottom
 MRT .F                15:   Maximum recorded temp.
 LUN .               6442:   Logging unit number
 LUL .               CSPR:   Logging unit location
 ENGI.             MARTIN:   Recorded By
 WITN.          PETTMGILL:   Witnessed by
 ORIG.      2.5" 5" PRINT:   Origin of data
 UWI .     49025103700000:   Unique Well ID
 DICO. A2D TECHNOLOGIES, INC.:   Digitizing Company
~OTHER INFORMATION
~A   DEPT      SPR        LL8        ILD       CALD         GRD      RHOB       CORR        ILM   
# ...
 2278.0000   -73.0030    11.9340     8.4270     8.5600   142.3900     2.4960     0.0560     8.3390
 2278.5000   -73.2740    11.8680     8.6350     8.5600   140.7260     2.5080     0.0580     8.2800
 2279.0000   -73.5450    11.7490     8.8430     8.5600   138.9360     2.5180     0.0720     8.2210
 2279.5000   -73.8150    11.2680     9.0810     8.5600   136.8370     2.5200     0.0870     8.1620
 2280.0000   -74.0820    10.7870     9.1970     8.5600   136.5720     2.5140     0.0920     8.1290
 2280.5000   -74.1140    10.6240     9.3740     8.5600   138.6830     2.5080     0.0800     8.1290
 2281.0000   -73.7920    11.0220     9.5510     8.5600   140.0080     2.5070     0.0710     8.2540
 2281.5000   -73.4830    11.3370     9.7270     8.5590   134.2810     2.5140     0.0620     8.4400
 2282.0000   -73.1730    11.4380     9.9040     8.5600   128.0590     2.5210     0.0580     8.6270
 2282.5000   -72.8630    10.9220    10.2060     8.5600   123.6110     2.5130     0.0640     8.8130
 2283.0000   -72.5530    12.0860    10.7110     8.5650   121.1140     2.5090     0.0750     8.9980
 2283.5000   -72.2430    13.2580    11.2170     8.5700   118.4500     2.5200     0.0860     9.2260
 2284.0000   -71.9330    12.7340    11.7220     8.5750   115.6670     2.5300     0.0960     9.4290
 2284.5000   -71.6220    12.1540    12.2280     8.5800   113.9650     2.5390     0.1060     9.6320
 2285.0000   -71.3050    11.7590    12.7340     8.5860   112.8270     2.5120     0.0740     9.8340
 2285.5000   -71.2630    12.3020    13.2390     8.5910   111.5790     2.5100     0.0630    10.0520
 2286.0000   -71.9300    13.0540    13.7450     8.5960   111.8170     2.5180     0.0660    10.4460
 2286.5000   -72.6340    13.8070    14.2500     8.6010   113.6350     2.5240     0.0760    11.1910
 2287.0000   -73.3350    14.5590    14.7560     8.6060   114.8600     2.5130     0.0710    11.9360
 2287.5000   -74.0350    15.3120    15.2260     8.6110   121.1980     2.5030     0.0630    12.6820
 2288.0000   -74.7370    15.7980    15.5090     8.6160   132.2910     2.4920     0.0630    13.4270
 2288.5000   -75.4330    15.3340    15.5090     8.6210   145.9960     2.4860     0.0710    13.7560
 2289.0000   -76.0550    14.0430    15.5090     8.6260   143.4270     2.4960     0.0780    13.8840
 2289.5000   -76.2890    12.7520    15.5090     8.6310   137.2200     2.5080     0.0860    13.6410
 2290.0000   -76.5360    11.4610    15.0860     8.6360   131.3770     2.5180     0.0940    13.3250
 2290.5000   -76.7840    10.8220    14.3040     8.6390   128.5540     2.5320     0.1040    13.0090
 2291.0000   -76.9820    10.8970    13.5230     8.6390   129.1920     2.5260     0.0990    12.6930
 2291.5000   -76.9670    11.0910    12.7720     8.6390   129.8260     2.5150     0.0800    12.3770
 2292.0000   -76.8200    11.2850    12.1450     8.6390   130.4350     2.5070     0.0600    11.5870
 2292.5000   -76.5190    11.4380    11.5180     8.6390   131.1800     2.5330     0.0500    11.1250
 2293.0000   -76.1270    11.5440    10.8910     8.6390   130.2350     2.5260     0.0640    10.4550
 2293.5000   -75.7320    10.7880    10.2640     8.6390   125.2860     2.5080     0.0640     9.7910
 2294.0000   -75.3350    10.6240     9.6370     8.6390   120.4180     2.5020     0.0480     9.1270
 2294.5000   -74.9390    10.9760     9.0100     8.6390   115.4970     2.5180     0.0480     8.4630
 2295.0000   -74.5420    11.1250     8.3830     8.6390   112.6540     2.5340     0.0630     7.7990
 2295.5000   -74.1300    10.5750     7.7560     8.6390   112.3590     2.5280     0.0630     7.1350
 2296.0000   -74.0700     9.3330     7.1290     8.6390   114.0800     2.5170     0.0530     6.4710
 2296.5000   -74.1810     8.0910     6.5010     8.6390   117.1410     2.5350     0.0690     5.8070
 2297.0000   -74.2940     6.8490     6.1070     8.6390   119.2220     2.5610     0.0890     5.3180
 2297.5000   -74.4460     5.9400     5.9950     8.6390   119.2450     2.5750     0.1030     5.5590
 2298.0000   -74.9640     7.7840     5.9950     8.6260   118.3460     2.5690     0.1070     5.7400
 2298.5000   -75.3910    10.1450     6.0910     8.5700   114.2130     2.5450     0.1090     5.9200
 2299.0000   -75.8090     9.9320     6.1800     8.5110   110.2540     2.5230     0.0870     6.1010
 2299.5000   -76.1820     9.4920     6.2690     8.4770   106.3080     2.5000     0.0650     6.3370
 2300.0000   -76.1900     9.0530     6.3580     8.4810   105.8880     2.4960     0.0540     6.2750
 2300.5000   -76.0500     8.6140     6.4550     8.4800   107.4840     2.5180     0.0630     6.1850
 2301.0000   -75.8590     8.1750     6.6360     8.4800   108.8990     2.5410     0.0680     6.1180
 2301.5000   -75.6670     8.0550     6.7750     8.4800   110.2980     2.5390     0.0670     6.4130
 2302.0000   -75.4760     8.9960     6.9650     8.4800   110.9120     2.5270     0.0620     6.6850
 2302.5000   -75.2840     9.8250     7.1560     8.4800   106.4190     2.5160     0.0580     6.9570
 2303.0000   -75.0920    10.6540     7.3470     8.4800   101.6980     2.5120     0.0550     7.3450
 2303.5000   -74.9000    11.4380     7.5380     8.4800    98.2130     2.5350     0.0540     7.3010
 2304.0000   -74.7080    10.9990     7.7630     8.4800    96.3420     2.5480     0.0620     7.2250
 2304.5000   -74.5170    10.2550     7.8350     8.4800    94.8760     2.6050     0.0780     7.1480
 2305.0000   -74.3250     9.5110     7.9000     8.4800    96.7690     2.5990     0.0860     7.0720
 2305.5000   -74.1330     8.7670     7.9640     8.4800    99.2790     2.6070     0.0770     7.0140
 2306.0000   -73.9410     8.0550     8.0290     8.4800   100.3210     2.6280     0.1050     7.1770
 2306.5000   -73.7490     9.2870     8.0940     8.4820   101.2960     2.6180     0.0950     7.4020
 2307.0000   -73.5570    10.7430     8.1580     8.4760   101.9240     2.6240     0.0910     7.6260
 2307.5000   -73.4170    12.6600     8.2050     8.5120   103.1620     2.6350     0.0950     7.8510
 2308.0000   -73.7900    12.0040     8.2050     8.5200   104.2880     2.6030     0.1030     8.0550
 2308.5000   -74.2110    11.0460     8.2050     8.5210   105.8470     2.5350     0.0970     8.0240
 2309.0000   -74.6320    10.0880     8.2050     8.5190   107.7950     2.5050     0.0760     7.9620
 2309.5000   -75.0530     9.2510     8.1790     8.5200   110.2330     2.5120     0.0540     7.8650
 2310.0000   -75.4750    10.2420     7.9750     8.5260   108.7950     2.5310     0.0540     7.5310
 2310.5000   -75.8980    11.4380     7.7720     8.5390   104.8200     2.5360     0.0660     7.1970
 2311.0000   -76.3140     9.9490     7.5680     8.5520   105.7640     2.5240     0.0760     6.8630
 2311.5000   -76.8120     7.9760     7.3640     8.5600   110.7360     2.5110     0.0780     6.5290
 2312.0000   -76.4760     6.7590     7.1600     8.5590   115.7250     2.4970     0.0660     6.3950
 2312.5000   -76.0870     7.8430     6.9570     8.5600   120.0860     2.4970     0.0520     6.3950
 2313.0000   -75.6980     9.2130     6.7530     8.5600   120.0110     2.5040     0.0590     6.3370
 2313.5000   -75.3090    10.5830     6.5490     8.5590   116.6670     2.5100     0.0730     6.1430
 2314.0000   -74.9200    10.9220     6.3450     8.5600   113.8970     2.4980     0.0840     5.9560
 2314.5000   -74.5310     9.0390     6.1420     8.5600   113.1020     2.5020     0.0800     5.7690
 2315.0000   -74.1430     7.5120     5.9380     8.5600   117.5310     2.5120     0.0750     5.5830
 2315.5000   -73.7540     6.6790     5.7340     8.5600   122.7240     2.5160     0.0760     5.3960
 2316.0000   -73.3640     6.6400     5.5300     8.5600   128.0740     2.5040     0.0790     5.2100
 2316.5000   -72.9750     6.4090     5.4170     8.5600   133.2400     2.4770     0.0740     5.0310
 2317.0000   -72.6270     6.1680     5.6530     8.5600   138.3730     2.4520     0.0640     5.2630
 2317.5000   -72.8010     6.0510     6.1230     8.5600   141.8540     2.4470     0.0680     5.7240
 2318.0000   -73.0420     8.8770     6.5940     8.5600   139.9590     2.4630     0.0790     6.1850
