~VERSION INFORMATION
 VERS.                2.0:   CWLS LOG ASCII STANDARD - VERSION 2.0
 WRAP.                 NO:   ONE LINE PER DEPTH STEP
~WELL INFORMATION
#MNEM.UNIT      DATA TYPE    INFORMATION
#----------   ------------   ------------------------------
 STRT.F           46.5000:   START DEPTH
 STOP.F         3160.0000:   STOP DEPTH
 STEP.F            0.5000:   STEP LENGTH
 NULL.          -999.2500:   NO VALUE
 COMP. LAWRENCE ALLISON & WEST:   COMPANY
 WELL. LAWRENCE NPR 3 "AX" #42-34:   WELL
 FLD .                NPR:   FIELD
 LOC .      S34 T39N R78W:   LOCATION
 CNTY.            NATRONA:   COUNTY
 STAT.            WYOMING:   STATE
 CTRY. UNITED STATES OF AMERICA:   COUNTRY
 SRVC.      WESTERN ATLAS:   SERVICE COMPANY
 DATE.        19-OCT-1987:   LOGDATE
 API .     49025111830000:   API NUMBER
~CURVE INFORMATION
#MNEM.UNIT       API CODE    CURVE DESCRIPTION
#----------   ------------   ------------------------------
 DEPT.F                  :   
 CALD.IN     45 280 60 00:   CALIPER FROM DENSITY LOG
 DEN .LBS    45 635 01 00:   BUCK DENSITY
 CORR.G/C3   45 356 01 00:   DENSITY CORRECTION
 NPOR.DEC    42 890 03 00:   ALPHA PROCESSED NEUTRON POROSITY
 SPR .MV     07 010 01 00:   SPONTANEOUS POTENTIAL
 GRR .GAPI   07 310 01 00:   GAMMA RAY FROM RESISTIVITY
 RFOC.OHMM   07 220 04 00:   RESISTIVITY FOCUSED LOG RES.
 RILD.OHMM   07 120 46 00:   DEEP INDUCTION RESISTIVITY
 RILM.OHMM   07 120 44 00:   INDUCTION LOG MEDIUM RESISTIVITY
 TENR.LBS    07 635 01 00:   TENSION FROM RESISTIVITY
~PARAMETER INFORMATION
#MNEM.UNIT          VALUE    DESCRIPTION
#----------   ------------   ------------------------------
 EKB .F         5088.0000:   Kelly bushing
 EGL .F         5077.0000:   Ground level
 EDF .F         5087.0000:   Drilling floor
 TD  .F         3151.0000:   Total depth
 DATE.        19-OCT-1987:   Date logged
 CLNT.            A2DTECH:   Client Code
 SL  . 1032' FNL & 2316' FWL:   Surface Location
 PD  .                 GL:   Permanent Datum
 EPD .F              5077:   Elevation Permanent Datum
 LMF .                 KB:   Log Measured From
 DMF .                 KB:   Drilling Measured From
 DAPD.F                11:   Feet Above Permanent Datum
 DD  .F              3151:   Depth driller
 DL  .F              3151:   Depth logger
 BLI .F              3149:   Bottom log interval
 TLI .F                50:   Top log interval
 CS1 .IN            8.625:   Casing size
 CBD1.      8.625" @ 693':   Casing driller 1
 CBL1.F               693:   Casing logger 1
 BS1 .IN            7.875:   Bit size
 BSD1.F              3151:   Depth drilled with bit1
 DFT .        KCL/POLYMER:   Type fluid in hole
 DFD .                9.2:   Density
 DFV .                 53:   Viscosity
 DFPH.                9.5:   pH
 DFL .               11.8:   Fluid loss
 MSS .            MUD/PIT:   Source of sample
 RMS .OHMM           .441:   Rm
 MST .F                66:   Rm Meas. temp.
 RMF .OHMM           .336:   Rmf
 MFST.F                66:   Rmf Meas. temp.
 RMC .OHMM           .711:   Rmc
 MCST.F                66:   Rmc Meas. temp.
 MFSS.               MEAS:   Source Rmf.
 MCSS.               MEAS:   Source Rmc.
 RMB .OHMM           .244:   Rm. at BHT
 BHT .F               119:   BHT.
 TCS .HRS               3:   Time Circ. stopped
 MRT .F               119:   Maximum recorded temp.
 LUN .            HL-6343:   Logging unit number
 LUL .               CODY:   Logging unit location
 ENGI.               JULL:   Recorded By
 WITN.             STRONG:   Witnessed by
 ORIG.           5" PRINT:   Origin of data
 UWI .     49025111830000:   Unique Well ID
 DICO. A2D TECHNOLOGIES, INC.:   Digitizing Company
~OTHER INFORMATION
~A   DEPT     CALD        DEN       CORR       NPOR        SPR         GRR      RFOC       RILD       RILM       TENR   
# ...
 2659.5000     8.2325     2.5128     0.0296     0.1946   -34.3356    94.9561    14.8681    11.7149    11.2861   -83.9961
 2660.0000     8.1912     2.5178     0.0153     0.2007   -34.1425    96.9624    15.0039    11.7124    11.2836  -104.0402
 2660.5000     8.2509     2.5269     0.0355     0.2035   -33.9455    95.7483    14.7244    11.7101    11.1773   -83.5984
 2661.0000     8.2298     2.5309     0.0455     0.2019   -33.3454    94.1223    13.5382    11.5994    10.6659   -83.3996
 2661.5000     8.2289     2.5308     0.0272     0.2003   -33.3504    94.9204    12.4475    11.3830    10.4669   -83.1610
 2662.0000     8.2278     2.5277     0.0413     0.2012   -33.3554    98.5467    12.3290    11.1707    10.2717   -93.0836
 2662.5000     8.2672     2.5176     0.0513     0.2000   -33.5624   102.5790    12.6769    10.9624    10.0801   -82.7633
 2663.0000     8.2865     2.5044     0.0533     0.2044   -33.5673   100.1389    13.1555    10.7579    10.1802   -92.6858
 2663.5000     8.2661     2.4901     0.0416     0.2057   -32.9824    98.9169    12.9104    10.5572    10.1708   -92.4870
 2664.0000     8.2645     2.4861     0.0369     0.2057   -32.5672    98.9069    12.5525    10.5553    10.1690   -92.2881
 2664.5000     8.2232     2.4779     0.0307     0.2041   -32.1682    99.2990    12.5502    10.6522    10.1671   -81.9678
 2665.0000     8.2225     2.4698     0.0155     0.1987   -31.5671    97.6729    12.3163    11.1584    10.1652   -81.7690
 2665.5000     8.1891     2.4626     0.0022     0.1912   -31.3700    95.2388    12.2004    11.5802    10.3546   -81.5701
 2666.0000     8.2406     2.4545    -0.0040     0.1900   -31.1730    94.4208    12.0068    11.5773    10.8463   -91.4927
 2666.5000     8.2401     2.4453     0.0000     0.1961   -30.7740    95.2189    13.1884    11.7934    11.4673   -91.2939
 2667.0000     8.2188     2.4402    -0.0001     0.2042   -30.7789    93.1888    13.8161    12.0132    11.3597   -91.0553
 2667.5000     8.2177     2.4432     0.0039     0.2103   -30.5819    89.5426    14.4727    12.2370    11.1478   -90.8564
 2668.0000     8.2162     2.4492     0.0139     0.2151   -29.5782    87.9166    14.3358    12.3493    10.9399   -90.6575
 2668.5000     8.1957     2.4522     0.0482     0.2168   -29.5828    89.1187    13.4277    12.4627    10.7354   -90.4587
 2669.0000     8.1946     2.4370     0.0461     0.2172   -28.9817    91.1289    12.6949    12.5771    10.4378   -90.2598
 2669.5000     8.1937     2.4107     0.0500     0.2168   -26.7665    93.1391    12.6439    12.6926    10.0539   -90.0610
 2670.0000     8.1323     2.3995     0.0297     0.2116   -25.9614    95.5533    12.1990    12.9291     9.9588   -89.8621
 2670.5000     8.1924     2.3417     0.0134     0.2104   -24.3503    90.6930    11.1982    13.0478     9.9570   -79.5418
 2671.0000     8.1909     2.3387     0.0235     0.2075   -23.7482    83.8146    10.2961    13.1676     9.9552   -89.4644
 2671.5000     8.1900     2.3386     0.0213     0.2055   -23.9074    78.5523    10.1984    13.4125    10.6241   -89.2656
 2672.0000     8.2496     2.3578     0.0293     0.2035   -23.9612    75.7141    10.5835    13.6624    11.5518   -89.0667
 2672.5000     8.1888     2.3618     0.0050     0.2044   -24.9762    75.3001    11.1896    13.9169    12.1008   -78.7067
 2673.0000     8.2678     2.3800     0.0130     0.2076   -25.7892    76.9063    11.6121    14.1762    12.5583   -78.5078
 2673.5000     8.2467     2.4093     0.0473     0.2097   -28.0194    82.1488    12.3920    14.5756    12.6736   -78.3089
 2674.0000     8.2465     2.4234     0.0634     0.2105   -28.7762    86.9872    12.9803    14.9863    12.6712   -67.9886
 2674.5000     8.2651     2.4325     0.0167     0.2020   -29.2384    92.2296    13.8520    14.9835    12.9073   -77.9112
 2675.0000     8.2641     2.4415     0.0126     0.1980   -33.2847    92.2196    14.7824    14.9808    12.7838   -87.8338
 2675.5000     8.2432     2.4587     0.0065     0.1931   -35.1078    91.4016    15.0575    14.7014    12.7825   -77.5135
 2676.0000     8.2791     2.4718     0.0286     0.1939   -36.3248    90.5836    14.6400    14.1607    12.7805  -107.6790
 2676.5000     8.2816     2.4839     0.0146     0.1968   -37.5419    87.7435    15.4790    13.3879    11.7498   -87.2373
 2677.0000     8.2807     2.4869     0.0123     0.2009   -38.1519    87.7336    15.0492    12.4235    11.2127   -87.0384
 2677.5000     8.2920     2.4889     0.0223     0.1993   -39.6943    91.3599    13.7081    12.5366    10.9011   -76.7181
 2678.0000     8.2990     2.4909     0.0323     0.1985   -40.1830    94.9862    12.6037    12.2386    10.8991   -86.6009
 2678.5000     8.2779     2.4979     0.0222     0.1960   -40.9961    96.1883    12.7193    11.9618    10.8975   -86.4021
 2679.0000     8.2772     2.4989     0.0281     0.1936   -41.4060    96.5824    12.7170    11.7391    11.1001   -86.2032
 2679.5000     8.2932     2.4998     0.0361     0.1904   -41.2090    96.9765    12.9537    11.6276    11.3073   -75.8829
 2680.0000     8.4162     2.4988     0.0380     0.1876   -41.2140    96.9665    13.5686    11.5176    11.3049   -85.8055
 2680.5000     8.3144     2.4987     0.0420     0.1937   -40.2089    99.3808    14.6154    11.5146    11.1979   -95.7281
 2681.0000     8.3142     2.4906     0.0439     0.1991   -39.8098    99.7749    15.4524    11.5134    10.9890   -95.5293
 2681.5000     8.2722     2.4824     0.0499     0.2045   -38.7539    98.9569    15.3063    11.5113    10.8851   -95.3304
 2682.0000     8.2915     2.4753     0.0275     0.2103   -38.2037    98.9469    13.5587    11.5092    10.7825   -85.0101
 2682.5000     8.2706     2.4702     0.0153     0.2112   -37.6026   101.3611    12.9395    11.5071    10.6801   -74.5705
 2683.0000     8.2834     2.4681     0.0152     0.2109   -37.4055   106.1995    12.6979    11.3978    10.6778   -84.6124
 2683.5000     8.3089     2.4661     0.0192     0.2108   -37.0065   107.8057    12.8144    11.3054    10.7758   -94.4952
 2684.0000     8.3080     2.4711     0.0332     0.2108   -35.7994   106.1796    13.0529    11.2879    10.7738   -94.2964
 2684.5000     8.3076     2.4771     0.0433     0.2092   -34.3903   102.5314    13.2958    11.2862    10.8727   -83.9761
 2685.0000     8.3262     2.4862     0.0735     0.2076   -34.3912   102.5215    13.4178    11.3894    10.9725   -83.7772
 2685.5000     8.3249     2.4962     0.0674     0.2092   -31.9760   102.1075    13.7954    11.7103    10.9705   -83.5784
 2686.0000     8.3245     2.5023     0.0692     0.2113   -31.5770   100.8855    13.9219    11.9285    10.9685   -83.3795
 2686.5000     8.3238     2.4992     0.0429     0.2109   -31.5819   102.4917    14.0496    11.5974    10.8648   -93.3021
 2687.0000     8.3225     2.5012     0.0327     0.2119   -31.5869   104.0978    13.5334    11.8135    10.5632   -93.1033
 2687.5000     8.3014     2.5112     0.0427     0.2125   -31.1889   104.4919    12.9153    11.9219    10.1747   -92.9044
 2688.0000     8.3005     2.5233     0.0467     0.2113   -30.1838   105.2900    12.4408    12.0314    10.1728   -92.7056
 2688.5000     8.2796     2.5132     0.0588     0.2106   -29.3807   106.0902    12.0959    12.1418    10.5574   -72.2638
 2689.0000     8.2987     2.5020     0.0661     0.2118   -28.5776   102.0379    12.4358    12.2529    10.5551   -82.1466
 2689.5000     8.2978     2.4665     0.0727     0.2134   -27.1685    95.9675    12.7858    12.3658    10.5531   -92.0692
 2690.0000     8.2968     2.4381     0.0787     0.2179   -26.3654    76.9662    13.7722    12.4793    10.3567   -91.8704
 2690.5000     8.2957     2.4108     0.0725     0.2135   -23.9462    75.3402    13.0214    12.7114    10.1631   -81.5501
 2691.0000     8.3150     2.4107     0.0522     0.2127   -22.9411    75.7343    12.0844    12.9482    10.0670   -91.4727
 2691.5000     8.3146     2.4208     0.0623     0.2084   -21.9360    78.1425    11.0078    13.0676    10.0651  -101.3953
 2692.0000     8.3737     2.4430     0.0682     0.2041   -21.3349    74.5023    10.3113    13.3106    10.2527   -91.0750
 2692.5000     8.3728     2.4571     0.0742     0.2006   -21.5389    70.8561    10.3094    13.4328    10.4437  -100.9976
