~VERSION INFORMATION
 VERS.                2.0:   CWLS LOG ASCII STANDARD - VERSION 2.0
 WRAP.                 NO:   ONE LINE PER DEPTH STEP
~WELL INFORMATION
#MNEM.UNIT      DATA TYPE    INFORMATION
#----------   ------------   ------------------------------
 STRT.F         1053.5000:   START DEPTH
 STOP.F         3062.0000:   STOP DEPTH
 STEP.F            0.5000:   STEP LENGTH
 NULL.          -999.2500:   NO VALUE
 COMP.    FENIX & SCISSON:   COMPANY
 WELL.  FENIX "A" #301-11:   WELL
 FLD .              NPR-3:   FIELD
 LOC .      S11 T38N R78W:   LOCATION
 CNTY.            NATRONA:   COUNTY
 STAT.            WYOMING:   STATE
 CTRY. UNITED STATES OF AMERICA:   COUNTRY
 SRVC.      NL MCCULLOUGH:   SERVICE COMPANY
 DATE.        13-OCT-1977:   LOGDATE
 API .     49025104410000:   API NUMBER
~CURVE INFORMATION
#MNEM.UNIT       API CODE    CURVE DESCRIPTION
#----------   ------------   ------------------------------
 DEPT.F                  :   
 GR  .GAPI   35 310 01 00:   GAMMA RAY
 NEUT.NAPI   35 330 01 00:   NEUTRON
~PARAMETER INFORMATION
#MNEM.UNIT          VALUE    DESCRIPTION
#----------   ------------   ------------------------------
 EDF .F         5165.0000:   Drilling floor
 TD  .F         3097.0000:   Total depth
 CLNT.            A2DTECH:   Client Code
 PD  .                 DF:   Permanent Datum
 EPD .F              5165:   Elevation Permanent Datum
 LMF .                 GL:   Log Measured From
 DMF .                 DF:   Drilling Measured From
 DATE.        13-OCT-1977:   Date Logged [DD-MMM-YYYY]
 DD  .F              3097:   Depth driller
 BLI .F              3060:   Bottom log interval
 TLI .F              1060:   Top log interval
 BSD1.F              3097:   Depth drilled with bit1
 DFT .              WATER:   Type fluid in hole
 ENGI.            MUNDELL:   Recorded By
 ORIG.           5" PRINT:   Origin of data
 UWI .     49025104410000:   Unique Well ID
 DICO. A2D TECHNOLOGIES, INC.:   Digitizing Company
~OTHER INFORMATION
~A  DEPT         GR      NEUT   
# ...
 2633.0000    99.1263   199.2971
 2633.5000    99.4447   200.9660
 2634.0000   103.1709   192.0369
 2634.5000   105.0377   198.7246
 2635.0000   106.9044   200.9485
 2635.5000   108.1489   199.8278
 2636.0000   107.6822   195.8737
 2636.5000   105.9710   192.0086
 2637.0000   105.9710   184.1961
 2637.5000   106.6964   169.6919
 2638.0000   112.5046   147.9382
 2638.5000   110.7934   147.3751
 2639.0000   110.0156   153.5039
 2639.5000   109.5489   148.4468
 2640.0000   111.2601   149.5882
 2640.5000   112.3537   159.6205
 2641.0000   114.0602   164.0763
 2641.5000   111.2601   162.9556
 2642.0000   109.3934   156.2585
 2642.5000   108.7711   154.0225
 2643.0000   104.1043   152.8567
 2643.5000   104.0564   142.8574
 2644.0000   104.5729   131.6990
 2644.5000   104.4154   132.8103
 2645.0000   105.1932   136.1494
 2645.5000   107.2155   143.9511
 2646.0000   107.3711   148.4069
 2646.5000   107.3711   148.9592
 2647.0000   107.9933   145.2641
 2647.5000   108.7711   135.5635
 2648.0000   107.3934   133.8851
 2648.5000   105.6599   142.2445
 2649.0000   102.7042   148.9309
 2649.5000   102.2375   163.9820
 2650.0000   102.5487   177.3602
 2650.5000   100.6819   204.5611
 2651.0000    98.8152   256.5342
 2651.5000    97.5167   327.3502
 2652.0000    86.9926   378.0909
 2652.5000    84.6592   408.1985
 2653.0000    80.7701   410.9814
 2653.5000    74.2366   406.5148
 2654.0000    60.5472   388.4110
 2654.5000    54.0137   375.8320
 2655.0000    51.5247   372.4821
 2655.5000    52.4581   381.3977
 2656.0000    55.2582   415.9667
 2656.5000    58.8361   501.2816
 2657.0000    64.7474   582.4581
 2657.5000    68.6364   640.1240
 2658.0000    69.5698   627.8504
 2658.5000    69.5698   547.5436
 2659.0000    70.5031   466.1215
 2659.5000    70.8143   396.9676
 2660.0000    70.3476   273.1642
 2660.5000    71.4365   238.2684
 2661.0000    74.2366   234.1180
 2661.5000    77.0367   250.8408
 2662.0000    79.8491   256.4119
 2662.5000    80.1479   258.6371
 2663.0000    75.7922   260.3060
 2663.5000    74.8588   255.2804
 2664.0000    73.1477   245.2374
 2664.5000    72.0587   238.5389
 2665.0000    71.5921   234.0723
 2665.5000    70.9698   244.1046
 2666.0000    69.4142   275.3275
 2666.5000    69.2386   302.0893
 2667.0000    67.0808   309.8910
 2667.5000    64.5918   342.3058
 2668.0000    63.9696   355.0498
 2668.5000    63.3473   347.7937
 2669.0000    61.6362   347.7883
 2669.5000    60.0806   344.4370
 2670.0000    60.8584   324.9139
 2670.5000    61.3250   319.8897
 2671.0000    62.4140   318.5905
 2671.5000    63.8140   308.1670
 2672.0000    64.9030   302.0275
 2672.5000    64.1252   316.5209
 2673.0000    62.8807   327.6685
 2673.5000    62.7144   332.6820
 2674.0000    60.7028   322.4809
 2674.5000    59.6139   318.1724
 2675.0000    58.9916   336.0104
 2675.5000    59.6139   343.2545
 2676.0000    62.1029   349.9422
 2676.5000    65.8363   351.0521
 2677.0000    66.4586   352.1608
 2677.5000    65.3696   345.8337
 2678.0000    65.2141   306.4214
 2678.5000    64.5918   320.9149
 2679.0000    63.9696   333.7354
 2679.5000    63.9696   359.3819
 2680.0000    64.1252   459.2501
 2680.5000    64.5918   527.2225
 2681.0000    64.9030   512.7183
 2681.5000    64.7474   489.2917
 2682.0000    64.2807   464.7497
 2682.5000    64.9030   452.4761
 2683.0000    66.1474   422.1443
 2683.5000    67.5475   383.0051
 2684.0000    67.7030   355.4277
 2684.5000    67.7030   351.5201
 2685.0000    66.9252   353.7440
 2685.5000    66.6141   358.1998
 2686.0000    66.4586   360.1069
 2686.5000    64.7474   359.8620
 2687.0000    61.4806   392.1989
 2687.5000    60.2103   403.9041
 2688.0000    58.9916   461.3366
 2688.5000    59.7694   503.1549
 2689.0000    64.5918   505.3814
 2689.5000    63.9696   490.3182
 2690.0000    63.0362   471.1980
 2690.5000    63.1918   384.3528
 2691.0000    63.8546   373.1945
 2691.5000    65.5252   366.4973
 2692.0000    67.0808   357.0119
 2692.5000    68.3253   351.9877
 2693.0000    68.3253   356.4435
 2693.5000    68.4808   347.1521
 2694.0000    68.7920   305.1277
 2694.5000    69.5981   293.4117
 2695.0000    70.6587   290.6181
 2695.5000    71.1254   289.4974
 2696.0000    71.1254   269.4167
 2696.5000    70.5031   262.7195
 2697.0000    69.5698   259.3003
 2697.5000    68.3253   258.2462
 2698.0000    67.7030   258.2408
 2698.5000    68.3253   258.2354
 2699.0000    68.1697   259.9030
 2699.5000    68.6364   262.1282
 2700.0000    70.0364   262.1228
 2700.5000    69.8809   258.0512
 2701.0000    68.7920   252.6307
 2701.5000    68.6364   259.3171
 2702.0000    69.2587   277.7141
 2702.5000    68.9475   283.8429
 2703.0000    68.9475   287.1834
 2703.5000    69.5698   286.0334
 2704.0000    66.4586   281.5948
 2704.5000    65.9919   273.7823
 2705.0000    65.8363   271.5464
 2705.5000    65.5252   271.5410
 2706.0000    66.1474   267.0744
 2706.5000    68.9475   266.5114
 2707.0000    71.4365   265.9483
 2707.5000    75.3255   284.3441
 2708.0000    73.7699   293.8187
 2708.5000    72.8366   297.1592
 2709.0000    73.9255   311.6527
 2709.5000    75.0144   318.3391
 2710.0000    75.1700   332.8326
 2710.5000    76.4144   360.8267
 2711.0000    72.9921   373.6526
 2711.5000    71.7476   389.8244
 2712.0000    69.8642   426.6292
 2712.5000    67.3919   497.4507
 2713.0000    66.4586   569.3873
 2713.5000    64.2807   635.1899
 2714.0000    62.7251   669.2065
 2714.5000    62.1029   632.7738
 2715.0000    62.7251   527.5637
 2715.5000    60.7904   396.5162
 2716.0000    60.3917   300.6006
 2716.5000    61.4806   278.2946
 2717.0000    61.9473   272.7182
 2717.5000    62.4140   280.5252
 2718.0000    65.3823   282.8452
 2718.5000    66.9425   283.8711
 2719.0000    66.9470   287.2170
 2719.5000    66.3293   290.9205
 2720.0000    66.6461   312.8689
 2720.5000    66.0272   323.4642
 2721.0000    66.4996   343.5396
 2721.5000    65.4152   348.5584
 2722.0000    66.0419   353.0196
 2722.5000    66.0465   370.8643
 2723.0000    65.2732   385.9209
 2723.5000    65.4334   386.4863
 2724.0000    65.9056   394.2856
 2724.5000    65.4435   387.0362
 2725.0000    64.8257   392.0550
 2725.5000    64.2080   411.5727
 2726.0000    62.3458   429.9751
 2726.5000    61.1057   468.4529
 2727.0000    60.4881   522.5449
 2727.5000    61.3251   540.8330
 2728.0000    62.9873   525.3331
 2728.5000    63.4585   501.9778
 2729.0000    63.6186   427.7445
 2729.5000    63.7787   376.4409
 2730.0000    64.2499   318.4454
 2730.5000    64.5655   311.7536
 2731.0000    64.8812   313.9842
 2731.5000    65.2132   311.1959
 2732.0000    65.8247   307.2924
 2732.5000    66.7626   297.8123
 2733.0000    68.0117   281.4614
 2733.5000    68.9495   272.7182
 2734.0000    70.8208   266.0264
 2734.5000    70.6696   257.6617
 2735.0000    71.4521   255.9887
 2735.5000    71.7679   257.1040
 2736.0000    71.4612   257.6617
 2736.5000    71.6224   258.2193
 2737.0000    72.8714   258.2193
 2737.5000    73.4982   259.3346
 2738.0000    73.0349   260.4499
 2738.5000    73.0405   259.8922
 2739.0000    73.0451   260.4499
 2739.5000    72.0925   258.2193
 2740.0000    71.1874   253.2005
 2740.5000    72.1264   251.5275
 2741.0000    73.6865   267.1417
 2741.5000    73.6911   283.8711
 2742.0000    74.0067   282.7558
 2742.5000    74.9446   287.3646
 2743.0000    75.5714   302.8312
 2743.5000    75.7510   298.3700
 2744.0000    76.8260   302.8312
 2744.5000    76.6750   297.8123
 2745.0000    76.3673   296.1394
 2745.5000    77.7730   300.6006
 2746.0000    80.7332   306.1771
 2746.5000    82.6044   305.0618
 2747.0000    81.8312   294.2195
 2747.5000    79.3311   259.6263
 2748.0000    78.0615   250.4122
 2748.5000    76.8096   240.9322
 2749.0000    76.1837   235.3557
 2749.5000    78.5309   233.6827
 2750.0000    78.8439   234.7980
 2750.5000    79.8289   231.4521
 2751.0000    80.4087   234.2404
 2751.5000    79.3133   238.1439
 2752.0000    78.0615   236.9236
 2752.5000    77.4355   238.7016
 2753.0000    80.4087   239.2592
 2753.5000    81.1993   234.7980
 2754.0000    81.9735   233.6827
