~VERSION INFORMATION
 VERS.                2.0:   CWLS LOG ASCII STANDARD - VERSION 2.0
 WRAP.                 NO:   ONE LINE PER DEPTH STEP
~WELL INFORMATION
#MNEM.UNIT      DATA TYPE    INFORMATION
#----------   ------------   ------------------------------
 STRT.F            0.5000:   START DEPTH
 STOP.F         4256.0000:   STOP DEPTH
 STEP.F            0.5000:   STEP LENGTH
 NULL.          -999.2500:   NO VALUE
 COMP. LAWRENCE-ALLISON & ASSOC:   COMPANY
 WELL. LAWRENCE "X" #64-15:   WELL
 FLD .        N.P.R. NO.3:   FIELD
 LOC .      S15 T38N R78W:   LOCATION
 CNTY.            NATRONA:   COUNTY
 STAT.            WYOMING:   STATE
 CTRY. UNITED STATES OF AMERICA:   COUNTRY
 SRVC.      DRESSER ATLAS:   SERVICE COMPANY
 DATE.        13-SEP-1984:   LOGDATE
 API .     49025111610000:   API NUMBER
~CURVE INFORMATION
#MNEM.UNIT       API CODE    CURVE DESCRIPTION
#----------   ------------   ------------------------------
 DEPT.F                  :   
 TENR.LBS    07 635 01 00:   TENSION FROM RESISTIVITY
 GRR .GAPI   07 310 01 00:   GAMMA RAY FROM RESISTIVITY
 RFOC.OHMM   07 220 04 00:   RESISTIVITY FOCUSED LOG RES.
 RILD.OHMM   07 120 46 00:   DEEP INDUCTION RESISTIVITY
 RILM.OHMM   07 120 44 00:   INDUCTION LOG MEDIUM RESISTIVITY
 SPR .MV     07 010 01 00:   SPONTANEOUS POTENTIAL
 DT  .US/F   60 520 00 00:   DELTA TIME
 TENS.LBS    60 635 01 00:   TENSION FROM SONIC
 CALD.IN     45 280 60 00:   CALIPER FROM DENSITY LOG
 TEND.LBS    45 635 01 00:   TENSION FORM DENSITY LOG
 CORR.G/C3   45 356 01 00:   DENSITY CORRECTION
 DEN .G/C3   45 350 01 00:   BULK DENSITY
 CNC .DEC    42 890 03 00:   NEUTRON POROSITY SANDSTONE
~PARAMETER INFORMATION
#MNEM.UNIT          VALUE    DESCRIPTION
#----------   ------------   ------------------------------
 EKB .F         5294.0000:   Kelly bushing
 EGL .F         5282.0000:   Ground level
 TD  .F         4256.0000:   Total depth
 CLNT.            A2DTECH:   Client Code
 SL  . 2299' FNL & 1785' FEL:   Surface Location
 PD  .                 GL:   Permanent Datum
 EPD .F              5282:   Elevation Permanent Datum
 LMF .                 KB:   Log Measured From
 DMF .                 KB:   Drilling Measured From
 DAPD.F                12:   Feet Above Permanent Datum
 DATE.        13-SEP-1984:   Date Logged [DD-MMM-YYYY]
 DD  .F              4256:   Depth driller
 DL  .F              4248:   Depth logger
 BLI .F              4246:   Bottom log interval
 TLI .F                 0:   Top log interval
 CS1 .IN            8.625:   Casing size
 CBD1.      8.625" @ 817':   Casing driller 1
 CBL1.F               814:   Casing logger 1
 BS1 .IN            7.875:   Bit size
 BSD1.F              4256:   Depth drilled with bit1
 DFT .            KCL-GEL:   Type fluid in hole
 DFD .                  9:   Density
 DFV .                 40:   Viscosity
 DFPH.                8.6:   pH
 DFL .               11.8:   Fluid loss
 MSS .            MUDTANK:   Source of sample
 RMS .OHMM           0.38:   Rm
 MST .F                74:   Rm Meas. temp.
 RMF .OHMM           0.31:   Rmf
 MFST.F                72:   Rmf Meas. temp.
 MFSS.               MEAS:   Source Rmf.
 RMC .OHMM           0.48:   Rmc
 MCST.F                74:   Rmc Meas. temp.
 MCSS.               CALC:   Source Rmc.
 RMB .OHMM           0.22:   Rm. at BHT
 BHT .F               134:   BHT.
 TCS .HRS               4:   Time Circ. stopped
 MRT .F               134:   Maximum recorded temp.
 LUN .            HL-6274:   Logging unit number
 LUL .           GILLETTE:   Logging unit location
 ENGI.             RAUTIO:   Recorded By
 WITN.            JOHNSON:   Witnessed by
 ORIG.        2" 5" PRINT:   Origin of data
 UWI .     49025111610000:   Unique Well ID
 DICO. A2D TECHNOLOGIES, INC.:   Digitizing Company
~OTHER INFORMATION
~A    DEPT    TENR         GRR      RFOC       RILD       RILM        SPR         DT       TENS       CALD       TEND       CORR        DEN        CNC   
# ...
 1248.5000   -75.0000    83.5492     9.6094     9.5367     9.3476   -25.0890    88.4190   -57.4441     9.1018   -65.7371    -0.0028     2.5214     0.2468
 1249.0000   -75.0000    83.5722     9.6077     9.4711     9.3476   -25.0835    88.1953   -56.8264     9.0998   -55.7769    -0.0148     2.5214     0.2450
 1249.5000   -75.0000    86.8989     9.6061     9.4034     9.3476   -25.0791    88.0465   -56.2097     9.0978   -65.7371    -0.0192     2.5177     0.2387
 1250.0000   -75.0000    90.8271     9.6045     9.4015     9.3476   -25.0747    87.8979   -55.7769     9.0958   -60.7420    -0.0177     2.5147     0.2363
 1250.5000   -75.0000    91.4286     9.7061     9.3996     9.4219   -25.0635    88.1997   -55.7769     9.0937   -55.7769    -0.0072     2.5200     0.2369
 1251.0000   -75.0000    89.0226     9.7748     9.3977     9.4151   -25.0211    88.5769   -55.7769     9.0917   -55.7769    -0.0012     2.5260     0.2372
 1251.5000   -75.0000    90.2474     9.8440     9.3958     9.4164   -24.9787    88.8786   -55.7769     9.0897   -65.7371     0.0003     2.5291     0.2378
 1252.0000   -75.0000    92.3308     9.9137     9.4596     9.3527   -24.9364    88.8046   -55.7769     9.0877   -65.7371     0.0033     2.5351     0.2388
 1252.5000   -75.0000    90.2256     9.9842     9.4572     9.4192   -24.9023    88.7314   -55.7769     9.0857   -65.7371     0.0154     2.5374     0.2424
 1253.0000   -75.0000    87.8195     9.9856     9.4553     9.4858   -25.0481    88.5076   -55.7769     9.0837   -65.7371     0.0183     2.5313     0.2481
 1253.5000   -75.0000    85.7143     9.9867     9.4534     9.4214   -25.2162    88.3589   -55.7769     9.0817   -55.7769     0.0168     2.5260     0.2493
 1254.0000   -75.0000    85.1128     9.9882     9.4514     9.2936   -25.4898    88.2102   -55.7769     9.0797   -55.7769     0.0093     2.5200     0.2460
 1254.5000   -75.0000    86.9173     9.9896     9.4491     9.1040   -25.4843    88.2906   -55.7769     9.0777   -55.7769    -0.0028     2.5094     0.2382
 1255.0000   -75.0000    88.7218     9.7857     9.4472     9.1052   -25.0295    88.5386   -55.7769     9.0757   -55.7769    -0.0103     2.5003     0.2385
 1255.5000   -75.0000    88.7218     9.7194     9.3801     9.1361   -24.8750    88.8156   -55.7769     9.0736   -65.7371    -0.0195     2.4974     0.2469
 1256.0000   -75.0000    89.0665     9.4900     9.3782     9.1709   -24.7204    88.8921   -55.7769     9.0716   -65.7371    -0.0269     2.5034     0.2526
 1256.5000   -75.0000    90.8271     9.4567     9.3763     9.2358   -24.8662    88.8181   -56.0231     9.0696   -65.7371    -0.0299     2.5102     0.2529
 1257.0000   -75.0000    91.7293     9.3825     9.4400     9.3014   -24.8618    88.6698   -56.2840     9.0676   -55.7769    -0.0329     2.5109     0.2514
 1257.5000   -75.0000    91.7293     9.3292     9.4376     9.3025   -24.8574    88.5208   -56.5447     9.0656   -55.7769    -0.0314     2.5064     0.2457
 1258.0000   -75.0000    86.9173     9.2662     9.5013     9.3685   -25.0032    88.2223   -56.8051     9.0636   -83.5325    -0.0270     2.4996     0.2379
 1258.5000   -75.0000    85.7143     9.4621     9.6318     9.3697   -25.1479    88.2237   -57.0655     9.0616   -55.7769    -0.0206     2.4958     0.2385
 1259.0000   -75.0000    86.9173     9.5291     9.6968     9.4360   -25.4449    88.2327   -57.3259     9.0596   -55.7769    -0.0089     2.4989     0.2448
 1259.5000   -75.0000    87.5188     9.6864     9.6943     9.5028   -25.8899    88.5273   -57.5863     9.0576   -45.8167    -0.0029     2.5049     0.2529
 1260.0000   -75.0000    87.1778     9.7992     9.6923     9.6364   -26.1869    88.8291   -57.8467     9.0556   -45.8167     0.0031     2.5140     0.2559
 1260.5000   -75.0000    86.0150     9.9371     9.6235     9.6377   -26.4817    88.9056   -58.1072     9.0535   -45.7843     0.0031     2.5351     0.2535
 1261.0000   -75.0000    84.5113    10.0075     9.4892     9.7059   -26.3272    88.8316   -58.3676     9.0515   -45.6019     0.0031     2.5473     0.2475
 1261.5000   -75.0000    83.6090    10.0783     9.4218     9.7075   -26.0200    88.6829   -58.6280     9.0500   -46.3219     0.0030     2.5494     0.2427
 1262.0000   -75.1141    82.7068    10.0102     9.3549     9.6416   -25.5676    88.5346   -58.8884     9.0500   -55.7175     0.0030     2.5449     0.2373
 1262.5000   -75.5078    85.4135    10.0118     9.1607     9.4449   -25.4121    88.5361   -59.1488     9.0500   -55.3034     0.0030     2.5457     0.2397
 1263.0000   -75.9016    91.7293     9.6060     9.0956     9.2526   -25.2576    88.6151   -59.4092     9.0500   -46.1079     0.0030     2.5442     0.2421
 1263.5000   -76.2953    94.7368     9.2805     8.9687     9.1264   -25.4033    89.1509   -59.6697     9.0500   -45.8167     0.0090     2.5442     0.2421
 1264.0000   -76.6891    95.3383     9.0284     8.9050     8.9402   -25.3990    89.7420   -59.9301     9.0500   -45.8167     0.0195     2.5442     0.2349
 1264.5000   -77.0828    91.7293     8.7831     8.9028     8.8189   -25.3946    89.8936   -60.1905     9.0500   -45.8167     0.0178     2.5396     0.2271
 1265.0000   -77.4766    92.6316     8.6635     8.7970     8.7593   -25.6907    89.8951   -60.4509     9.0500   -45.8167    -0.0091     2.5291     0.2295
 1265.5000   -77.8703    94.1353     8.6647     8.7351     8.7606   -25.9865    89.8965   -60.7113     9.0500   -45.8167    -0.0121     2.5245     0.2415
 1266.0000   -78.2641    89.0226     9.2331     8.6737     8.8228   -26.1322    89.7475   -60.9717     9.0500   -57.6693     0.0119     2.5298     0.2454
 1266.5000   -78.6578    83.9098     9.6154     8.6124     8.8852   -26.1267    88.6982   -61.2322     9.0500   -65.7371     0.0225     2.5411     0.2427
 1267.0000   -79.0516    83.8256     9.6834     8.5518     8.8864   -26.1224    88.3243   -61.4926     9.0500   -65.7371     0.0119     2.5386     0.2453
 1267.5000   -79.4453    85.7143     9.4203     8.4916     8.8261   -26.1180    88.2507   -61.7530     9.0500   -55.7769     0.0028     2.5291     0.2482
 1268.0000   -79.8391    86.3158     8.9761     8.4319     8.7063   -26.1136    88.7888   -62.0134     9.0500   -53.7517    -0.0092     2.5170     0.2428
 1268.5000   -80.2328    83.6090     8.6122     8.4308     8.6475   -26.1092    89.2300   -62.2738     9.0500   -45.8167    -0.0122     2.5125     0.2404
 1269.0000   -80.6266    82.1053     8.7334     8.4296     8.5890   -26.1048    89.8321   -62.5342     9.0500   -45.8167    -0.0092     2.5170     0.2452
 1269.5000   -81.0203    81.8045     9.0421     8.3703     8.4722   -26.1181    90.3591   -62.7947     9.0500   -45.8167    -0.0002     2.5215     0.2560
 1270.0000   -81.4141    84.2105     9.2330     8.3692     8.4150   -26.0961    90.4356   -63.0551     9.0500   -45.8167    -0.0062     2.5260     0.2561
 1270.5000   -81.8078    87.8195     9.2317     8.3103     8.3581   -26.0916    90.3616   -63.3155     9.0500   -45.8167    -0.0093     2.5087     0.2511
 1271.0000   -82.2016    89.9248     8.9035     8.3089     8.3016   -25.9361    90.2129   -63.5759     9.0500   -45.8167    -0.0063     2.5057     0.2476
 1271.5000   -82.5953    87.8195     8.5598     8.3078     8.2455   -25.9317    90.3649   -63.8363     9.0500   -45.8167    -0.0123     2.5117     0.2458
 1272.0000   -82.9891    85.6864     8.4432     8.3067     8.2469   -26.0786    90.3664   -64.0967     9.0500   -45.8167    -0.0093     2.5140     0.2446
 1272.5000   -83.3828    84.8120     8.7420     8.3056     8.2480   -26.0731    89.9149   -64.3572     9.0500   -45.8167    -0.0033     2.5140     0.2458
 1273.0000   -83.7766    88.1203     8.9265     8.3045     8.2492   -26.0687    89.4515   -64.6176     9.0500   -45.8167    -0.0003     2.5174     0.2500
 1273.5000   -84.1703    91.4286     9.0522     8.3033     8.3075   -25.6139    89.0945   -64.8780     9.0500   -35.8566    -0.0064     2.5366     0.2536
 1274.0000   -84.5641    91.7293     9.2433     8.3022     8.3663   -25.4594    89.1714   -65.1389     9.0500   -33.4329    -0.0289     2.5555     0.2560
