~VERSION INFORMATION
 VERS.                2.0:   CWLS LOG ASCII STANDARD - VERSION 2.0
 WRAP.                 NO:   ONE LINE PER DEPTH STEP
~WELL INFORMATION
#MNEM.UNIT      DATA TYPE    INFORMATION
#----------   ------------   ------------------------------
 STRT.F          208.0000:   START DEPTH
 STOP.F         2950.0000:   STOP DEPTH
 STEP.F            0.5000:   STEP LENGTH
 NULL.          -999.2500:   NO VALUE
 COMP.    FENIX & SCISSON:   COMPANY
 WELL.     FENIX A #56-28:   WELL
 FLD .                NPR:   FIELD
 LOC .      S28 T39N R78W:   LOCATION
 CNTY.            NATRONA:   COUNTY
 STAT.            WYOMING:   STATE
 CTRY. UNITED STATES OF AMERICA:   COUNTRY
 SRVC.              WELEX:   SERVICE COMPANY
 DATE.        20-AUG-1977:   LOGDATE
 API .     49025104140000:   API NUMBER
~CURVE INFORMATION
#MNEM.UNIT       API CODE    CURVE DESCRIPTION
#----------   ------------   ------------------------------
 DEPT.F                  :   
 SPR .MV     07 010 01 00:   SPONTANEOUS POTENTIAL
 RILM.OHMM   07 120 44 00:   INDUCTION LOG MEDIUM RESISTIVITY
 RILD.OHMM   07 120 46 00:   INDUCTION LOG DEEP RESISTIVITY
 SGRD.OHMM   07 220 05 00:   SHALLOW GUARD LOG RESISTIVITY
 CALD.IN     45 280 60 00:   CALIPER FROM DENSITY LOG
 DCOR.G/C3   45 356 01 00:   DENSITY CORRECTION
 GRD .GAPI   45 310 01 00:   GAMMA RAY FROM DENSITY LOG
 RHOB.G/C3   45 350 01 00:   BULK DENSITY
~PARAMETER INFORMATION
#MNEM.UNIT          VALUE    DESCRIPTION
#----------   ------------   ------------------------------
 EKB .F         5088.0000:   Kelly bushing
 EGL .F         5078.0000:   Ground level
 EDF .F            0.0000:   Drilling floor
 EPD .F         5078.0000:   Permanent datum
 TD  .F         2960.0000:   Total depth
 DATE.        20-AUG-1977:   Date logged
 CLNT.            A2DTECH:   Client Code
 SL  . 1650' FSL & 2310' FEL:   Surface Location
 PD  .                 GL:   Permanent Datum
 LMF .                 KB:   Log Measured From
 DMF .                 KB:   Drilling Measured From
 DAPD.F                10:   Feet Above Permanent Datum
 DD  .F              2960:   Depth driller
 DL  .F              2952:   Depth logger
 BLI .F              2950:   Bottom log interval
 TLI .F               210:   Top log interval
 CS1 .IN            8.625:   Casing size
 CBD1.      8.625" @ 215':   Casing driller 1
 CBL1.F               218:   Casing logger 1
 BS1 .IN            7.875:   Bit size
 BSD1.F              2960:   Depth drilled with bit1
 DFT .            KCL MUD:   Type fluid in hole
 DFD .                8.9:   Density
 DFV .                 60:   Viscosity
 DFPH.                 11:   pH
 DFL .                7.2:   Fluid loss
 MSS .           FLOWLINE:   Source of sample
 RMS .OHMM            .78:   Rm
 MST .F                81:   Rm Meas. temp.
 RMF .OHMM            .46:   Rmf
 MFST.F                81:   Rmf Meas. temp.
 RMC .OHMM           1.66:   Rmc
 MCST.F                81:   Rmc Meas. temp.
 MFSS.               CALC:   Source Rmf.
 MCSS.               CALC:   Source Rmc.
 RMB .OHMM            .56:   Rm. at BHT
 BHT .F               112:   BHT.
 TCS .HRS             2.5:   Time Circ. stopped
 MRT .F               112:   Maximum recorded temp.
 LUN .               8611:   Logging unit number
 LUL .             CASPER:   Logging unit location
 ENGI.             C DOAK:   Recorded By
 WITN.       B HARRINGTON:   Witnessed by
 ORIG.           5" PRINT:   Origin of data
 UWI .     49025104140000:   Unique Well ID
 DICO. A2D TECHNOLOGIES, INC.:   Digitizing Company
~OTHER INFORMATION
~A   DEPT      SPR       RILM       RILD       SGRD         CALD     DCOR        GRD       RHOB   
# ...
  370.0000   -72.4640    11.7630     9.9920    13.6650    10.3420     0.0220   103.3780     2.4440
  370.5000   -72.5820    11.8620     9.9630    13.4720    10.3540     0.0200   103.7770     2.4330
  371.0000   -72.7000    11.9120     9.9350    13.3840    10.3680     0.0190   104.1510     2.4250
  371.5000   -72.8180    11.8070     9.9060    13.3250    10.3830     0.0180   104.0030     2.4310
  372.0000   -72.9360    11.7230     9.8780    13.2660    10.3970     0.0170   102.4720     2.4400
  372.5000   -73.0540    11.6390     9.8490    13.2070    10.4120     0.0180   101.2660     2.4410
  373.0000   -73.1720    11.5550     9.7970    13.1490    10.4260     0.0190   100.7740     2.4390
  373.5000   -73.2890    11.4700     9.7300    13.0900    10.4360     0.0200   101.4550     2.4410
  374.0000   -73.4040    11.3860     9.6620    13.0120    10.4140     0.0210   102.6160     2.4460
  374.5000   -73.5820    11.3020     9.5950    12.9200    10.3920     0.0230   103.8870     2.4490
  375.0000   -73.7700    10.9560     9.5270    12.8290    10.3700     0.0210   104.5630     2.4410
  375.5000   -73.9600    10.2980     9.4600    12.6230    10.3480     0.0180   104.4490     2.4330
  376.0000   -74.1490    10.3950     9.3920    12.4180    10.3260     0.0150   103.7260     2.4250
  376.5000   -74.3370    10.5850     9.3250    12.2400    10.3040     0.0130   103.9320     2.4190
  377.0000   -74.5260    10.3810     9.1250    12.1700    10.2930     0.0100   104.2590     2.4140
  377.5000   -74.7150    10.2110     8.8940    12.0440    10.2840     0.0070   104.5870     2.4100
  378.0000   -74.9040     9.9050     8.6630    11.8010    10.2750     0.0120   104.9160     2.4050
  378.5000   -75.0930     9.4050     8.4320    11.4970    10.2670     0.0170   105.5470     2.4090
  379.0000   -75.2800     9.2620     8.1510    11.1550    10.2580     0.0230   107.5400     2.4130
  379.5000   -75.4080     9.0720     7.8210    10.8130    10.2490     0.0290   110.1070     2.4180
  380.0000   -75.4490     8.7020     7.4660    10.5560    10.2430     0.0340   111.8190     2.4220
  380.5000   -75.4910     8.3310     7.1100    10.3520    10.2470     0.0380   112.5070     2.4270
  381.0000   -75.5320     8.0990     6.7550    10.1470    10.2510     0.0420   113.0410     2.4190
  381.5000   -75.5720     7.6810     6.3990     9.7380    10.2550     0.0450   113.3540     2.4040
  382.0000   -75.6500     7.1020     6.0440     9.2220    10.2590     0.0490   114.5890     2.3830
  382.5000   -75.7520     6.5230     5.6880     8.5500    10.2640     0.0440   116.2790     2.3600
  383.0000   -75.5340     5.9440     5.5230     7.2750    10.2760     0.0390   118.0080     2.3370
  383.5000   -75.1440     5.4750     5.3760     5.8320    10.2880     0.0310   118.0580     2.3140
  384.0000   -74.7510     6.0830     5.5200     4.7290    10.2960     0.0220   115.0490     2.2920
  384.5000   -74.3550     6.8120     5.6920     8.0590    10.3900     0.0130   110.8930     2.3130
  385.0000   -74.1470     7.0750     5.8640    10.1500    10.4980     0.0090   108.7340     2.3970
  385.5000   -74.0370     7.4630     6.0570    10.5880    10.4820     0.0190   107.0430     2.4680
  386.0000   -73.9280     7.9250     6.3780    10.8170    10.3950     0.0280   106.2640     2.4880
  386.5000   -73.8190     8.3860     6.8530    10.8800    10.3080     0.0270   108.7920     2.4770
  387.0000   -73.7090     8.7970     7.3280    11.1850    10.2190     0.0250   109.1680     2.4720
  387.5000   -73.5630     9.0530     7.8030    11.6000    10.2060     0.0230   108.1700     2.4760
  388.0000   -73.2870     9.1750     8.1010    11.4020    10.2100     0.0190   107.1460     2.4730
  388.5000   -73.0140     9.2250     8.3030    11.1830    10.2140     0.0150   107.9730     2.4650
  389.0000   -72.7310     9.2750     8.5060    11.1830    10.2180     0.0110   109.1790     2.4710
  389.5000   -72.5980     9.5420     8.6560    11.4210    10.2220     0.0130   110.1640     2.4830
  390.0000   -72.5180    10.2040     8.7800    11.6000    10.2260     0.0150   110.2730     2.4900
  390.5000   -72.4420     9.8370     8.9040    11.9690    10.2300     0.0180   109.5470     2.4920
  391.0000   -72.3650     9.9280     9.0280    12.3170    10.2340     0.0170   108.6850     2.4930
  391.5000   -72.2870    10.0660     9.1520    12.6900    10.2380     0.0140   107.7790     2.4820
  392.0000   -72.2100    10.3960     9.2770    12.4810    10.2420     0.0110   106.5930     2.4660
  392.5000   -72.1330    10.8230     9.4010    12.8080    10.2460     0.0080   105.8080     2.4480
  393.0000   -72.0550    11.2500     9.5250    13.2960    10.2500     0.0050   105.0150     2.4400
  393.5000   -71.9780    11.4230     9.6490    13.5530    10.2540     0.0070   104.4070     2.4420
  394.0000   -71.9010    11.4730     9.7730    13.5530    10.2580     0.0090   103.4540     2.4440
  394.5000   -71.8240    11.5240     9.8620    13.5530    10.2620     0.0070   102.4130     2.4300
  395.0000   -71.7460    11.5740     9.9150    13.8350    10.2640     0.0050   101.2370     2.4130
  395.5000   -71.6690    11.6540     9.9670    14.1560    10.2660     0.0020   100.4080     2.4210
  396.0000   -71.5920    11.7670    10.0200    14.4500    10.2680     0.0000    99.5690     2.4160
  396.5000   -71.5150    11.8800    10.0720    14.2620    10.2700    -0.0030    99.4900     2.4100
  397.0000   -71.4370    11.9940    10.1250    14.0890    10.2720    -0.0050    99.5710     2.4040
  397.5000   -71.3600    12.1070    10.1770    13.9310    10.2740    -0.0060   100.7950     2.4080
  398.0000   -71.2830    12.2200    10.2300    14.2890    10.2760    -0.0060   101.3160     2.4130
  398.5000   -71.2420    12.3680    10.2830    14.6170    10.2780    -0.0060   101.5910     2.4090
  399.0000   -71.2060    12.3170    10.3350    14.7640    10.2800    -0.0070   101.8670     2.4110
  399.5000   -71.1690    12.2440    10.3880    14.8530    10.2820    -0.0070   102.1530     2.4180
  400.0000   -71.1330    12.1710    10.3450    14.5760    10.2840    -0.0070   102.4390     2.4090
  400.5000   -71.0960    12.0990    10.2930    14.1790    10.2860    -0.0070   102.7240     2.3930
  401.0000   -71.0450    12.0260    10.2400    13.9780    10.2890    -0.0040   103.0120     2.4060
  401.5000   -70.9800    11.9530    10.1870    13.8040    10.2910    -0.0010   103.2960     2.4180
  402.0000   -70.9150    11.8800    10.1340    14.0170    10.2930     0.0030   103.8380     2.4310
  402.5000   -70.9160    11.8140    10.0820    14.5830    10.2950     0.0070   104.6840     2.4380
  403.0000   -70.9820    11.8600    10.0290    14.3580    10.2970     0.0100   106.3820     2.4440
  403.5000   -71.0470    11.9230     9.9760    14.0590    10.2990     0.0130   108.0470     2.4510
  404.0000   -71.1120    11.8710     9.9280    14.0180    10.3010     0.0150   109.6980     2.4630
  404.5000   -71.1780    11.7630     9.8010    13.9730    10.2940     0.0170   109.9410     2.4740
  405.0000   -71.2430    11.6560     9.6850    13.9310    10.2860     0.0190   109.9330     2.4860
  405.5000   -71.3090    11.4730     9.5680    13.6720    10.2790     0.0190   110.6940     2.4940
  406.0000   -71.3740    11.2090     9.4520    13.4330    10.2720     0.0180   112.0510     2.4930
  406.5000   -71.4400    10.9450     9.3350    13.0920    10.2650     0.0180   113.5170     2.4890
  407.0000   -71.5050    10.6810     9.2270    12.6370    10.2570     0.0180   114.9880     2.4930
  407.5000   -71.5710    10.4410     9.0790    12.0320    10.2500     0.0170   116.4160     2.4850
  408.0000   -71.6360    10.2630     8.9410    12.1570    10.2430     0.0170   117.0150     2.4770
  408.5000   -71.6960    10.1700     8.8030    12.3440    10.2360     0.0160   117.5860     2.4790
  409.0000   -71.7500    10.1190     8.6650    12.1930    10.2280     0.0160   117.5110     2.4810
  409.5000   -71.8050    10.0670     8.5280    11.9230    10.2220     0.0150   117.0260     2.4770
  410.0000   -71.8590    10.0190     8.3900    11.9630    10.2220     0.0140   116.4100     2.4650
