~VERSION INFORMATION
 VERS.                2.0:   CWLS LOG ASCII STANDARD - VERSION 2.0
 WRAP.                 NO:   ONE LINE PER DEPTH STEP
~WELL INFORMATION
#MNEM.UNIT      DATA TYPE    INFORMATION
#----------   ------------   ------------------------------
 STRT.F            0.0000:   START DEPTH
 STOP.F         2870.0000:   STOP DEPTH
 STEP.F            0.5000:   STEP LENGTH
 NULL.          -999.2500:   NO VALUE
 COMP.  FENIX AND SCISSON:   COMPANY
 WELL.  FENIX "A" #304-28:   WELL
 FLD .             NPR #3:   FIELD
 LOC .      S28 T39N R78W:   LOCATION
 CNTY.            NATRONA:   COUNTY
 STAT.            WYOMING:   STATE
 CTRY. UNITED STATES OF AMERICA:   COUNTRY
 SRVC.         MCCULLOUGH:   SERVICE COMPANY
 DATE.        21-DEC-1977:   LOGDATE
 API .     49025105600000:   API NUMBER
~CURVE INFORMATION
#MNEM.UNIT       API CODE    CURVE DESCRIPTION
#----------   ------------   ------------------------------
 DEPT.F                  :   
 GR  .GAPI   30 310 01 00:   GAMMA RAY
 CALI.IN     70 280 01 00:   CALIPER
~PARAMETER INFORMATION
#MNEM.UNIT          VALUE    DESCRIPTION
#----------   ------------   ------------------------------
 EKB .F            0.0000:   Kelly bushing
 EGL .F            0.0000:   Ground level
 EDF .F         5074.7000:   Drilling floor
 EPD .F         5074.7000:   Permanent datum
 TD  .F         2868.0000:   Total depth
 DATE.        21-DEC-1977:   Date logged
 CLNT.            A2DTECH:   Client Code
 DL  .F              2868:   Depth logger
 BLI .F              2866:   Bottom log interval
 TLI .F              2000:   Top log interval
 CS1 .IN             6.25:   Casing size
 CBD1.     6.625" @ 2935':   Casing driller 1
 BS1 .IN             6.25:   Bit size
 BSD1.F              2868:   Depth drilled with bit1
 DFT .              WATER:   Type fluid in hole
 TCS .HRS             1.5:   Time Circ. stopped
 ENGI.             CONLEY:   Recorded By
 WITN.           HARRISON:   Witnessed by
 ORIG.           5" PRINT:   Origin of data
 UWI .     49025105600000:   Unique Well ID
 DICO. A2D TECHNOLOGIES, INC.:   Digitizing Company
~OTHER INFORMATION
~A    DEPT      GR         CALI 
# ...
  729.0000  -999.2500     6.6470
  729.5000  -999.2500     6.6370
  730.0000  -999.2500     6.6390
  730.5000  -999.2500     6.6380
  731.0000  -999.2500     6.6280
  731.5000  -999.2500     6.7760
  732.0000  -999.2500     6.6720
  732.5000  -999.2500     6.7030
  733.0000  -999.2500     6.6970
  733.5000  -999.2500     6.6860
  734.0000  -999.2500     6.6900
  734.5000  -999.2500     6.6880
  735.0000  -999.2500     6.6790
  735.5000  -999.2500     6.6750
  736.0000  -999.2500     6.6710
  736.5000  -999.2500     6.6660
  737.0000  -999.2500     6.6590
  737.5000  -999.2500     6.6580
  738.0000  -999.2500     6.6540
  738.5000  -999.2500     6.6540
  739.0000  -999.2500     6.6550
  739.5000  -999.2500     6.6560
  740.0000  -999.2500     6.6570
  740.5000  -999.2500     6.6620
  741.0000  -999.2500     6.6660
  741.5000  -999.2500     6.6660
  742.0000  -999.2500     6.6670
  742.5000  -999.2500     6.6630
  743.0000  -999.2500     6.6580
  743.5000  -999.2500     6.6530
  744.0000  -999.2500     6.6520
  744.5000  -999.2500     6.6500
  745.0000  -999.2500     6.6490
  745.5000  -999.2500     6.6490
  746.0000  -999.2500     6.6490
  746.5000  -999.2500     6.6490
  747.0000  -999.2500     6.6490
  747.5000  -999.2500     6.6490
  748.0000  -999.2500     6.6490
  748.5000  -999.2500     6.6510
  749.0000  -999.2500     6.6530
  749.5000  -999.2500     6.6500
  750.0000  -999.2500     6.6470
  750.5000  -999.2500     6.6480
  751.0000  -999.2500     6.6470
  751.5000  -999.2500     6.6450
  752.0000  -999.2500     6.6430
  752.5000  -999.2500     6.6450
  753.0000  -999.2500     6.6570
  753.5000  -999.2500     6.8240
  754.0000  -999.2500     6.7590
  754.5000  -999.2500     6.7530
  755.0000  -999.2500     6.7410
  755.5000  -999.2500     6.7380
  756.0000  -999.2500     6.7340
  756.5000  -999.2500     6.7200
  757.0000  -999.2500     6.7130
  757.5000  -999.2500     6.7120
  758.0000  -999.2500     6.7100
  758.5000  -999.2500     6.7050
  759.0000  -999.2500     6.6990
  759.5000  -999.2500     6.6990
  760.0000  -999.2500     6.6990
  760.5000  -999.2500     6.6990
  761.0000  -999.2500     6.6950
  761.5000  -999.2500     6.6910
  762.0000  -999.2500     6.6900
  762.5000  -999.2500     6.6890
  763.0000  -999.2500     6.6870
  763.5000  -999.2500     6.6850
  764.0000  -999.2500     6.6840
  764.5000  -999.2500     6.6820
  765.0000  -999.2500     6.6810
  765.5000  -999.2500     6.6820
  766.0000  -999.2500     6.6830
  766.5000  -999.2500     6.6840
  767.0000  -999.2500     6.6850
  767.5000  -999.2500     6.6850
  768.0000  -999.2500     6.6850
  768.5000  -999.2500     6.6860
  769.0000  -999.2500     6.6860
  769.5000  -999.2500     6.6870
  770.0000  -999.2500     6.6880
  770.5000  -999.2500     6.6930
  771.0000  -999.2500     6.6950
  771.5000  -999.2500     6.6960
  772.0000  -999.2500     6.7000
  772.5000  -999.2500     6.7010
  773.0000  -999.2500     6.7010
  773.5000  -999.2500     6.7010
  774.0000  -999.2500     6.7030
  774.5000  -999.2500     6.7270
  775.0000  -999.2500     6.8180
  775.5000  -999.2500     6.7640
  776.0000  -999.2500     6.7670
  776.5000  -999.2500     6.7670
  777.0000  -999.2500     6.7660
  777.5000  -999.2500     6.7660
  778.0000  -999.2500     6.7660
  778.5000  -999.2500     6.7650
  779.0000  -999.2500     6.7650
  779.5000  -999.2500     6.7650
  780.0000  -999.2500     6.7660
  780.5000  -999.2500     6.7660
  781.0000  -999.2500     6.7670
  781.5000  -999.2500     6.7680
  782.0000  -999.2500     6.7680
  782.5000  -999.2500     6.7690
  783.0000  -999.2500     6.7700
  783.5000  -999.2500     6.7700
  784.0000  -999.2500     6.7710
  784.5000  -999.2500     6.7710
  785.0000  -999.2500     6.7720
  785.5000  -999.2500     6.7730
  786.0000  -999.2500     6.7730
  786.5000  -999.2500     6.7730
  787.0000  -999.2500     6.7730
  787.5000  -999.2500     6.7730
  788.0000  -999.2500     6.7740
  788.5000  -999.2500     6.7790
  789.0000  -999.2500     6.7850
  789.5000  -999.2500     6.7910
  790.0000  -999.2500     6.7970
  790.5000  -999.2500     6.8030
  791.0000  -999.2500     6.8090
  791.5000  -999.2500     6.8150
  792.0000  -999.2500     6.8230
  792.5000  -999.2500     6.8280
  793.0000  -999.2500     6.8330
  793.5000  -999.2500     6.8380
  794.0000  -999.2500     6.8430
  794.5000  -999.2500     6.8460
  795.0000  -999.2500     6.8590
  795.5000  -999.2500     6.8600
  796.0000  -999.2500     6.9430
  796.5000  -999.2500     6.6900
  797.0000  -999.2500     6.6960
  797.5000  -999.2500     6.6910
  798.0000  -999.2500     6.6850
  798.5000  -999.2500     6.6840
  799.0000  -999.2500     6.6830
  799.5000  -999.2500     6.6810
  800.0000  -999.2500     6.6780
  800.5000  -999.2500     6.6770
  801.0000  -999.2500     6.6760
  801.5000  -999.2500     6.6720
  802.0000  -999.2500     6.6700
  802.5000  -999.2500     6.6700
  803.0000  -999.2500     6.6710
  803.5000  -999.2500     6.6710
  804.0000  -999.2500     6.6700
  804.5000  -999.2500     6.6660
  805.0000  -999.2500     6.6610
  805.5000  -999.2500     6.6580
  806.0000  -999.2500     6.6570
  806.5000  -999.2500     6.6570
  807.0000  -999.2500     6.6580
  807.5000  -999.2500     6.6590
  808.0000  -999.2500     6.6600
  808.5000  -999.2500     6.6600
  809.0000  -999.2500     6.6600
  809.5000  -999.2500     6.6600
  810.0000  -999.2500     6.6600
  810.5000  -999.2500     6.6610
  811.0000  -999.2500     6.6620
  811.5000  -999.2500     6.6620
  812.0000  -999.2500     6.6630
  812.5000  -999.2500     6.6630
  813.0000  -999.2500     6.6590
  813.5000  -999.2500     6.6560
  814.0000  -999.2500     6.6520
  814.5000  -999.2500     6.6480
  815.0000  -999.2500     6.6460
  815.5000  -999.2500     6.6450
  816.0000  -999.2500     6.6520
  816.5000  -999.2500     6.6690
  817.0000  -999.2500     6.8600
  817.5000  -999.2500     6.6330
  818.0000  -999.2500     6.6580
  818.5000  -999.2500     6.6500
  819.0000  -999.2500     6.6490
  819.5000  -999.2500     6.6490
  820.0000  -999.2500     6.6500
  820.5000  -999.2500     6.6500
  821.0000  -999.2500     6.6510
  821.5000  -999.2500     6.6560
  822.0000  -999.2500     6.6530
  822.5000  -999.2500     6.6420
  823.0000  -999.2500     6.6360
  823.5000  -999.2500     6.6350
  824.0000  -999.2500     6.6330
  824.5000  -999.2500     6.6280
  825.0000  -999.2500     6.6280
  825.5000  -999.2500     6.6270
  826.0000  -999.2500     6.6250
  826.5000  -999.2500     6.6250
  827.0000  -999.2500     6.6280
  827.5000  -999.2500     6.6310
  828.0000  -999.2500     6.6310
  828.5000  -999.2500     6.6340
  829.0000  -999.2500     6.6390
  829.5000  -999.2500     6.6380
  830.0000  -999.2500     6.6380
  830.5000  -999.2500     6.6380
  831.0000  -999.2500     6.6380
  831.5000  -999.2500     6.6390
  832.0000  -999.2500     6.6400
  832.5000  -999.2500     6.6400
  833.0000  -999.2500     6.6400
  833.5000  -999.2500     6.6390
  834.0000  -999.2500     6.6380
  834.5000  -999.2500     6.6390
  835.0000  -999.2500     6.6490
  835.5000  -999.2500     6.6520
  836.0000  -999.2500     6.6530
  836.5000  -999.2500     6.6530
  837.0000  -999.2500     6.6540
  837.5000  -999.2500     6.6520
  838.0000  -999.2500     6.6500
  838.5000  -999.2500     6.7930
  839.0000  -999.2500     6.7240
  839.5000  -999.2500     6.7260
  840.0000  -999.2500     6.7260
  840.5000  -999.2500     6.7260
  841.0000  -999.2500     6.7270
  841.5000  -999.2500     6.7270
  842.0000  -999.2500     6.7250
  842.5000  -999.2500     6.7210
  843.0000  -999.2500     6.7160
  843.5000  -999.2500     6.7110
  844.0000  -999.2500     6.7050
  844.5000  -999.2500     6.7000
  845.0000  -999.2500     6.6940
  845.5000  -999.2500     6.6940
  846.0000  -999.2500     6.6940
  846.5000  -999.2500     6.6940
  847.0000  -999.2500     6.6940
  847.5000  -999.2500     6.6940
  848.0000  -999.2500     6.6940
  848.5000  -999.2500     6.6940
  849.0000  -999.2500     6.6940
  849.5000  -999.2500     6.6940
  850.0000  -999.2500     6.6940
