~VERSION INFORMATION
 VERS.                2.0:   CWLS LOG ASCII STANDARD - VERSION 2.0
 WRAP.                 NO:   ONE LINE PER DEPTH STEP
~WELL INFORMATION
#MNEM.UNIT      DATA TYPE    INFORMATION
#----------   ------------   ------------------------------
 STRT.F           36.0000:   START DEPTH
 STOP.F         4960.0000:   STOP DEPTH
 STEP.F            0.5000:   STEP LENGTH
 NULL.          -999.2500:   NO VALUE
 COMP.   TESORO PETROLEUM:   COMPANY
 WELL. TESORO NPR 3 "DX" #55-23:   WELL
 FLD .        TEAPOT DOME:   FIELD
 LOC .      S23 T38N R78W:   LOCATION
 CNTY.            NATRONA:   COUNTY
 STAT.            WYOMING:   STATE
 CTRY. UNITED STATES OF AMERICA:   COUNTRY
 SRVC.           BIRDWELL:   SERVICE COMPANY
 DATE.        17-AUG-1975:   LOGDATE
 API .     49025102510000:   API NUMBER
~CURVE INFORMATION
#MNEM.UNIT       API CODE    CURVE DESCRIPTION
#----------   ------------   ------------------------------
 DEPT.F                  :   
 TEND.LBS    45 635 01 00:   TENSION FROM DENSITY LOG
 CALD.IN     45 280 60 00:   CALIPER FROM DENSITY LOG
 CORR.G/C3   45 356 01 00:   DENSITY CORRECTION
 GRD .GAPI   45 310 01 00:   GAMMA RAY FROM DENSITY LOG
 RHOB.G/C3   45 350 01 00:   BULK DENSITY
 SPR .MV     07 010 01 00:   SPONTANEOUS POTENTIAL
 ILM .OHMM   07 120 44 00:   INDUCTION LOG MEDIUM RESISTIVITY
 ILD .OHMM   07 120 46 00:   DEEP INDUCTION RESISTIVITY
 SFL .OHMM   07 220 01 00:   SHALLOW FOCUSED LOG RESISTIVITY
~PARAMETER INFORMATION
#MNEM.UNIT          VALUE    DESCRIPTION
#----------   ------------   ------------------------------
 EKB .F         5371.0000:   Kelly bushing
 EGL .F         5360.0000:   Ground level
 EDF .F            0.0000:   Drilling floor
 TD  .F         4955.0000:   Total depth
 DATE.        17-AUG-1975:   Date logged
 CLNT.            A2DTECH:   Client Code
 SL  . 1980' FSL & 2030' FEL:   Surface Location
 PD  .                 GL:   Permanent Datum
 DD  .F              4955:   Depth driller
 DL  .F              4945:   Depth logger
 BLI .F              4943:   Bottom log interval
 CS1 .IN            8.625:   Casing size
 CBD1.     8.625" @ 1450':   Casing driller 1
 CBL1.F              1457:   Casing logger 1
 BS1 .IN            7.875:   Bit size
 DFT .            KCL/GEL:   Type fluid in hole
 DFD .                9.5:   Density
 DFV .                 53:   Viscosity
 DFPH.                8.5:   pH
 DFL .                7.4:   Fluid loss
 MSS .           FLOWLINE:   Source of sample
 RMS .OHMM            1.2:   Rm
 MST .F                72:   Rm Meas. temp.
 RMF .OHMM            .94:   Rmf
 MFST.F                74:   Rmf Meas. temp.
 MFSS.               MEAS:   Source Rmf.
 RMB .OHMM            .71:   Rm. at BHT
 BHT .F               121:   BHT.
 TCS .HRS               4:   Time Circ. stopped
 MRT .F               121:   Maximum recorded temp.
 LUN .               6078:   Logging unit number
 LUL .              GLTTE:   Logging unit location
 ENGI.      NORDEN/SUTTON:   Recorded By
 WITN.          UNDERWOOD:   Witnessed by
 ORIG.           5" PRINT:   Origin of data
 UWI .     49025102510000:   Unique Well ID
 DICO. A2D TECHNOLOGIES, INC.:   Digitizing Company
 DAPD.F                11:   Feet Above Permanent Datum
 BSD1.F              5360:   Depth drilled with bit1
 EPD .F              5360:   Elevation Permanent Datum
 LMF .                 KB:   Log Measured From
 DMF .                 KB:   Drilling Measured From
 TLI .F              1457:   Top log interval
~OTHER INFORMATION
~A   DEPT     TEND       CALD       CORR        GRD       RHOB        SPR        ILM        ILD          SFL 
# ...
 4306.5000  -999.2500  -999.2500  -999.2500  -999.2500  -999.2500   -24.9810     3.8350     4.0560     4.5730
 4307.0000  -999.2500  -999.2500  -999.2500  -999.2500  -999.2500   -24.9750     3.9340     4.1100     5.0650
 4307.5000  -999.2500  -999.2500  -999.2500  -999.2500  -999.2500   -24.9680     4.0320     4.1640     5.3160
 4308.0000  -999.2500  -999.2500  -999.2500  -999.2500  -999.2500   -24.9620     4.0920     4.2180     5.1240
 4308.5000  -999.2500  -999.2500  -999.2500  -999.2500  -999.2500   -24.9550     4.1260     4.2730     5.2830
 4309.0000  -999.2500  -999.2500  -999.2500  -999.2500  -999.2500   -24.9490     4.1590     4.3270     5.4650
 4309.5000  -999.2500  -999.2500  -999.2500  -999.2500  -999.2500   -24.9420     4.1930     4.3810     5.4230
 4310.0000  -999.2500  -999.2500  -999.2500  -999.2500  -999.2500   -24.9360     4.2240     4.4350     5.3600
 4310.5000  -999.2500  -999.2500     0.0040  -999.2500  -999.2500   -24.9290     4.2610     4.4890     5.2680
 4311.0000  -999.2500  -999.2500     0.0040  -999.2500  -999.2500   -24.9230     4.3030     4.5460     5.3820
 4311.5000  2482.5520  -999.2500     0.0040  -999.2500  -999.2500   -24.9160     4.3440     4.5710     5.5160
 4312.0000  2478.3391  -999.2500     0.0030  -999.2500     2.5340   -24.9100     4.3860     4.5970     5.3830
 4312.5000  2472.7871     8.7920     0.0070    67.0320     2.5370   -24.9030     4.4270     4.6230     5.2190
 4313.0000  2468.6221     8.8350     0.0110    67.0320     2.5410   -24.8970     4.4690     4.6490     5.2700
 4313.5000  2462.6121     8.8780     0.0170    66.4340     2.5440   -24.8900     4.5100     4.6740     5.3530
 4314.0000  2451.1470     8.8420     0.0250    66.3250     2.5480   -24.8840     4.5520     4.7470     5.4370
 4314.5000  2448.0310     8.7960     0.0330    66.5120     2.5500   -24.8770     4.5930     4.8170     5.5200
 4315.0000  2464.6890     8.7490     0.0390    66.7710     2.5500   -24.8710     4.6310     4.8940     5.6040
 4315.5000  2482.5520     8.7130     0.0390    66.4790     2.5480   -24.8640     4.5940     4.8680     5.6870
 4316.0000  2489.5061     8.6990     0.0380    64.9950     2.5380   -24.8580     4.5210     4.8490     5.7750
 4316.5000  2497.0029     8.6850     0.0360    64.1220     2.5280   -24.8510     4.4480     4.8230     5.6600
 4317.0000  2504.4990     8.6650     0.0350    65.5850     2.5180   -24.8450     4.3750     4.7880     5.5050
 4317.5000  2511.9951     8.6410     0.0410    67.1530     2.5140   -24.8380     4.3020     4.7540     5.3500
 4318.0000  2519.4919     8.6230     0.0470    68.1190     2.5170   -24.8320     4.2630     4.7190     5.1950
 4318.5000  2526.9880     8.6860     0.0530    68.9080     2.5220   -24.8250     4.2770     4.6840     5.0400
 4319.0000  2534.4839     8.7500     0.0580    69.5300     2.5270   -24.8190     4.2930     4.6490     4.8940
 4319.5000  2542.3730     8.8140     0.0610    67.9870     2.5310   -24.8120     4.3020     4.5480     4.9960
 4320.0000  2533.3521     8.8540     0.0630    67.0770     2.5300   -24.8060     4.3420     4.3720     5.2130
 4320.5000  2523.8330     8.8310     0.0640    67.8250     2.5140   -24.8190     3.8790     4.1950     5.4310
 4321.0000  2514.3140     8.8090     0.0630    68.8700     2.4710   -24.9060     3.3650     3.7870     5.6180
 4321.5000  2504.7949     8.7690     0.0630    72.6180     2.4230   -24.9820     2.9240     3.2900     5.3950
 4322.0000  2464.6060     8.7140     0.1260    77.1400     2.3200   -25.3860     2.5070     2.7930     5.0770
 4322.5000  2409.7710     8.6590     0.1090    81.6930     2.2090   -25.9470     1.8450     2.2970     3.9380
 4323.0000  2329.8110     8.6050     0.0750    84.9230     2.1390   -26.5090     1.8740     2.0050     2.7750
 4323.5000  2249.8501     8.5810     0.0510    85.9100     2.2480   -26.9910     2.0330     2.0390     2.3010
 4324.0000  2199.2690     8.7020     0.0620    78.7580     2.4140   -26.8960     2.3060     2.0930     2.5530
 4324.5000  2292.5559     8.8130     0.0530    72.0780     2.4750   -26.6090     2.5800     2.1480     3.5150
 4325.0000  2385.8420     8.7660     0.0030    65.5400     2.4780   -26.3270     2.8110     2.2020     4.5830
 4325.5000  2465.3350     8.7920    -0.0050    62.5190     2.4830   -26.0440     3.1050     2.5490     5.3160
 4326.0000  2480.7119     8.8300     0.0030    63.2040     2.4960   -25.9970     3.3990     3.0170     5.0250
 4326.5000  2496.0891     8.8680     0.0020    64.9060     2.5010   -25.9960     3.6930     3.4860     4.8050
 4327.0000  2497.8269     8.9060     0.0000    66.5950     2.5010   -25.9960     3.9880     3.9540     4.9150
 4327.5000  2489.8311     8.9440    -0.0030    67.2940     2.5010   -25.9960     4.1550     4.2400     5.0590
 4328.0000  2481.8340     8.9880    -0.0050    67.1850     2.4990   -25.9960     4.2340     4.3210     5.1720
 4328.5000  2473.8379     9.0730    -0.0010    68.3670     2.4980   -25.9960     4.2790     4.4030     5.1600
 4329.0000  2465.8420     9.1600     0.0020    69.5510     2.5070   -25.9960     4.3040     4.4730     5.1490
 4329.5000  2472.5410     9.1130     0.0060    69.0990     2.5150   -25.9500     4.3420     4.5100     5.1380
 4330.0000  2489.1990     8.9610     0.0090    68.5420     2.5230   -25.6620     4.3220     4.5470     5.1270
 4330.5000  2505.8569     8.8650     0.0120    68.2460     2.5190   -25.3750     4.2820     4.5840     5.0660
 4331.0000  2522.4331     8.8170     0.0100    68.9550     2.5130   -25.2510     4.2420     4.6310     4.9830
 4331.5000  2511.2720     8.8180     0.0060    69.8510     2.5070   -25.5080     4.1850     4.6140     4.8590
 4332.0000  2500.1660     8.8190     0.0030    69.8530     2.5050   -25.7610     4.2310     4.5910     4.9000
 4332.5000  2489.0610     8.7900     0.0020    69.2590     2.5050   -25.9900     4.3110     4.5690     5.0360
 4333.0000  2477.9551     8.7440     0.0040    68.6770     2.5060   -25.9350     4.3560     4.5460     5.1720
 4333.5000  2466.8491     8.7190     0.0070    68.4260     2.5050   -25.8750     4.3780     4.5790     5.3080
 4334.0000  2471.4431     8.7430     0.0090    69.3540     2.5060   -25.8160     4.4010     4.6110     5.4440
 4334.5000  2485.7209     8.7940     0.0120    69.9020     2.5070   -25.7580     4.4230     4.6430     5.5160
 4335.0000  2500.0000     8.8460     0.0160    69.9690     2.5090   -25.7000     4.4450     4.6760     5.4550
 4335.5000  2514.2791     8.8170     0.0200    69.0240     2.5120   -25.6410     4.4680     4.7080     5.3980
 4336.0000  2510.1841     8.7360     0.0240    68.1290     2.5140   -25.5820     4.4900     4.7400     5.3420
 4336.5000  2482.5520     8.7100     0.0280    67.3350     2.5130   -25.5240     4.5030     4.7590     5.3000
 4337.0000  2486.2380     8.7310     0.0310    66.5470     2.5130   -25.4660     4.4860     4.7420     5.2690
 4337.5000  2489.8069     8.7280     0.0340    66.4050     2.5130   -25.4080     4.4720     4.7280     5.2390
 4338.0000  2493.3770     8.7090     0.0320    67.4930     2.5130   -25.0850     4.4580     4.7140     5.2080
 4338.5000  2496.9470     8.6890     0.0300    68.5480     2.5130   -24.7050     4.4440     4.7010     5.1780
 4339.0000  2500.5161     8.6700     0.0280    69.2490     2.5130   -24.6610     4.4290     4.6870     5.1470
 4339.5000  2487.6201     8.6510     0.0230    68.3590     2.5120   -24.7700     4.4150     4.6730     5.1170
 4340.0000  2454.3040     8.6610     0.0180    70.3830     2.5090   -24.8840     4.4010     4.6590     5.0770
 4340.5000  2442.6721     8.7120     0.0120    70.8280     2.5060   -24.9940     4.3870     4.6450     5.0870
 4341.0000  2442.6721     8.7620     0.0070    70.6180     2.5030   -24.9190     4.3730     4.6310     5.1050
 4341.5000  2454.0750     8.8460     0.0060    70.3930     2.5020   -24.8320     4.3590     4.6360     5.1240
 4342.0000  2479.0630     8.9290     0.0080    70.2970     2.5020   -24.7460     4.3420     4.6410     5.1420
 4342.5000  2457.9829     9.0130     0.0100    70.6340     2.5030   -24.6600     4.3740     4.6470     5.1720
