~VERSION INFORMATION
 VERS.                2.0:   CWLS LOG ASCII STANDARD - VERSION 2.0
 WRAP.                 NO:   ONE LINE PER DEPTH STEP
~WELL INFORMATION
#MNEM.UNIT      DATA TYPE    INFORMATION
#----------   ------------   ------------------------------
 STRT.F          450.5000:   START DEPTH
 STOP.F         3173.5000:   STOP DEPTH
 STEP.F            0.5000:   STEP LENGTH
 NULL.          -999.2500:   NO VALUE
 COMP.    FENIX & SCISSON:   COMPANY
 WELL. FENIX & SCISSONNPR #72-TX-33:   WELL
 FLD .              N.P.R:   FIELD
 LOC .      S33 T39N R78W:   LOCATION
 CNTY.            NATRONA:   COUNTY
 STAT.            WYOMING:   STATE
 CTRY. UNITED STATES OF AMERICA:   COUNTRY
 SRVC.       SCHLUMBERGER:   SERVICE COMPANY
 DATE.        03-SEP-1981:   LOGDATE
 API .     49025108810000:   API NUMBER
~CURVE INFORMATION
#MNEM.UNIT       API CODE    CURVE DESCRIPTION
#----------   ------------   ------------------------------
 DEPT.F                  :   
 CALD.IN     45 280 60 00:   CALIPER FROM DENSITY LOG
 GRD .GAPI   45 310 01 00:   GAMMA RAY FROM DENSITY LOG
 DPHI.DEC    45 890 03 00:   
 RHOB.G/C3   45 350 01 00:   BULK DENSITY
 CORR.G/C3   45 356 01 00:   DENSITY CORRECTION
 SPR .MV     07 010 01 00:   SPONTANEOUS POTENTIAL
 SFL .OHMM   07 220 01 00:   SHALLOW FOCUSED LOG RESISTIVITY
 ILD .OHMM   07 120 46 00:   DEEP INDUCTION RESISTIVITY
 ILM .OHMM   07 120 44 00:   INDUCTION LOG MEDIUM RESISTIVITY
 TENR.LBS    07 635 01 00:   TENSION FROM RESISTIVITY
~PARAMETER INFORMATION
#MNEM.UNIT          VALUE    DESCRIPTION
#----------   ------------   ------------------------------
 EKB .F         5115.0000:   Kelly bushing
 EGL .F         5105.0000:   Ground level
 EDF .F            0.0000:   Drilling floor
 TD  .F         3162.0000:   Total depth
 DATE.        03-SEP-1981:   Date logged
 CLNT.            A2DTECH:   Client Code
 CTRY.                USA:   Country
 SL  . 808' FNL & 954' FEL:   Surface Location
 PD  .                 GL:   Permanent Datum
 EPD .F              5105:   Elevation Permanent Datum
 LMF .                 KB:   Log Measured From
 DMF .                 KB:   Drilling Measured From
 DAPD.F                10:   Feet Above Permanent Datum
 DD  .F              3162:   Depth driller
 DL  .F              3162:   Depth logger
 BLI .F              3158:   Bottom log interval
 TLI .F              1612:   Top log interval
 CS1 .IN            9.625:   Casing size
 CBD1.      9.625" @ 480':   Casing driller 1
 BS1 .IN            7.875:   Bit size
 BSD1.F              3162:   Depth drilled with bit1
 DFT .              WATER:   Type fluid in hole
 MSS .               TANK:   Source of sample
 RMS .OHMM            6.3:   Rm
 MST .F                73:   Rm Meas. temp.
 RMF .OHMM            6.3:   Rmf
 MFST.F                73:   Rmf Meas. temp.
 TCS .HRS            2200:   Time Circ. stopped
 TLAB.HRS            0300:   Time logger at bottom
 MRT .F               100:   Maximum recorded temp.
 LUN .               8039:   Logging unit number
 LUL .               CSPR:   Logging unit location
 ENGI.           C. PEARR:   Recorded By
 WITN.           R. SCOTT:   Witnessed by
 ORIG.         2.5" PRINT:   Origin of data
 UWI .     49025108810000:   Unique Well ID
 DICO. A2D TECHNOLOGIES, INC.:   Digitizing Company
~OTHER INFORMATION
~A   DEPT     CALD         GRD      DPHI       RHOB       CORR        SPR        SFL        ILD        ILM       TENR   
# ...
 2762.0000    10.4758   123.9354     0.0984     2.5071     0.0175   -22.5827     4.6672     3.0647     2.6992   585.5082
 2762.5000    10.4758   145.5307     0.0918     2.5385     0.1053   -22.5744     4.1869     2.3777     2.4213   585.2735
 2763.0000    10.5536   150.7837     0.0852     2.5404     0.1931   -22.9586     2.4753     2.0199     2.2522   584.8507
 2763.5000    10.7093   160.5058     0.0807     2.5385     0.2486   -22.9504     1.9558     1.8453     2.0206   584.5691
 2764.0000    11.1920   171.5953     0.1520     2.2683     0.2447   -22.9449     1.7230     1.8125     1.7799   584.3343
 2764.5000    11.6747   178.0156     0.2976     1.9614     0.1687   -22.5468     1.5459     1.8131     1.6559   583.9821
 2765.0000    12.3824   164.3414     0.3008     1.8845     0.0927   -22.1459     2.1433     1.9857     1.7489   583.7473
 2765.5000    11.9069   156.6288     0.3008     1.8185     0.0255   -21.7478     3.0263     2.2146     2.3816   583.5125
 2766.0000    11.4313   150.2000     0.2710     1.9256    -0.0196   -20.9542     3.8314     2.8050     3.4246   583.1603
 2766.5000    10.9558   123.3518     0.2108     2.0000    -0.0156   -20.5532     8.6680     3.1855     4.3371   582.8081
 2767.0000    10.3980   109.6333     0.1505     2.4602    -0.0117   -20.5505     9.8445     4.0343     4.6646   582.5733
 2767.5000    10.3591    98.8381     0.0955     2.5288     0.0099   -20.5393     9.6697     4.7515     5.1092   582.1881
 2768.0000    10.3591    93.5852     0.0866     2.5445     0.0138   -20.5337     8.5196     5.4950     5.3962   581.9864
 2768.5000    10.3591    91.8342     0.0759     2.5523     0.0236   -20.5253     7.9252     5.8043     5.7000   581.7516
 2769.0000    10.3591    93.0016     0.0787     2.5464     0.0256   -20.1242     7.1104     5.9125     5.7018   581.3283
 2769.5000    10.3591    95.9198     0.0815     2.5386     0.0236   -20.1186     6.6142     5.7030     5.7030   581.0472
 2770.0000    10.3591    97.0872     0.0853     2.5367     0.0217   -20.1103     6.1534     5.5015     5.4026   580.6950
 2770.5000    10.3591    98.8381     0.0786     2.5504     0.0315   -20.1047     6.0441     5.5021     5.2112   580.3930
 2771.0000    10.3591   100.0054     0.0719     2.5661     0.0433   -19.7035     5.9374     5.1186     4.9380   580.1080
 2771.5000    10.3591   100.5891     0.0673     2.5661     0.0450   -19.6960     5.8320     4.9372     4.8485   579.8732
 2772.0000    10.3591   100.5891     0.0714     2.5622     0.0433   -19.6923     5.7290     4.6772     4.6772   579.5326
 2772.5000    10.3591   101.7564     0.0775     2.5543     0.0446   -19.6866     5.5261     4.4308     4.3432   579.2862
 2773.0000    10.3591   104.6747     0.0767     2.5563     0.0453   -19.6782     5.3310     4.2738     4.1970   578.9341
 2773.5000    10.3591   109.9276     0.0720     2.5563     0.0453   -20.0627     5.0498     4.1228     3.9759   578.6237
 2774.0000    10.3591   116.3479     0.0743     2.5367     0.0375   -19.8571     4.6980     3.6983     3.4394   578.3471
 2774.5000    10.3591   126.8537     0.0867     2.5172     0.0297   -20.2416     4.2145     2.9221     2.8180   578.1123
 2775.0000    10.3591   140.6615     0.0978     2.5015     0.0336   -20.6261     3.7808     2.5741     2.5741   577.9949
 2775.5000    10.3591   151.1673     0.1041     2.4996     0.0840   -21.0134     2.8813     2.1870     2.2678   577.4407
 2776.0000    10.3591   162.7075     0.1096     2.4917     0.1343   -21.7882     2.1955     2.1481     2.1481   566.3995
 2776.5000    10.3591   174.2477     0.1229     2.4702     0.1746   -21.7829     2.0425     2.0720     2.0723   566.1717
 2777.0000    10.4369   185.7879     0.1370     2.3683     0.1923   -21.7771     1.7996     1.9629     2.0727   565.9309
 2777.5000    10.4758   195.5253     0.1933     2.2792     0.1168   -21.7743     2.3203     2.3973     2.3542   566.5801
 2778.0000    10.4369   173.9300     0.2608     2.2469     0.0413   -21.3702     4.3000     2.5319     2.4417   567.2293
 2778.5000    10.3591   147.6654     0.2029     2.3141    -0.0075   -20.9689     6.0709     2.9821     2.8244   567.8785
 2779.0000    10.2411   129.5720     0.1464     2.3821     0.0062   -20.5731     6.8941     3.2076     3.4491   568.5277
 2779.5000    10.1645   121.9844     0.1020     2.5192     0.0198   -19.7786     7.0226     3.7778     3.8466   569.1769
 2780.0000    10.1256   110.3113     0.0711     2.5420     0.0334   -19.7702     6.7739     4.2904     4.0631   569.8261
 2780.5000    10.1256   112.6459     0.0711     2.5702     0.0471   -19.7618     6.7761     4.6144     4.7849   570.4753
 2781.0000    10.1256   115.5642     0.0631     2.5780     0.0612   -19.7562     6.6557     5.0543     4.8731   571.1245
 2781.5000    10.0867   117.8988     0.0578     2.5839     0.0573   -19.7506     6.5382     5.0559     5.0559   571.7738
 2782.0000    10.0867   118.6825     0.0594     2.5686     0.0436   -19.7450     6.4221     4.9661     4.9661   572.4230
 2782.5000    10.0478   117.5152     0.0725     2.5532     0.0260   -19.7366     6.3087     4.9677     4.9677   573.0722
 2783.0000    10.0867   116.3479     0.0860     2.5379     0.0182   -19.3350     6.3101     4.8794     4.8794   573.7214
 2783.5000    10.0867   116.9315     0.0938     2.5193     0.0221   -19.3294     6.3121     4.8804     4.8799   574.3706
 2784.0000    10.0867   122.1844     0.0931     2.5213     0.0280   -19.3154     6.3135     5.0624     5.0404   575.0198
 2784.5000    10.0867   124.5191     0.0891     2.5232     0.0255   -19.3126     6.7907     5.0641     5.0641   575.6690
 2785.0000    10.0867   125.6864     0.0930     2.5213     0.0241   -19.7030     7.0445     5.0652     5.0652   576.3182
 2785.5000    10.0867   126.8537     0.0930     2.5213     0.0224   -19.6945     7.0459     5.0668     5.0668   576.9674
 2786.0000    10.0867   126.8537     0.0891     2.5272     0.0202   -19.6861     7.0476     5.0679     5.0679   577.6166
 2786.5000    10.0867   126.8537     0.0883     2.5233     0.0151   -20.0766     7.0491     4.9778     5.0695   578.2658
 2787.0000    10.0089   126.8537     0.0915     2.5135     0.0124   -21.2452     6.6773     5.0706     5.0706   578.9150
 2787.5000    10.0089   125.6864     0.0980     2.5116     0.0063   -21.2368     6.6794     5.0723     5.0723   570.4815
 2788.0000     9.9700   125.1027     0.1016     2.5155    -0.0013   -21.6246     6.8039     5.0734     5.1663   570.0155
 2788.5000     9.9700   125.1027     0.0828     2.5370     0.0066   -21.6162     7.0567     5.2626     5.3589   569.7772
 2789.0000     9.9700   126.2700     0.0820     2.5645     0.0183   -21.6079     7.7290     5.3595     5.3168   589.4215
 2789.5000    10.0089   127.4374     0.0664     2.5645     0.0321   -21.6024     8.1646     5.2654     5.2749   588.9245
 2790.0000     9.9700   129.7720     0.0731     2.5508     0.0399   -21.2007     8.1660     5.2665     5.2665   588.5997
 2790.5000     9.9700   130.3556     0.0798     2.5449     0.0419   -20.8017     8.0205     5.2682     5.0805   568.7206
 2791.0000     9.8532   129.1883     0.0859     2.5312     0.0419   -20.4000     7.0666     5.0816     5.0810   568.2510
 2791.5000     9.8143   128.6047     0.1012     2.5077     0.0341   -20.2010     6.1675     4.9021     4.9021   568.0162
 2792.0000     9.8532   126.8537     0.1212     2.4822     0.0125   -20.1954     5.8417     4.9036     4.8155   567.7814
 2792.5000     9.7754   127.4374     0.1212     2.4842     0.0263   -20.2492     5.6351     4.9042     4.6030   584.9877
 2793.0000     9.7754   128.6047     0.1008     2.5019     0.0302   -20.3030     5.5884     4.4808     4.5618   567.0770
 2793.5000     9.7365   129.1883     0.1000     2.5234     0.0420   -20.3569     5.6919     4.4011     4.4268   586.7213
 2794.0000     9.7365   131.5230     0.0859     2.5313     0.0381   -20.4107     6.0650     4.4026     4.4026   586.2661
 2794.5000     9.6976   133.8576     0.0883     2.5313     0.0322   -20.4645     6.0657     4.4035     4.4030   586.0170
 2795.0000     9.6976   135.6086     0.0883     2.5313     0.0264   -20.5184     5.5944     4.4856     4.4856   585.7822
