~VERSION INFORMATION
 VERS.                2.0:   CWLS LOG ASCII STANDARD - VERSION 2.0
 WRAP.                 NO:   ONE LINE PER DEPTH STEP
~WELL INFORMATION
#MNEM.UNIT      DATA TYPE    INFORMATION
#----------   ------------   ------------------------------
 STRT.F            0.0000:   START DEPTH
 STOP.F         4044.0000:   STOP DEPTH
 STEP.F            0.5000:   STEP LENGTH
 NULL.          -999.2500:   NO VALUE
 COMP. LAWRENCE-ALLISON & ASSOC.:   COMPANY
 WELL. LAWRENCE "X" #24-34:   WELL
 FLD .           N P R #3:   FIELD
 LOC .      S34 T39N R78W:   LOCATION
 CNTY.            NATRONA:   COUNTY
 STAT.            WYOMING:   STATE
 CTRY. UNITED STATES OF AMERICA:   COUNTRY
 SRVC.      DRESSER ATLAS:   SERVICE COMPANY
 DATE.        29-MAR-1984:   LOGDATE
 API .     49025109660000:   API NUMBER
~CURVE INFORMATION
#MNEM.UNIT       API CODE    CURVE DESCRIPTION
#----------   ------------   ------------------------------
 DEPT.F                  :   
 DT  .US/F   60 520 00 00:   DELTA TIME
 TENS.LBS    60 635 01 00:   TENSION FROM SONIC
 GRR .GAPI   07 310 01 00:   GAMMA RAY FROM RESISTIVITY
 SPR .MV     07 010 01 00:   SPONTANEOUS POTENTIAL
 CALR.IN     07 280 01 00:   CALIPER FROM RESISTIVITY
 TENR.LBS    07 635 01 00:   TENSION FROM RESISTIVITY
 RSFL.OHMM   07 221 01 00:   AMPPLIFIED SHALLOW FOCUSED LOG RESISTIVITY
 RILD.OHMM   07 120 46 00:   DEEP INDUCTION RESISTIVITY
 RILM.OHMM   07 120 44 00:   INDUCTION LOG MEDIUM RESISTIVITY
 RHOB.G/C3   45 350 01 00:   BULK DENSITY
 DRHO.G/C3   45 356 01 00:   DENSITY CORRECTION
 TEND.LBS    45 635 01 00:   TENSION FROM DENSITY LOG
 NPHI.DEC    42 890 03 00:   NEUTRON POROSITY SANDSTONE
~PARAMETER INFORMATION
#MNEM.UNIT          VALUE    DESCRIPTION
#----------   ------------   ------------------------------
 EKB .F         5101.0000:   Kelly bushing
 EGL .F         5089.0000:   Ground level
 EDF .F         5100.0000:   Drilling floor
 TD  .F         4050.0000:   Total depth
 DATE.        29-MAR-1984:   Date logged
 CLNT.            A2DTECH:   Client Code
 SL  . 2415' FNL & 839' FWL:   Surface Location
 PD  .                 GL:   Permanent Datum
 EPD .F              5089:   Elevation Permanent Datum
 LMF .                 KB:   Log Measured From
 DMF .                 KB:   Drilling Measured From
 DD  .F              4050:   Depth driller
 DL  .F              4043:   Depth logger
 BLI .F              4041:   Bottom log interval
 CS1 .IN            8.625:   Casing size
 CBD1.       8.625 @ 673':   Casing driller 1
 CBL1.F               671:   Casing logger 1
 BS1 .IN            7.875:   Bit size
 DFT .            GEL-KCL:   Type fluid in hole
 DFD .                8.9:   Density
 DFV .                 45:   Viscosity
 DFPH.                  8:   pH
 DFL .               12.8:   Fluid loss
 MSS .           MUD TANK:   Source of sample
 RMS .OHMM           0.46:   Rm
 MST .F                71:   Rm Meas. temp.
 RMF .OHMM           0.31:   Rmf
 MFST.F                71:   Rmf Meas. temp.
 RMC .OHMM           0.55:   Rmc
 MCST.F                71:   Rmc Meas. temp.
 MFSS.               MEAS:   Source Rmf.
 RMB .OHMM           0.25:   Rm. at BHT
 BHT .F               139:   BHT.
 TCS .HRS               4:   Time Circ. stopped
 MRT .F               139:   Maximum recorded temp.
 LUN .               6302:   Logging unit number
 LUL .               CODY:   Logging unit location
 ENGI.              GETTY:   Recorded By
 WITN.           JENNINGS:   Witnessed by
 ORIG.           5" PRINT:   Origin of data
 UWI .     49025109660000:   Unique Well ID
 DICO. A2D TECHNOLOGIES, INC.:   Digitizing Company
 DAPD.                 12:   Feet Above Permanent Datum
 BSD1.               4050:   Depth drilled with bit1
 MCSS.               MEAS:   Source Rmc.
~OTHER INFORMATION
~A  DEPTH       DT       TENS        GRR        SPR       CALR       TENR       RSFL       RILD       RILM       RHOB       DRHO       TEND       NPHI
# ...
 3588.0000    82.2220  -153.9430   113.9830   -28.4860     8.1010  -177.5520     3.3960     4.0550     3.7590     2.5120     0.0150  -159.7820     0.2510
 3588.5000    84.4360  -148.4500   109.0420   -28.1210     8.1150  -182.3580     3.3650     4.2790     4.1990     2.4710     0.0130  -150.1440     0.2430
 3589.0000    88.4520  -142.7540   104.3010   -27.7580     8.1290  -182.1300     4.5930     4.5000     4.6390     2.4290     0.0130  -140.5060     0.2350
 3589.5000    92.4670  -137.0580    99.5330   -27.3960     8.1120  -178.9260     6.0030     5.2980     5.3040     2.4440     0.0120  -130.8680     0.2270
 3590.0000    93.0330  -131.3620    94.1680   -27.0360     8.0860  -175.7220     7.4130     6.2080     6.0970     2.4710     0.0070  -121.2300     0.2170
 3590.5000    90.6700  -125.6660    86.1760   -26.6750     8.0600  -174.8980     8.4630     7.1170     6.8890     2.4980     0.0020  -111.5920     0.1970
 3591.0000    87.7390  -125.4970    78.8900   -26.3140     8.0340  -176.7970     9.0480     8.0270     7.6820     2.5170     0.0300  -114.1690     0.1810
 3591.5000    83.8710  -129.7690    76.5080   -25.9530     8.0080  -178.6950     9.3820     8.9360     8.5550     2.5350     0.0600  -120.0470     0.1730
 3592.0000    80.2930  -134.0410    73.9610   -25.5800     7.9850  -180.5940     9.8410     9.6010     8.4760     2.5520     0.0680  -125.9250     0.1710
 3592.5000    78.1450  -138.3130    71.8330   -25.5000     7.9720  -182.4930     9.6460     9.7490     8.3920     2.5590     0.0580  -131.8040     0.1680
 3593.0000    76.5310  -142.5850    73.3150   -25.4940     7.9580  -184.1440     9.2770     9.0910     7.9290     2.5660     0.0480  -137.6820     0.1640
 3593.5000    75.3340  -143.8320    78.6800   -25.7170     7.9440  -184.1440     8.3980     8.1810     7.2100     2.5720     0.0520  -133.6260     0.1700
 3594.0000    73.8220  -143.8320    91.1780   -26.0000     7.9320  -184.1440     7.5190     7.2710     6.4900     2.5710     0.0850  -123.4370     0.1780
 3594.5000    74.5760  -143.8320   104.2270   -26.2850     7.9120  -184.2380     6.6400     6.3610     5.7710     2.5630     0.1010  -113.2480     0.1860
 3595.0000    75.6020  -148.9550   117.3230   -26.5690     7.9210  -184.8080     5.7610     5.4510     5.0510     2.5580     0.0690  -109.5420     0.1900
 3595.5000    77.2980  -155.7900   126.6940   -26.8530     7.9290  -185.3770     5.2830     4.7670     4.4750     2.5580     0.0440  -114.5860     0.1930
 3596.0000    79.2020  -162.6260   131.4370   -27.1350     7.9360  -185.9460     4.9180     4.2440     4.0010     2.5640     0.0250  -119.4380     0.2010
 3596.5000    81.1020  -159.7070   124.9090   -27.2680     7.9440  -186.5150     4.5520     3.7200     3.5260     2.5700     0.0340  -124.2900     0.2160
 3597.0000    82.3500  -152.3830   114.1020   -27.1860     7.9520  -187.0840     4.1870     3.2110     3.0650     2.5760     0.0460  -129.1420     0.2320
 3597.5000    84.0950  -145.0600   103.1210   -27.1070     7.9600  -187.6540     3.7530     3.0750     3.0230     2.5910     0.0800  -128.3220     0.2470
 3598.0000    86.1460  -137.7370    96.3570   -27.0270     7.9670  -188.2230     3.2310     2.9430     2.9800     2.6130     0.1970  -126.1070     0.2440
 3598.5000    88.1960  -137.0290    91.6970   -26.9470     7.9910  -188.7920     2.8450     2.7770     2.7970     2.5850     0.2600  -123.8920     0.2390
 3599.0000    91.0180  -144.3520    87.4400   -26.8680     8.0220  -189.3610     3.3130     2.5700     2.6140     2.5690     0.1850  -121.6770     0.2350
 3599.5000    93.3370  -151.6760    83.4480   -26.7900     8.0530  -189.9300     3.6850     2.3640     2.4320     2.5590     0.1050  -119.6700     0.2370
 3600.0000    92.2520  -143.8920    80.7300   -26.7010     8.0840  -190.5000     4.0930     2.1570     2.2490     2.5610     0.0370  -102.9140     0.2450
 3600.5000    90.0510  -133.7210    81.5320   -26.0640     8.1150  -191.0690     3.5040     1.9910     2.0660     2.4110     0.1220   -89.2860     0.2610
 3601.0000    88.2810  -142.0930    85.7220   -25.3540     8.1830  -191.6380     2.7350     1.9530     1.9820     2.3090     0.2020  -106.8320     0.2770
 3601.5000    88.7840  -149.6920    91.1540   -24.6390     8.2840  -192.2070     2.4700     1.9150     1.9400     2.2000     0.3030  -126.0500     0.2930
 3602.0000    92.0940  -157.2900    95.9310   -23.9250     8.3690  -192.7760     2.2950     1.8630     1.9040     2.1430     0.2910  -145.2680     0.3020
 3602.5000    97.0210  -164.0550    95.8220   -24.0570     8.3380  -193.3460     2.4420     1.8050     1.9480     2.1910     0.2310  -148.2210     0.2840
 3603.0000   101.2030  -155.9180    95.8030   -24.2770     8.2660  -193.9150     2.5700     1.7350     1.9860     2.2400     0.1700  -145.7800     0.2700
 3603.5000   102.4370  -146.9790    95.5760   -24.5050     8.1820  -192.1930     2.6990     1.7780     2.0140     2.2910     0.1290  -143.3400     0.2640
 3604.0000   102.3850  -138.0390    94.2030   -24.9750     8.1090  -186.5080     2.8280     1.8540     1.9980     2.4170     0.1010  -140.9000     0.2710
 3604.5000   102.2610  -133.7210    92.8150   -25.4600     8.0550  -180.8230     2.9560     1.9300     1.9950     2.5510     0.0740  -145.5230     0.2780
 3605.0000   101.3660  -133.7210    93.2540   -25.9440     8.0010  -175.1380     3.0080     2.0070     2.1550     2.6350     0.0390  -154.8410     0.2870
 3605.5000    99.9140  -130.6370    94.0680   -26.4290     7.9510  -169.4530     2.8450     2.0740     2.3150     2.6110     0.0940  -164.1590     0.2800
 3606.0000    98.4620  -103.3870    94.9240   -26.8490     7.9600  -163.8800     2.7660     2.1280     2.4730     2.5560     0.1640  -173.4760     0.2740
 3606.5000    97.2850  -107.1910    93.2800   -27.1860     7.9700  -169.0980     3.0900     2.1810     2.4730     2.5040     0.2040  -180.4370     0.2680
 3607.0000    96.6770  -118.8810    92.8670   -27.4810     7.9800  -174.2150     3.5670     2.1910     2.4170     2.5190     0.1120  -173.4970     0.2670
 3607.5000    95.4900  -130.5710    92.5350   -27.7520     7.9900  -179.3310     4.0440     2.1700     2.2900     2.5550     0.0540  -165.4050     0.2650
 3608.0000    93.0030  -126.3200   100.3010   -28.0250     8.0000  -184.1440     4.2100     2.1300     2.1700     2.5790     0.0420  -157.3130     0.2550
 3608.5000    89.7980  -116.1880   105.2610   -28.2970     8.0090  -179.3610     3.2330     2.1000     2.1250     2.5660     0.0240  -150.0530     0.2480
 3609.0000    90.9140  -115.0920   106.1710   -28.5700     8.0190  -174.8470     2.6150     2.0370     2.0700     2.5590    -0.0040  -152.3160     0.2590
 3609.5000    93.4760  -118.0720   105.3800   -28.6570     8.0290  -170.3320     2.6150     1.9730     2.0160     2.5660     0.0350  -154.8160     0.2710
 3610.0000    98.0860  -121.0520   105.2490   -28.5820     8.0390  -165.8170     2.6780     1.9090     1.9610     2.5720     0.0750  -157.3160     0.2830
 3610.5000   101.4680  -123.6100   105.6790   -28.5040     8.0490  -161.3030     2.7400     1.8450     1.9060     2.5620     0.0850  -159.8160     0.2940
 3611.0000   101.9770  -116.7920   106.8750   -28.4250     8.0590  -156.7880     2.7040     1.7510     1.8690     2.5600     0.0950  -162.3160     0.2990
 3611.5000   102.1460  -109.5550   108.3420   -28.3480     8.0680  -154.9870     2.6520     1.7750     1.8990     2.5570     0.1070  -164.8150     0.2990
 3612.0000   102.4750  -103.3870   108.0150   -28.3510     8.0780  -158.7770     2.6010     1.8200     1.9210     2.5470     0.1280  -167.3150     0.2930
 3612.5000   102.8050  -110.7760   105.2890   -28.6640     8.0890  -162.5670     2.5670     1.8660     1.9440     2.5400     0.1430  -169.8150     0.2850
 3613.0000   103.1340  -118.5700   102.0930   -28.9730     8.0770  -166.3570     2.6860     1.9120     1.9710     2.5490     0.0630  -168.2000     0.2800
 3613.5000   103.2570  -126.3630    99.0450   -29.2810     8.0620  -170.1470     2.8200     1.9580     2.0490     2.5640     0.0080  -165.5720     0.2870
