~VERSION INFORMATION
 VERS.                2.0:   CWLS LOG ASCII STANDARD - VERSION 2.0
 WRAP.                 NO:   ONE LINE PER DEPTH STEP
~WELL INFORMATION
#MNEM.UNIT      DATA TYPE    INFORMATION
#----------   ------------   ------------------------------
 STRT.F          172.0000:   START DEPTH
 STOP.F         3376.0000:   STOP DEPTH
 STEP.F            0.5000:   STEP LENGTH
 NULL.          -999.2500:   NO VALUE
 COMP.    FENIX & SCISSON:   COMPANY
 WELL. FENIX NPR 3 "AX" #23-2:   WELL
 FLD .                NPR:   FIELD
 LOC .       S2 T38N R78W:   LOCATION
 CNTY.            NATRONA:   COUNTY
 STAT.            WYOMING:   STATE
 CTRY. UNITED STATES OF AMERICA:   COUNTRY
 SRVC.              WELEX:   SERVICE COMPANY
 DATE.        02-DEC-1980:   LOGDATE
 API .     49025108740000:   API NUMBER
~CURVE INFORMATION
#MNEM.UNIT       API CODE    CURVE DESCRIPTION
#----------   ------------   ------------------------------
 DEPT.F                  :   
 CALD.IN     45 280 60 00:   CALIPER FROM DENSITY LOG
 CORR.G/C3   45 356 01 00:   DENSITY CORRECTION
 GRD .GAPI   45 310 01 00:   GAMMA RAY FROM DENSITY LOG
 RHOB.G/C3   45 350 01 00:   BULK DENSITY
 TENR.LBS    07 635 01 00:   TENSION
 SPR .MV     07 010 01 00:   SPONTANEOUS POTENTIAL
 SGRD.OHMM   07 220 05 00:   SHALLOW GUARD
 ILD .OHMM   07 120 46 00:   INDUCTION LOG DEEP RESISTIVITY
 ILM .OHMM   07 120 44 00:   INDUCTION LOG MEDIUM RESISTIVITY
~PARAMETER INFORMATION
#MNEM.UNIT          VALUE    DESCRIPTION
#----------   ------------   ------------------------------
 EKB .F         5133.0000:   Kelly bushing
 EGL .F         5123.0000:   Ground level
 EDF .F            0.0000:   Drilling floor
 TD  .F         3375.0000:   Total depth
 DATE.        02-DEC-1980:   Date logged
 CLNT.            A2DTECH:   Client Code
 SL  . 3800' FSL & 827' FWL:   Surface Location
 PD  .                 GL:   Permanent Datum
 EPD .F              5123:   Elevation Permanent Datum
 LMF .                 KB:   Log Measured From
 DMF .                 KB:   Drilling Measured From
 DAPD.F                10:   Feet Above Permanent Datum
 DD  .F              3375:   Depth driller
 DL  .F              3373:   Depth logger
 BLI .F              3371:   Bottom log interval
 TLI .F               181:   Top log interval
 CS1 .IN            8.625:   Casing size
 CBD1.      8.625" @ 181':   Casing driller 1
 CBL1.F               181:   Casing logger 1
 BS1 .IN            7.875:   Bit size
 BSD1.F              3375:   Depth drilled with bit1
 DFT .           CHEM/GEL:   Type fluid in hole
 DFD .                8.8:   Density
 DFV .                 45:   Viscosity
 DFPH.                  9:   pH
 DFL .                 16:   Fluid loss
 MSS .           FLOWLINE:   Source of sample
 RMS .OHMM           1.25:   Rm
 MST .F                64:   Rm Meas. temp.
 RMF .OHMM           1.17:   Rmf
 MFST.F                64:   Rmf Meas. temp.
 RMC .OHMM            1.1:   Rmc
 MCST.F                64:   Rmc Meas. temp.
 MFSS.               MEAS:   Source Rmf.
 MCSS.               MEAS:   Source Rmc.
 RMB .OHMM            .67:   Rm. at BHT
 BHT .F               120:   BHT.
 TCS .HRS               2:   Time Circ. stopped
 MRT .F               120:   Maximum recorded temp.
 LUN .               1892:   Logging unit number
 LUL .             CASPER:   Logging unit location
 ENGI.  PFRIMMER/MONNAHAN:   Recorded By
 WITN.              FIVAS:   Witnessed by
 ORIG.           5" PRINT:   Origin of data
 UWI .     49025108740000:   Unique Well ID
 DICO. A2D TECHNOLOGIES, INC.:   Digitizing Company
~OTHER INFORMATION
~A   DEPT     CALD       CORR         GRD      RHOB       TENR        SPR       SGRD        ILD        ILM   
  172.0000  -999.2500  -999.2500    59.8000  -999.2500  -999.2500  -999.2500  -999.2500  -999.2500  -999.2500
  172.5000  -999.2500  -999.2500    60.3630  -999.2500  -999.2500  -999.2500  -999.2500  -999.2500  -999.2500
  173.0000  -999.2500  -999.2500    61.3740  -999.2500  -999.2500  -999.2500  -999.2500  -999.2500  -999.2500
  173.5000  -999.2500  -999.2500    62.3850  -999.2500  -999.2500  -999.2500  -999.2500  -999.2500  -999.2500
  174.0000  -999.2500  -999.2500    63.1410  -999.2500  -999.2500  -999.2500  -999.2500  -999.2500  -999.2500
  174.5000  -999.2500  -999.2500    64.2390  -999.2500  -999.2500  -999.2500  -999.2500  -999.2500  -999.2500
  175.0000  -999.2500  -999.2500    64.6640  -999.2500  -999.2500  -999.2500  -999.2500  -999.2500  -999.2500
  175.5000  -999.2500  -999.2500    64.7720  -999.2500  -999.2500  -999.2500  -999.2500  -999.2500  -999.2500
  176.0000  -999.2500  -999.2500    64.8680  -999.2500  -999.2500    -0.2000     2.2540     0.8970     0.8970
  176.5000  -999.2500  -999.2500    64.9460  -999.2500  -999.2500    -0.2000     2.2540     0.8970     0.8970
  177.0000  -999.2500  -999.2500    66.5400  -999.2500  -999.2500    -0.2000     2.2540     0.8970     0.8970
  177.5000  -999.2500  -999.2500    69.0780  -999.2500  -999.2500    -0.2000     2.2540     0.8970     0.8970
  178.0000  -999.2500  -999.2500    71.6270  -999.2500  -999.2500    -0.2000     2.2540     0.8970     0.8970
  178.5000  -999.2500  -999.2500    74.1800  -999.2500  -999.2500     0.6000     2.2540     0.8890     0.8890
  179.0000  -999.2500  -999.2500    76.5860  -999.2500  -999.2500    -7.5650     2.2540     1.6400     1.6760
  179.5000  -999.2500  -999.2500    79.7520  -999.2500  -999.2500   -14.7760     2.2020     1.6300     1.6650
  180.0000  -999.2500  -999.2500    83.9430  -999.2500  -999.2500   -25.8350     2.9820     2.5880     2.6690
  180.5000  -999.2500  -999.2500    88.1010  -999.2500  -999.2500   -29.8900     4.1940     3.5370     3.6620
  181.0000  -999.2500  -999.2500    89.1060     2.3050  -999.2500   -31.5490     5.1650     4.3360     4.4980
  181.5000    10.9260  -999.2500    90.1150     2.3090  -999.2500   -32.4000     5.4550     4.8670     5.0500
  182.0000    11.8930     0.0280    91.1110     2.3810  -999.2500   -33.3720     5.6960     5.3580     5.5590
  182.5000    12.6990     0.0300    91.8060     2.4460  -999.2500   -34.0140     5.9380     5.5290     5.7360
  183.0000    12.7430     0.0310    91.8290     2.4580  -999.2500   -34.2520     6.1800     5.6700     5.8830
  183.5000    12.7840     0.0330    93.6730     2.4620  -999.2500   -34.5590     6.3340     5.8120     6.0300
  184.0000    12.8300     0.0340    94.7480     2.4650  -999.2500   -34.8880     6.3590     5.9540     6.1770
  184.5000    12.8780     0.0340    94.1910     2.4690  -999.2500   -34.8590     6.3830     6.0960     6.3250
  185.0000    12.9260     0.0340    94.1900     2.4720  -999.2500   -34.5130     6.4080     6.0350     6.2610
  185.5000    12.9620     0.0330    93.5140     2.4650  -999.2500   -34.2050     6.4420     5.9730     6.1970
  186.0000    12.9980     0.0340    91.7060     2.4400  -999.2500   -33.8920     6.3920     5.9120     6.1340
  186.5000    13.0360     0.0390    90.9520     2.4560   838.3530   -33.5740     6.3090     5.8750     6.0960
  187.0000    13.0940     0.0440    92.7320     2.4800   873.4940   -33.2620     6.2090     5.8040     6.0210
  187.5000    13.1150     0.0490    94.4560     2.5050   860.9440   -32.9500     6.3520     5.7320     5.9470
  188.0000    13.1110     0.0500    95.4300     2.5170   795.6830   -32.6250     6.5300     5.6600     5.8720
  188.5000    13.1070     0.0490    93.4960     2.5100   730.4220   -32.3280     6.7080     5.5590     5.7680
  189.0000    13.1030     0.0490    91.6300     2.4990   665.1610   -31.9900     6.8860     5.5850     5.7950
  189.5000    13.0980     0.0480    89.7670     2.4880   632.5300   -31.7170     7.0640     5.6280     5.8400
  190.0000    13.0940     0.0470    87.9000     2.4800   635.2680   -32.4020     7.0390     5.6630     5.8750
  190.5000    13.0900     0.0460    86.6600     2.4710   639.8320   -32.7740     6.9990     5.6630     5.8750
  191.0000    13.0860     0.0460    88.9740     2.4780   644.3960   -31.8780     6.9590     5.6630     5.8750
  191.5000    13.0820     0.0460    91.2480     2.4920   648.9590   -31.0990     6.9350     5.6370     5.8480
  192.0000    13.0780     0.0460    91.9330     2.5060   652.6100   -28.3640     6.5390     5.6150     5.8260
  192.5000    13.0740     0.0460    92.2180     2.5110   742.9720   -29.2930     6.1430     5.5940     5.8040
  193.0000    13.0700     0.0460    92.4820     2.4930   833.3330   -32.6660     5.9850     5.5590     5.7680
  193.5000    13.0660     0.0460    92.7500     2.5040   831.0380   -33.3000     6.0410     5.5800     5.7900
  194.0000    13.0620     0.0460    93.0190     2.5100   828.1700   -33.2650     6.1110     5.6320     5.8440
  194.5000    13.0580     0.0470    93.2900     2.4850   825.3010   -32.9310     6.1810     5.6850     5.8980
  195.0000    13.0540     0.0490    93.3980     2.4990   822.4330   -32.5460     6.2090     5.7370     5.9520
  195.5000    13.0500     0.0510    93.4010     2.5130   819.5640   -32.2250     6.2090     5.7680     5.9850
  196.0000    13.0450     0.0530    93.4230     2.5130   816.6950   -31.8680     6.2090     5.7680     5.9850
  196.5000    13.0410     0.0560    92.7390     2.5090   813.8270   -31.5230     6.2090     5.7330     5.9480
  197.0000    13.0370     0.0580    91.9310     2.5060   810.9580   -31.1760     6.2090     5.7040     5.9180
  197.5000    13.0410     0.0600    91.0810     2.5030   808.0900   -30.8260     6.2090     5.6740     5.8870
  198.0000    13.0460     0.0600    92.0350     2.5000   805.2210   -30.4760     6.2090     5.5590     5.7680
  198.5000    13.0510     0.0540    93.2490     2.4790   802.3520   -30.1280     6.2630     5.6570     5.8690
  199.0000    13.0570     0.0470    94.3410     2.4560   799.4840   -29.7670     6.3990     5.7780     5.9950
  199.5000    12.9870     0.0410    95.7780     2.4190   796.6150   -29.4330     6.5350     5.9000     6.1210
  200.0000    12.8860     0.0350    98.0190     2.3840   793.1730   -29.0340     6.6700     6.0220     6.2480
  200.5000    12.7820     0.0280   100.2940     2.3560   795.9840   -29.0030     6.8080     6.0960     6.3250
  201.0000    12.6110     0.0270   102.0530     2.3450   799.5120   -28.9950     6.7080     5.9430     6.1660
  201.5000    11.9550     0.0260   103.3260     2.3720   803.0410   -29.0040     6.5720     5.8710     6.0910
  202.0000    11.3360     0.0250   104.6010     2.4030   806.5690   -28.9990     6.4260     5.7990     6.0170
  202.5000    10.6930     0.0250   105.8770     2.4350   810.0980   -29.0000     6.2800     5.7270     5.9420
  203.0000    10.4990     0.0240   107.1380     2.4610   813.2530   -29.0000     6.2090     5.6630     5.8750
  203.5000    10.3690     0.0230   108.3400     2.4560   835.2520   -28.9990     6.2240     5.6630     5.8750
  204.0000    10.3230     0.0220   107.8620     2.4490   837.9960   -29.0010     6.2380     5.6070     5.8180
  204.5000    10.2740     0.0210   105.8140     2.4440   840.7410   -29.0000     6.2510     5.5450     5.7530
  205.0000    10.2260     0.0200   106.0630     2.4380   843.4850   -28.9990     6.2650     5.4830     5.6880
  205.5000    10.1810     0.0190   107.7680     2.4320   846.2290   -29.0060     6.2780     5.4200     5.6240
  206.0000    10.1680     0.0190   109.4820     2.4370   848.9740   -28.9190     6.2920     5.3580     5.5590
  206.5000    10.1550     0.0210   111.1990     2.4480   851.7180   -28.6820     6.3050     5.3340     5.5340
  207.0000    10.1410     0.0220   111.7220     2.4570   854.9870   -28.4560     6.3190     5.3100     5.5090
  207.5000    10.1270     0.0240   110.6330     2.4600   859.1030   -28.2230     6.3250     5.2860     5.4840
  208.0000    10.1130     0.0250   109.5510     2.4660   863.2200   -27.9930     6.1300     5.2610     5.4580
