~VERSION INFORMATION
 VERS.                2.0:   CWLS LOG ASCII STANDARD - VERSION 2.0
 WRAP.                 NO:   ONE LINE PER DEPTH STEP
~WELL INFORMATION
#MNEM.UNIT      DATA TYPE    INFORMATION
#----------   ------------   ------------------------------
 STRT.F            0.0000:   START DEPTH
 STOP.F         2775.5000:   STOP DEPTH
 STEP.F            0.5000:   STEP LENGTH
 NULL.          -999.2500:   NO VALUE
 COMP.          U.S. NAVY:   COMPANY
 WELL.   U.S. "A" #107-29:   WELL
 FLD .        TEAPOT DOME:   FIELD
 LOC .      S29 T39N R78W:   LOCATION
 CNTY.            NATRONA:   COUNTY
 STAT.            WYOMING:   STATE
 CTRY. UNITED STATES OF AMERICA:   COUNTRY
 SRVC.         MCCULLOUGH:   SERVICE COMPANY
 DATE.        07-SEP-1966:   LOGDATE
 API .     49025095920000:   API NUMBER
~CURVE INFORMATION
#MNEM.UNIT       API CODE    CURVE DESCRIPTION
#----------   ------------   ------------------------------
 DEPT.F                  :   
 GR  .GAPI   30 310 01 00:   GAMMA RAY
 CALI.IN     70 280 01 00:   CALIPER
~PARAMETER INFORMATION
#MNEM.UNIT          VALUE    DESCRIPTION
#----------   ------------   ------------------------------
 EKB .F            0.0000:   Kelly bushing
 EGL .F            0.0000:   Ground level
 EDF .F            0.0000:   Drilling floor
 EPD .F            0.0000:   Permanent datum
 TD  .F         2777.5000:   Total depth
 DATE.        07-SEP-1966:   Date logged
 CLNT.            A2DTECH:   Client Code
 PD  .                 GL:   Permanent Datum
 LMF .                 GL:   Log Measured From
 DMF .                 GL:   Drilling Measured From
 DL  .F            2777.5:   Depth logger
 BLI .F              2776:   Bottom log interval
 TLI .F              2200:   Top log interval
 CS1 .IN                5:   Casing size
 CBD1.         5" @ 2722':   Casing driller 1
 DFT .              WATER:   Type fluid in hole
 RMB .OHMM           .053:   Rm. at BHT
 TCS .HRS             1.5:   Time Circ. stopped
 LUN .               1460:   Logging unit number
 ENGI.        FITZSIMMONS:   Recorded By
 WITN.             TUTTLE:   Witnessed by
 ORIG.           5" PRINT:   Origin of data
 UWI .     49025095920000:   Unique Well ID
 DICO. A2D TECHNOLOGIES, INC.:   Digitizing Company
~OTHER INFORMATION
~A    DEPT      GR         CALI 
# ...
 2187.0000  -999.2500     6.6560
 2187.5000  -999.2500     6.6590
 2188.0000  -999.2500     6.6620
 2188.5000  -999.2500     6.6650
 2189.0000  -999.2500     6.6600
 2189.5000  -999.2500     6.6410
 2190.0000  -999.2500     6.6230
 2190.5000  -999.2500     6.6070
 2191.0000  -999.2500     6.6080
 2191.5000  -999.2500     6.6080
 2192.0000  -999.2500     6.6080
 2192.5000  -999.2500     6.6080
 2193.0000  -999.2500     6.6080
 2193.5000  -999.2500     6.6080
 2194.0000  -999.2500     6.6080
 2194.5000  -999.2500     6.6090
 2195.0000  -999.2500     6.6100
 2195.5000  -999.2500     6.6120
 2196.0000  -999.2500     6.6130
 2196.5000  -999.2500     6.6140
 2197.0000  -999.2500     6.6160
 2197.5000  -999.2500     6.6170
 2198.0000  -999.2500     6.6280
 2198.5000  -999.2500     6.6390
 2199.0000  -999.2500     6.6470
 2199.5000    59.3160     6.6460
 2200.0000    57.8230     6.6450
 2200.5000    55.6670     6.6440
 2201.0000    54.1370     6.6430
 2201.5000    53.2890     6.6420
 2202.0000    53.7910     6.6420
 2202.5000    51.9810     6.6410
 2203.0000    49.8530     6.6400
 2203.5000    49.8840     6.6390
 2204.0000    49.9920     6.6380
 2204.5000    50.0870     6.6380
 2205.0000    48.9610     6.6400
 2205.5000    46.5690     6.6430
 2206.0000    47.4700     6.6450
 2206.5000    49.0140     6.6480
 2207.0000    50.5370     6.6520
 2207.5000    50.4850     6.6560
 2208.0000    50.4070     6.6600
 2208.5000    51.1420     6.6630
 2209.0000    54.4810     6.6670
 2209.5000    55.3500     6.6710
 2210.0000    54.9600     6.6750
 2210.5000    53.4610     6.6780
 2211.0000    52.3680     6.6820
 2211.5000    52.3260     6.6860
 2212.0000    52.2700     6.6820
 2212.5000    52.4010     6.6750
 2213.0000    53.4460     6.6690
 2213.5000    55.7960     6.6620
 2214.0000    56.1720     6.6570
 2214.5000    56.4080     6.6560
 2215.0000    59.3900     6.6540
 2215.5000    61.6700     6.6530
 2216.0000    63.4710     6.6520
 2216.5000    64.5820     6.6510
 2217.0000    63.1130     6.6490
 2217.5000    60.9800     6.6480
 2218.0000    60.8600     6.6470
 2218.5000    61.4010     6.6470
 2219.0000    61.4870     6.6470
 2219.5000    61.0720     6.6470
 2220.0000    60.0030     6.6470
 2220.5000    59.8230     6.6470
 2221.0000    60.6470     6.6470
 2221.5000    61.0450     6.6470
 2222.0000    61.0610     6.6470
 2222.5000    61.2320     6.6470
 2223.0000    61.5810     6.6470
 2223.5000    62.1560     6.6470
 2224.0000    61.4830     6.6470
 2224.5000    61.0230     6.6470
 2225.0000    62.5730     6.6470
 2225.5000    63.3250     6.6470
 2226.0000    63.3320     6.6470
 2226.5000    62.8110     6.6500
 2227.0000    62.0780     6.6570
 2227.5000    61.8440     6.6630
 2228.0000    61.7730     6.6700
 2228.5000    61.7190     6.6760
 2229.0000    60.9540     6.6790
 2229.5000    60.6200     6.6820
 2230.0000    60.9850     6.6850
 2230.5000    60.4520     6.6880
 2231.0000    60.1010     6.6910
 2231.5000    59.9160     6.6940
 2232.0000    59.2470     6.6950
 2232.5000    58.4840     6.6630
 2233.0000    57.8530     6.6530
 2233.5000    58.3850     6.6490
 2234.0000    58.4000     6.6450
 2234.5000    57.9340     6.6420
 2235.0000    57.2810     6.6390
 2235.5000    55.7400     6.6360
 2236.0000    54.5630     6.6330
 2236.5000    54.4830     6.6300
 2237.0000    55.3030     6.6270
 2237.5000    57.2810     6.6240
 2238.0000    58.5120     6.6210
 2238.5000    58.3310     6.6180
 2239.0000    57.2510     6.6150
 2239.5000    55.3710     6.6110
 2240.0000    55.1490     6.6080
 2240.5000    56.0300     6.6090
 2241.0000    57.3500     6.6100
 2241.5000    57.6100     6.6110
 2242.0000    54.4850     6.6120
 2242.5000    54.7580     6.6130
 2243.0000    56.4330     6.6140
 2243.5000    57.9040     6.6150
 2244.0000    58.2860     6.6160
 2244.5000    58.1670     6.6170
 2245.0000    56.7220     6.6240
 2245.5000    55.6960     6.6320
 2246.0000    55.3440     6.6400
 2246.5000    55.4450     6.6480
 2247.0000    54.3810     6.6560
 2247.5000    53.4360     6.6650
 2248.0000    53.0570     6.6730
 2248.5000    53.4720     6.6770
 2249.0000    53.9590     6.6790
 2249.5000    54.4400     6.6800
 2250.0000    55.7650     6.6810
 2250.5000    57.9570     6.6830
 2251.0000    59.0360     6.6840
 2251.5000    58.4480     6.6850
 2252.0000    59.3860     6.6860
 2252.5000    59.3660     6.6880
 2253.0000    58.5060     6.6890
 2253.5000    58.0650     6.6900
 2254.0000    57.1920     6.6910
 2254.5000    55.6400     6.6930
 2255.0000    54.2520     6.6940
 2255.5000    52.8850     6.6950
 2256.0000    51.6390     6.6970
 2256.5000    52.0450     6.6900
 2257.0000    53.7780     6.6820
 2257.5000    53.9210     6.6740
 2258.0000    53.1480     6.6660
 2258.5000    53.1830     6.6580
 2259.0000    53.1070     6.6500
 2259.5000    52.8930     6.6420
 2260.0000    53.4730     6.6340
 2260.5000    54.4230     6.6320
 2261.0000    53.9540     6.6530
 2261.5000    53.7820     6.6570
 2262.0000    53.6840     6.6570
 2262.5000    53.7040     6.6560
 2263.0000    53.7930     6.6560
 2263.5000    53.8780     6.6560
 2264.0000    53.9630     6.6560
 2264.5000    54.1400     6.6560
 2265.0000    56.6030     6.6550
 2265.5000    57.4850     6.6550
 2266.0000    57.9630     6.6550
 2266.5000    58.6070     6.6550
 2267.0000    59.8520     6.6540
 2267.5000    59.8580     6.6540
 2268.0000    58.6290     6.6540
 2268.5000    57.0110     6.6540
 2269.0000    55.4950     6.6530
 2269.5000    54.3080     6.6530
 2270.0000    54.9530     6.6530
 2270.5000    55.8040     6.6530
 2271.0000    56.3100     6.6520
 2271.5000    57.7010     6.6520
 2272.0000    59.0910     6.6520
 2272.5000    58.8980     6.6520
 2273.0000    58.6300     6.6520
 2273.5000    58.7090     6.6510
 2274.0000    58.3010     6.6510
 2274.5000    56.4240     6.6510
 2275.0000    54.4190     6.6510
 2275.5000    53.5530     6.6500
 2276.0000    53.0670     6.6500
 2276.5000    52.8940     6.6500
 2277.0000    53.1120     6.6500
 2277.5000    54.6880     6.6490
 2278.0000    55.6870     6.6490
 2278.5000    56.6570     6.6490
 2279.0000    57.5190     6.6490
 2279.5000    57.5150     6.6490
 2280.0000    56.2970     6.6480
 2280.5000    55.4560     6.6480
 2281.0000    56.1010     6.6480
 2281.5000    57.7060     6.6480
 2282.0000    58.4450     6.6470
 2282.5000    59.0070     6.6510
 2283.0000    59.2670     6.6590
 2283.5000    59.3800     6.6660
 2284.0000    59.0420     6.6740
 2284.5000    58.5390     6.6820
 2285.0000    58.3930     6.6860
 2285.5000    58.2510     6.6840
 2286.0000    57.0250     6.6830
 2286.5000    55.5370     6.6810
 2287.0000    55.3400     6.6790
 2287.5000    54.2910     6.6780
 2288.0000    53.0270     6.6740
 2288.5000    54.5270     6.6680
 2289.0000    57.7120     6.6720
 2289.5000    58.7290     6.6780
 2290.0000    58.3680     6.6840
 2290.5000    58.0100     6.6900
 2291.0000    57.6600     6.6960
 2291.5000    57.3840     6.7020
 2292.0000    57.7500     6.7080
 2292.5000    58.8650     6.7130
 2293.0000    59.9860     6.7190
 2293.5000    60.3390     6.7250
 2294.0000    60.1880     6.7310
 2294.5000    57.0260     6.7370
 2295.0000    53.7820     6.7430
 2295.5000    53.0810     6.7410
 2296.0000    56.5470     6.7310
 2296.5000    58.7760     6.7210
 2297.0000    59.1330     6.7170
 2297.5000    59.5200     6.7190
 2298.0000    59.4940     6.7210
 2298.5000    58.8850     6.7220
 2299.0000    58.8010     6.7240
 2299.5000    59.6270     6.7250
 2300.0000    59.8450     6.7220
 2300.5000    59.4780     6.7140
 2301.0000    59.4580     6.7060
 2301.5000    60.2480     6.6980
 2302.0000    59.8130     6.6890
 2302.5000    58.9910     6.6880
 2303.0000    58.5260     6.6880
 2303.5000    58.0900     6.6890
 2304.0000    57.8380     6.6900
 2304.5000    59.4560     6.6910
 2305.0000    60.8950     6.6930
 2305.5000    61.8030     6.6940
 2306.0000    62.4430     6.6950
 2306.5000    62.0880     6.6960
 2307.0000    62.2300     6.6970
 2307.5000    62.8230     6.6980
 2308.0000    61.2360     6.6990
