~VERSION INFORMATION
 VERS.                2.0:   CWLS LOG ASCII STANDARD - VERSION 2.0
 WRAP.                 NO:   ONE LINE PER DEPTH STEP
~WELL INFORMATION
#MNEM.UNIT      DATA TYPE    INFORMATION
#----------   ------------   ------------------------------
 STRT.F         2144.5000:   START DEPTH
 STOP.F         2870.0000:   STOP DEPTH
 STEP.F            0.5000:   STEP LENGTH
 NULL.          -999.2500:   NO VALUE
 COMP. LAWRENCE ALLISON & ASSOCIATES:   COMPANY
 WELL. LAWRENCE "X" #13-21:   WELL
 FLD .        TEAPOT DOME:   FIELD
 LOC .      S21 T39N R78W:   LOCATION
 CNTY.            NATRONA:   COUNTY
 STAT.            WYOMING:   STATE
 CTRY. UNITED STATES OF AMERICA:   COUNTRY
 SRVC.      DRESSER ATLAS:   SERVICE COMPANY
 DATE.        09-FEB-1987:   LOGDATE
 API .     49025111200000:   API NUMBER
~CURVE INFORMATION
#MNEM.UNIT       API CODE    CURVE DESCRIPTION
#----------   ------------   ------------------------------
 DEPT.F                  :   
 MCAL.IN     15 280 01 00:   CALIPER FROM MICRO LOG
 MTEN.LBS    15 635 01 00:   TENSION FROM MICRO LOG
 GRR .GAPI   05 310 01 00:   GAMMA RAY FROM RES.
 R2SL.OHMM   05 120 00 00:   RESISTIVITY
~PARAMETER INFORMATION
#MNEM.UNIT          VALUE    DESCRIPTION
#----------   ------------   ------------------------------
 EKB .F         4986.0000:   Kelly bushing
 EGL .F         4974.0000:   Ground level
 EDF .F            0.0000:   Drilling floor
 EPD .F         4974.0000:   Permanent datum
 TD  .F         2852.0000:   Total depth
 DATE.        09-FEB-1987:   Date logged
 CLNT.            A2DTECH:   Client Code
 SL  . 1962' FNL & 352' FWL:   Surface Location
 DAPD.F                12:   Feet Above Permanent Datum
 DD  .F              2850:   Depth driller
 DL  .F              2852:   Depth logger
 BLI .F              2846:   Bottom log interval
 TLI .F              2150:   Top log interval
 CS1 .IN            8.625:   Casing size
 CBD1.      8.625" @ 282':   Casing driller 1
 BS1 .IN            7.875:   Bit size
 BSD1.F              2850:   Depth drilled with bit1
 DFT .        KCL POLYMER:   Type fluid in hole
 DFD .                8.9:   Density
 DFV .                 40:   Viscosity
 DFPH.                9.7:   pH
 DFL .                8.6:   Fluid loss
 MSS .           FLOWLINE:   Source of sample
 RMS .OHMM          0.287:   Rm
 MST .F                60:   Rm Meas. temp.
 RMF .OHMM          0.203:   Rmf
 MFST.F                60:   Rmf Meas. temp.
 RMC .OHMM          0.358:   Rmc
 MCST.F                60:   Rmc Meas. temp.
 MFSS.               MEAS:   Source Rmf.
 MCSS.               CALC:   Source Rmc.
 RMB .OHMM          0.154:   Rm. at BHT
 BHT .F               112:   BHT.
 TCS .HRS               7:   Time Circ. stopped
 MRT .F               112:   Maximum recorded temp.
 LUN .            HL-6274:   Logging unit number
 LUL .           GILLETTE:   Logging unit location
 ENGI.             RAUTIO:   Recorded By
 WITN.             STRONG:   Witnessed by
 ORIG.           5" PRINT:   Origin of data
 UWI .     49025111200000:   Unique Well ID
 DICO. A2D TECHNOLOGIES, INC.:   Digitizing Company
~OTHER INFORMATION
~A  DEPT      MCAL       MTEN        GRR       R2SL   
# ...
 2582.5000     7.8760   -43.0270   133.1380     2.4240
 2583.0000     7.8770   -42.8090   133.1320     2.4630
 2583.5000     7.8770   -43.0910   133.0930     2.5400
 2584.0000     7.8780   -43.7600   134.3820     2.5580
 2584.5000     7.8790   -44.4300   135.8380     2.4730
 2585.0000     7.8790   -45.0990   137.3090     2.4060
 2585.5000     7.8800   -45.7690   138.2180     2.3310
 2586.0000     7.8810   -46.4380   135.1160     2.3400
 2586.5000     7.8810   -47.1080   132.0740     2.3500
 2587.0000     7.8820   -47.7780   132.1130     2.3980
 2587.5000     7.8830   -48.4470   132.0890     2.4880
 2588.0000     7.8840   -49.1170   130.4900     2.4830
 2588.5000     7.8840   -49.7860   129.3540     2.4740
 2589.0000     7.8850   -50.4560   131.0270     2.4650
 2589.5000     7.8860   -51.1250   132.6510     2.4560
 2590.0000     7.8860   -51.7950   133.9740     2.4470
 2590.5000     7.8870   -52.4650   133.9450     2.4310
 2591.0000     7.8880   -53.1340   134.1850     2.4060
 2591.5000     7.8880   -53.8040   135.3190     2.3810
 2592.0000     7.8890   -54.4730   136.3080     2.3560
 2592.5000     7.8900   -55.1430   135.8060     2.3310
 2593.0000     7.8910   -55.8130   135.2550     2.3060
 2593.5000     7.8910   -56.4820   136.2910     2.2810
 2594.0000     7.8920   -57.1520   137.8790     2.2560
 2594.5000     7.8930   -57.8210   138.2200     2.2310
 2595.0000     7.8930   -58.4910   138.5660     2.2050
 2595.5000     7.8940   -59.1600   140.0470     2.1680
 2596.0000     7.8950   -59.8300   143.6390     2.1300
 2596.5000     7.8950   -60.5000   145.6920     2.0920
 2597.0000     7.8960   -61.1690   147.3550     2.0470
 2597.5000     7.8970   -61.8390   149.0430     2.0670
 2598.0000     7.8980   -62.5080   150.1450     2.0920
 2598.5000     7.8980   -63.1780   145.3600     2.1160
 2599.0000     7.8990   -63.8470   140.0190     2.1410
 2599.5000     7.9000   -64.5170   136.2080     2.1440
 2600.0000     7.9000   -65.1870   135.1920     2.1440
 2600.5000     7.9010   -65.8560   136.8270     2.1560
 2601.0000     7.9020   -66.5260   138.6750     2.1940
 2601.5000     7.9020   -67.1950   138.9890     2.2320
 2602.0000     7.9030   -67.8650   136.1190     2.2700
 2602.5000     7.9040   -68.5340   132.2210     2.3100
 2603.0000     7.9050   -69.2040   128.4530     2.3170
 2603.5000     7.9050   -69.8740   128.5850     2.3240
 2604.0000     7.9060   -70.5430   130.0140     2.3310
 2604.5000     7.9070   -71.2130   130.8780     2.3390
 2605.0000     7.9070   -71.8820   129.5690     2.3460
 2605.5000     7.9080   -72.5520   128.2750     2.3530
 2606.0000     7.9090   -73.2220   127.5380     2.4370
 2606.5000     7.9090   -73.8910   127.3040     2.5170
 2607.0000     7.9100   -74.5610   128.0710     2.5690
 2607.5000     7.9110   -75.2300   128.8000     2.5910
 2608.0000     7.9120   -75.9000   130.4090     2.6060
 2608.5000     7.9120   -76.5690   132.7360     2.4500
 2609.0000     7.9130   -77.2390   135.0840     2.3560
 2609.5000     7.9140   -77.9090   135.5290     2.2390
 2610.0000     7.9130   -78.5780   135.9480     2.1220
 2610.5000     7.9120   -79.2480   136.9710     2.0280
 2611.0000     7.9110   -79.9170   137.1040     2.0310
 2611.5000     7.9100   -80.5870   136.0760     2.0450
 2612.0000     7.9100   -81.2560   135.1060     2.0590
 2612.5000     7.9090   -81.9260   136.3330     2.0720
 2613.0000     7.9080   -82.5960   138.2340     2.0850
 2613.5000     7.9070   -82.1720   135.6170     2.1930
 2614.0000     7.9060   -80.7540   131.2060     2.3250
 2614.5000     7.9050   -79.3360   126.9030     2.4570
 2615.0000     7.9040   -77.9170   125.6000     2.5890
 2615.5000     7.9030   -76.4990   123.3090     2.7210
 2616.0000     7.9020   -75.0810   120.5520     2.8160
 2616.5000     7.9010   -73.6630   121.2190     2.8990
 2617.0000     7.9010   -72.2450   125.2930     2.9680
 2617.5000     7.9000   -70.8260   126.7030     2.9210
 2618.0000     7.8990   -69.4080   128.3310     2.7840
 2618.5000     7.8980   -67.9900   129.9380     2.6210
 2619.0000     7.8970   -66.5720   132.3290     2.4590
 2619.5000     7.8960   -65.1540   135.4690     2.2960
 2620.0000     7.8950   -63.7350   140.9850     2.1340
 2620.5000     7.8940   -62.6170   147.6910     2.0270
 2621.0000     7.8930   -62.0560   162.2850     2.0240
 2621.5000     7.8930   -61.4950   177.3930     2.0200
 2622.0000     7.8920   -60.9340   178.8070     2.0170
 2622.5000     7.8910   -60.3730   168.4220     2.0140
 2623.0000     7.8900   -59.8120   147.0500     2.0100
 2623.5000     7.8890   -59.2510   126.2360     1.9910
 2624.0000     7.8880   -58.6900   120.8740     2.4310
 2624.5000     7.8870   -58.1290   119.5790     2.6160
 2625.0000     7.8860   -57.5680   120.4810     2.6720
 2625.5000     7.8850   -57.0070   120.2440     2.7490
 2626.0000     7.8850   -56.4460   119.6350     2.8570
 2626.5000     7.8840   -55.8850   119.6930     2.9400
 2627.0000     7.8830   -55.3240   120.9750     2.9400
 2627.5000     7.8820   -54.7630   124.1100     2.7970
 2628.0000     7.8810   -54.2020   127.2130     2.6610
 2628.5000     7.8800   -53.6410   130.2870     2.5110
 2629.0000     7.8790   -53.0800   132.7910     2.4530
 2629.5000     7.8780   -52.5190   132.7450     2.3980
 2630.0000     7.8770   -51.9580   131.6790     2.4090
 2630.5000     7.8760   -51.3970   130.1130     2.4190
 2631.0000     7.8760   -50.8350   129.2720     2.5210
 2631.5000     7.8750   -50.2740   128.5470     2.6300
 2632.0000     7.8740   -49.7130   127.6850     2.6550
 2632.5000     7.8730   -49.1520   128.7670     2.6140
 2633.0000     7.8730   -48.5910   132.0630     2.4980
 2633.5000     7.8720   -48.0300   140.5900     2.3970
 2634.0000     7.8710   -47.4690   150.2580     2.1240
 2634.5000     7.8710   -46.9080   159.9660     2.0240
 2635.0000     7.8700   -46.3470   169.6680     2.0200
 2635.5000     7.8690   -45.7860   179.4370     2.0160
 2636.0000     7.8690   -45.2250   183.1520     2.0090
 2636.5000     7.8680   -44.6640   175.6250     2.0980
 2637.0000     7.8670   -44.1030   159.1560     2.2620
 2637.5000     7.8670   -43.5420   144.2150     2.3840
 2638.0000     7.8660   -42.9810   136.7110     2.5060
 2638.5000     7.8660   -42.7630   129.7190     2.5640
 2639.0000     7.8650   -42.8580   123.7300     2.5790
 2639.5000     7.8640   -42.9520   122.4800     2.6790
 2640.0000     7.8640   -43.0470   122.1000     2.8010
 2640.5000     7.8630   -43.1410   121.7560     2.9630
 2641.0000     7.8620   -43.2360   121.4150     2.9470
 2641.5000     7.8620   -43.3300   121.0380     2.9150
 2642.0000     7.8610   -43.4250   119.5220     2.8820
 2642.5000     7.8610   -43.5190   116.0930     2.8590
 2643.0000     7.8600   -43.6140   114.1510     3.0030
 2643.5000     7.8590   -43.7080   113.9080     3.1350
 2644.0000     7.8590   -43.8030   113.6810     3.2670
 2644.5000     7.8580   -43.8970   113.9000     3.3660
 2645.0000     7.8570   -43.9920   116.9270     3.2440
 2645.5000     7.8570   -44.0860   121.8750     3.1250
 2646.0000     7.8560   -44.1810   126.7680     3.0610
 2646.5000     7.8550   -44.2750   129.7970     3.1810
 2647.0000     7.8550   -44.3700   125.4180     3.3970
 2647.5000     7.8540   -44.4640   118.7180     3.6130
 2648.0000     7.8540   -44.5590   114.6040     3.7780
 2648.5000     7.8540   -44.6530   112.2110     3.7280
 2649.0000     7.8540   -44.7480   112.7760     3.6870
 2649.5000     7.8540   -44.8420   114.0930     3.4820
 2650.0000     7.8540   -44.9370   116.5590     3.1990
 2650.5000     7.8540   -45.0310   118.9840     2.9150
 2651.0000     7.8540   -45.1260   121.2810     2.7150
 2651.5000     7.8540   -45.2200   122.7140     2.5900
 2652.0000     7.8540   -45.3150   122.4730     2.4960
 2652.5000     7.8540   -45.4100   122.3700     2.4540
 2653.0000     7.8540   -45.5040   125.0930     2.4130
 2653.5000     7.8540   -45.5990   136.9940     2.2940
 2654.0000     7.8540   -45.6930   156.6000     2.0470
 2654.5000     7.8540   -45.7880   188.0970     2.0060
 2655.0000     7.8540   -45.8820   209.8340     2.0020
