~VERSION INFORMATION
 VERS.                2.0:   CWLS LOG ASCII STANDARD - VERSION 2.0
 WRAP.                 NO:   ONE LINE PER DEPTH STEP
~WELL INFORMATION
#MNEM.UNIT      DATA TYPE    INFORMATION
#----------   ------------   ------------------------------
 STRT.F          197.0000:   START DEPTH
 STOP.F         3238.5000:   STOP DEPTH
 STEP.F            0.5000:   STEP LENGTH
 NULL.          -999.2500:   NO VALUE
 COMP.    FENIX & SCISSON:   COMPANY
 WELL. FENIX 28 "A" #28-11:   WELL
 FLD .              NPR-3:   FIELD
 LOC .      S11 T38N R78W:   LOCATION
 CNTY.            NATRONA:   COUNTY
 STAT.            WYOMING:   STATE
 CTRY. UNITED STATES OF AMERICA:   COUNTRY
 SRVC.              WELEX:   SERVICE COMPANY
 DATE.        25-OCT-1977:   LOGDATE
 API .     49025104350000:   API NUMBER
~CURVE INFORMATION
#MNEM.UNIT       API CODE    CURVE DESCRIPTION
#----------   ------------   ------------------------------
 DEPT.F                  :   
 SPR .MV     07 010 01 00:   SPONTANEOUS POTENTIAL
 TENR.LBS    07 635 01 00:   TENSION FROM RESISTIVITY
 ILM .OHMM   07 120 44 00:   INDUCTION LOG MEDIUM RESISTIVITY
 SGRD.OHMM   07 220 05 00:   SHALLOW SHORT GUARD RESISTIVITY
 ILD .OHMM   07 120 46 00:   INDUCTION LOG DEEP RESISTIVITY
 GRD .GAPI   45 310 01 00:   GAMMA RAY FROM DENSITY LOG
 CALD.IN     45 280 60 00:   CALIPER FROM DENSITY LOG
 CORR.G/C3   45 356 01 00:   DENSITY CORRECTION
 RHOB.G/C3   45 350 01 00:   BULK DENSITY
~PARAMETER INFORMATION
#MNEM.UNIT          VALUE    DESCRIPTION
#----------   ------------   ------------------------------
 EKB .F         5211.0000:   Kelly bushing
 EGL .F         5201.0000:   Ground level
 EDF .F            0.0000:   Drilling floor
 EPD .F         5201.0000:   Permanent datum
 TD  .F         3235.0000:   Total depth
 CLNT.            A2DTECH:   Client Code
 SL  . 330' FSL & 990' FWL:   Surface Location
 PD  .                 GL:   Permanent Datum
 DAPD.F                10:   Feet Above Permanent Datum
 DATE.        25-OCT-1977:   Date Logged [DD-MMM-YYYY]
 DD  .F              3235:   Depth driller
 DL  .F              3231:   Depth logger
 BLI .F              3229:   Bottom log interval
 TLI .F               200:   Top log interval
 CS1 .IN            8.625:   Casing size
 CBD1.      8.625" @ 217':   Casing driller 1
 CBL1.F               217:   Casing logger 1
 BS1 .              7.875:   Bit size
 BSD1.IN             3235:   Depth drilled with bit1
 DFT .            KCL MUD:   Type fluid in hole
 DFD .                8.9:   Density
 DFV .                 35:   Viscosity
 DFPH.               11.5:   pH
 DFL .               16.4:   Fluid loss
 MSS .           FLOWLINE:   Source of sample
 RMS .OHMM           1.18:   Rm
 MST .F                74:   Rm Meas. temp.
 RMF .OHMM           1.74:   Rmf
 MFST.F                74:   Rmf Meas. temp.
 MFSS.               MEAS:   Source Rmf.
 MCSS.               MEAS:   Source Rmc.
 RMB .OHMM           1.15:   Rm. at BHT
 BHT .F               116:   BHT.
 TCS .HRS               3:   Time Circ. stopped
 MRT .F               116:   Maximum recorded temp.
 LUN .               8611:   Logging unit number
 LUL .             CASPER:   Logging unit location
 ENGI.            C. DOAK:   Recorded By
 WITN.      W. PETTINGILL:   Witnessed by
 ORIG.           5" PRINT:   Origin of data
 UWI .     49025104350000:   Unique Well ID
 DICO. A2D TECHNOLOGIES, INC.:   Digitizing Company
~OTHER INFORMATION
~A   DEPT      SPR       TENR        ILM       SGRD        ILD         GRD      CALD       CORR       RHOB   
# ...
 2387.0000   -75.9396  1668.2063     5.8022    10.4147     5.7767   136.5210     8.7241    -0.0418     2.4236
 2387.5000   -75.9455  1672.9688     5.8007    11.1593     5.8545   138.0629     8.7227    -0.0403     2.4190
 2388.0000   -76.2553  1677.7312     5.9618    10.7030     5.8515   139.2928     8.7054    -0.0389     2.4268
 2388.5000   -76.4124  1682.4938     6.0432     9.6450     5.8893   140.4235     8.6884    -0.0374     2.4362
 2389.0000   -76.2669  1687.2562     6.0416     9.5105     5.8864   142.0054     8.6713    -0.0344     2.4414
 2389.5000   -76.2727  1692.0188     6.0396    10.2856     5.8972   143.6066     8.6701    -0.0298     2.4437
 2390.0000   -76.1273  1696.7812     6.0380    10.4022     5.9247   145.1690     8.6458    -0.0222     2.4459
 2390.5000   -76.1331  1701.5437     6.0364     8.9925     5.9594   146.3739     8.6048    -0.0129     2.4518
 2391.0000   -76.1404  1706.3063     6.0347    10.1838     5.9559   146.3558     8.5719    -0.0081     2.4616
 2391.5000   -76.1462  1710.0000     6.0331    10.9876     5.9529   145.4016     8.5525    -0.0054     2.4722
 2392.0000   -76.3033  1710.0000     5.9900    11.3725     5.9088   145.3835     8.5344    -0.0024     2.4930
 2392.5000   -76.3091  1704.4872     5.9027    11.7764     5.8245   145.3653     8.5210    -0.0009     2.5064
 2393.0000   -76.3150  1697.9744     5.8635    11.5259     5.7813   140.9790     8.5196     0.0021     2.5057
 2393.5000   -76.3208  1691.4615     5.8619    10.4588     5.7378   135.3447     8.5148     0.0020     2.4974
 2394.0000   -76.4781  1684.9487     5.8603     9.6229     5.7349   128.9524     8.5010    -0.0012     2.4867
 2394.5000   -76.4852  1678.4359     5.8994     9.3581     5.7321   124.6954     8.4758    -0.0103     2.4718
 2395.0000   -76.6423  1671.9231     5.9801     9.8892     5.7698   122.8052     8.4669    -0.0215     2.4531
 2395.5000   -76.4968  1665.4103     6.0199    10.6698     5.7662   120.6030     8.4500    -0.0325     2.4388
 2396.0000   -76.1986  1658.8975     6.1077    11.0435     5.8034   119.0248     8.4331    -0.0388     2.4245
 2396.5000   -76.0545  1652.3846     6.2283    10.4457     5.8409   118.0707     8.4160    -0.0420     2.4170
 2397.0000   -75.7579  1645.8718     6.2699    10.9624     5.8786   118.0525     8.3991    -0.0390     2.4327
 2397.5000   -75.6124  1639.3590     6.3117    11.6650     5.9158   118.9704     8.3977    -0.0344     2.4432
 2398.0000   -75.4669  1632.8462     6.3975    11.9909     5.9128   119.6210     8.3962    -0.0299     2.4563
 2398.5000   -75.4742  1626.3334     6.7129    11.6603     5.9099   120.8017     8.3790    -0.0252     2.4731
 2399.0000   -75.4800  1619.8206     6.8062    11.3374     5.9069   122.3436     8.3776    -0.0187     2.4866
 2399.5000   -75.4859  1613.3077     6.8023    10.3587     5.9032   123.5736     8.3762    -0.0115     2.4978
 2400.0000   -75.4917  1650.0000     6.8952     9.7330     5.9003   125.5959     8.3750     0.0023     2.5135
 2400.5000   -75.4854  1650.0000     7.0379    10.5703     5.8973   128.5493     8.3736     0.0038     2.5217
 2401.0000   -75.1625  1650.0000     7.2333    12.2192     5.8944   131.5027     8.3722     0.0023     2.4977
 2401.5000   -75.5237  1650.0000     7.6899    13.3657     5.9577   135.0443     8.3865    -0.0009     2.4809
 2402.0000   -75.5442  1650.0000     7.6813    12.9930     6.0123   140.3305     8.3848    -0.0087     2.4414
 2402.5000   -75.6978  1650.0000     7.3686    12.5220     6.0669   145.0852     8.3834    -0.0149     2.4189
 2403.0000   -75.8592  1650.0000     7.2134    13.3456     6.1215   147.4707     8.3821    -0.0211     2.4084
 2403.5000   -75.8693  1650.0000     7.0615    12.8839     6.1735   141.8320     8.3807    -0.0258     2.3986
 2404.0000   -76.0308  1650.0000     7.0094    12.1839     6.1700   138.6938     8.3794    -0.0289     2.4098
 2404.5000   -76.1922  1693.1000     7.0061    11.4424     6.1671   137.7397     8.3780    -0.0290     2.4188
 2405.0000   -76.3561  1744.0000     7.1992    10.7461     6.1642   138.6577     8.3763    -0.0274     2.4277
 2405.5000   -76.5175  1790.0000     7.3993    10.5933     6.1187   140.8300     8.3750    -0.0259     2.4360
 2406.0000   -76.5277  1790.0000     7.6032    12.5884     6.1578   142.3922     8.3737    -0.0198     2.4436
 2406.5000   -76.5378  1730.0000     7.5997    13.3933     6.1549   143.2793     8.3881    -0.0136     2.4524
 2407.0000   -76.5479  1710.0000     7.5436    12.9300     6.1521   143.5757     8.4022    -0.0090     2.4591
 2407.5000   -76.4067  1710.0000     7.6455    12.2274     6.1928   143.5569     8.4128    -0.0059     2.4628
 2408.0000   -76.4194  1710.0000     7.6943    11.3254     6.1464   143.5373     8.4307    -0.0044     2.4665
 2408.5000   -76.5808  1710.0000     7.7452    11.2407     6.0582   143.5192     8.4322    -0.0044     2.4688
 2409.0000   -76.5909  1707.6888     7.2216    11.1579     6.0135   143.0182     8.4434    -0.0044     2.4710
 2409.5000   -76.7524  1703.9186     7.0207    12.8986     6.0108   142.3516     8.4576    -0.0045     2.4694
 2410.0000   -76.7625  1700.1482     7.0108    13.2562     5.9664   141.2766     8.4563    -0.0045     2.4597
 2410.5000   -76.9264  1696.3778     6.9648    12.2635     5.9225   140.3225     8.4548    -0.0045     2.4528
 2411.0000   -76.9365  1692.6074     6.9134    12.5287     5.8787   139.0564     8.4532    -0.0061     2.4491
 2411.5000   -76.9467  1688.8370     6.8150    11.2082     5.8754   137.1663     8.4518    -0.0077     2.4498
 2412.0000   -76.9568  1685.0667     6.9551    10.5992     5.8321   135.9002     8.4505    -0.0077     2.4543
 2412.5000   -76.9669  1681.2963     7.0044    11.8357     5.8294   134.2690     8.4491    -0.0078     2.4610
 2413.0000   -77.1286  1677.5259     7.1435    11.7486     5.7864   132.7395     8.4478    -0.0078     2.4670
 2413.5000   -77.4436  1673.7556     7.0908    10.0696     5.7837   131.1614     8.4464    -0.0125     2.4722
 2414.0000   -76.9973  1669.9852     7.0875    12.4049     5.7804   129.5833     8.4607    -0.0172     2.4721
 2414.5000   -77.1613  1666.2148     6.7016    12.4867     5.7777   128.0052     8.4749    -0.0172     2.4706
 2415.0000   -77.6252  1662.4445     6.3808    11.0170     5.6561   126.4272     8.5045    -0.0141     2.4706
 2415.5000   -77.6354  1658.6741     6.3330    10.0638     5.5756   124.5367     8.5344    -0.0079     2.4736
 2416.0000   -77.6480  1654.9037     6.2428     9.7844     5.4205   122.6424     8.5393    -0.0080     2.4848
 2416.5000   -77.9607  1651.1240     6.1967     9.7689     5.3063   121.3764     8.5630    -0.0111     2.4908
 2417.0000   -78.2734  1649.9911     6.0662     9.6397     5.1942   120.7343     8.5788    -0.0127     2.4952
 2417.5000   -78.2835  1649.9963     5.8974     9.5699     5.0848   120.7163     8.5915    -0.0143     2.5006
 2418.0000   -78.2937  1650.0000     5.7725    10.7593     5.0125   120.0742     8.6058    -0.0112     2.5049
 2418.5000   -78.3041  1650.0000     5.6119     9.7606     4.9070   119.4302     8.6104    -0.0066     2.5049
 2419.0000   -78.3165  1650.0000     5.4179     8.3981     4.8005   118.1154     8.6187    -0.0035     2.5049
 2419.5000   -78.3266  1649.9939     5.2671     6.8019     4.7021   116.5835     8.6170    -0.0036     2.4958
 2420.0000   -78.3367  1649.9780     5.2283     6.2135     4.6674   115.0054     8.6156    -0.0068     2.4861
 2420.5000   -78.3468  1650.0312     5.3403     7.6978     4.6983   112.8033     8.6299    -0.0085     2.4755
 2421.0000   -78.3569  1654.8604     5.4456     9.1486     4.7611   109.6651     8.6282    -0.0098     2.4700
 2421.5000   -78.0670  1662.5529     5.5191     9.7360     4.7920   107.1510     8.6428    -0.0114     2.4665
 2422.0000   -77.9259  1670.1885     5.6712     9.9321     4.8905   105.8598     8.6413    -0.0114     2.4687
 2422.5000   -78.0873  1677.8250     5.7081     9.3914     4.9904   104.3023     8.6398    -0.0084     2.4769
 2423.0000   -78.2487  1685.4600     5.7852     8.8198     5.0578   103.3528     8.6384    -0.0053     2.4889
