~VERSION INFORMATION
 VERS.                2.0:   CWLS LOG ASCII STANDARD - VERSION 2.0
 WRAP.                 NO:   ONE LINE PER DEPTH STEP
~WELL INFORMATION
#MNEM.UNIT      DATA TYPE    INFORMATION
#----------   ------------   ------------------------------
 STRT.F          200.0000:   START DEPTH
 STOP.F         3078.0000:   STOP DEPTH
 STEP.F            0.5000:   STEP LENGTH
 NULL.          -999.2500:   NO VALUE
 COMP.   FENIX & SCISSION:   COMPANY
 WELL. FENIX NPR 72 "A" #3-28:   WELL
 FLD .              NPR-3:   FIELD
 LOC .      S28 T39N R78W:   LOCATION
 CNTY.            NATRONA:   COUNTY
 STAT.            WYOMING:   STATE
 CTRY. UNITED STATES OF AMERICA:   COUNTRY
 SRVC.              WELEX:   SERVICE COMPANY
 DATE.        06-JUN-1977:   LOGDATE
 API .     49025103770000:   API NUMBER
~CURVE INFORMATION
#MNEM.UNIT       API CODE    CURVE DESCRIPTION
#----------   ------------   ------------------------------
 DEPT.F                  :   
 CORR.G/C3   45 356 01 00:   DENSITY CORRECTION
 RHOB.G/C3   45 350 01 00:   BULK DENSITY
 CALD.IN     45 280 60 00:   CALIPER FROM DENSITY LOG
 SPR .MV     07 010 01 00:   SPONTANEOUS POTENTIAL
 GURD.OHMM   07 220 05 00:   GUARD LOG RESISTIVITY
 ILM .OHMM   07 120 44 00:   INDUCTION LOG MEDIUM RESISTIVITY
 ILD .OHMM   07 120 46 00:   DEEP INDUCTION RESISTIVITY
 GRD .GAPI   45 310 01 00:   GAMMA RAY FROM DENSITY LOG
~PARAMETER INFORMATION
#MNEM.UNIT          VALUE    DESCRIPTION
#----------   ------------   ------------------------------
 EKB .F         5022.0000:   Kelly bushing
 EGL .F         5011.0000:   Ground level
 EDF .F            0.0000:   Drilling floor
 EPD .F         5011.0000:   Permanent datum
 TD  .F         3081.0000:   Total depth
 DATE.        06-JUN-1977:   Date logged
 CLNT.            A2DTECH:   Client Code
 SL  . 990' FNL & 990' FEL:   Surface Location
 PD  .                 GL:   Permanent Datum
 DAPD.F                11:   Feet Above Permanent Datum
 DD  .F              3041:   Depth driller
 DL  .F              3081:   Depth logger
 BLI .F              3079:   Bottom log interval
 TLI .F               200:   Top log interval
 CS1 .IN            8.625:   Casing size
 CBD1.      8.625" @ 200':   Casing driller 1
 CBL1.F               218:   Casing logger 1
 BS1 .IN            7.875:   Bit size
 BSD1.F              3041:   Depth drilled with bit1
 DFT .            KCL MUD:   Type fluid in hole
 DFD .                8.8:   Density
 DFV .                 38:   Viscosity
 DFPH.                7.5:   pH
 DFL .                5.8:   Fluid loss
 MSS .           FLOWLINE:   Source of sample
 RMS .OHMM           1.19:   Rm
 MST .F                89:   Rm Meas. temp.
 RMF .OHMM           1.05:   Rmf
 MFST.F                89:   Rmf Meas. temp.
 RMC .OHMM           2.17:   Rmc
 MCST.F                89:   Rmc Meas. temp.
 MFSS.               FANN:   Source Rmf.
 MCSS.                KIT:   Source Rmc.
 RMB .OHMM           0.98:   Rm. at BHT
 BHT .F               108:   BHT.
 TCS .HRS             2.5:   Time Circ. stopped
 MRT .F               108:   Maximum recorded temp.
 LUN .               8611:   Logging unit number
 LUL .             CASPER:   Logging unit location
 ENGI.          T. JOYNER:   Recorded By
 WITN.      W. PETTINGILL:   Witnessed by
 ORIG.           5" PRINT:   Origin of data
 UWI .     49025103770000:   Unique Well ID
 DICO. A2D TECHNOLOGIES, INC.:   Digitizing Company
~OTHER INFORMATION
~A   DEPT     CORR       RHOB         CALD      SPR       GURD        ILM        ILD         GRD  
# ...
 1901.0000     0.0000     2.4340     8.2910   -51.1920    10.1120     9.0310     8.3790   129.6800
 1901.5000    -0.0010     2.4340     8.2940   -51.2670    10.1580     8.9340     8.5720   131.3100
 1902.0000    -0.0020     2.4340     8.2960   -51.3430    10.1580     9.2660     8.7850   133.2180
 1902.5000    -0.0030     2.4320     8.2990   -51.4190    10.1580     9.5200     8.9970   135.1190
 1903.0000    -0.0030     2.4290     8.3020   -51.5010    10.3270     9.7920     9.1800   137.0230
 1903.5000    -0.0040     2.4290     8.3040   -51.6130    10.5110     9.7580     9.1540   138.1440
 1904.0000    -0.0040     2.4340     8.3070   -51.5980    10.6340     9.7120     9.1280   138.6340
 1904.5000    -0.0020     2.4390     8.3090   -51.4690    10.5880     9.6650     9.1000   138.8320
 1905.0000     0.0000     2.4440     8.3100   -51.3400    10.5530     9.6190     9.0720   137.3960
 1905.5000    -0.0010     2.4490     8.3100   -51.4240    10.5370     9.5720     9.0420   135.9810
 1906.0000    -0.0040     2.4450     8.3100   -51.6310    10.4570     9.5250     9.0010   135.4330
 1906.5000    -0.0060     2.4390     8.3100   -51.3530    10.3110     9.4790     8.8920   136.2770
 1907.0000    -0.0060     2.4360     8.3100   -51.0720    10.1580     9.4210     8.7840   135.8490
 1907.5000    -0.0050     2.4350     8.3100   -50.8800    10.1840     9.2990     8.6760   135.1120
 1908.0000    -0.0050     2.4350     8.3100   -50.8790    10.2120     9.1770     8.5680   134.3830
 1908.5000    -0.0050     2.4350     8.3090   -50.6710    10.2390     9.1000     8.4560   133.6970
 1909.0000    -0.0030     2.4360     8.2940   -50.4480    10.2830     9.1450     8.5200   132.1210
 1909.5000    -0.0010     2.4370     8.2790   -50.3900    10.3390     9.1830     8.5860   130.4550
 1910.0000     0.0010     2.4380     8.2680   -50.7370    10.3950     9.2210     8.6510   128.7690
 1910.5000     0.0040     2.4400     8.2600   -51.0620    10.4410     9.2680     8.6850   127.2930
 1911.0000     0.0050     2.4430     8.2520   -50.8160    10.0720     9.2230     8.6240   129.3310
 1911.5000     0.0040     2.4470     8.2450   -50.5340     9.9050     9.1660     8.5740   132.1900
 1912.0000     0.0050     2.4520     8.2370   -50.3330    10.1120     9.1080     8.5340   135.0320
 1912.5000     0.0060     2.4570     8.2330   -50.6030    10.2770     9.0170     8.6250   137.8760
 1913.0000     0.0080     2.4620     8.2350   -50.8710    10.4410     9.0650     8.7000   140.2050
 1913.5000     0.0090     2.4670     8.2380   -50.7860    10.1690     9.1850     8.7760   139.9060
 1914.0000     0.0110     2.4710     8.2400   -50.6810    10.2220     9.3050     8.8520   137.1200
 1914.5000     0.0110     2.4680     8.2430   -50.5780    10.3280     9.4250     8.9270   134.2980
 1915.0000     0.0090     2.4590     8.2450   -50.4930    10.4340     9.5450     9.0030   131.4310
 1915.5000     0.0070     2.4510     8.2480   -50.5320    10.5370     9.6650     9.0860   130.9690
 1916.0000     0.0040     2.4430     8.2500   -50.5690    10.7320     9.7850     9.1710   132.2020
 1916.5000     0.0010     2.4370     8.2530   -50.6050    10.9230     9.9050     9.2550   133.4620
 1917.0000     0.0010     2.4400     8.2570   -50.6420    11.0310     9.9880     9.3400   134.7080
 1917.5000     0.0010     2.4420     8.2600   -50.6780    10.9310    10.0210     9.3900   134.9590
 1918.0000     0.0010     2.4390     8.2630   -50.7140    10.9960    10.0540     9.4340   133.4260
 1918.5000     0.0010     2.4410     8.2660   -50.7510    11.1440    10.0870     9.4770   132.0460
 1919.0000     0.0010     2.4410     8.2700   -50.7870    11.2910    10.1200     9.5210   133.7800
 1919.5000    -0.0010     2.4330     8.2690   -50.8230    11.4390    10.1530     9.5640   135.6160
 1920.0000    -0.0020     2.4260     8.2670   -50.8600    11.5490    10.2030     9.6080   136.7630
 1920.5000    -0.0020     2.4240     8.2640   -50.8960    11.0310    10.2550     9.6290   135.2400
 1921.0000    -0.0010     2.4240     8.2620   -50.9330    11.4170    10.3080     9.6510   133.8140
 1921.5000     0.0000     2.4240     8.2590   -50.9690    11.7570    10.3610     9.6730   132.3910
 1922.0000     0.0000     2.4250     8.2560   -51.0050    11.7230    10.4410     9.7030   130.9750
 1922.5000     0.0010     2.4250     8.2540   -51.0420    11.6780    10.3940     9.6880   131.8390
 1923.0000     0.0030     2.4240     8.2520   -51.0790    11.6340    10.2970     9.6670   133.0850
 1923.5000     0.0010     2.4210     8.2650   -51.1450    11.5890    10.1990     9.6460   134.3430
 1924.0000     0.0000     2.4190     8.2780   -51.2120    11.5490    10.1010     9.6250   135.5940
 1924.5000    -0.0020     2.4210     8.2910   -51.2790    11.2690    10.0030     9.5700   136.8180
 1925.0000    -0.0020     2.4200     8.3030   -51.3460    11.0130     9.9060     9.4800   136.7740
 1925.5000    -0.0020     2.4190     8.3030   -51.4130    10.7320     9.8080     9.3890   134.1000
 1926.0000    -0.0020     2.4180     8.2910   -51.4800    10.3680     9.7100     9.2990   131.4770
 1926.5000    -0.0010     2.4250     8.2940   -51.5460    10.2510     9.6130     9.2090   130.6780
 1927.0000    -0.0010     2.4310     8.2980   -51.6140    10.9750     9.5260     9.1780   131.6920
 1927.5000     0.0000     2.4290     8.3020   -51.7170    11.5490     9.5260     9.1610   132.6750
 1928.0000     0.0010     2.4280     8.3060   -51.9640    11.2170     9.5260     9.1450   132.8750
 1928.5000     0.0020     2.4260     8.3090   -52.2100    10.5370     9.5260     9.1280   132.0010
 1929.0000     0.0020     2.4260     8.2870   -52.4540    10.7820     9.5480     9.1110   131.2370
 1929.5000     0.0030     2.4280     8.2620   -52.6970    11.1170     9.7110     9.1000   133.3040
 1930.0000     0.0040     2.4310     8.2370   -52.8190    11.3390     9.8750     9.2930   135.5560
 1930.5000     0.0040     2.4340     8.2320   -52.7650    10.6120    10.0390     9.4380   137.8170
 1931.0000     0.0050     2.4380     8.2320   -52.7110    11.5570    10.2020     9.5830   138.4160
 1931.5000     0.0050     2.4410     8.2320   -52.6570    12.3140    10.3660     9.7270   138.6470
 1932.0000     0.0050     2.4430     8.2320   -52.6020    12.2080    10.5290     9.8650   137.9950
 1932.5000     0.0060     2.4450     8.2320   -52.5470    12.0900    10.6930     9.9980   137.1840
 1933.0000     0.0070     2.4470     8.2320   -52.4930    12.0900    10.7640    10.1300   136.3700
 1933.5000     0.0080     2.4460     8.2320   -52.4380    12.0900    10.8050    10.2620   135.4000
 1934.0000     0.0090     2.4460     8.2320   -52.3840    12.0900    10.8470    10.3430   134.6580
 1934.5000     0.0090     2.4470     8.2320   -52.3290    12.0900    10.8880    10.3160   134.5130
 1935.0000     0.0090     2.4470     8.2320   -52.2740    12.1030    10.9310    10.2950   134.3680
 1935.5000     0.0080     2.4450     8.2320   -52.2550    12.1790    10.8460    10.2730   133.9410
 1936.0000     0.0080     2.4410     8.2320   -52.2550    12.2530    10.7370    10.2510   133.3770
 1936.5000     0.0080     2.4430     8.2290   -52.2550    12.3140    10.6280    10.1330   132.8040
 1937.0000     0.0070     2.4450     8.2190   -52.2550    11.8600    10.5190    10.0130   131.7750
 1937.5000     0.0070     2.4470     8.2090   -52.2550    11.2870    10.3460     9.8930   130.6820
 1938.0000     0.0060     2.4440     8.1990   -52.2550    10.8310    10.3550     9.7030   129.5770
 1938.5000     0.0060     2.4410     8.1880   -52.2550    11.3300    10.3790     9.7210   128.4260
 1939.0000     0.0050     2.4380     8.1780   -52.2540    11.9500    10.4030     9.7660   129.3940
 1939.5000     0.0040     2.4340     8.1760   -52.2590    12.5420    10.4270     9.8110   130.7760
 1940.0000     0.0040     2.4330     8.1790   -52.3690    12.4060    10.4590     9.8560   132.1660
 1940.5000     0.0030     2.4340     8.1830   -52.4790    12.0900    10.5040     9.9080   133.5400
 1941.0000     0.0020     2.4360     8.1870   -52.5890    11.9800    10.5480     9.9690   134.7520
