~VERSION INFORMATION
 VERS.                2.0:   CWLS LOG ASCII STANDARD - VERSION 2.0
 WRAP.                 NO:   ONE LINE PER DEPTH STEP
~WELL INFORMATION
#MNEM.UNIT      DATA TYPE    INFORMATION
#----------   ------------   ------------------------------
 STRT.F            0.0000:   START DEPTH
 STOP.F         3040.0000:   STOP DEPTH
 STEP.F            0.5000:   STEP LENGTH
 NULL.          -999.2500:   NO VALUE
 COMP.    FENIX & SCISSON:   COMPANY
 WELL.  FENIX "AX" #43-28:   WELL
 FLD .             TEAPOT:   FIELD
 LOC .      S28 T39N R78W:   LOCATION
 CNTY.            NATRONA:   COUNTY
 STAT.            WYOMING:   STATE
 CTRY. UNITED STATES OF AMERICA:   COUNTRY
 SRVC.              WELEX:   SERVICE COMPANY
 DATE.        20-JUL-1980:   LOGDATE
 API .     49025108450000:   API NUMBER
~CURVE INFORMATION
#MNEM.UNIT       API CODE    CURVE DESCRIPTION
#----------   ------------   ------------------------------
 DEPT.F                  :   
 GRD .GAPI   45 310 01 00:   GAMMA RAY FROM DENSITY LOG
 CALD.IN     45 280 60 00:   CALIPER FROM DENSITY LOG
 RHOB.G/C3   45 350 01 00:   BULK DENSITY
 CORR.G/C3   45 356 01 00:   DENSITY CORRECTION
 SPR .MV     07 010 01 00:   SPONTANEOUS POTENTIAL
 ILD .OHMM   07 120 46 00:   DEEP INDUCTION RESISTIVITY
 ILM .OHMM   07 120 44 00:   INDUCTION LOG MEDIUM RESISTIVITY
 SGRD.OHMM   07 220 05 00:   SHALLOW SHORT GUARD RESISTIVITY
 NEUT.CPS    35 330 30 00:   NEUTRON
~PARAMETER INFORMATION
#MNEM.UNIT          VALUE    DESCRIPTION
#----------   ------------   ------------------------------
 EKB .F         5042.0000:   Kelly bushing
 EGL .F         5032.0000:   Ground level
 EDF .F            0.0000:   Drilling floor
 TD  .F         3038.0000:   Total depth
 DATE.        20-JUL-1980:   Date logged
 CLNT.            A2DTECH:   Client Code
 SL  . 1500' FNL & 2500' FWL:   Surface Location
 PD  .                 GL:   Permanent Datum
 EPD .F              5032:   Elevation Permanent Datum
 LMF .                 KB:   Log Measured From
 DMF .                 KB:   Drilling Measured From
 DD  .F              3000:   Depth driller
 DL  .F              3038:   Depth logger
 BLI .F              3036:   Bottom log interval
 TLI .F               432:   Top log interval
 CS1 .IN            8.625:   Casing size
 CBD1.      8.625" @ 443':   Casing driller 1
 CBL1.F               432:   Casing logger 1
 BS1 .IN            7.875:   Bit size
 BSD1.F              3000:   Depth drilled with bit1
 DFT .     WATER BASE MUD:   Type fluid in hole
 DFD .                9.3:   Density
 DFV .                 45:   Viscosity
 DFPH.                  9:   pH
 DFL .                  8:   Fluid loss
 MSS .                PIT:   Source of sample
 RMS .OHMM           0.85:   Rm
 MST .F                75:   Rm Meas. temp.
 RMF .OHMM           0.68:   Rmf
 MFST.F                75:   Rmf Meas. temp.
 RMC .OHMM           1.02:   Rmc
 MCST.F                75:   Rmc Meas. temp.
 MFSS.               MEAS:   Source Rmf.
 MCSS.               MEAS:   Source Rmc.
 RMB .OHMM           0.57:   Rm. at BHT
 BHT .F               112:   BHT.
 TCS .HRS               3:   Time Circ. stopped
 MRT .F               112:   Maximum recorded temp.
 LUN .               9865:   Logging unit number
 LUL .             CASPER:   Logging unit location
 ENGI.            TOTHILL:   Recorded By
 WITN.           DINSMORE:   Witnessed by
 ORIG.     2.5", 5" PRINT:   Origin of data
 UWI .     49025108450000:   Unique Well ID
 DICO. A2D TECHNOLOGIES, INC.:   Digitizing Company
~OTHER INFORMATION
~A    DEPT     GRD       CALD       RHOB       CORR        SPR        ILD        ILM       SGRD        NEUT  
# ...
  949.0000    74.5720     9.1370     2.5080     0.0020   -30.6140    10.6760    11.3750    11.8310   217.1490
  949.5000    74.8330     9.1350     2.5070     0.0010   -30.6310    10.7020    11.3250    11.8310   238.5630
  950.0000    74.2650     9.1330     2.5090     0.0030   -30.6350    10.7300    11.2760    11.7350   228.5970
  950.5000    73.6800     9.1300     2.5130     0.0060   -30.6300    10.7570    11.2260    11.6380   233.1410
  951.0000    73.7560     9.1280     2.5170     0.0080   -30.6330    10.7840    11.1770    11.5410   241.8400
  951.5000    73.8560     9.1250     2.5200     0.0100   -30.6310    10.7480    11.1280    11.4450   262.6620
  952.0000    73.9530     9.1230     2.5230     0.0120   -30.6340    10.6940    11.0790    11.4030   257.9510
  952.5000    73.8250     9.1200     2.5270     0.0140   -30.6310    10.6410    11.0300    11.4030   213.8750
  953.0000    73.6630     9.1280     2.5280     0.0170   -30.6230    10.5870    10.9810    11.4030   242.0310
  953.5000    73.5020     9.1380     2.5280     0.0190   -30.5040    10.5330    10.9320    11.4030   258.2180
  954.0000    73.4100     9.1470     2.5280     0.0210   -30.4000    10.4790    10.8820    11.4030   245.2820
  954.5000    73.5900     9.1570     2.5280     0.0180   -30.2880    10.4240    10.8340    11.4040   223.8340
  955.0000    73.7620     9.1660     2.5240     0.0140   -30.1820    10.3990    10.7910    11.4030   232.2870
  955.5000    73.9210     9.1760     2.5190     0.0080   -30.0690    10.4120    10.8090    11.4030   270.5170
  956.0000    74.4140     9.1720     2.5110     0.0020   -29.9660    10.4210    10.8240    11.4040   261.9860
  956.5000    74.9600     9.1610     2.5020    -0.0040   -29.8550    10.4310    10.8400    11.3900   219.7970
  957.0000    75.5130     9.1490     2.4940    -0.0090   -29.9570    10.4410    10.8560    11.3670   226.4450
  957.5000    75.9200     9.1380     2.4890    -0.0120   -30.0820    10.4510    10.8720    11.3450   248.1250
  958.0000    76.2270     9.1260     2.4870    -0.0120   -30.2140    10.4610    10.8880    11.3240   272.6260
  958.5000    76.5350     9.1150     2.4860    -0.0120   -30.3400    10.4710    10.9050    11.3020   260.9970
  959.0000    76.8410     9.1030     2.4840    -0.0150   -30.4670    10.4810    10.9210    11.2810   241.7380
  959.5000    77.2210     9.0980     2.4840    -0.0180   -30.5960    10.4910    10.9360    11.2590   245.2220
  960.0000    77.6200     9.0960     2.4850    -0.0170   -30.7240    10.5010    10.9530    11.2370   258.9450
  960.5000    78.0200     9.0930     2.4880    -0.0150   -30.8480    10.5110    10.9690    11.2180   251.5220
  961.0000    78.4100     9.0900     2.4910    -0.0120   -30.9870    10.5210    10.9830    11.2000   244.3790
  961.5000    78.5000     9.0880     2.4960    -0.0100   -30.9670    10.5310    11.0140    11.2860   245.6350
  962.0000    77.7810     9.0850     2.5050    -0.0060   -30.8380    10.5410    11.0540    11.3710   252.0020
  962.5000    77.0890     9.0830     2.5070    -0.0010   -30.7250    10.5510    11.0940    11.4570   265.1100
  963.0000    76.4100     9.0800     2.5090     0.0020   -30.6090    10.5610    11.1330    11.5440   255.3520
  963.5000    76.4820     9.0770     2.5150     0.0040   -30.4980    10.5710    11.1730    11.6150   239.0090
  964.0000    76.6530     9.0750     2.5150     0.0060   -30.3750    10.5810    11.2120    11.6140   241.4750
  964.5000    76.8250     9.0720     2.5160     0.0070   -30.2510    10.5910    11.2510    11.6150   249.0320
  965.0000    76.8860     9.0690     2.5170     0.0090   -29.6570    10.6320    11.2910    11.6170   256.2480
  965.5000    76.8160     9.0670     2.5180     0.0090   -28.8610    10.6840    11.3300    11.6150   261.8280
  966.0000    76.7470     9.0640     2.5180     0.0080   -28.8220    10.7360    11.3690    11.6900   247.8940
  966.5000    76.6800     9.0610     2.5230     0.0070   -29.0880    10.7870    11.4080    11.7550   236.6530
  967.0000    76.7160     9.0650     2.5280     0.0130   -29.3330    10.8390    11.4480    11.8200   225.8540
  967.5000    77.1640     9.0710     2.5340     0.0190   -29.5730    10.8900    11.4870    11.8840   216.4960
  968.0000    77.6050     9.0760     2.5390     0.0250   -29.8220    10.9420    11.5260    11.9490   260.7590
  968.5000    78.0410     9.0810     2.5380     0.0230   -30.0660    10.9930    11.5660    12.0140   254.3090
  969.0000    78.4260     9.0860     2.5360     0.0210   -30.3060    11.0450    11.6050    12.0790   227.6070
  969.5000    78.5150     9.0920     2.5320     0.0190   -30.5600    11.0960    11.6440    12.1430   257.3670
  970.0000    78.6030     9.0970     2.5280     0.0170   -30.5930    11.1480    11.6830    12.2080   252.6410
  970.5000    78.6620     9.1020     2.5230     0.0170   -30.5080    11.1990    11.7230    12.2730   241.0590
  971.0000    78.7390     9.1070     2.5220     0.0220   -30.4360    11.2510    11.7620    12.3380   264.1910
  971.5000    78.3090     9.1120     2.5240     0.0290   -30.3660    11.3020    11.8210    12.4030   289.3990
  972.0000    77.8890     9.1180     2.5290     0.0340   -30.2910    11.3530    11.8060    12.5030   246.4640
  972.5000    77.4620     9.1160     2.5330     0.0390   -30.2200    11.4020    11.7100    12.4220   255.6370
  973.0000    77.0240     9.1080     2.5350     0.0390   -30.1470    11.3050    11.6150    12.2380   265.6130
  973.5000    76.9220     9.1000     2.5360     0.0380   -30.0740    11.2140    11.5190    12.0550   263.1690
  974.0000    76.9180     9.0920     2.5370     0.0370   -30.0010    11.1210    11.4050    11.8710   254.1510
  974.5000    76.9530     9.0850     2.5330     0.0340   -29.9290    11.0280    11.4040    11.6150   245.7460
  975.0000    77.2430     9.0810     2.5290     0.0300   -29.8460    10.9910    11.3830    11.6450   237.7520
  975.5000    77.5380     9.0810     2.5290     0.0270   -29.6970    10.9620    11.3620    11.6940   229.4450
  976.0000    77.8310     9.0810     2.5310     0.0300   -29.5120    10.9270    11.3410    11.7430   252.9340
  976.5000    78.0920     9.0810     2.5340     0.0330   -29.3260    10.8910    11.3200    11.7920   230.8170
  977.0000    77.9860     9.0810     2.5380     0.0370   -29.1450    10.8550    11.2990    11.8420   256.2250
  977.5000    77.8750     9.0810     2.5420     0.0420   -28.9650    10.8190    11.2780    11.8910   252.2380
  978.0000    77.7670     9.0810     2.5430     0.0430   -28.7550    10.7840    11.2570    11.9400   242.8950
  978.5000    77.6590     9.0810     2.5440     0.0420   -28.7640    10.7480    11.2360    11.9890   233.8750
  979.0000    77.5470     9.0810     2.5450     0.0410   -29.1350    10.7120    11.2150    12.0370   243.6770
  979.5000    77.6200     9.0810     2.5460     0.0390   -29.4760    10.6760    11.1940    12.0080   230.8590
  980.0000    77.7910     9.0800     2.5440     0.0370   -29.8290    10.6410    11.1730    11.9490   236.7850
  980.5000    77.9650     9.0750     2.5440     0.0350   -30.1750    10.6050    11.1530    11.8900   249.9550
  981.0000    78.2120     9.0700     2.5470     0.0330   -30.5290    10.5690    11.1320    11.8310   239.2600
  981.5000    78.7700     9.0650     2.5480     0.0310   -30.6260    10.5330    11.1110    11.7720   224.6300
  982.0000    79.3260     9.0600     2.5490     0.0300   -30.5700    10.4980    11.0900    11.7130   234.6820
  982.5000    79.8810     9.0550     2.5510     0.0320   -30.5240    10.4620    11.0690    11.6540   264.9140
  983.0000    80.4360     9.0500     2.5520     0.0340   -30.4790    10.4260    11.0480    11.5950   260.3230
  983.5000    80.9900     9.0460     2.5510     0.0340   -30.4310    10.4000    11.0280    11.5360   248.8030
  984.0000    81.3810     9.0430     2.5400     0.0260   -30.3840    10.3300    11.0070    11.4770   236.7990
  984.5000    81.4530     9.0560     2.5290     0.0110   -30.3410    10.2480    10.9890    11.4180   230.7340
  985.0000    81.5310     9.0690     2.5230     0.0050   -30.2870    10.1660    10.9940    11.3590   242.0990
