~VERSION INFORMATION
 VERS.                2.0:   CWLS LOG ASCII STANDARD - VERSION 2.0
 WRAP.                 NO:   ONE LINE PER DEPTH STEP
~WELL INFORMATION
#MNEM.UNIT      DATA TYPE    INFORMATION
#----------   ------------   ------------------------------
 STRT.F          200.5000:   START DEPTH
 STOP.F         3164.0000:   STOP DEPTH
 STEP.F            0.5000:   STEP LENGTH
 NULL.          -999.2500:   NO VALUE
 COMP. FENIX & SCISSON U.S NAVY:   COMPANY
 WELL. FENIX & SCISSON "A" #83-4:   WELL
 FLD .              NPR-3:   FIELD
 LOC .       S4 T38N R78W:   LOCATION
 CNTY.            NATRONA:   COUNTY
 STAT.            WYOMING:   STATE
 CTRY. UNITED STATES OF AMERICA:   COUNTRY
 SRVC.       SCHLUMBERGER:   SERVICE COMPANY
 DATE.        25-MAY-1977:   LOGDATE
 API .     49025103660000:   API NUMBER
~CURVE INFORMATION
#MNEM.UNIT       API CODE    CURVE DESCRIPTION
#----------   ------------   ------------------------------
 DEPT.F                  :   
 CALD.IN     45 280 60 00:   CALIPER FROM DENSITY LOG
 GRD .GAPI   45 310 01 00:   GAMMA RAY FROM DENSITY LOG
 RHOB.G/C3   45 350 01 00:   BULK DENSITY
 CORR.G/C3   45 356 01 00:   DENSITY CORRECTION
 SPR .MV     07 010 01 00:   SPONTANEOUS POTENTIAL
 SFLU.OHMM   07 220 01 00:   SPHERICALLY FOCUSED LOG UNAVERAGED RESISTIVITY
 ILD .OHMM   07 120 46 00:   DEEP INDUCTION RESISTIVITY
 ILM .OHMM   07 120 44 00:   INDUCTION LOG MEDIUM RESISTIVITY
~PARAMETER INFORMATION
#MNEM.UNIT          VALUE    DESCRIPTION
#----------   ------------   ------------------------------
 EKB .F         5163.0000:   Kelly bushing
 EGL .F         5149.0000:   Ground level
 EDF .F            0.0000:   Drilling floor
 EPD .F            0.0000:   Permanent datum
 TD  .F         3173.0000:   Total depth
 DATE.        25-MAY-1977:   Date logged
 CLNT.            A2DTECH:   Client Code
 SL  . 1650' FNL & 330 ' FEL:   Surface Location
 PD  .                 GL:   Permanent Datum
 DAPD.F                14:   Feet Above Permanent Datum
 DD  .F              3173:   Depth driller
 DL  .F              3157:   Depth logger
 BLI .F              3165:   Bottom log interval
 TLI .F               200:   Top log interval
 CS1 .IN            8.625:   Casing size
 CBD1.      8.625" @ 204':   Casing driller 1
 CBL1.F               220:   Casing logger 1
 BS1 .IN            7.875:   Bit size
 BSD1.F              3173:   Depth drilled with bit1
 DFT .            KCL MUD:   Type fluid in hole
 DFD .                8.8:   Density
 DFV .                 37:   Viscosity
 DFPH.                7.5:   pH
 DFL .                4.4:   Fluid loss
 MSS .           FLOWLINE:   Source of sample
 RMS .OHMM            .39:   Rm
 MST .F                79:   Rm Meas. temp.
 RMF .OHMM            .31:   Rmf
 MFST.F                79:   Rmf Meas. temp.
 RMC .OHMM            .63:   Rmc
 MCST.F                79:   Rmc Meas. temp.
 MFSS.           FANN KIT:   Source Rmf.
 MCSS.           FANN KIT:   Source Rmc.
 RMB .OHMM            .27:   Rm. at BHT
 BHT .F               112:   BHT.
 TCS .HRS             2.5:   Time Circ. stopped
 MRT .F               112:   Maximum recorded temp.
 LUN .               8611:   Logging unit number
 LUL .             CASPER:   Logging unit location
 ENGI.            C. DOAK:   Recorded By
 WITN.      B. HARRINGTON:   Witnessed by
 ORIG.       2.5"5" PRINT:   Origin of data
 UWI .     49025103660000:   Unique Well ID
 DICO. A2D TECHNOLOGIES, INC.:   Digitizing Company
~OTHER INFORMATION
~A   DEPT     CALD        GRD         RHOB     CORR        SPR       SFLU        ILD        ILM   
# ...
 2347.0000     8.3429   110.2244     2.4529     0.0091   -38.2105    14.0536    13.3141     7.5977
 2347.5000     8.4594   109.4327     2.4470     0.0051   -38.2105    15.1085    12.6106     7.5977
 2348.0000     8.3810   110.2045     2.4627    -0.0028   -38.2105    14.8376    12.1623     7.5977
 2348.5000     8.3805   110.9724     2.4667     0.0090   -38.2105    13.3111    12.6106     7.7365
 2349.0000     8.3802   113.3038     2.4804     0.0129   -38.2105    13.3111    12.6106     7.7365
 2349.5000     8.3017   117.9703     2.4823     0.0168   -38.2105    13.5541    12.6106     7.8777
 2350.0000     8.3403   124.9799     2.4823     0.0286   -38.2105    14.3102    12.6106     8.0216
 2350.5000     8.3008   130.4257     2.4725     0.0246   -38.5214    14.8376    13.7611     8.0216
 2351.0000     8.3004   131.9769     2.4627     0.0207   -38.5214    15.3844    14.5749     8.3172
 2351.5000     8.2999   134.8588     2.4568     0.0128   -38.5214    16.2426    13.8048     8.3172
 2352.0000     8.2996   125.7188     2.4509     0.0167   -38.5214    15.1085    13.5572     8.4484
 2352.5000     8.2991   126.4862     2.4705     0.0167   -38.5486    14.0536    12.1623     8.4691
 2353.0000     8.2987   126.4780     2.4568     0.0088   -38.5759    13.5541    11.9442     8.4691
 2353.5000     8.3372   127.2453     2.4450     0.0088   -38.6031    13.0724    11.9442     8.4691
 2354.0000     8.3758   131.9148     2.4292     0.0009   -38.6303    15.9514    11.9442     8.4691
 2354.5000     8.3363   134.2412     2.4214     0.0009   -38.6575    15.9514    11.7300     8.1681
 2355.0000     8.3749   137.3513     2.4135    -0.0030   -38.6848    15.1085    12.1596     8.1681
 2355.5000     8.3744   140.2366     2.4135    -0.0169   -38.7120    14.0536    12.3816     8.0216
 2356.0000     8.3741   136.5508     2.4331    -0.0091   -38.7392    13.5541    11.3131     8.0216
 2356.5000     8.4125   132.6406     2.4410    -0.0012   -38.7665    12.8379    11.3131     7.8777
 2357.0000     8.4122   131.0733     2.4626     0.0087   -38.7937    14.3102    11.5197     7.7365
 2357.5000     8.4117   129.5019     2.4783     0.0126   -38.8209    15.3844    11.9442     7.5977
 2358.0000     8.4503   127.9347     2.4822     0.0184   -38.8482    14.8376    11.7300     7.5977
 2358.5000     8.4498   126.3634     2.4625     0.0125   -38.8754    14.3102    10.9110     7.5977
 2359.0000     8.4494   126.3552     2.4370     0.0086   -38.9026    13.3111    10.7153     7.4615
 2359.5000     8.4489   124.7840     2.4272     0.0046   -38.9298    12.8379    10.9110     7.4615
 2360.0000     8.4096   127.6689     2.4271     0.0046   -38.9571    14.8376    11.7300     7.4615
 2360.5000     8.4090   127.6607     2.4389     0.0085   -38.9843    14.0536    11.9442     7.4615
 2361.0000     8.4087   126.0937     2.4507     0.0085   -39.0115    12.9831    11.7300     7.3277
 2361.5000     8.4082   122.4051     2.4605     0.0182   -39.0388    11.9942    11.1102     7.3277
 2362.0000     8.4078   118.5001     2.4605     0.0182   -39.0660    14.5715    10.9110     7.1963
 2362.5000     8.4073   115.3706     2.4801     0.0182   -39.0932    14.3102    10.3344     7.1963
 2363.0000     8.4070   113.8039     2.4762     0.0142   -39.1205    12.8687    10.3344     7.0672
 2363.5000     8.4064   113.0126     2.4605     0.0103   -39.1477    12.1596    10.1491     7.0672
 2364.0000     8.4451   113.0046     2.4526     0.0103   -39.1749    12.1596    10.1491     7.0672
 2364.5000     8.4445   112.2133     2.4605     0.0045   -39.2021    12.3816    10.1491     6.9405
 2365.0000     8.4442   110.6468     2.4880     0.0084   -39.2294    12.3816    10.1491     6.4558
 2365.5000     8.4437   109.0764     2.4958     0.0185   -39.2566    11.3106     9.9671     6.3401
 2366.0000     8.5214   107.5100     2.4978     0.0319   -39.2838    12.5809     9.4404     6.0051
 2366.5000     8.4428   106.7189     2.5036     0.0358   -39.7669    13.3111     8.9416     5.7916
 2367.0000     8.4424   106.7111     2.5056     0.0397   -39.7669    11.6311     8.3172     5.5857
 2367.5000     8.4809   106.6992     2.5036     0.0358   -39.7669    10.1632     8.0216     5.5857
 2368.0000     8.4805   102.7954     2.4958     0.0258   -39.7669     8.8806     7.4615     5.3872
 2368.5000     8.5190    99.6670     2.4800     0.0219   -39.7669     7.7349     7.1963     5.3872
 2369.0000     8.5186    98.1009     2.4741     0.0179   -39.7669     7.8762     6.9405     5.3872
 2369.5000     8.4791    97.3102     2.4761     0.0100   -39.7669     8.1664     8.3172     5.4856
 2370.0000     8.4400    97.3024     2.4800     0.0100   -39.7669    11.0680     8.7812     5.6877
 2370.5000     8.5172    94.9535     2.4780     0.0100   -39.7669    11.9416     9.1049     5.6877
 2371.0000     8.5169    94.9458     2.4780     0.0100   -39.7669    11.7274     9.4404     5.7916
 2371.5000     8.5551    97.2715     2.4819     0.0100   -39.7669    11.7274     9.4404     5.8974
 2372.0000     8.5160    95.4847     2.4839     0.0099   -39.7669     9.9650    10.1491     6.1147
 2372.5000     8.5155    93.3570     2.4858     0.0099   -39.7669     9.9650    10.3344     6.2264
 2373.0000     8.5151    92.5703     2.4799     0.0099   -39.7669    10.1469    10.3344     6.3401
 2373.5000     8.5146    91.7798     2.4760     0.0138   -39.3778    10.9086    10.9110     6.4558
 2374.0000     8.5142    93.3301     2.4721     0.0138   -39.7669    14.5715    11.1102     6.6938
 2374.5000     8.5137    94.8766     2.4878     0.0138   -39.7669    14.5715    11.3131     6.9405
 2375.0000     8.5134    97.9849     2.4976     0.0138   -39.7669    14.5715    11.3131     7.1963
 2375.5000     8.5128    97.9733     2.4995     0.0177   -39.7669    13.0724    11.1102     6.9405
 2376.0000     8.5125    97.9655     2.4995     0.0176   -39.7669    11.2901    11.1102     6.9405
 2376.5000     8.5120    97.9539     2.5152     0.0216   -39.7669    10.3322    10.9110     7.0672
 2377.0000     8.5506    97.9462     2.4897     0.0176   -39.7669    10.3322    11.1102     7.1963
 2377.5000     8.5500    97.9346     2.4779     0.0137   -39.7669    10.5209    11.5197     7.1963
 2378.0000     8.5497    97.9269     2.4622     0.0058   -39.7669    11.9416    11.7300     7.7349
 2378.5000     8.5492    97.9153     2.4543     0.0078   -39.7669    14.5486    11.9442     7.4600
 2379.0000     8.5488    98.6864     2.4425     0.0000   -39.7669    16.8412    11.9442     7.4600
 2379.5000     8.5483    99.4536     2.4385    -0.0001   -39.7669    16.5392    11.9442     7.4600
 2380.0000     8.5479   101.7823     2.4385     0.0038   -39.7669    13.4881    11.5197     7.4600
 2380.5000     8.5474   102.5494     2.4444     0.0038   -39.7669    11.9416    11.1102     7.1963
 2381.0000     8.5860   105.6568     2.4483     0.0077   -39.7669    12.3816    10.7153     7.1963
 2381.5000     8.5855   108.7601     2.4444     0.0056   -39.7669    14.0017    10.5231     6.9405
 2382.0000     8.5851   111.8673     2.4405     0.0056   -40.1560    15.9514     9.6128     6.9405
 2382.5000     8.5457   113.4129     2.4247     0.0017   -40.1560     8.9397     9.2711     6.8160
 2383.0000     8.5842   114.1836     2.4149    -0.0101   -40.1560     8.9397     8.3172     6.5737
 2383.5000     8.5837   114.1716     2.4267    -0.0141   -40.1560     9.1030     8.3172     6.4558
 2384.0000     8.5834   118.0572     2.4385    -0.0023   -40.1560    12.3816     8.6238     6.2264
 2384.5000     8.5828   119.6025     2.4483     0.0016   -40.1560    12.3816     8.9416     6.0051
 2385.0000     8.5436   121.9304     2.4463     0.0094   -40.1560    12.3816     8.9416     5.7916
 2385.5000     8.5820   125.0329     2.4345     0.0094   -40.1560    14.3102     8.4691     5.4856
 2386.0000     8.5816   132.0325     2.4266     0.0094   -40.1560     9.2692     7.5977     5.3872
 2386.5000     8.5811   134.3560     2.4129     0.0094   -40.1560     9.2692     7.3277     5.2906
 2387.0000     8.5418   135.1263     2.4030     0.0094   -40.1560     9.4384     7.1963     5.2906
