~VERSION INFORMATION
 VERS.                2.0:   CWLS LOG ASCII STANDARD - VERSION 2.0
 WRAP.                 NO:   ONE LINE PER DEPTH STEP
~WELL INFORMATION
#MNEM.UNIT      DATA TYPE    INFORMATION
#----------   ------------   ------------------------------
 STRT.F          450.0000:   START DEPTH
 STOP.F         3070.0000:   STOP DEPTH
 STEP.F            0.5000:   STEP LENGTH
 NULL.          -999.2500:   NO VALUE
 COMP. LAWRENCE ALLISON & ASSOCIATES:   COMPANY
 WELL. LAWRENCE "X" #86-28:   WELL
 FLD .             NPR #3:   FIELD
 LOC .      S28 T39N R78W:   LOCATION
 CNTY.            NATRONA:   COUNTY
 STAT.            WYOMING:   STATE
 CTRY. UNITED STATES OF AMERICA:   COUNTRY
 SRVC.      WESTERN ATLAS:   SERVICE COMPANY
 DATE.        03-JAN-1988:   LOGDATE
 API .     49025111920000:   API NUMBER
~CURVE INFORMATION
#MNEM.UNIT       API CODE    CURVE DESCRIPTION
#----------   ------------   ------------------------------
 DEPT.F                  :   
 TEND.LBS    45 635 01 00:   TENSION FROM DENSITY LOG
 CALD.IN     45 280 60 00:   CALIPER FROM DENSITY LOG
 NPHI.DEC    42 890 03 00:   NEUTRON POROSITY SANDSTONE
 DEN .G/C3   45 350 01 00:   BULK DENSITY
 CORR.G/C3   45 356 01 00:   DENSITY CORRECTION
 TENR.LBS    07 635 01 00:   TENSION FROM RESISTIVITY
 RFOC.OHMM   07 220 04 00:   RESISTIVITY FOCUSED LOG RES.
 RILD.OHMM   07 120 46 00:   DEEP INDUCTION RESISTIVITY
 RILM.OHMM   07 120 44 00:   INDUCTION LOG MEDIUM RESISTIVITY
 SPR .MV     07 010 01 00:   SPONTANEOUS POTENTIAL
 GRR .GAPI   07 310 01 00:   GAMMA RAY FROM RESISTIVITY
~PARAMETER INFORMATION
#MNEM.UNIT          VALUE    DESCRIPTION
#----------   ------------   ------------------------------
 EKB .F         5072.0000:   Kelly bushing
 EGL .F         5061.0000:   Ground level
 EDF .F         5071.0000:   Drilling floor
 TD  .F         3062.0000:   Total depth
 DATE.        03-JAN-1988:   Date logged
 CLNT.            A2DTECH:   Client Code
 SL  . 1721' FSL & 556' FEL:   Surface Location
 PD  .                 GL:   Permanent Datum
 DD  .F              3060:   Depth driller
 DL  .F              3062:   Depth logger
 BLI .F              3060:   Bottom log interval
 CS1 .IN            8.625:   Casing size
 CBD1.      8.625" @ 480':   Casing driller 1
 CBL1.F               480:   Casing logger 1
 BS1 .IN            7.875:   Bit size
 DFT .        KCL-POLYMER:   Type fluid in hole
 DFD .                8.9:   Density
 DFV .                 36:   Viscosity
 DFPH.                9.5:   pH
 DFL .                8.4:   Fluid loss
 MSS .               TANK:   Source of sample
 RMS .OHMM           0.45:   Rm
 MST .F                80:   Rm Meas. temp.
 RMF .OHMM           0.41:   Rmf
 MFST.F                60:   Rmf Meas. temp.
 RMC .OHMM           0.65:   Rmc
 MCST.F                60:   Rmc Meas. temp.
 MFSS.               MEAS:   Source Rmf.
 RMB .OHMM           0.31:   Rm. at BHT
 BHT .F               110:   BHT.
 TCS .HRS               4:   Time Circ. stopped
 MRT .F               110:   Maximum recorded temp.
 LUN .            HL 6343:   Logging unit number
 LUL .               CODY:   Logging unit location
 ENGI.               RALL:   Recorded By
 WITN.              FIVRS:   Witnessed by
 ORIG.     2.5", 5" PRINT:   Origin of data
 UWI .     49025111920000:   Unique Well ID
 DICO. A2D TECHNOLOGIES, INC.:   Digitizing Company
 DAPD.                 11:   Feet Above Permanent Datum
 BSD1.               3060:   Depth drilled with bit1
 MCSS.               CALC:   Source Rmc.
 EPD .               5061:   Elevation Permanent Datum
 LMF .                 KB:   Log Measured From
 DMF .                 KB:   Drilling Measured From
 TLI .                480:   Top log interval
~OTHER INFORMATION
~A   DEPT     TEND       CALD       NPHI        DEN       CORR       TENR       RFOC       RILD       RILM        SPR         GRR  
# ...
 1853.0000  -999.2500  -999.2500  -999.2500  -999.2500  -999.2500   -92.7990     9.1810     7.1980     7.7080   -20.6910   137.2960
 1853.5000  -999.2500  -999.2500  -999.2500  -999.2500  -999.2500   -92.7990     9.4090     7.3310     7.7580   -20.8000   137.2730
 1854.0000  -999.2500  -999.2500  -999.2500  -999.2500  -999.2500   -92.7990     9.5470     7.4640     7.8080   -20.8740   137.6350
 1854.5000  -999.2500  -999.2500  -999.2500  -999.2500  -999.2500   -92.4000     9.6830     7.5960     7.8580   -21.0180   136.0490
 1855.0000  -999.2500  -999.2500  -999.2500  -999.2500  -999.2500   -91.9110     9.6750     7.7290     7.9080   -21.4070   134.5160
 1855.5000  -999.2500  -999.2500  -999.2500  -999.2500  -999.2500   -91.4210     9.6680     7.8780     7.9550   -21.8000   134.7290
 1856.0000  -999.2500  -999.2500  -999.2500  -999.2500  -999.2500   -90.9310     9.6600     7.8610     7.9640   -22.2010   134.9910
 1856.5000  -999.2500  -999.2500  -999.2500  -999.2500  -999.2500   -90.4410     9.6530     7.8390     7.9850   -22.5970   135.2430
 1857.0000  -999.2500  -999.2500  -999.2500  -999.2500  -999.2500   -89.9520     9.6450     7.8160     8.0070   -22.8300   136.3880
 1857.5000  -999.2500  -999.2500  -999.2500  -999.2500  -999.2500   -89.4620     9.6380     7.7940     8.0300   -22.5900   140.2910
 1858.0000  -999.2500  -999.2500  -999.2500  -999.2500  -999.2500   -88.9720     9.6310     7.7710     8.0300   -22.3620   140.8470
 1858.5000  -999.2500  -999.2500  -999.2500  -999.2500  -999.2500   -88.4830     9.6230     7.7490     8.0290   -22.1350   132.2090
 1859.0000  -999.2500  -999.2500  -999.2500  -999.2500  -999.2500   -87.9930     9.6160     7.7260     8.0290   -21.9060   127.3710
 1859.5000  -999.2500  -999.2500  -999.2500  -999.2500  -999.2500   -87.5030     9.6090     7.7040     8.0300   -21.6810   128.0560
 1860.0000  -999.2500  -999.2500  -999.2500  -999.2500  -999.2500   -87.0130     9.6010     7.6810     8.0300   -21.6740   132.9510
 1860.5000  -999.2500  -999.2500  -999.2500  -999.2500  -999.2500   -86.5240     9.5940     7.6590     8.0300   -21.6660   137.5320
 1861.0000  -999.2500  -999.2500  -999.2500  -999.2500  -999.2500   -86.0340     9.5510     7.6360     8.0290   -21.3980   140.6090
 1861.5000  -999.2500  -999.2500  -999.2500  -999.2500  -999.2500   -85.5440     9.4470     7.6140     8.0300   -21.1180   139.4090
 1862.0000  -999.2500  -999.2500  -999.2500  -999.2500  -999.2500   -85.0550     9.3270     7.5910     8.0300   -20.8380   136.6200
 1862.5000  -999.2500  -999.2500  -999.2500  -999.2500  -999.2500   -84.5650     9.3770     7.5690     8.0290   -20.5430   136.4360
 1863.0000  -999.2500  -999.2500  -999.2500  -999.2500  -999.2500   -84.0750     9.4890     7.5460     8.0390   -20.4910   137.5330
 1863.5000  -999.2500  -999.2500  -999.2500  -999.2500  -999.2500   -83.5850     9.5920     7.5240     8.0530   -21.1590   136.2410
 1864.0000  -999.2500  -999.2500  -999.2500  -999.2500  -999.2500   -83.0960     9.4700     7.5010     8.0670   -21.8270   134.0850
 1864.5000  -999.2500  -999.2500  -999.2500  -999.2500  -999.2500   -82.6060     9.2400     7.4790     8.0810   -22.5130   131.6890
 1865.0000  -999.2500  -999.2500  -999.2500  -999.2500  -999.2500   -82.1160     9.4300     7.4560     8.0960   -22.5060   135.4800
 1865.5000  -999.2500  -999.2500  -999.2500  -999.2500  -999.2500   -81.6270     9.6970     7.4500     8.1050   -22.2720   139.4400
 1866.0000  -999.2500  -999.2500  -999.2500  -999.2500  -999.2500   -81.1370     9.9640     7.4500     7.8580   -22.0310   142.6470
 1866.5000  -999.2500  -999.2500  -999.2500  -999.2500  -999.2500   -80.6470    10.2420     7.4530     7.6730   -21.8490   142.3480
 1867.0000  -999.2500  -999.2500  -999.2500  -999.2500  -999.2500   -80.1570     9.7100     7.3140     7.4870   -21.7830   141.5830
 1867.5000  -999.2500  -999.2500  -999.2500  -999.2500  -999.2500   -79.6680     9.0160     7.1370     7.3010   -21.7170   140.3790
 1868.0000  -999.2500  -999.2500  -999.2500  -999.2500  -999.2500   -79.1780     8.5620     6.9590     7.0600   -21.6640   136.5580
 1868.5000  -999.2500  -999.2500  -999.2500  -999.2500  -999.2500   -78.6880     8.2720     6.7840     7.1340   -21.3340   129.9910
 1869.0000  -999.2500  -999.2500  -999.2500  -999.2500  -999.2500   -78.1990     7.9870     6.8130     7.2840   -20.9940   129.2740
 1869.5000  -999.2500  -999.2500  -999.2500  -999.2500  -999.2500   -77.7090     7.8070     6.8480     7.4330   -20.6490   132.0550
 1870.0000  -999.2500  -999.2500  -999.2500  -999.2500  -999.2500   -77.2190     8.2320     6.8830     7.5830   -19.9860   131.6660
 1870.5000  -999.2500  -999.2500  -999.2500  -999.2500  -999.2500   -76.7290     9.6030     6.9180     7.6620   -19.3350   133.0480
 1871.0000  -999.2500  -999.2500  -999.2500  -999.2500  -999.2500   -76.2400     9.8660     6.9530     7.6620   -19.3830   134.3840
 1871.5000  -999.2500  -999.2500  -999.2500  -999.2500  -999.2500   -75.7500     9.5270     6.9860     7.6620   -19.6050   132.5520
 1872.0000  -999.2500  -999.2500  -999.2500  -999.2500  -999.2500   -75.2600     9.0370     7.0120     7.6620   -20.1810   130.7100
 1872.5000  -999.2500  -999.2500  -999.2500  -999.2500  -999.2500   -74.7710     8.9000     7.0390     7.6620   -20.5900   128.9440
 1873.0000  -999.2500  -999.2500  -999.2500  -999.2500  -999.2500   -74.2810     8.9840     7.0650     7.6630   -20.3170   132.0520
 1873.5000  -999.2500  -999.2500  -999.2500  -999.2500  -999.2500   -73.7910     8.9650     7.0920     7.6620   -20.1090   135.5540
 1874.0000  -999.2500  -999.2500  -999.2500  -999.2500  -999.2500   -73.3010     8.9130     7.1180     7.6620   -19.9230   139.0500
 1874.5000  -999.2500  -999.2500  -999.2500  -999.2500  -999.2500   -72.8120     8.8600     7.1450     7.7140   -19.7350   140.2480
 1875.0000  -999.2500  -999.2500  -999.2500  -999.2500  -999.2500   -72.7140     8.8080     7.1710     7.7670   -20.1730   137.7170
 1875.5000  -999.2500  -999.2500  -999.2500  -999.2500  -999.2500   -73.2180     8.7420     7.1980     7.8200   -20.5560   133.8190
 1876.0000  -999.2500  -999.2500  -999.2500  -999.2500  -999.2500   -73.7220     9.0580     7.2240     7.8730   -20.9210   129.9050
 1876.5000  -999.2500  -999.2500  -999.2500  -999.2500  -999.2500   -74.2260     9.5790     7.2510     7.9260   -21.2640   127.7110
 1877.0000  -999.2500  -999.2500  -999.2500  -999.2500  -999.2500   -74.7310     9.8660     7.2770     7.9550   -21.2720   127.8600
 1877.5000  -999.2500  -999.2500  -999.2500  -999.2500  -999.2500   -75.2350     9.8660     7.3040     7.9550   -21.2700   128.0550
 1878.0000  -999.2500  -999.2500  -999.2500  -999.2500  -999.2500   -75.7390     9.5920     7.3310     7.9550   -21.4330   129.7600
 1878.5000  -999.2500  -999.2500  -999.2500  -999.2500  -999.2500   -76.2430     9.3840     7.3570     7.9290   -21.6250   133.5950
 1879.0000  -999.2500  -999.2500  -999.2500  -999.2500  -999.2500   -76.7470     9.2010     7.3770     7.8760   -21.8750   137.0150
 1879.5000  -999.2500  -999.2500  -999.2500  -999.2500  -999.2500   -77.2510     9.0750     7.2920     7.8230   -22.2740   137.6760
 1880.0000  -999.2500  -999.2500  -999.2500  -999.2500  -999.2500   -77.7550     8.9490     7.2130     7.7710   -22.6730   138.1690
 1880.5000  -999.2500  -999.2500  -999.2500  -999.2500  -999.2500   -78.2590     8.8170     7.1650     7.7180   -23.0690   138.6740
 1881.0000  -999.2500  -999.2500  -999.2500  -999.2500  -999.2500   -78.7630     8.9130     7.1310     7.6650   -22.9160   137.1550
 1881.5000  -999.2500  -999.2500  -999.2500  -999.2500  -999.2500   -79.2680     9.0130     7.0980     7.6130   -22.4210   134.0970
 1882.0000  -999.2500  -999.2500  -999.2500  -999.2500  -999.2500   -79.7720     9.1140     7.0640     7.5200   -21.9330   132.4610
 1882.5000  -999.2500  -999.2500  -999.2500  -999.2500  -999.2500   -80.2760     9.3270     7.0310     7.3810   -21.4500   133.6390
 1883.0000  -999.2500  -999.2500  -999.2500  -999.2500  -999.2500   -80.7800     9.0810     6.9980     7.3810   -21.0540   132.8000
