~VERSION INFORMATION
 VERS.                2.0:   CWLS LOG ASCII STANDARD - VERSION 2.0
 WRAP.                 NO:   ONE LINE PER DEPTH STEP
~WELL INFORMATION
#MNEM.UNIT      DATA TYPE    INFORMATION
#----------   ------------   ------------------------------
 STRT.F         2496.0000:   START DEPTH
 STOP.F         4120.0000:   STOP DEPTH
 STEP.F            0.5000:   STEP LENGTH
 NULL.          -999.2500:   NO VALUE
 COMP. LAWRENCE ALLISON AND ASSOCIATES:   COMPANY
 WELL. LAWRENCE "X" #85-10:   WELL
 FLD .              N P R:   FIELD
 LOC .      S10 T38N R78W:   LOCATION
 CNTY.            NATRONA:   COUNTY
 STAT.            WYOMING:   STATE
 CTRY. UNITED STATES OF AMERICA:   COUNTRY
 SRVC.      DRESSER ATLAS:   SERVICE COMPANY
 DATE.        20-JAN-1984:   LOGDATE
 API .     49025109580000:   API NUMBER
~CURVE INFORMATION
#MNEM.UNIT       API CODE    CURVE DESCRIPTION
#----------   ------------   ------------------------------
 DEPT.F                  :   
 SPR .MV     07 010 01 00:   SPONTANEOUS POTENTIAL
 TENR.LBS    07 635 01 00:   TENSION FROM RESISTIVITY
 ILD .OHMM   07 120 46 00:   DEEP INDUCTION RESISTIVITY
 ILM .OHMM   07 120 44 00:   INDUCTION LOG MEDIUM RESISTIVITY
 RFOC.OHMM   07 220 04 00:   RESISTIVITY FOCUSED LOG RES.
 GRD .GAPI   45 310 01 00:   GAMMA RAY FROM DENSITY LOG
 CALD.IN     45 280 60 00:   CALIPER FROM DENSITY LOG
 TEND.LBS    45 635 01 00:   TENSION FROM DENSITY LOG
 RHOB.G/C3   45 350 01 00:   BULK DENSITY
 CORR.G/C3   45 356 01 00:   DENSITY CORRECTION
 CN  .DEC    42 890 03 00:   NEUTRON POROSITY SANDSTONE
~PARAMETER INFORMATION
#MNEM.UNIT          VALUE    DESCRIPTION
#----------   ------------   ------------------------------
 EKB .F         5231.0000:   Kelly bushing
 EGL .F         5221.0000:   Ground level
 EDF .F            0.0000:   Drilling floor
 TD  .F         4115.0000:   Total depth
 DATE.        20-JAN-1984:   Date logged
 CLNT.            A2DTECH:   Client Code
 SL  . 2159' FSL & 292' FEL:   Surface Location
 PD  .                 GL:   Permanent Datum
 EPD .F              5221:   Elevation Permanent Datum
 LMF .                 KB:   Log Measured From
 DMF .                 KB:   Drilling Measured From
 DD  .F              4115:   Depth driller
 DL  .F              4111:   Depth logger
 BLI .F              4109:   Bottom log interval
 TLI .F              2496:   Top log interval
 CS1 .IN            8.625:   Casing size
 CBD1.       8.625 @ 537':   Casing driller 1
 BS1 .IN            7.875:   Bit size
 DFT .            GEL KCL:   Type fluid in hole
 DFD .                8.8:   Density
 DFV .                 40:   Viscosity
 DFPH.                  9:   pH
 DFL .                9.8:   Fluid loss
 MSS .           FLOWLINE:   Source of sample
 RMS .OHMM           0.61:   Rm
 MST .F                77:   Rm Meas. temp.
 RMF .OHMM           0.51:   Rmf
 MFST.F                69:   Rmf Meas. temp.
 RMC .OHMM           0.76:   Rmc
 MCST.F                77:   Rmc Meas. temp.
 MFSS.               MEAS:   Source Rmf.
 RMB .OHMM           0.38:   Rm. at BHT
 BHT .F               122:   BHT.
 TCS .HRS               4:   Time Circ. stopped
 MRT .F               122:   Maximum recorded temp.
 LUN .               6307:   Logging unit number
 LUL .               GLTE:   Logging unit location
 ENGI.            DEYOUNG:   Recorded By
 WITN.           R. SCOTT:   Witnessed by
 ORIG.           5" PRINT:   Origin of data
 UWI .     49025109580000:   Unique Well ID
 DICO. A2D TECHNOLOGIES, INC.:   Digitizing Company
 DAPD.                 10:   Feet Above Permanent Datum
 MCSS.               CALC:   Source Rmc.
~OTHER INFORMATION
~A  DEPT       SPR       TENR        ILD        ILM       RFOC        GRD       CALD       TEND       RHOB       CORR         CN   
# ...
 3441.5000   -57.1820   -22.3340     2.9460     3.2060     3.7910   159.1830     8.2380   -26.5270     2.5150     0.0720     0.2670
 3442.0000   -57.1170   -22.2110     2.8690     3.1440     3.6810   162.7240     8.2370   -27.1990     2.5090     0.0540     0.2700
 3442.5000   -56.8420   -22.0890     2.7930     3.0820     3.5830   166.2250     8.2370   -27.8710     2.5030     0.0330     0.2740
 3443.0000   -56.5700   -21.9670     2.7280     3.0210     3.5560   169.0390     8.2360   -28.5440     2.4980     0.0330     0.2770
 3443.5000   -56.2980   -21.8440     2.6810     2.9590     3.5290   170.9620     8.2360   -29.2160     2.4960     0.0380     0.2760
 3444.0000   -56.0290   -21.9410     2.6340     2.8980     3.5010   169.2480     8.2350   -29.8880     2.4940     0.0430     0.2740
 3444.5000   -55.8370   -22.0380     2.5940     2.8440     3.4740   167.0950     8.2350   -30.5600     2.4920     0.0480     0.2740
 3445.0000   -56.0040   -22.1350     2.5800     2.8250     3.4420   170.5340     8.2340   -31.2320     2.4910     0.0630     0.2770
 3445.5000   -56.1650   -22.2330     2.5660     2.8060     3.4020   173.8640     8.2340   -31.9040     2.4880     0.0830     0.2700
 3446.0000   -56.3240   -22.3300     2.5520     2.7870     3.3630   175.8180     8.2330   -32.5760     2.4910     0.0980     0.2630
 3446.5000   -56.4830   -22.4270     2.5380     2.7670     3.4450   173.2280     8.2330   -33.2480     2.4950     0.0940     0.2620
 3447.0000   -56.6420   -22.5250     2.5240     2.7480     3.5270   170.7630     8.2320   -33.9200     2.4980     0.0910     0.2640
 3447.5000   -56.8010   -22.6220     2.5100     2.7290     3.5870   168.3100     8.2320   -34.5920     2.4970     0.0660     0.2670
 3448.0000   -56.9650   -22.7190     2.5020     2.7100     3.4290   166.8670     8.2310   -35.2640     2.4930     0.0500     0.2700
 3448.5000   -56.8530   -22.8170     2.4570     2.6910     3.3030   166.5380     8.2310   -35.9360     2.4870     0.0480     0.2710
 3449.0000   -56.5190   -22.9140     2.4140     2.6720     3.2080   165.4460     8.2300   -36.6080     2.4810     0.0690     0.2700
 3449.5000   -56.1840   -23.0110     2.3710     2.6250     3.1960   164.0290     8.2300   -37.2800     2.4770     0.0950     0.2690
 3450.0000   -55.8490   -23.1080     2.3280     2.5600     3.1850   162.5160     8.2300   -37.7130     2.4770     0.1000     0.2660
 3450.5000   -55.5130   -23.2060     2.2810     2.4950     3.1510   165.0440     8.2290   -37.5870     2.4760     0.1030     0.2640
 3451.0000   -55.1770   -23.3030     2.1930     2.4290     3.1070   168.6390     8.2290   -37.4610     2.4760     0.1060     0.2620
 3451.5000   -54.8420   -23.4000     2.0940     2.3640     3.0620   167.2800     8.2280   -37.3350     2.4690     0.1090     0.2590
 3452.0000   -54.5060   -23.4980     1.9960     2.2600     3.0180   165.8980     8.2280   -37.2090     2.4610     0.0940     0.2620
 3452.5000   -54.1710   -23.5950     1.8980     2.1390     2.9740   169.8860     8.2270   -37.0840     2.4540     0.0730     0.2650
 3453.0000   -53.8350   -23.6920     1.8000     2.0190     2.9300   174.2440     8.2270   -36.9580     2.4500     0.0590     0.2670
 3453.5000   -53.4990   -23.7900     1.7020     1.8990     2.8860   178.5940     8.2260   -36.8320     2.4460     0.0620     0.2710
 3454.0000   -53.1640   -23.8870     1.6340     1.8090     2.6670   182.9400     8.2260   -36.7060     2.4410     0.0720     0.2780
 3454.5000   -52.8280   -23.9840     1.7320     1.9780     2.3840   187.2870     8.2250   -36.5800     2.4370     0.0830     0.2820
 3455.0000   -52.4920   -24.0820     1.8300     2.1410     2.1000   191.6120     8.2250   -36.4540     2.4340     0.0950     0.2840
 3455.5000   -52.1560   -24.1790     1.9290     2.3030     1.8970   196.0470     8.2240   -36.3280     2.4370     0.1120     0.2860
 3456.0000   -51.8310   -24.2760     2.0270     2.4660     2.4500   189.8710     8.2240   -36.2020     2.4660     0.1250     0.2780
 3456.5000   -51.8300   -24.3740     2.1250     2.6280     3.1930   174.3700     8.2230   -36.0760     2.5090     0.1220     0.2660
 3457.0000   -52.6060   -24.4710     2.2240     2.7910     3.9370   158.9430     8.2230   -35.9500     2.5340     0.0980     0.2530
 3457.5000   -53.3450   -24.5680     2.3220     2.9340     4.6040   145.9180     8.2220   -35.8240     2.5300     0.0640     0.2400
 3458.0000   -54.0870   -24.6660     2.5180     2.9700     4.5200   137.8680     8.2220   -35.6980     2.5250     0.0320     0.2350
 3458.5000   -54.2730   -24.7630     2.7440     3.0070     4.1650   136.3880     8.2220   -35.5720     2.5270     0.0570     0.2500
 3459.0000   -54.0480   -24.8600     2.9700     3.0430     3.7550   143.6330     8.2210   -35.4460     2.5290     0.0950     0.2710
 3459.5000   -53.8210   -24.9580     3.0660     3.0660     3.3450   154.3880     8.2210   -35.3200     2.5220     0.1280     0.2870
 3460.0000   -53.5960   -25.0550     3.0150     3.0160     2.9280   157.8840     8.2200   -35.1940     2.5000     0.1100     0.2760
 3460.5000   -53.4490   -25.1520     2.8810     2.8910     3.1170   156.2160     8.2200   -35.0680     2.5070     0.0860     0.2640
 3461.0000   -53.7310   -25.2500     2.7440     2.7670     3.4420   153.7550     8.2190   -34.9420     2.5220     0.0640     0.2520
 3461.5000   -54.0050   -25.3470     2.5960     2.6430     3.7660   150.3940     8.2190   -34.8160     2.5400     0.0870     0.2520
 3462.0000   -54.2810   -25.4440     2.4460     2.5190     3.9960   149.0540     8.2180   -34.6900     2.5580     0.1160     0.2630
 3462.5000   -54.5680   -25.5420     2.2960     2.3940     4.1590   153.4490     8.2180   -34.5640     2.5770     0.1250     0.2730
 3463.0000   -54.2730   -25.6390     2.1470     2.2700     3.3200   163.5780     8.2170   -34.4380     2.5930     0.1080     0.2830
 3463.5000   -53.8620   -25.7360     1.9970     2.1460     2.4810   176.7560     8.2170   -34.3120     2.5390     0.0700     0.2930
 3464.0000   -53.4520   -25.8330     1.9680     2.0230     1.9860   189.9580     8.2160   -34.1860     2.4800     0.0500     0.2930
 3464.5000   -52.8320   -25.8520     2.0600     2.2540     2.0050   203.0960     8.2160   -34.0600     2.4220     0.0420     0.2860
 3465.0000   -52.1180   -25.8520     2.1160     2.4820     2.4810   213.0530     8.2150   -33.9340     2.3750     0.0340     0.2810
 3465.5000   -52.7920   -25.8520     2.2000     2.7100     3.2210   199.6180     8.2140   -33.8080     2.3940     0.0250     0.2750
 3466.0000   -53.4350   -25.8520     2.3860     2.9110     3.9620   168.5310     8.2140   -33.6820     2.4250     0.0190     0.2690
 3466.5000   -54.0780   -25.8520     2.5720     3.0960     4.2370   149.2690     8.2130   -33.5560     2.4560     0.0470     0.2630
 3467.0000   -54.7170   -25.8520     2.7580     3.2800     4.2110   145.0570     8.2130   -33.4310     2.4860     0.0770     0.2560
 3467.5000   -55.2400   -25.8520     2.9450     3.4570     4.1700   144.6630     8.2120   -33.3050     2.5000     0.0940     0.2520
 3468.0000   -55.2990   -25.8520     3.1310     3.4180     4.1290   147.2140     8.2120   -33.1790     2.5130     0.0840     0.2560
 3468.5000   -55.3690   -25.8520     3.2710     3.3810     4.0880   149.7110     8.2110   -33.0530     2.5260     0.0740     0.2590
 3469.0000   -55.3420   -25.8520     3.2410     3.3440     4.0470   152.0550     8.2110   -32.9270     2.5320     0.0650     0.2670
 3469.5000   -55.1910   -25.8520     3.2130     3.3060     4.0080   154.5470     8.2100   -32.8010     2.5250     0.0850     0.2800
 3470.0000   -55.0430   -25.8520     3.1840     3.2710     3.5680   158.4910     8.2100   -32.6750     2.5120     0.1210     0.2940
 3470.5000   -54.8950   -25.8520     3.1560     3.2910     3.1310   167.1480     8.2090   -32.5490     2.4860     0.1580     0.2860
 3471.0000   -55.0790   -25.8520     3.1210     3.3150     3.3700   172.7500     8.2090   -32.4230     2.4610     0.1880     0.2770
 3471.5000   -55.6550   -25.8520     3.0860     3.3390     3.6880   168.9960     8.2080   -32.2970     2.4390     0.1690     0.2680
