~VERSION INFORMATION
 VERS.                2.0:   CWLS LOG ASCII STANDARD - VERSION 2.0
 WRAP.                 NO:   ONE LINE PER DEPTH STEP
~WELL INFORMATION
#MNEM.UNIT      DATA TYPE    INFORMATION
#----------   ------------   ------------------------------
 STRT.F           96.5000:   START DEPTH
 STOP.F         2720.0000:   STOP DEPTH
 STEP.F            0.5000:   STEP LENGTH
 NULL.          -999.2500:   NO VALUE
 COMP.          INTEX OIL:   COMPANY
 WELL. INTEX NPR 65 "AX" #3-20:   WELL
 FLD .             TEAPOT:   FIELD
 LOC .      S20 T39N R78W:   LOCATION
 CNTY.            NATRONA:   COUNTY
 STAT.            WYOMING:   STATE
 CTRY. UNITED STATES OF AMERICA:   COUNTRY
 SRVC.       SCHLUMBERGER:   SERVICE COMPANY
 DATE.        04-MAY-1966:   LOGDATE
 API .     49025094910000:   API NUMBER
~CURVE INFORMATION
#MNEM.UNIT       API CODE    CURVE DESCRIPTION
#----------   ------------   ------------------------------
 DEPT.F                  :   
 SPR .MV     05 010 01 00:   SPONTANEOUS POTENTIAL FROM RES.
 SN  .OHMM   05 040 16 00:   SHORT NORMAL 16"
 ILD .OHMM   05 120 46 00:   INDUCTION LOG DEEP
 CALD.IN     45 280 60 00:   CALIPER FROM DENSITY LOG
 CORR.G/C3   45 356 01 00:   DENSITY CORRECTION
 GRD .GAPI   45 310 01 00:   GAMMA RAY FROM DENSITY LOG
 RHOB.G/C3   45 350 01 00:   BULK DENSITY
~PARAMETER INFORMATION
#MNEM.UNIT          VALUE    DESCRIPTION
#----------   ------------   ------------------------------
 EKB .F         5053.3000:   Kelly bushing
 EGL .F         5043.0000:   Ground level
 EDF .F            0.0000:   Drilling floor
 TD  .F         2720.0000:   Total depth
 DATE.        04-MAY-1966:   Date logged
 CLNT.            A2DTECH:   Client Code
 PD  .                 GL:   Permanent Datum
 EPD .F              5043:   Elevation Permanent Datum
 LMF .                 KB:   Log Measured From
 DMF .                 KB:   Drilling Measured From
 DAPD.F              10.3:   Feet Above Permanent Datum
 DD  .F              2720:   Depth driller
 DL  .F              2720:   Depth logger
 BLI .F              2719:   Bottom log interval
 TLI .F                97:   Top log interval
 CS1 .IN            10.75:   Casing size
 CBD1.       10.75" @ 30':   Casing driller 1
 BS1 .IN            7.875:   Bit size
 BSD1.F              2720:   Depth drilled with bit1
 DFT . GEL/Q-BROX/OIL/DAKOLITE:   Type fluid in hole
 DFD .               10.3:   Density
 DFV .                 41:   Viscosity
 DFPH.                7.2:   pH
 DFL .                8.8:   Fluid loss
 MSS .           FLOWLINE:   Source of sample
 RMS .OHMM              2:   Rm
 MST .F                61:   Rm Meas. temp.
 RMF .OHMM           1.31:   Rmf
 MFST.F                65:   Rmf Meas. temp.
 MFSS.                 FP:   Source Rmf.
 RMB .OHMM           1.15:   Rm. at BHT
 BHT .F               110:   BHT.
 TCS .HRS               2:   Time Circ. stopped
 MRT .F               110:   Maximum recorded temp.
 LUN .               4507:   Logging unit number
 LUL .               CSPR:   Logging unit location
 ENGI.            MANGOLD:   Recorded By
 WITN.             TUTTLE:   Witnessed by
 ORIG.       2", 5" PRINT:   Origin of data
 UWI .     49025094910000:   Unique Well ID
 DICO. A2D TECHNOLOGIES, INC.:   Digitizing Company
~OTHER INFORMATION
~A   DEPT      SPR         SN         ILD      CALD       CORR        GRD       RHOB   
# ...
 2098.5000   -33.2670     9.6410     7.3380     9.2680     0.0140   126.5770     2.5320
 2099.0000   -33.2670     9.5380     7.2990     9.2670     0.0140   126.5470     2.5330
 2099.5000   -33.2680     9.4460     7.2120     9.2660     0.0170   126.5940     2.5330
 2100.0000   -33.2680     9.3610     7.1130     9.2650     0.0200   126.5100     2.5340
 2100.5000   -33.2680     9.2620     7.0210     9.2640     0.0220   126.6550     2.5350
 2101.0000   -33.2680     9.1650     6.9250     9.2640     0.0260   127.5240     2.5360
 2101.5000   -33.2680     9.1260     6.8330     9.2630     0.0240   132.5160     2.5360
 2102.0000   -33.2680     9.1820     6.7790     9.2620     0.0220   133.7040     2.5350
 2102.5000   -33.2680     9.2970     6.7840     9.2610     0.0240   132.6980     2.5380
 2103.0000   -33.2680     9.4100     6.8250     9.2600     0.0240   130.5550     2.5430
 2103.5000   -33.2680     9.5080     6.8670     9.2590     0.0180   128.3320     2.5420
 2104.0000   -33.2680     9.6240     6.8990     9.2580     0.0140   126.0110     2.5390
 2104.5000   -33.2680     9.7650     6.9290     9.2570     0.0090   123.7470     2.5410
 2105.0000   -33.2680     9.8720     6.9640     9.2560     0.0080   121.5870     2.5570
 2105.5000   -33.2680     9.8860     7.0020     9.2550     0.0080   118.7340     2.5530
 2106.0000   -33.2680     9.7970     7.0370     9.2540     0.0070   120.1560     2.5310
 2106.5000   -33.2680     9.6250     7.0680     9.2530     0.0070   122.3490     2.5170
 2107.0000   -33.2680     9.4330     7.1010     9.2520     0.0070   121.5560     2.5150
 2107.5000   -33.2680     9.3520     7.1400     9.2510     0.0050   122.8070     2.5100
 2108.0000   -33.2680     9.5200     7.1770     9.2500     0.0000   123.0030     2.5160
 2108.5000   -33.2680     9.8930     7.2050     9.2490    -0.0050   121.1350     2.5190
 2109.0000   -33.2680    10.2280     7.2330     9.2490    -0.0090   117.8160     2.5170
 2109.5000   -33.2680    10.3110     7.2800     9.2480    -0.0040   115.9590     2.5140
 2110.0000   -33.2680    10.1700     7.3300     9.2470     0.0030   117.6270     2.5220
 2110.5000   -33.2680     9.9810     7.3250     9.2460     0.0100   119.6630     2.5320
 2111.0000   -33.2680     9.8460     7.2300     9.2450     0.0180   122.7330     2.5400
 2111.5000   -33.2680     9.7340     7.0730     9.2440     0.0200   126.1600     2.5510
 2112.0000   -33.2670     9.5970     6.9000     9.2430     0.0090   128.6330     2.5330
 2112.5000   -33.2670     9.4460     6.7240     9.2420     0.0060   130.0390     2.5120
 2113.0000   -33.2680     9.3060     6.5490     9.2410     0.0140   132.6800     2.5160
 2113.5000   -33.2690     9.1740     6.4100     9.2400     0.0210   131.7400     2.5280
 2114.0000   -33.2670     9.0350     6.3530     9.2390     0.0190   130.8780     2.5230
 2114.5000   -33.2650     8.8870     6.3650     9.2380     0.0060   129.6770     2.5070
 2115.0000   -33.2690     8.7430     6.3840     9.2370    -0.0020   127.9550     2.4940
 2115.5000   -33.2740     8.6150     6.3760     9.2360    -0.0050   126.0720     2.4830
 2116.0000   -33.2600     8.5310     6.3630     9.2350    -0.0060   124.0020     2.4850
 2116.5000   -33.2090     8.5110     6.3730     9.2340    -0.0010   123.9350     2.4970
 2117.0000   -33.1240     8.5430     6.3880     9.2340     0.0030   124.9500     2.5070
 2117.5000   -33.0260     8.5550     6.3520     9.2330     0.0080   125.7660     2.5190
 2118.0000   -32.9330     8.4720     6.2350     9.2320     0.0090   124.6640     2.5200
 2118.5000   -32.8500     8.2860     6.0660     9.2310     0.0100   122.9880     2.5140
 2119.0000   -32.7630     8.0610     5.8940     9.2300     0.0090   123.7350     2.5040
 2119.5000   -32.6640     7.8530     5.7350     9.2290     0.0210   123.8000     2.5210
 2120.0000   -32.5670     7.6780     5.5700     9.2280     0.0390   122.8190     2.5390
 2120.5000   -32.4970     7.5320     5.3910     9.2270     0.0560   121.1090     2.5520
 2121.0000   -32.4720     7.4100     5.2180     9.2260     0.0490   121.8580     2.5480
 2121.5000   -32.4770     7.2900     5.0570     9.2250     0.0350   122.7380     2.5440
 2122.0000   -32.4840     7.1370     4.8940     9.2240     0.0230   125.2180     2.5400
 2122.5000   -32.4820     6.9470     4.7210     9.2230     0.0190   129.4490     2.5300
 2123.0000   -32.4780     6.7510     4.5530     9.2220     0.0160   133.7070     2.5180
 2123.5000   -32.4790     6.5750     4.3870     9.2200     0.0130   135.6980     2.5060
 2124.0000   -32.4810     6.4070     4.1980     9.2170     0.0210   135.9670     2.5030
 2124.5000   -32.4810     6.2300     4.0010     9.2150     0.0340   136.4420     2.5110
 2125.0000   -32.4800     6.0440     3.8720     9.2130     0.0300   135.8210     2.5060
 2125.5000   -32.4800     5.8620     3.8720     9.2110     0.0230   134.4400     2.4960
 2126.0000   -32.4800     5.7020     3.9690     9.2090     0.0150   135.5180     2.4860
 2126.5000   -32.4800     5.5910     4.0780     9.2060     0.0120   136.5340     2.4810
 2127.0000   -32.4800     5.5620     4.1610     9.2040     0.0080   135.1280     2.4790
 2127.5000   -32.4800     5.6270     4.2370     9.2020     0.0080   133.1650     2.4770
 2128.0000   -32.4800     5.7580     4.3260     9.2000     0.0070   131.1900     2.4750
 2128.5000   -32.4800     5.9130     4.4200     9.1980     0.0080   129.6580     2.4770
 2129.0000   -32.4800     6.0640     4.5050     9.1960     0.0090   128.6150     2.4820
 2129.5000   -32.4810     6.2080     4.5880     9.1930     0.0100   127.4690     2.4870
 2130.0000   -32.4810     6.3520     4.6780     9.1910     0.0100   127.9230     2.4920
 2130.5000   -32.4790     6.5000     4.7690     9.1890     0.0110   128.8280     2.4970
 2131.0000   -32.4790     6.6540     4.8520     9.1870     0.0120   131.5650     2.5010
 2131.5000   -32.4820     6.8080     4.9280     9.1850     0.0120   133.1400     2.4960
 2132.0000   -32.4830     6.9410     5.0230     9.1820     0.0100   134.1790     2.4900
 2132.5000   -32.4770     7.0240     5.1530     9.1800     0.0080   136.1760     2.4840
 2133.0000   -32.4740     7.0540     5.3070     9.1780     0.0070   138.2220     2.4760
 2133.5000   -32.4860     7.0840     5.4490     9.1760     0.0050   136.4090     2.4810
 2134.0000   -32.4920     7.1810     5.5620     9.1740     0.0090   135.6820     2.4960
 2134.5000   -32.4710     7.3680     5.6740     9.1710     0.0110   137.5920     2.5060
 2135.0000   -32.4550     7.6050     5.8280     9.1690     0.0070   137.6250     2.5010
 2135.5000   -32.5190     7.8440     6.0290     9.1670     0.0030   134.4790     2.4920
 2136.0000   -32.6760     8.0740     6.2430     9.1650     0.0030   131.7040     2.4830
 2136.5000   -32.8340     8.3090     6.4510     9.1630     0.0040   129.3590     2.4720
 2137.0000   -32.8980     8.5380     6.6580     9.1610     0.0050   131.5780     2.4770
 2137.5000   -32.8830     8.7190     6.8410     9.1580     0.0060   133.6670     2.4880
 2138.0000   -32.8640     8.8330     6.9430     9.1560     0.0070   135.9000     2.4990
 2138.5000   -32.8710     8.9050     6.9400     9.1540     0.0080   138.3120     2.5020
 2139.0000   -32.8720     8.9820     6.8890     9.1520     0.0090   139.6630     2.4970
 2139.5000   -32.8430     9.0770     6.8630     9.1500     0.0100   138.9870     2.4930
 2140.0000   -32.8030     9.1620     6.8530     9.1470     0.0080   137.7470     2.4990
 2140.5000   -32.7720     9.2250     6.8090     9.1460     0.0110   135.1870     2.5040
 2141.0000   -32.7490     9.3060     6.7570     9.1360     0.0160   133.3800     2.5190
 2141.5000   -32.7240     9.4220     6.8080     9.1200     0.0210   134.1540     2.5310
 2142.0000   -32.6950     9.5070     7.0270     9.1060     0.0250   135.6450     2.5460
 2142.5000   -32.6600     9.5230     7.3510     9.0920     0.0300   137.4250     2.5420
 2143.0000   -32.6290     9.5880     7.6830     9.0780     0.0350   136.4320     2.5400
 2143.5000   -32.6110     9.8710     8.0020     9.0630     0.0410   134.8100     2.5420
