~VERSION INFORMATION
 VERS.                2.0:   CWLS LOG ASCII STANDARD - VERSION 2.0
 WRAP.                 NO:   ONE LINE PER DEPTH STEP
~WELL INFORMATION
#MNEM.UNIT      DATA TYPE    INFORMATION
#----------   ------------   ------------------------------
 STRT.F          200.0000:   START DEPTH
 STOP.F         3142.0000:   STOP DEPTH
 STEP.F            0.5000:   STEP LENGTH
 NULL.          -999.2500:   NO VALUE
 COMP.    FENIX & SCISSON:   COMPANY
 WELL.  FENIX "AX" #37-10:   WELL
 FLD .              NPR-3:   FIELD
 LOC .      S10 T38N R78W:   LOCATION
 CNTY.            NATRONA:   COUNTY
 STAT.            WYOMING:   STATE
 CTRY. UNITED STATES OF AMERICA:   COUNTRY
 SRVC.              WELEX:   SERVICE COMPANY
 DATE.        19-SEP-1977:   LOGDATE
 API .     49025104190000:   API NUMBER
~CURVE INFORMATION
#MNEM.UNIT       API CODE    CURVE DESCRIPTION
#----------   ------------   ------------------------------
 DEPT.F                  :   
 CALD.IN     45 280 60 00:   CALIPER FROM DENSITY LOG
 GRD .GAPI   45 310 01 00:   GAMMA RAY FROM DENSITY LOG
 RHOB.G/C3   45 350 01 00:   BULK DENSITY
 CORR.G/C3   45 356 01 00:   DENSITY CORRECTION
 NPHI.DEC    42 890 03 00:   NEUTRON POROSITY SANDSTONE
 SPR .MV     07 010 01 00:   SPONTANEOUS POTENTIAL
 SGRD.OHMM   07 220 05 00:   SHALLOW GUARD RESISTIVITY
 ILD .OHMM   07 120 46 00:   INDUCTION LOG DEEP RESISTIVITY
 ILM .OHMM   07 120 44 00:   INDUCTION LOG MEDIUM RESISTIVITY
 TENR.LBS    07 635 01 00:   TENSION FROM RESISTIVITY
~PARAMETER INFORMATION
#MNEM.UNIT          VALUE    DESCRIPTION
#----------   ------------   ------------------------------
 EKB .F         5221.0000:   Kelly bushing
 EGL .F         5211.0000:   Ground level
 EDF .F            0.0000:   Drilling floor
 TD  .F         3150.0000:   Total depth
 DATE.        19-SEP-1977:   Date logged
 CLNT.            A2DTECH:   Client Code
 SL  . 1190' FSL & 1750' FWL:   Surface Location
 PD  .                 GL:   Permanent Datum
 DD  .F              3150:   Depth driller
 DL  .F              3146:   Depth logger
 BLI .F              3144:   Bottom log interval
 CS1 .IN            8.625:   Casing size
 CBD1.      8.625" @ 215':   Casing driller 1
 BS1 .IN            7.875:   Bit size
 DFT .            KCL/MUD:   Type fluid in hole
 DFD .                8.9:   Density
 TCS .HRS               2:   Time Circ. stopped
 MRT .F               116:   Maximum recorded temp.
 ENGI.            C. DOAK:   Recorded By
 WITN.      B. HARRINGTON:   Witnessed by
 ORIG.           5" PRINT:   Origin of data
 UWI .     49025104190000:   Unique Well ID
 DICO. A2D TECHNOLOGIES, INC.:   Digitizing Company
 DAPD.F                10:   Feet Above Permanent Datum
 BSD1.F              3150:   Depth drilled with bit1
 EPD .F              5211:   Elevation Permanent Datum
 LMF .                 KB:   Log Measured From
 DMF .                 KB:   Drilling Measured From
 TLI .F               200:   Top log interval
 CBL1.                213:   Casing logger 1
 DFV .                 37:   Viscosity
 DFPH.                 11:   pH
 DFL .                5.8:   Fluid loss
 MSS .           MEASURED:   Source of sample
 RMS .               2.82:   Rm
 MST .                 94:   Rm Meas. temp.
 RMF .               1.61:   Rmf
 MFST.                 94:   Rmf Meas. temp.
 MFSS.               MEAS:   Source Rmf.
 RMC .               3.12:   Rmc
 MCST.                 94:   Rmc Meas. temp.
 MCSS.               MEAS:   Source Rmc.
 RMB .               2.28:   Rm. at BHT
 BHT .                116:   BHT.
 LUN .               8611:   Logging unit number
 LUL .             CASPER:   Logging unit location
~OTHER INFORMATION
~A   DEPT       CALD       GRD        RHOB      CORR      NPHI        SPR       SGRD        ILD        ILM       TENR   
# ...
 1942.0000    10.6971    60.8060     2.5089    -0.0071     0.2373   -70.3591    13.2819     8.0837     9.8963  1606.4739
 1942.5000    10.7088    59.2312     2.5129    -0.0051     0.2317   -70.3577    13.5309     8.0112    10.1750  1586.0747
 1943.0000    10.7206    58.6399     2.5149    -0.0031     0.2289   -70.1579    15.6804     7.9393    10.0837  1585.6769
 1943.5000    10.7323    59.8297     2.5149    -0.0031     0.2329   -70.3550    15.1152     7.9408     9.8111  1585.2792
 1944.0000    10.7440    61.2172     2.5130    -0.0011     0.2369   -70.3536    14.4385     7.8698     9.5459  1584.8019
 1944.5000    10.7558    62.4070     2.5110    -0.0010     0.2385   -70.7488    14.0482     7.7992     9.8147  1584.4041
 1945.0000    10.7675    63.7937     2.5110    -0.0030     0.2401   -70.7474    13.6690     7.8006     9.5494  1584.0063
 1945.5000    10.7792    65.3788     2.5110     0.0010     0.2405   -70.9444    13.0571     7.5897     9.7285  1583.6086
 1946.0000    10.7910    66.7662     2.5130     0.0050     0.2385   -71.9353    12.4726     7.2500     9.8212  1583.2108
 1946.5000    10.7996    67.9561     2.5200     0.0110     0.2442   -71.9339    12.5901     7.1192     9.2947  1582.8130
 1947.0000    10.8000    68.1577     2.5240     0.0110     0.2474   -72.1309    12.5924     6.9907     9.2113  1582.4152
 1947.5000    10.8256    68.1617     2.5310     0.0110     0.2470   -72.3279    12.3652     6.8646     9.3036  1582.0175
 1948.0000    10.8405    67.9680     2.5330     0.0131     0.2446   -72.3264    12.0309     6.8030     9.8333  1581.6198
 1948.5000    10.8407    67.3790     2.5360     0.0151     0.2506   -72.5234    11.8139     6.8042    10.5872  1581.2219
 1949.0000    10.8410    66.5924     2.5330     0.0151     0.2494   -72.5220    11.3893     6.7432     9.3941  1580.8242
 1949.5000    10.9008    66.5980     2.5330     0.0092     0.2430   -72.5205    10.4865     6.6222     8.5694  1580.4264
 1950.0000    10.9209    67.3933     2.5330    -0.0067     0.2273   -72.9159    10.7818     6.5940     8.8887  1580.0286
 1950.5000    10.9015    67.9902     2.5271    -0.0067     0.2193   -72.9144    11.9160     6.5658     8.8903  1579.6031
 1951.0000    10.9217    68.5871     2.5231    -0.0067     0.2237   -72.7231    12.0369     6.5607     8.8866  1580.7476
 1951.5000    10.9224    69.1840     2.5172    -0.0066     0.2354   -72.9244    12.0353     6.5598     8.8041  1581.1354
 1952.0000    10.9227    69.3856     2.5132    -0.0086     0.2414   -72.9273    11.9235     6.7424     8.8030  1581.5232
 1952.5000    10.9231    69.3888     2.5132    -0.0046     0.2543   -72.9302    11.4914     6.5581     8.8018  1581.9109
 1953.0000    10.9235    68.6022     2.5172    -0.0046     0.2571   -72.9331    11.5960     6.5573     8.7201  1582.2981
 1953.5000    10.9436    67.8164     2.5212    -0.0045     0.2551   -73.1345    11.5945     6.5565     8.5601  1582.6858
 1954.0000    10.9638    66.6345     2.5212    -0.0045     0.2463   -73.1374    11.4868     6.5556     8.4807  1582.9960
 1954.5000    10.9640    65.2550     2.5213    -0.0045     0.2499   -73.3387    11.3802     6.4948     8.2489  1583.3837
 1955.0000    10.9644    65.2590     2.5213    -0.0045     0.2524   -73.5401    11.1714     6.4940     8.1723  1583.7714
 1955.5000    10.9648    65.8559     2.5193    -0.0024     0.2516   -73.5431    11.0676     6.4932     8.0965  1584.1591
 1956.0000    10.9717    65.8598     2.5173    -0.0024     0.2492   -73.5460    11.0662     6.5523     8.1702  1604.5431
 1956.5000    10.9786    65.8638     2.5114    -0.0044     0.2492   -73.5489    11.2700     6.2571     8.1691  1584.9344
 1957.0000    10.9855    65.0772     2.5094    -0.0024     0.2516   -73.5518    11.1654     6.4313     8.1681  1585.3221
 1957.5000    10.9924    63.8953     2.5104    -0.0023     0.2536   -73.5548    10.8602     6.2555     8.0923  1585.7100
 1958.0000    10.9994    62.9111     2.5144     0.0076     0.2573   -73.5577    10.8588     6.2549     8.1660  1586.0970
 1958.5000    11.0063    61.9269     2.5184    -0.0043     0.2625   -73.5606    11.3684     6.1967     8.0902  1586.4846
 1959.0000    11.0132    60.9426     2.5214    -0.0042     0.2661   -73.5635    11.3669     6.1392     7.9418  1626.8624
 1959.5000    11.0201    61.3419     2.5244     0.0097     0.2629   -73.5665    10.9550     6.0823     7.5146  1587.2599
 1960.0000    11.0270    63.1246     2.5274     0.0137     0.2589   -73.7680     9.8998     6.0816     7.2423  1587.6476
 1960.5000    11.0340    64.5121     2.5274     0.0137     0.2601   -73.7709     9.8985     6.0252     7.1751  1648.0186
 1961.0000    11.0409    65.5035     2.5215     0.0038     0.2610   -73.5752     9.4525     6.0245     7.5117  1588.4229
 1961.5000    11.0487    65.9028     2.5116    -0.0021     0.2565   -73.7768     9.5388     6.0237     8.0839  1588.8104
 1962.0000    11.0687    65.7067     2.5017     0.0019     0.2505   -73.7797    11.0479     6.0229     8.0089  1589.1980
 1962.5000    11.0691    65.7107     2.4997     0.0039     0.2493   -73.9812    11.0476     6.0222     7.8619  1589.5856
 1963.0000    11.0694    65.7147     2.5057     0.0059     0.2582   -73.7856    10.4531     6.0770     7.7890  1589.9727
 1963.5000    11.0698    65.7186     2.5116     0.0079     0.2606   -73.7885    10.4518     6.0203     7.8599  1590.3602
 1964.0000    11.0703    65.7226     2.5166     0.0099     0.2647   -73.7914    10.4504     6.0755     7.7870  1590.7478
 1964.5000    11.0707    65.5289     2.5236    -0.0059     0.2647   -73.9930    10.4490     6.1308     7.7147  1591.0577
 1965.0000    11.0514    65.7306     2.5236     0.0120     0.2635   -73.7973    10.2573     6.1866     7.7137  1591.4454
 1965.5000    11.0518    66.1298     2.5216     0.0140     0.2683   -73.8002    10.1621     6.1292     7.8558  1591.8329
 1966.0000    11.0324    66.5291     2.5177     0.0120     0.2764   -73.8032    10.3493     6.1850     7.9274  1592.2205
 1966.5000    11.0130    67.3236     2.5157     0.0081     0.2764   -73.8061    11.0356     6.1843     7.8540  1592.6080
 1967.0000    10.9937    68.1182     2.5118     0.0081     0.2663   -73.8091    11.1360     6.1835     7.9255  1592.9955
 1967.5000    10.9348    68.3198     2.5098     0.0121     0.2595   -73.8120    10.9317     6.1827     7.9245  1593.3831
 1968.0000    10.9154    68.3238     2.5078     0.0042     0.2555   -73.8149    10.4393     6.1819     7.9966  1593.7700
 1968.5000    10.8959    67.7348     2.5078    -0.0017     0.2422   -73.8179    10.3424     6.1811     8.8463  1594.1575
 1969.0000    10.8767    66.7506     2.5079    -0.0017     0.2402   -73.8208     9.6967     6.1803     9.5198  1594.5450
 1969.5000    10.8375    65.9640     2.5079     0.0023     0.2390   -73.8238    10.2451     6.1230     7.9929  1594.9325
 1970.0000    10.7984    65.9679     2.5119     0.0023     0.2459   -73.8267    10.5301     6.2358     7.9194  1575.3293
 1970.5000    10.7593    66.1695     2.5139     0.0024     0.2535   -73.6309    10.4324     6.1215     7.9183  1695.6595
 1971.0000    10.7399    66.3712     2.5159     0.0004     0.2443   -73.6338    10.7227     6.1207     7.7731  1636.0754
 1971.5000    10.7006    66.3751     2.5189    -0.0016     0.2367   -73.6368    10.2397     6.1199     7.7721  1596.4823
 1972.0000    10.6814    65.9838     2.5219    -0.0015     0.2299   -73.6397    10.2383     6.1191     7.8428  1596.8698
 1972.5000    10.6423    64.8043     2.5249     0.0025     0.2403   -73.6426    10.3315     6.1184     7.9142  1597.2572
 1973.0000    10.6229    64.2153     2.5269     0.0045     0.2427   -73.4468    10.5221     6.1177     7.9132  1597.6440
 1973.5000    10.6035    63.8240     2.5259     0.0045     0.2492   -73.4497    10.9146     6.1734     7.9122  1598.0315
 1974.0000    10.5842    63.8280     2.5219     0.0045     0.2605   -73.4527    10.9132     6.2296     8.1323  1598.4189
 1974.5000    10.5846    63.6343     2.5183     0.0026     0.2597   -73.2568    11.1139     6.2864     8.2063  1598.8063
 1975.0000    10.5850    63.8359     2.5146     0.0026     0.2565   -73.2597    11.1127     6.2856     8.2053  1599.1162
