~VERSION INFORMATION
 VERS.                2.0:   CWLS LOG ASCII STANDARD - VERSION 2.0
 WRAP.                 NO:   ONE LINE PER DEPTH STEP
~WELL INFORMATION
#MNEM.UNIT      DATA TYPE    INFORMATION
#----------   ------------   ------------------------------
 STRT.F          196.5000:   START DEPTH
 STOP.F         2376.0000:   STOP DEPTH
 STEP.F            0.5000:   STEP LENGTH
 NULL.          -999.2500:   NO VALUE
 COMP.    FENIX & SCISSON:   COMPANY
 WELL. FENIX & SCISSON NPR-3 #55-10:   WELL
 FLD .  TEAPOT DOME NPR-3:   FIELD
 LOC .      S10 T38N R78W:   LOCATION
 CNTY.            NATRONA:   COUNTY
 STAT.            WYOMING:   STATE
 CTRY. UNITED STATES OF AMERICA:   COUNTRY
 SRVC.           BIRDWELL:   SERVICE COMPANY
 DATE.        09-MAY-1979:   LOGDATE
 API .     49025107780000:   API NUMBER
~CURVE INFORMATION
#MNEM.UNIT       API CODE    CURVE DESCRIPTION
#----------   ------------   ------------------------------
 DEPT.F                  :   
 CALD.IN     45 280 60 00:   CALIPER FROM DENSITY LOG
 GRD .GAPI   45 310 01 00:   GAMMA RAY FROM DENSITY LOG
 RHOB.G/C3   45 350 01 00:   BULK DENSITY
 CORR.G/C3   45 356 01 00:   DENSITY CORRECTION
~PARAMETER INFORMATION
#MNEM.UNIT          VALUE    DESCRIPTION
#----------   ------------   ------------------------------
 EKB .F         5203.0000:   Kelly bushing
 EGL .F         5193.0000:   Ground level
 EDF .F            0.0000:   Drilling floor
 TD  .F         2376.0000:   Total depth
 CLNT.            A2DTECH:   Client Code
 SL  . 2283' FSL & 2107' FEL:   Surface Location
 PD  .                 GL:   Permanent Datum
 EPD .F              5193:   Elevation Permanent Datum
 LMF .                 KB:   Log Measured From
 DMF .                 KB:   Drilling Measured From
 DAPD.F                10:   Feet Above Permanent Datum
 DATE.        09-MAY-1979:   Date Logged [DD-MMM-YYYY]
 DD  .F              2360:   Depth driller
 DL  .F              2376:   Depth logger
 BLI .F              2376:   Bottom log interval
 TLI .F               196:   Top log interval
 CS1 .IN            9.625:   Casing size
 CBD1.             9.625":   Casing driller 1
 CBL1.F               545:   Casing logger 1
 BS1 .IN             8.75:   Bit size
 BSD1.F              2360:   Depth drilled with bit1
 DFT .                AIR:   Type fluid in hole
 TCS .HRS               3:   Time Circ. stopped
 LUN .               2959:   Logging unit number
 LUL .             CASPER:   Logging unit location
 ENGI.         B. ROLLINS:   Recorded By
 WITN.             RHODES:   Witnessed by
 ORIG.           5" PRINT:   Origin of data
 UWI .     49025107780000:   Unique Well ID
 DICO. A2D TECHNIOLOGIES,INC.:   Digitizing Company
~OTHER INFORMATION
~A  DEPTH     CALD        GRD       RHOB       CORR
# ...
  561.5000     9.5304   139.3080     2.4995     0.0792
  562.0000     9.5159   140.8276     2.5056     0.0808
  562.5000     9.5167   139.9330     2.5087     0.0930
  563.0000     9.5173   138.4351     2.5102     0.1021
  563.5000     9.5179   140.1046     2.5103     0.0857
  564.0000     9.5487   142.3774     2.5030     0.0632
  564.5000     9.5644   142.5386     2.4754     0.0467
  565.0000     9.5801   141.9457     2.4697     0.0499
  565.5000     9.6109   139.9152     2.4833     0.0816
  566.0000     9.6286   128.8460     2.5263     0.1074
  566.5000     9.6424   127.0465     2.5391     0.1256
  567.0000     9.6732   129.3193     2.5467     0.1409
  567.5000     9.7040   132.7988     2.5528     0.1534
  568.0000     9.7046   134.6165     2.5589     0.1712
  568.5000     9.7354   123.9206     2.5529     0.1728
  569.0000     9.7360   120.9144     2.5469     0.1624
  569.5000     9.7366   120.7637     2.5454     0.1700
  570.0000     9.7523   123.8009     2.5613     0.1913
  570.5000     9.7680   128.0849     2.5651     0.2170
  571.0000     9.7988   131.1020     2.5659     0.2488
  571.5000     9.8296   130.0187     2.5712     0.2760
  572.0000     9.8302   131.0849     2.5803     0.2988
  572.5000     9.8610   132.6035     2.5849     0.3155
  573.0000     9.8918   134.2731     2.5872     0.3232
  573.5000     9.8904   139.2608     2.5880     0.3248
  574.0000     9.8628   140.9303     2.5834     0.3249
  574.5000     9.8636   141.0889     2.5702     0.3130
  575.0000     9.8641   137.7837     2.5543     0.3010
  575.5000     9.8647   133.5708     2.5505     0.2981
  576.0000     9.8653   129.0563     2.5603     0.3118
  576.5000     9.8659   129.3684     2.5626     0.3134
  577.0000     9.8665   129.5296     2.5431     0.3000
  577.5000     9.8671   126.5234     2.5281     0.2880
  578.0000     9.8677   123.3264     2.5191     0.2760
  578.5000     9.8683   122.1302     2.5146     0.2611
  579.0000     9.8689   121.7280     2.5132     0.2447
  579.5000     9.8544   122.4951     2.5147     0.2296
  580.0000     9.8701   125.8238     2.5313     0.2176
  580.5000     9.8707   128.0966     2.5479     0.2164
  581.0000     9.8713   129.1628     2.5510     0.2286
  581.5000     9.8720   130.8323     2.5480     0.2302
  582.0000     9.9028   131.2952     2.5451     0.2319
  582.5000     9.9034   132.5122     2.5572     0.2546
  583.0000     9.9342   132.6734     2.5783     0.2864
  583.5000     9.9348   130.7230     2.5934     0.3000
  584.0000     9.9656   129.9588     2.5932     0.3152
  584.5000     9.9662   130.2913     2.5745     0.2912
  585.0000     9.9970   130.1508     2.5473     0.2687
  585.5000    10.0278   127.8387     2.5062     0.2370
  586.0000    10.0586   124.8126     2.4536     0.2006
  586.5000    10.0894   122.1906     2.4054     0.1688
  587.0000     9.9994   121.5977     2.3874     0.1170
  587.5000     9.8489   122.0606     2.3799     0.0643
  588.0000     9.6663   123.1267     2.4071     0.0358
  588.5000     9.5782   124.7963     2.4071     0.0148
  589.0000     9.5486   126.0133     2.4086     0.0029
  589.5000     9.5342   127.5320     2.4238     0.0090
  590.0000     9.5196   129.2015     2.4712     0.0544
  590.5000     9.4901   130.4185     2.5232     0.0816
  591.0000     9.4907   130.7279     2.5414     0.1089
  591.5000     9.4913   127.5735     2.5504     0.1241
  592.0000     9.4766   124.8689     2.5460     0.1319
  592.5000     9.4621   122.3152     2.5385     0.1426
  593.0000     9.4629   121.5715     2.5355     0.1531
  593.5000     9.4635   124.4180     2.5341     0.1532
  594.0000     9.4490   129.5888     2.5349     0.1518
  594.5000     9.4344   132.7666     2.5420     0.1595
  595.0000     9.4350   134.8886     2.5536     0.1717
  595.5000     9.4356   134.2957     2.5674     0.1914
  596.0000     9.4191   129.9320     2.5719     0.2036
  596.5000     9.4066   125.1158     2.5735     0.2097
  597.0000     9.3921   122.7130     2.5705     0.2144
  597.5000     9.3928   120.9134     2.5600     0.2130
  598.0000     9.4085   120.1696     2.5435     0.1964
  598.5000     9.4242   120.7833     2.5330     0.1813
  599.0000     9.4399   123.3578     2.5263     0.1646
  599.5000     9.4405   126.0831     2.5271     0.1426
  600.0000     9.4713   128.6576     2.5316     0.1246
  600.5000     9.4719   130.6390     2.5302     0.1097
  601.0000     9.4725   130.6596     2.5143     0.0962
  601.5000     9.4731   132.4621     2.4783     0.0737
  602.0000     9.4737   136.8466     2.4488     0.0422
  602.5000     9.4441   138.9685     2.4473     0.0242
  603.0000     9.4145   135.9623     2.4656     0.0304
  603.5000     9.3849   130.8445     2.4907     0.0561
  604.0000     9.3554   128.7433     2.5095     0.0834
  604.5000     9.3560   130.4128     2.5218     0.0986
  605.0000     9.3566   132.2331     2.5241     0.1062
  605.5000     9.3572   132.9977     2.5151     0.1078
  606.0000     9.3578   133.1563     2.4971     0.0839
  606.5000     9.3735   133.3201     2.4791     0.0538
  607.0000     9.3892   133.6322     2.4625     0.0328
  607.5000     9.3898   131.8326     2.4557     0.0179
  608.0000     9.4206   127.9014     2.4807     0.0331
  608.5000     9.4212   127.0268     2.4992     0.0680
  609.0000     9.4218   129.4530     2.5218     0.1033
  609.5000     9.4224   130.2176     2.5436     0.1486
  610.0000     9.4230   130.0771     2.5680     0.2055
  610.5000     9.4236   128.9676     2.5801     0.2372
  611.0000     9.4393   126.5599     2.5832     0.2524
  611.5000     9.4551   127.6250     2.5567     0.2556
  612.0000     9.4557   132.3081     2.5370     0.2406
  612.5000     9.4921   132.1647     2.5135     0.2030
  613.0000     9.4319   131.2672     2.5045     0.1700
  613.5000     9.3415   130.3696     2.5037     0.1400
  614.0000     9.3719   131.2901     2.4992     0.1175
  614.5000     9.3872   134.2217     2.4909     0.1040
  615.0000     9.4026   138.2252     2.4955     0.0951
  615.5000     9.4028   141.5626     2.5031     0.0952
  616.0000     9.4030   140.9667     2.5077     0.1059
  616.5000     9.4032   136.1476     2.5130     0.1165
  617.0000     9.4035   132.6859     2.5176     0.1182
  617.5000     9.4037   131.9374     2.5055     0.0952
  618.0000     9.4040   134.5107     2.4888     0.0783
  618.5000     9.4042   139.0431     2.4767     0.0567
  619.0000     9.4044   141.1621     2.4707     0.0644
  619.5000     9.4046   142.6778     2.4389     0.0690
  620.0000     9.4049   143.7411     2.4291     0.0209
  620.5000     9.4353   144.0508     2.4397    -0.0001
  621.0000     9.4355   142.8516     2.4549    -0.0030
  621.5000     9.4508   141.5015     2.4648     0.0047
  622.0000     9.4662   140.9038     2.4724     0.0139
  622.5000     9.4664   140.3098     2.4686     0.0216
  623.0000     9.4968   140.0137     2.4680     0.0337
  623.5000     9.4971   140.0230     2.4846     0.0459
  624.0000     9.5275   141.0862     2.4937     0.0656
  624.5000     9.5277   143.2052     2.5013     0.0883
  625.0000     9.5443   145.1735     2.4942     0.0915
  625.5000     9.5584   146.7074     2.4767     0.0869
  626.0000     9.5587   147.7524     2.4650     0.0653
  626.5000     9.5589   146.9518     2.4628     0.0602
  627.0000     9.5591   144.9034     2.4795     0.0814
  627.5000     9.5593   144.4583     2.4962     0.1087
  628.0000     9.5596   142.2033     2.5075     0.1450
  628.5000     9.5598   140.7006     2.4902     0.1632
  629.0000     9.5600   141.3132     2.4879     0.1512
  629.5000     9.5602   142.2256     2.5167     0.1544
  630.0000     9.5604   140.7247     2.5243     0.1741
  630.5000     9.5304   138.3189     2.4993     0.1214
  631.0000     9.5004   137.4195     2.4827     0.0854
  631.5000     9.4704   138.3337     2.4570     0.0614
  632.0000     9.4556   138.7937     2.4381     0.0404
  632.5000     9.4407   136.6895     2.4328     0.0239
  633.0000     9.4409   135.6171     2.4424     0.0060
  633.5000     9.4412   138.0772     2.4711     0.0289
  634.0000     9.4565   140.9715     2.5086     0.0792
