~VERSION INFORMATION
 VERS.                2.0:   CWLS LOG ASCII STANDARD - VERSION 2.0
 WRAP.                 NO:   ONE LINE PER DEPTH STEP
~WELL INFORMATION
#MNEM.UNIT      DATA TYPE    INFORMATION
#----------   ------------   ------------------------------
 STRT.F          203.5000:   START DEPTH
 STOP.F         3126.0000:   STOP DEPTH
 STEP.F            0.5000:   STEP LENGTH
 NULL.          -999.2500:   NO VALUE
 COMP.    FENIX & SCISSON:   COMPANY
 WELL. FENIX NPR 3 "AX" #88-33:   WELL
 FLD .        TEAPOT DOME:   FIELD
 LOC .      S33 T39N R78W:   LOCATION
 CNTY.            NATRONA:   COUNTY
 STAT.            WYOMING:   STATE
 CTRY. UNITED STATES OF AMERICA:   COUNTRY
 SRVC.       SCHLUMBERGER:   SERVICE COMPANY
 DATE.        23-JAN-1978:   LOGDATE
 API .     49025105610000:   API NUMBER
~CURVE INFORMATION
#MNEM.UNIT       API CODE    CURVE DESCRIPTION
#----------   ------------   ------------------------------
 DEPT.F                  :   
 CALD.IN     45 280 60 00:   CALIPER FROM DENSITY LOG
 GRD .GAPI   45 310 01 00:   GAMMA RAY FROM DENSITY LOG
 RHOB.G/C3   45 350 01 00:   BULK DENSITY
 CORR.G/C3   45 356 01 00:   DENSITY CORRECTION
 SPR .MV     05 010 01 00:   SPONTANEOUS POTENTIAL
 SN  .OHMM   05 040 16 00:   SHORT NORMAL 16"
 ILD .OHMM   05 120 46 00:   DEEP INDUCTION RESISTIVITY
~PARAMETER INFORMATION
#MNEM.UNIT          VALUE    DESCRIPTION
#----------   ------------   ------------------------------
 EKB .F         5174.0000:   Kelly bushing
 EGL .F         5164.0000:   Ground level
 EDF .F            0.0000:   Drilling floor
 TD  .F         3115.0000:   Total depth
 DATE.        23-JAN-1978:   Date logged
 CLNT.            A2DTECH:   Client Code
 PD  .                 GL:   Permanent Datum
 EPD .F              5164:   Elevation Permanent Datum
 LMF .                 KB:   Log Measured From
 DMF .                 KB:   Drilling Measured From
 DD  .F              3115:   Depth driller
 DL  .F              3115:   Depth logger
 BLI .F              3115:   Bottom log interval
 TLI .F               210:   Top log interval
 CS1 .IN            8.625:   Casing size
 CBD1.      9.625" @ 219':   Casing driller 1
 CBL1.F               219:   Casing logger 1
 BS1 .IN            7.875:   Bit size
 BSD1.F              3115:   Depth drilled with bit1
 DFT .                GEL:   Type fluid in hole
 DFD .                8.9:   Density
 DFV .                 36:   Viscosity
 DFPH.                 10:   pH
 DFL .                7.8:   Fluid loss
 MSS .           FLOWLINE:   Source of sample
 RMS .OHMM            2.2:   Rm
 MST .F                62:   Rm Meas. temp.
 RMF .OHMM           1.94:   Rmf
 MFST.F                54:   Rmf Meas. temp.
 RMC .OHMM            3.4:   Rmc
 MCST.F                54:   Rmc Meas. temp.
 MFSS.               MEAS:   Source Rmf.
 MCSS.               MEAS:   Source Rmc.
 RMB .OHMM            1.1:   Rm. at BHT
 BHT .F               114:   BHT.
 TCS .HRS             4.5:   Time Circ. stopped
 MRT .F               114:   Maximum recorded temp.
 LUN .               2958:   Logging unit number
 LUL .             CASPER:   Logging unit location
 ENGI.           REYNOLDS:   Recorded By
 WITN.           MCGINLEY:   Witnessed by
 ORIG.           5" PRINT:   Origin of data
 UWI .     49025105610000:   Unique Well ID
 DICO. A2D TECHNOLOGIES, INC.:   Digitizing Company
 DAPD.F              5164:   Feet Above Permanent Datum
 SL  . 100' FSL & 550' FEL:   Surface Location
~OTHER INFORMATION
~A   DEPT     CALD        GRD       RHOB       CORR        SPR         SN        ILD   
# ...
 1523.0000    10.5727    92.6905     2.5461     0.0550   -41.9631     6.8284     6.9560
 1523.5000    10.5726    92.4907     2.5351     0.0490   -41.9591     6.8929     7.0219
 1524.0000    10.5725    92.8878     2.5301     0.0510   -42.5523     6.8942     7.0227
 1524.5000    10.5724    92.8870     2.5330     0.0550   -41.5558     6.8955     7.0246
 1525.0000    10.5723    91.6921     2.5340     0.0570   -41.9478     6.9607     7.0906
 1525.5000    10.5920    92.6863     2.5270     0.0569   -41.9437     7.0265     7.1583
 1526.0000    10.5720    91.8894     2.5300     0.0609   -41.7409     7.1586     7.2933
 1526.5000    10.5719    91.6896     2.5300     0.0769   -41.7368     7.0940     7.2944
 1527.0000    10.5917    92.8827     2.5370     0.0809   -41.5340     7.0953     7.2958
 1527.5000    10.5717    93.2798     2.5390     0.0809   -41.3311     7.1623     7.2971
 1528.0000    10.5716    93.8759     2.5390     0.0789   -41.3271     7.0979     7.2985
 1528.5000    10.5715    94.4719     2.5380     0.0788   -41.3230     7.1650     7.2999
 1529.0000    10.5714    93.6752     2.5370     0.0808   -41.3190     7.1664     7.3012
 1529.5000    10.5912    91.2865     2.5379     0.0828   -41.3150     7.1677     7.3026
 1530.0000    10.5910    92.8776     2.5399     0.0908   -41.5105     7.1032     7.3040
 1530.5000    10.5710    93.4736     2.5398     0.0988   -41.7053     7.0394     7.2354
 1531.0000    10.5709    93.8708     2.5549     0.1068   -41.9001     7.0407     7.1703
 1531.5000    10.5708    94.6657     2.5679     0.1188   -42.0948     7.0420     7.2408
 1532.0000    10.5707    96.0577     2.5829     0.1227   -42.2896     6.9787     7.2416
 1532.5000    10.5706    94.6640     2.5829     0.1227   -42.2856     6.9800     7.2427
 1533.0000    10.5904    94.2652     2.5779     0.1227   -42.2815     6.9813     7.2629
 1533.5000    10.5704    91.6781     2.5719     0.1227   -42.0787     6.9823     7.2831
 1534.0000    10.5703    89.2899     2.5679     0.1227   -42.2735     7.0483     7.3034
 1534.5000    10.5701    88.8915     2.5669     0.1226   -42.2694     6.9849     7.3237
 1535.0000    10.5700    86.5588     2.5679     0.1206   -42.0666     6.9863     7.3441
 1535.5000    10.5898    86.5594     2.5709     0.1186   -41.8637     6.9876     7.3646
 1536.0000    10.5698    87.8945     2.5709     0.1186   -41.6609     6.9889     7.3851
 1536.5000    10.5896    89.0873     2.5728     0.1186   -41.4588     6.9902     7.4056
 1537.0000    10.5895    89.2854     2.5738     0.1165   -41.6536     7.0562     7.4262
 1537.5000    10.5695    90.6769     2.5748     0.1165   -41.6495     7.1227     7.4469
 1538.0000    10.5694    90.6761     2.5758     0.1085   -41.6455     7.1903     7.3937
 1538.5000    10.5892    91.2720     2.5778     0.1045   -41.6415     7.1911     7.3940
 1539.0000    10.5891    92.4645     2.5638     0.1004   -41.8362     7.1929     7.4640
 1539.5000    10.5691    93.0600     2.5508     0.0944   -42.0310     7.2609     7.5122
 1540.0000    10.5689    92.6617     2.5347     0.0964   -42.4246     7.3975     7.5608
 1540.5000    10.5688    91.0698     2.5407     0.0984   -42.0229     7.3986     7.6096
 1541.0000    10.5687    90.2735     2.5587     0.1024   -42.0189     7.4685     7.6588
 1541.5000    10.5686    89.0795     2.5567     0.0963   -42.0148     7.4699     7.7082
 1542.0000    10.5685    87.4877     2.5537     0.0923   -42.0108     7.6103     7.7580
 1542.5000    10.5684    87.6858     2.5537     0.0923   -42.0075     7.6118     7.8081
 1543.0000    10.5683    88.2817     2.5477     0.0923   -42.0035     7.5433     7.8586
 1543.5000    10.5881    88.6786     2.5406     0.0943   -41.9995     7.5447     7.9039
 1544.0000    10.5879    88.6779     2.5426     0.1002   -41.9954     7.5461     7.9054
 1544.5000    10.5679    88.4782     2.5527     0.1022   -41.9914     7.5475     7.8341
 1545.0000    10.5678    88.4775     2.5607     0.0962   -41.9873     7.3430     7.6213
 1545.5000    10.5677    89.4709     2.5607     0.0882   -41.9833     7.0784     7.4831
 1546.0000    10.5676    90.0666     2.5546     0.0681   -41.9793     7.2115     7.4156
 1546.5000    10.5675    89.8670     2.5526     0.0601   -41.9752     7.1467     7.4170
 1547.0000    10.5674    88.8721     2.5516     0.0601   -41.9712     7.0824     7.4178
 1547.5000    10.5673    90.0639     2.5526     0.0641   -41.7683     7.0837     7.3229
 1548.0000    10.5672    88.8705     2.5546     0.0681   -41.7643     7.0198     7.2291
 1548.5000    10.5671    89.8638     2.5546     0.0700   -41.5622     6.8928     7.1366
 1549.0000    10.5669    90.0623     2.5626     0.0780   -41.3594     6.8308     7.0236
 1549.5000    10.5668    89.4646     2.5716     0.0840   -41.1565     6.8321     6.9598
 1550.0000    10.5667    88.8674     2.5626     0.1020   -40.7549     6.8334     6.9606
 1550.5000    10.6007    91.0504     2.5592     0.1195   -40.5520     6.8347     6.9583
 1551.0000    10.6067    92.6463     2.5546     0.1300   -40.7468     6.7732     6.9560
 1551.5000    10.6068    93.2436     2.5546     0.1320   -41.1404     6.8372     6.9537
 1552.0000    10.6069    93.8410     2.5626     0.1340   -41.5339     6.7757     6.9514
 1552.5000    10.6070    95.0348     2.5686     0.1300   -41.5299     6.8398     6.9491
 1553.0000    10.6071    97.0241     2.5686     0.1140   -41.9235     6.8410     6.9468
 1553.5000    10.6072    95.2355     2.5636     0.0700   -42.1183     6.8423     6.9445
 1554.0000    10.6074    94.8387     2.5536     0.0440   -42.3130     6.8436     6.9422
 1554.5000    10.6075    93.6465     2.5476     0.0360   -42.3090     6.7821     6.9399
 1555.0000    10.6076    88.4774     2.5486     0.0340   -42.3058     6.7211     6.9376
 1555.5000    10.6077    87.2850     2.5536     0.0340   -42.3017     6.7221     6.9353
 1556.0000    10.6078    87.8823     2.5556     0.0360   -42.0989     6.7233     6.9330
 1556.5000    10.6079    88.2808     2.5576     0.0340   -42.0948     6.7246     6.9307
 1557.0000    10.6080    88.2816     2.5556     0.0340   -42.0908     6.7259     6.9284
 1557.5000    10.6081    88.2827     2.5496     0.0360   -42.0867     6.7271     6.9261
 1558.0000    10.6083    89.6751     2.5476     0.0380   -41.6851     6.6062     6.9238
 1558.5000    10.6083    91.2669     2.5566     0.0360   -41.4822     6.6067     6.9215
 1559.0000    10.6085    93.4554     2.5546     0.0360   -41.4782     6.5475     6.8564
 1559.5000    10.6086    95.4451     2.5476     0.0380   -41.0765     6.5482     6.8567
 1560.0000    10.5490    95.4458     2.5546     0.0380   -41.4701     6.4891     6.8580
 1560.5000    10.6088    95.2479     2.5587     0.0360   -41.6649     6.4901     6.8594
 1561.0000    10.6089    93.2600     2.5577     0.0320   -41.6616     6.4818     6.8608
 1561.5000    10.5891    91.4708     2.5547     0.0280   -41.6576     6.4735     6.8621
 1562.0000    10.5892    90.8749     2.5447     0.0300   -41.6535     6.4652     6.8635
 1562.5000    10.5894    91.0746     2.5326     0.0340   -41.6495     6.4569     6.8648
 1563.0000    10.6094    91.2742     2.5307     0.0421   -41.8443     6.5571     6.8662
 1563.5000    10.6095    91.8718     2.5307     0.0401   -41.2422     6.5580     6.8676
 1564.0000    10.6096    92.6683     2.5287     0.0461   -41.8362     6.5593     6.8689
 1564.5000    10.5898    93.4649     2.5277     0.0481   -41.8321     6.4406     6.8703
 1565.0000    10.5899    94.0625     2.5347     0.0581   -41.8281     6.4416     6.8717
 1565.5000    10.6099    94.2623     2.5447     0.0741   -41.8241     6.4428     6.8734
 1566.0000    10.6100    93.8653     2.5647     0.0841   -41.8200     6.3849     6.8102
 1566.5000    10.6101    93.6673     2.5687     0.0841   -42.0148     6.3861     6.7488
 1567.0000    10.6102    94.0661     2.5707     0.0781   -42.2096     6.3875     6.7495
 1567.5000    10.6104    95.2606     2.5697     0.0741   -42.6040     6.4479     6.7498
 1568.0000    10.6105    95.6593     2.5697     0.0721   -42.4011     6.4486     6.8138
