~VERSION INFORMATION
 VERS.                2.0:   CWLS LOG ASCII STANDARD - VERSION 2.0
 WRAP.                 NO:   ONE LINE PER DEPTH STEP
~WELL INFORMATION
#MNEM.UNIT      DATA TYPE    INFORMATION
#----------   ------------   ------------------------------
 STRT.F            0.0000:   START DEPTH
 STOP.F         3504.0000:   STOP DEPTH
 STEP.F            0.5000:   STEP LENGTH
 NULL.          -999.2500:   NO VALUE
 COMP. LAWRENCE-ALLISON AND ASSOCIATES:   COMPANY
 WELL. LAWRENCE "TX" #16-34:   WELL
 FLD .              NPR 3:   FIELD
 LOC .      S34 T39N R78W:   LOCATION
 CNTY.            NATRONA:   COUNTY
 STAT.            WYOMING:   STATE
 CTRY. UNITED STATES OF AMERICA:   COUNTRY
 SRVC.       SCHLUMBERGER:   SERVICE COMPANY
 DATE.        10-APR-1982:   LOGDATE
 API .     49025108970000:   API NUMBER
~CURVE INFORMATION
#MNEM.UNIT       API CODE    CURVE DESCRIPTION
#----------   ------------   ------------------------------
 DEPT.F                  :   
 SPR .MV     07 010 01 00:   SPONTANEOUS POTENTIAL
 ILD .OHMM   07 120 46 00:   DEEP INDUCTION RESISTIVITY
 SFLU.OHMM   07 220 01 00:   SPHERICALLY FOCUSED LOG UNAVERAGED RESISTIVITY
 TENR.LBS    07 635 01 00:   TENSION FROM RESISTIVITY
 ILM .OHMM   07 120 44 00:   INDUCTION LOG MEDIUM RESISTIVITY
 GRD .GAPI   45 310 01 00:   GAMMA RAY FROM DENSITY LOG
 CALD.IN     45 280 60 00:   CALIPER FROM DENSITY LOG
 RHOB.G/C3   45 350 01 00:   BULK DENSITY
 CORR.G/C3   45 356 01 00:   DENSITY CORRECTION
 TEND.LBS    45 635 01 00:   TENSION FROM DENSITY LOG
 NPHI.DEC    42 890 03 00:   NEUTRON POROSITY SANDSTONE
~PARAMETER INFORMATION
#MNEM.UNIT          VALUE    DESCRIPTION
#----------   ------------   ------------------------------
 EKB .F         5149.0000:   Kelly bushing
 EGL .F         5139.0000:   Ground level
 EDF .F            0.0000:   Drilling floor
 TD  .F         3500.0000:   Total depth
 DATE.        10-APR-1982:   Date logged
 CLNT.            A2DTECH:   Client Code
 SL  . 1406' FSL & 423' FWL:   Surface Location
 PD  .                 GL:   Permanent Datum
 EPD .F              5139:   Elevation Permanent Datum
 LMF .                 KB:   Log Measured From
 DMF .                 KB:   Drilling Measured From
 DAPD.F                10:   Feet Above Permanent Datum
 DD  .F              3500:   Depth driller
 DL  .F              3497:   Depth logger
 BLI .F              3491:   Bottom log interval
 TLI .F               658:   Top log interval
 CS1 .IN            9.625:   Casing size
 CBD1.      9.625" @ 632':   Casing driller 1
 CBL1.F               658:   Casing logger 1
 BS1 .IN             8.75:   Bit size
 BSD1.F              3500:   Depth drilled with bit1
 DFT .           SPUD MUD:   Type fluid in hole
 DFD .                  9:   Density
 DFV .                 44:   Viscosity
 DFPH.                 10:   pH
 DFL .                  7:   Fluid loss
 MSS .           FLOWLINE:   Source of sample
 RMS .OHMM              2:   Rm
 MST .F                53:   Rm Meas. temp.
 RMF .OHMM            1.9:   Rmf
 MFST.F                53:   Rmf Meas. temp.
 RMC .OHMM            1.5:   Rmc
 MCST.F                53:   Rmc Meas. temp.
 MFSS.               MEAS:   Source Rmf.
 MCSS.               CALC:   Source Rmc.
 RMB .OHMM              1:   Rm. at BHT
 BHT .F               106:   BHT.
 TCS .HRS            1100:   Time Circ. stopped
 TLAB.HRS            1330:   Time logger at bottom
 MRT .F               106:   Maximum recorded temp.
 LUN .               8151:   Logging unit number
 LUL .                GLT:   Logging unit location
 ENGI.            NEUFFER:   Recorded By
 WITN.           JENNINGS:   Witnessed by
 ORIG.           5" PRINT:   Origin of data
 UWI .     49025108970000:   Unique Well ID
 DICO. A2D TECHNOLOGIES, INC.:   Digitizing Company
~OTHER INFORMATION
~A    DEPT     SPR        ILD       SFLU       TENR        ILM        GRD       CALD       RHOB       CORR       TEND       NPHI   
# ...
  823.5000    -8.1070     8.0760     8.9960   899.1010     8.3020   109.5370    10.5090     2.5190     0.0400   820.0000     0.2890
  824.0000    -8.1070     8.1320     8.9820   899.1010     8.3590   108.4120    10.5170     2.5320     0.0450   820.0000     0.2960
  824.5000    -8.1070     8.1880     9.0240   899.1010     8.4170   107.4090    10.5240     2.5340     0.0470   820.0000     0.3000
  825.0000    -8.1060     8.2440     9.0590   899.1010     8.4740   107.8760    10.5310     2.5310     0.0460   820.0000     0.2990
  825.5000    -8.1070     8.3000     9.0950   899.1010     8.5320   106.7490    10.5380     2.5290     0.0430   820.0000     0.2960
  826.0000    -8.0980     8.3560     9.1300   899.1010     8.5890   105.0380    10.5450     2.5260     0.0420   820.0000     0.2940
  826.5000    -8.0850     8.4120     9.1650   899.1010     8.6470   103.6200    10.5620     2.5260     0.0440   820.0000     0.2870
  827.0000    -8.0720     8.4680     9.2000   899.1010     8.7050   104.9680    10.5810     2.5310     0.0460   820.0000     0.2840
  827.5000    -8.0580     8.5000     9.2360   899.1010     8.7380   106.2990    10.6010     2.5410     0.0510   820.0000     0.2910
  828.0000    -8.0450     8.4430     9.2710   899.1010     8.6790   107.6210    10.6200     2.5480     0.0570   820.0000     0.2980
  828.5000    -8.0310     8.3540     9.3190   899.1010     8.5870   108.9520    10.6390     2.5390     0.0550   820.0000     0.3060
  829.0000    -8.0180     8.2680     9.1870   899.1010     8.5000   110.2900    10.6580     2.5250     0.0500   820.0000     0.3140
  829.5000    -8.0050     8.0100     8.8900   899.1010     8.2340   110.0470    10.6780     2.5110     0.0470   820.0000     0.3210
  830.0000    -7.9910     7.7630     8.5930   899.1010     7.9800   108.1490    10.6860     2.5040     0.0460   820.0000     0.3330
  830.5000    -7.9780     7.5160     8.2970   899.1010     7.7270   106.0250    10.6870     2.5000     0.0450   820.0000     0.3300
  831.0000    -7.9640     7.2910     8.0000   899.1010     7.4950   106.5300    10.6890     2.5040     0.0470   820.0000     0.3260
  831.5000    -7.9510     7.1230     7.7030   899.1010     7.3220   108.5990    10.6910     2.5200     0.0530   820.0000     0.3210
  832.0000    -7.9370     6.9550     7.4070   899.1010     7.1500   110.7710    10.6930     2.5350     0.0770   820.0000     0.3170
  832.5000    -7.9240     6.7880     7.1360   899.1010     6.9780   109.1120    10.6950     2.5470     0.0850   820.0000     0.3250
  833.0000    -7.9110     6.6200     7.0570   899.1010     6.8050   107.5110    10.6960     2.5500     0.0810   820.0000     0.3310
  833.5000    -7.8970     6.4880     7.0060   899.1010     6.6700   106.1520    10.6980     2.5430     0.0710   820.0000     0.3390
  834.0000    -7.8840     6.3720     7.0260   899.1010     6.5500   106.1810    10.7000     2.5250     0.0550   820.0000     0.3540
  834.5000    -7.8700     6.2560     7.0440   899.1010     6.4310   106.1870    10.7020     2.5080     0.0390   820.0000     0.3730
  835.0000    -7.8570     6.1400     7.0710   899.1010     6.3110   106.3240    10.7030     2.4910     0.0290   820.0000     0.3820
  835.5000    -7.8440     6.0230     6.9350   899.1010     6.1920   107.1600    10.7210     2.4870     0.0290   820.0000     0.3700
  836.0000    -7.8300     5.8090     6.6740   899.1010     5.9720   107.9760    10.7430     2.4860     0.0400   820.0000     0.3530
  836.5000    -7.8170     5.5580     6.3860   899.1010     5.7140   108.9810    10.7800     2.4700     0.0570   820.0000     0.3340
  837.0000    -7.8030     5.3070     5.9260   899.1010     5.4560   108.8290    10.9040     2.4210     0.0840   820.0000     0.3390
  837.5000    -7.7900     5.0560     5.4660   899.1010     5.1970   108.4160    11.3800     2.3390     0.0890   820.0000     0.3460
  838.0000    -7.7770     4.9120     5.0770   899.1010     5.0500   108.0020    11.9900     2.2730     0.0570   820.0000     0.3870
  838.5000    -7.7630     5.1350     5.4920   899.1010     5.2790   107.8230    11.5430     2.3090     0.0240   820.0000     0.3870
  839.0000    -7.7500     5.3130     5.8520   899.1010     5.4620   108.6990    10.7680     2.3960     0.0240   820.0000     0.3640
  839.5000    -7.7360     5.4910     6.2110   899.1010     5.6450   109.5520    10.6580     2.4560     0.0320   820.0000     0.3480
  840.0000    -7.7230     5.6690     6.5700   899.1010     5.8280   110.2100    10.6330     2.5020     0.0460   820.0000     0.3410
  840.5000    -7.7010     5.8480     7.0060   899.1010     6.0110   110.5870    10.6470     2.5190     0.0590   820.0000     0.3450
  841.0000    -7.6440     6.0070     6.9780   899.1010     6.1750   110.9020    10.6600     2.5380     0.0710   820.0000     0.3510
  841.5000    -7.5860     6.0860     6.9420   899.1010     6.2570   109.9760    10.6740     2.5490     0.0760   820.0000     0.3550
  842.0000    -7.5280     6.1660     6.9070   899.1010     6.3380   107.4980    10.6880     2.5400     0.0650   820.0000     0.3540
  842.5000    -7.4710     6.2450     6.8780   899.1010     6.4200   104.7680    10.7020     2.5240     0.0480   820.0000     0.3500
  843.0000    -7.4130     6.3240     6.9670   899.1010     6.5010   103.6140    10.7040     2.5160     0.0440   820.0000     0.3460
  843.5000    -7.3550     6.4490     7.0550   899.1010     6.6300   104.4900    10.7040     2.5160     0.0400   820.0000     0.3420
  844.0000    -7.2980     6.4360     7.1730   899.1010     6.6160   105.9590    10.7040     2.5110     0.0340   820.0000     0.3510
  844.5000    -7.2400     6.4030     7.2690   899.1010     6.5820   106.7860    10.7040     2.4910     0.0220   820.0000     0.3620
  845.0000    -7.1820     6.3700     7.1420   899.1010     6.5480   106.7950    10.7040     2.4700     0.0090   820.0000     0.3670
  845.5000    -7.1250     6.3370     7.0400   899.1010     6.5150   107.7410    10.7040     2.4590     0.0070   820.0000     0.3580
  846.0000    -7.0670     6.3050     6.9420   899.1010     6.4810   109.9290    10.7040     2.4760     0.0140   820.0000     0.3490
  846.5000    -7.0090     6.2740     6.8150   899.1010     6.4490   114.1130    10.7040     2.4910     0.0240   820.0000     0.3400
  847.0000    -6.9520     6.3420     6.8620   899.1010     6.5200   117.1360    10.7120     2.4940     0.0320   820.0000     0.3350
  847.5000    -6.8940     6.4070     6.9630   899.1010     6.5860   118.1690    10.7460     2.4920     0.0370   820.0000     0.3450
  848.0000    -6.8360     6.4720     7.0640   899.1010     6.6530   116.0720    10.7790     2.4970     0.0480   820.0000     0.3540
  848.5000    -6.7770     6.5360     7.1360   899.1010     6.7190   115.4120    10.7730     2.5030     0.0600   820.0000     0.3590
  849.0000    -6.7330     6.6010     7.3430   899.1010     6.7860   115.3900    10.7610     2.5030     0.0660   820.0000     0.3590
  849.5000    -6.8790     6.6660     7.5330   899.1010     6.8520   115.4180    10.7490     2.4930     0.0560   820.0000     0.3510
  850.0000    -7.0220     6.7310     7.7240   899.1010     6.9190   114.2350    10.7370     2.4910     0.0480   820.0000     0.3450
  850.5000    -7.1640     6.7950     7.9690   899.1010     6.9860   112.5820    10.7250     2.5020     0.0480   820.0000     0.3390
  851.0000    -7.3060     6.8600     7.8120   899.1010     7.0520   109.8980    10.7830     2.5070     0.0500   820.0000     0.3330
  851.5000    -7.4480     6.9420     7.5910   899.1010     7.1360   106.8500    10.8460     2.5030     0.0490   820.0000     0.3280
  852.0000    -7.5900     6.8200     7.3700   899.1010     7.0110   105.5920    10.8630     2.4970     0.0490   820.0000     0.3270
  852.5000    -7.7320     6.6530     7.1490   899.1010     6.8400   103.9500    10.8800     2.4870     0.0460   820.0000     0.3420
  853.0000    -7.8740     6.4870     6.9890   899.1010     6.6680   105.0570    10.8370     2.4780     0.0330   820.0000     0.3520
  853.5000    -8.0160     6.3200     6.9390   899.1010     6.4970   106.4570    10.7870     2.4760     0.0280   820.0000     0.3510
