~VERSION INFORMATION
 VERS.                2.0:   CWLS LOG ASCII STANDARD - VERSION 2.0
 WRAP.                 NO:   ONE LINE PER DEPTH STEP
~WELL INFORMATION
#MNEM.UNIT      DATA TYPE    INFORMATION
#----------   ------------   ------------------------------
 STRT.F          520.0000:   START DEPTH
 STOP.F         3092.0000:   STOP DEPTH
 STEP.F            0.5000:   STEP LENGTH
 NULL.          -999.2500:   NO VALUE
 COMP.    FENIX & SCISSON:   COMPANY
 WELL. FENIX 87 "AX" #3-3:   WELL
 FLD .              N P R:   FIELD
 LOC .       S3 T38N R78W:   LOCATION
 CNTY.            NATRONA:   COUNTY
 STAT.            WYOMING:   STATE
 CTRY. UNITED STATES OF AMERICA:   COUNTRY
 SRVC.              WELEX:   SERVICE COMPANY
 DATE.        30-OCT-1980:   LOGDATE
 API .     49025108510000:   API NUMBER
~CURVE INFORMATION
#MNEM.UNIT       API CODE    CURVE DESCRIPTION
#----------   ------------   ------------------------------
 DEPT.F                  :   
 CALD.IN     45 280 60 00:   CALIPER FROM DENSITY LOG
 GRD .GAPI   45 310 01 00:   GAMMA RAY FROM DENSITY LOG
 RHOB.G/C3   45 350 01 00:   BULK DENSITY
 CORR.G/C3   45 356 01 00:   DENSITY CORRECTION
 SPR .MV     07 010 01 00:   SPONTANEOUS POTENTIAL
 ILD .OHMM   07 120 46 00:   DEEP INDUCTION RESISTIVITY
 ILM .OHMM   07 120 44 00:   INDUCTION LOG MEDIUM RESISTIVITY
 SGRD.OHMM   07 220 05 00:   SHALLOW SHORT GUARD RESISTIVITY
~PARAMETER INFORMATION
#MNEM.UNIT          VALUE    DESCRIPTION
#----------   ------------   ------------------------------
 EKB .F         5131.0000:   Kelly bushing
 EGL .F         5121.0000:   Ground level
 TD  .F         3095.0000:   Total depth
 DATE.        30-OCT-1980:   Date logged
 CLNT.            A2DTECH:   Client Code
 SL  . 910' FWL & 95' FEL:   Surface Location
 PD  .                 GL:   Permanent Datum
 EPD .F              5121:   Elevation Permanent Datum
 LMF .                 KB:   Log Measured From
 DMF .                 KB:   Drilling Measured From
 DD  .F              3095:   Depth driller
 DL  .F              3094:   Depth logger
 BLI .F              3092:   Bottom log interval
 TLI .F               525:   Top log interval
 CS1 .IN            9.625:   Casing size
 CBD1.      9.625" @ 525':   Casing driller 1
 CBL1.F               525:   Casing logger 1
 BS1 .IN            7.875:   Bit size
 DFT .          DISPERSED:   Type fluid in hole
 DFD .                  9:   Density
 DFV .                 40:   Viscosity
 DFPH.                 10:   pH
 DFL .                  8:   Fluid loss
 MSS .             MUDPIT:   Source of sample
 RMS .OHMM           2.40:   Rm
 MST .F                68:   Rm Meas. temp.
 MFST.F                68:   Rmf Meas. temp.
 RMC .OHMM            2.8:   Rmc
 MCST.F                68:   Rmc Meas. temp.
 MFSS.F              MEAS:   Source Rmf.
 RMB .OHMM           1.36:   Rm. at BHT
 BHT .F               120:   BHT.
 TCS .HRS             5.5:   Time Circ. stopped
 MRT .F               120:   Maximum recorded temp.
 LUN .               1891:   Logging unit number
 LUL .             CASPER:   Logging unit location
 ENGI.          PFERIMMER:   Recorded By
 WITN.              FIVAS:   Witnessed by
 ORIG.           5" PRINT:   Origin of data
 UWI .     49025108510000:   Unique Well ID
 DICO. A2D TECHNOLOGIES, INC.:   Digitizing Company
 DAPD.F                10:   Feet Above Permanent Datum
 BSD1.F              3095:   Depth drilled with bit1
 RMF .OHMM           1.92:   Rmf
 MCSS.               MEAS:   Source Rmc.
~OTHER INFORMATION
~A   DEPT     CALD        GRD       RHOB       CORR        SPR          ILD        ILM      SGRD  
# ...
 2545.0000    10.6470    95.1550     2.5450     0.0310   -27.2380     4.5110     9.0440     9.8500
 2545.5000    10.6500    95.8980     2.5340     0.0360   -27.3010     4.5400     9.2760    10.2070
 2546.0000    10.6540    96.6400     2.5340     0.0410   -27.3640     4.5700     9.5070    10.5650
 2546.5000    10.6570    97.3840     2.5440     0.0450   -27.3540     4.6000     9.7380    10.9230
 2547.0000    10.6570    98.0810     2.5600     0.0500   -27.2760     4.6290     9.9690    11.1790
 2547.5000    10.6490    98.2210     2.5770     0.0490   -27.1970     4.6610    10.1360    11.2210
 2548.0000    10.6370    98.3430     2.5790     0.0470   -27.1970     4.7050    10.1360    11.0310
 2548.5000    10.6250    98.4660     2.5760     0.0460   -27.2060     4.6650     9.9400    10.7680
 2549.0000    10.6070    98.5910     2.5780     0.0440   -27.2140     4.6130     9.7340    10.5040
 2549.5000    10.4510    98.7150     2.5730     0.0410   -27.2220     4.5610     9.5280    10.2410
 2550.0000    10.2710    98.8420     2.5480     0.0320   -27.2310     4.5090     9.3220     9.9780
 2550.5000    10.1920    98.9610     2.5310     0.0230   -27.2390     4.4560     9.1160     9.7140
 2551.0000    10.4560    98.6130     2.5250     0.0140   -27.2480     4.4040     8.9050     9.4510
 2551.5000    10.7480    98.2420     2.5180     0.0180   -27.2560     4.3520     8.8230     9.2260
 2552.0000    10.8480    97.0550     2.5280     0.0240   -27.2640     4.3000     8.9540     9.1550
 2552.5000    10.8420    95.4380     2.5400     0.0310   -27.2730     4.2480     9.0710     9.0710
 2553.0000    10.8340    93.7610     2.5510     0.0370   -27.2810     4.1960     8.8780     8.9880
 2553.5000    10.8260    92.9650     2.5560     0.0440   -27.2890     4.1430     8.6590     8.9880
 2554.0000    10.8180    92.3960     2.5600     0.0430   -27.2980     4.0910     8.4410     9.0000
 2554.5000    10.8140    91.8330     2.5510     0.0380   -27.3060     4.0390     8.2700     9.0700
 2555.0000    10.8070    91.2700     2.5310     0.0320   -27.3140     4.0150     8.2700     9.1410
 2555.5000    10.7940    90.7020     2.5100     0.0270   -27.3230     4.0030     8.4640     9.2110
 2556.0000    10.7800    90.5820     2.5000     0.0210   -27.3310     3.9910     8.5990     9.2810
 2556.5000    10.7670    90.8310     2.5090     0.0160   -27.3390     3.9700     8.6610     9.3260
 2557.0000    10.7530    91.0870     2.5210     0.0110   -27.3480     3.9460     8.5810     9.4130
 2557.5000    10.7390    91.3480     2.5280     0.0120   -27.3560     3.9460     8.3870     9.4130
 2558.0000    10.7350    91.5980     2.5130     0.0130   -27.3640     3.9030     8.1930     9.2900
 2558.5000    10.7650    90.6350     2.5060     0.0140   -27.3720     3.8610     8.0000     9.1450
 2559.0000    10.8050    89.5370     2.5150     0.0200   -27.3810     3.8190     7.8060     9.0010
 2559.5000    10.8460    88.1460     2.5240     0.0310   -27.4330     3.7770     7.6090     8.8560
 2560.0000    10.8530    85.4210     2.5330     0.0410   -27.7140     3.7350     7.5390     8.6610
 2560.5000    10.8310    82.7340     2.5390     0.0500   -27.9910     3.6920     7.5390     8.5020
 2561.0000    10.7980    80.0500     2.5310     0.0500   -28.2690     3.6500     7.6800     8.7810
 2561.5000    10.7650    77.3610     2.5250     0.0450   -28.5460     3.6080     8.1610     8.9880
 2562.0000    10.7320    74.6950     2.5180     0.0390   -28.8230     3.5650     8.5020     9.1550
 2562.5000    10.6990    70.7880     2.5020     0.0340   -29.1000     3.4990     8.8440     8.9130
 2563.0000    10.6660    66.2330     2.4710     0.0290   -29.3770     3.4990     9.1860     8.4930
 2563.5000    10.6390    61.6460     2.4390     0.0230   -29.6550     3.5570     9.3200     8.0740
 2564.0000    10.6580    57.0380     2.4180     0.0180   -29.9300     3.6840     9.6240     7.6550
 2564.5000    10.6760    52.6060     2.3950     0.0130   -30.2390     3.8200     9.9280     7.2360
 2565.0000    10.6950    53.2680     2.3870     0.0070   -30.3410     3.9760    10.2320     7.1320
 2565.5000    10.7140    54.2760     2.3860     0.0080   -30.5300     4.1320    10.5360    10.1840
 2566.0000    10.7320    55.0220     2.3920     0.0090   -30.7150     4.3970    10.8400    17.1080
 2566.5000    10.7500    53.6580     2.4000     0.0110   -30.9010     5.0020    11.1180    25.7910
 2567.0000    10.6580    52.2990     2.4040     0.0120   -31.0860     5.6070    11.6330    23.1950
 2567.5000    10.3950    50.9450     2.3990     0.0140   -31.2710     6.2130    12.2790    18.8330
 2568.0000    10.1360    51.0590     2.4030     0.0210   -31.4570     6.8180    12.9260    26.9010
 2568.5000     9.9420    51.7920     2.4060     0.0350   -31.6420     8.0660    13.5720    33.7240
 2569.0000     9.9160    52.5240     2.4100     0.0490   -31.8280     9.9170    14.2190    32.6270
 2569.5000     9.9370    53.2590     2.4060     0.0520   -32.0200    11.7670    14.8650    31.3190
 2570.0000     9.9700    54.0070     2.4040     0.0460   -32.1230    14.2680    15.7990    40.5750
 2570.5000     9.9700    54.3890     2.4120     0.0410   -32.2030    18.1000    15.5380    38.2960
 2571.0000     9.9500    53.4850     2.4210     0.0360   -32.2830    21.9320    15.2250    33.1060
 2571.5000     9.9070    52.6070     2.4260     0.0310   -32.3620    25.7640    15.4200    32.8010
 2572.0000     9.8640    51.7160     2.4190     0.0260   -32.4420    29.5960    15.6530    37.9240
 2572.5000     9.8220    53.7360     2.4350     0.0210   -32.5220    33.7240    15.6530    42.0570
 2573.0000     9.7940    54.5480     2.4560     0.0370   -32.6010    38.4880    15.7120    46.1910
 2573.5000     9.8140    54.2830     2.4660     0.0530   -32.6490    43.6910    16.1050    50.3240
 2574.0000     9.8420    53.8670     2.4590     0.0660   -32.6420    44.8400    16.4980    53.5480
 2574.5000     9.8710    53.6840     2.4480     0.0600   -32.6350    45.9990    16.8910    49.7290
 2575.0000     9.9010    53.9870     2.4490     0.0540   -32.6280    47.0450    17.1700    54.7810
 2575.5000     9.9300    54.8180     2.4570     0.0480   -32.6210    48.8180    17.0260    59.8320
 2576.0000     9.9520    55.6270     2.4630     0.0420   -32.6140    48.2060    16.8250    57.3810
 2576.5000     9.9300    56.3460     2.4530     0.0370   -32.6070    47.0980    16.6230    54.7680
 2577.0000     9.9010    56.0450     2.4420     0.0310   -32.6000    45.9910    16.5460    52.1550
 2577.5000     9.8710    55.5110     2.4390     0.0250   -32.5940    44.8830    16.5460    49.5420
 2578.0000     9.8410    54.9780     2.4440     0.0190   -32.5870    43.7750    16.7000    46.9290
 2578.5000     9.8140    54.4460     2.4490     0.0170   -32.5800    42.6670    16.3080    43.6910
 2579.0000     9.8130    53.9720     2.4600     0.0290   -32.5730    41.5590    16.0940    44.7520
 2579.5000     9.8140    54.2030     2.4950     0.0410   -32.5660    40.5750    16.3040    46.6230
 2580.0000     9.8200    54.6530     2.5280     0.0530   -32.5590    40.2020    16.5170    48.4940
 2580.5000     9.8580    55.1030     2.5550     0.0650   -32.5520    40.5750    16.5460    50.1910
 2581.0000     9.8960    55.5520     2.5550     0.0690   -32.5450    41.7160    16.0940    50.6580
 2581.5000     9.9340    56.0010     2.5600     0.0720   -32.5390    47.8830    16.2740    48.8180
 2582.0000     9.9720    56.4500     2.5660     0.0750   -32.5320    55.6780    16.6030    60.1550
 2582.5000    10.0090    56.8990     2.5700     0.0780   -32.5250    63.4730    16.9020    71.8540
 2583.0000    10.0470    57.3480     2.5640     0.0770   -32.5180    71.2680    17.0930    80.4350
 2583.5000    10.0690    57.7960     2.5180     0.0740   -32.5110    79.0630    17.2700    67.4750
 2584.0000    10.0690    58.2620     2.4870     0.0710   -32.5040    86.8580    17.4900    95.8990
 2584.5000    10.0690    57.8180     2.4770     0.0650   -32.4970    94.6530    17.3200   140.4910
 2585.0000    10.0690    57.0340     2.4720     0.0580   -32.4900   103.2480    17.0940   141.3930
