~VERSION INFORMATION
 VERS.                2.0:   CWLS LOG ASCII STANDARD - VERSION 2.0
 WRAP.                 NO:   ONE LINE PER DEPTH STEP
~WELL INFORMATION
#MNEM.UNIT      DATA TYPE    INFORMATION
#----------   ------------   ------------------------------
 STRT.F          174.0000:   START DEPTH
 STOP.F         3492.0000:   STOP DEPTH
 STEP.F            0.5000:   STEP LENGTH
 NULL.          -999.2500:   NO VALUE
 COMP.    FENIX & SCISSON:   COMPANY
 WELL.   FENIX "AX" #18-3:   WELL
 FLD .        TEAPOT DOME:   FIELD
 LOC .       S3 T38N R78W:   LOCATION
 CNTY.            NATRONA:   COUNTY
 STAT.            WYOMING:   STATE
 CTRY. UNITED STATES OF AMERICA:   COUNTRY
 SRVC.       SCHLUMBERGER:   SERVICE COMPANY
 DATE.        09-FEB-1981:   LOGDATE
 API .     49025108630000:   API NUMBER
~CURVE INFORMATION
#MNEM.UNIT       API CODE    CURVE DESCRIPTION
#----------   ------------   ------------------------------
 DEPT.F                  :   
 CALD.IN     45 280 60 00:   CALIPER FROM DENSITY LOG
 GRD .GAPI   45 310 01 00:   GAMMA RAY FROM DENSITY LOG
 RHOB.G/C3   45 350 01 00:   BULK DENSITY
 DRHO.G/C3   45 356 01 00:   DENSITY CORRECTION
 TENR.LBS    07 635 01 00:   TENSION FROM RESISTIVITY
 SPR .MV     07 010 01 00:   SPONTANEOUS POTENTIAL
 ILM .OHMM   07 120 44 00:   INDUCTION LOG MEDIUM RESISTIVITY
 ILD .OHMM   07 120 46 00:   INDUCTION LOG DEEP RESISTIVITY
 SFLU.OHMM   07 220 01 00:   SPHERICALLY FOCUSED LOG UNAVERAGED RESISTIVITY
~PARAMETER INFORMATION
#MNEM.UNIT          VALUE    DESCRIPTION
#----------   ------------   ------------------------------
 EKB .F         5267.0000:   Kelly bushing
 EGL .F         5257.0000:   Ground level
 EDF .F            0.0000:   Drilling floor
 TD  .F         3472.0000:   Total depth
 DATE.        09-FEB-1981:   Date logged
 CLNT.            A2DTECH:   Client Code
 SL  . 669' FSL & 42' FWL:   Surface Location
 PD  .                 GL:   Permanent Datum
 DD  .F              3401:   Depth driller
 DL  .F              3472:   Depth logger
 BLI .F              3466:   Bottom log interval
 CS1 .IN            8.625:   Casing size
 CBD1.      8.625" @ 200':   Casing driller 1
 CBL1.F               196:   Casing logger 1
 BS1 .IN            7.875:   Bit size
 DFT .            KCL/GEL:   Type fluid in hole
 DFD .                  9:   Density
 DFV .                 60:   Viscosity
 DFPH.                8.5:   pH
 DFL .                 10:   Fluid loss
 MSS .            MUD/PIT:   Source of sample
 RMS .OHMM           1.88:   Rm
 MST .F                75:   Rm Meas. temp.
 RMF .OHMM           1.12:   Rmf
 MFST.F                75:   Rmf Meas. temp.
 MFSS.               MEAS:   Source Rmf.
 RMB .OHMM           1.21:   Rm. at BHT
 BHT .F               120:   BHT.
 TCS .HRS            1800:   Time Circ. stopped
 MRT .F               120:   Maximum recorded temp.
 LUN .               8043:   Logging unit number
 LUL .               CSPR:   Logging unit location
 ENGI.            CONNETT:   Recorded By
 WITN.              SCOTT:   Witnessed by
 ORIG.           5" PRINT:   Origin of data
 UWI .     49025108630000:   Unique Well ID
 DICO. A2D TECHNOLOGIES, INC.:   Digitizing Company
 DAPD.F                10:   Feet Above Permanent Datum
 BSD1.F              3401:   Depth drilled with bit1
 EPD .F              5257:   Elevation Permanent Datum
 LMF .                 KB:   Log Measured From
 DMF .                 KB:   Drilling Measured From
 TLI .F               196:   Top log interval
 TLAB.               0000:   Time logger at bottom
~OTHER INFORMATION
~A   DEPT     CALD         GRD      RHOB       DRHO       TENR        SPR        ILM        ILD       SFLU   
# ...
 1926.0000     8.9750   109.1900     2.6320     0.1010   780.4500   -47.7200     7.7750     8.0750     8.9950
 1926.5000     8.9760   109.9080     2.6410     0.1060   780.9510   -47.7680     7.7410     8.0660     8.9680
 1927.0000     8.9760   110.6370     2.6270     0.0860   781.4530   -47.8160     7.7080     8.0570     8.9770
 1927.5000     8.9760   110.5510     2.6130     0.0710   781.9540   -47.8640     7.6670     8.0470     8.9930
 1928.0000     8.9760   109.1290     2.6010     0.0660   782.4560   -47.9120     7.7430     8.0380     9.0090
 1928.5000     8.9770   107.4980     2.6070     0.0700   782.9570   -47.9600     7.7470     8.0290     9.0250
 1929.0000     8.9770   105.9630     2.6160     0.0790   783.4580   -48.0130     7.7570     8.0280     9.0410
 1929.5000     8.9770   106.8570     2.6230     0.0790   783.9600   -47.8780     7.7650     8.0520     9.0570
 1930.0000     8.9770   109.4760     2.6170     0.0760   784.4610   -47.6920     7.7730     8.0830     9.0730
 1930.5000     8.9780   110.8790     2.6140     0.0690   784.9630   -47.5050     7.7810     8.1140     9.0890
 1931.0000     8.9780   107.5420     2.6110     0.0680   785.4640   -47.3170     7.7890     8.1450     9.1050
 1931.5000     8.9780   103.9110     2.6060     0.0680   785.9660   -47.2380     7.7970     8.1760     9.1210
 1932.0000     8.9790   103.3300     2.6000     0.0690   786.4670   -47.2550     7.8060     8.2070     9.1330
 1932.5000     8.9790   107.3080     2.6040     0.0750   786.9680   -47.2720     7.8090     8.2380     9.1230
 1933.0000     8.9790   109.7350     2.6140     0.0780   787.4700   -47.2900     7.8300     8.2540     9.1120
 1933.5000     8.9790   111.0750     2.6160     0.0740   787.9710   -47.3070     7.8700     8.2460     9.1020
 1934.0000     8.9800   112.3960     2.6020     0.0660   788.4730   -47.3250     7.9110     8.2210     9.0910
 1934.5000     8.9800   113.6920     2.5970     0.0680   788.9740   -47.3420     7.9510     8.1950     9.0810
 1935.0000     8.9800   114.7180     2.6100     0.0750   789.4750   -47.3600     7.9910     8.1700     9.0700
 1935.5000     8.9800   113.8870     2.6310     0.0860   789.9770   -47.3780     8.0280     8.1440     9.0600
 1936.0000     8.9810   112.0340     2.6420     0.0920   790.4780   -47.3950     8.0280     8.1190     9.0490
 1936.5000     8.9810   110.1840     2.6460     0.0910   790.9800   -47.4120     7.8970     8.0930     9.0390
 1937.0000     8.9810   109.8850     2.6380     0.0890   791.4810   -47.4260     7.7930     8.0680     9.0280
 1937.5000     8.9810   111.3650     2.6260     0.0830   791.9830   -47.5170     7.6890     8.0430     9.0180
 1938.0000     8.9820   112.8270     2.6170     0.0760   792.4840   -47.6230     7.5850     8.0280     9.0070
 1938.5000     8.9820   114.2870     2.6190     0.0790   792.9850   -47.7290     7.5050     8.0760     8.9970
 1939.0000     8.9820   115.7490     2.6170     0.0840   793.4870   -47.8360     7.4580     8.1150     8.9870
 1939.5000     8.9820   117.1450     2.6100     0.0850   793.9880   -47.9420     7.4580     8.1530     8.9760
 1940.0000     8.9830   114.5390     2.6180     0.0820   794.4900   -48.0480     7.5960     8.1910     8.9680
 1940.5000     8.9830   110.6390     2.6340     0.0960   794.9910   -48.1530     7.6670     8.2300     9.1400
 1941.0000     8.9830   106.7400     2.6480     0.0960   795.4920   -48.1830     7.6980     8.2680     9.2810
 1941.5000     8.9840   105.6880     2.6560     0.0950   795.9940   -48.0980     7.7480     8.3060     9.4780
 1942.0000     8.9840   107.3040     2.6630     0.0930   796.4950   -48.0150     7.7990     8.3450     9.3750
 1942.5000     8.9840   109.3260     2.6700     0.0900   796.9970   -47.9300     7.8550     8.3830     9.1170
 1943.0000     8.9840   108.7890     2.6630     0.0870   797.4980   -47.8460     7.9130     8.4210     8.8600
 1943.5000     8.9850   106.6130     2.6430     0.0740   798.0000   -47.7610     7.9700     8.4600     8.6430
 1944.0000     8.9850   104.9380     2.6220     0.0660   798.5010   -47.6770     8.0280     8.4980     8.5640
 1944.5000     8.9850   104.4680     2.6070     0.0610   799.0020   -47.5930     8.0850     8.5370     9.6230
 1945.0000     8.9850   104.3680     2.6030     0.0640   799.5040   -47.5110     8.1430     8.5750    10.1130
 1945.5000     8.9860   105.4130     2.5970     0.0680   800.0050   -47.4290     8.2000     8.6130    10.2830
 1946.0000     8.9860   107.5320     2.5870     0.0700   800.5070   -47.4250     8.2580     8.6520    10.3930
 1946.5000     8.9860   109.6000     2.5820     0.0700   801.0080   -47.4260     8.3300     8.6900    10.3710
 1947.0000     8.9860   109.7110     2.5950     0.0800   801.5090   -47.4260     8.2540     8.7190    10.3060
 1947.5000     8.9870   109.5480     2.6270     0.0890   802.0110   -47.4260     8.2260     8.6340    10.2420
 1948.0000     8.9870   109.3740     2.6550     0.0930   802.5120   -47.4250     8.1880     8.5560    10.1770
 1948.5000     8.9870   109.3130     2.6470     0.0910   803.0140   -47.4270     8.1070     8.4780    10.1130
 1949.0000     8.9870   110.9320     2.6340     0.0900   803.5150   -47.5650     8.0090     8.4000    10.0480
 1949.5000     8.9880   112.5070     2.6220     0.0860   804.0170   -47.7160     7.9110     8.3220     9.7510
 1950.0000     8.9880   114.0690     2.6090     0.0810   804.5180   -47.8680     7.8130     8.2440     9.2300
 1950.5000     8.9880   115.6280     2.5960     0.0760   805.0190   -48.0200     7.7150     8.1660     8.8850
 1951.0000     8.9890   117.1910     2.5980     0.0750   805.5210   -48.1750     7.6170     8.0880     8.8850
 1951.5000     8.9890   118.7520     2.6270     0.0920   806.0220   -48.2610     7.5180     8.0100     8.7280
 1952.0000     8.9890   120.1360     2.6470     0.1110   806.5240   -48.3260     7.4200     7.9310     8.4660
 1952.5000     8.9890   120.0660     2.6670     0.1310   807.0250   -48.3900     7.3720     7.8530     8.2900
 1953.0000     8.9900   119.9770     2.6720     0.1360   807.5260   -48.4540     7.3360     7.7750     8.1780
 1953.5000     8.9900   119.8930     2.6440     0.1210   808.0280   -48.5180     7.3000     7.6970     8.4960
 1954.0000     8.9900   120.0850     2.6310     0.1070   808.5290   -48.5780     7.2640     7.6190     8.9670
 1954.5000     8.9900   120.5630     2.6180     0.0920   809.0310   -48.5290     7.2280     7.5410     9.2190
 1955.0000     8.9910   121.0220     2.6150     0.0780   809.5320   -48.1910     7.1920     7.4630     8.8420
 1955.5000     8.9910   119.1190     2.6120     0.0750   810.0340   -47.8620     7.1560     7.3890     8.2540
 1956.0000     8.9910   116.9570     2.6100     0.0780   810.5350   -47.6050     7.1200     7.3730     8.3090
 1956.5000     8.9910   114.9550     2.6080     0.0840   810.9140   -47.3580     7.0840     7.3480     8.4070
 1957.0000     8.9920   115.2470     2.6060     0.0880   811.1440   -47.1010     7.0480     7.3230     8.3440
 1957.5000     8.9920   116.6260     2.6100     0.0880   811.3740   -47.0920     7.0120     7.2990     8.2040
 1958.0000     8.9920   118.4870     2.6170     0.0880   811.6030   -47.1790     6.9920     7.2740     8.0630
 1958.5000     8.9930   120.0700     2.6270     0.0960   811.8330   -47.2590     6.9920     7.2490     7.9550
 1959.0000     8.9930   118.5990     2.6370     0.1040   812.0630   -47.3280     6.9920     7.2240     8.1790
 1959.5000     8.9930   117.1500     2.6470     0.1120   812.2920   -47.3960     6.9920     7.2000     8.3620
 1960.0000     8.9930   115.7130     2.6500     0.1180   812.5220   -47.4640     6.9920     7.1750     8.5440
 1960.5000     8.9940   115.0270     2.6360     0.1010   812.7520   -47.5320     6.9910     7.1500     8.7230
 1961.0000     8.9940   116.9450     2.6250     0.0900   812.9820   -47.6020     6.9910     7.1250     8.5890
 1961.5000     8.9940   119.6120     2.6160     0.0790   813.2110   -47.6910     6.9660     7.1010     8.4240
 1962.0000     8.9940   121.8900     2.6070     0.0680   813.4410   -47.7930     6.9250     7.0760     8.2590
