~VERSION INFORMATION
 VERS.                2.0:   CWLS LOG ASCII STANDARD - VERSION 2.0
 WRAP.                 NO:   ONE LINE PER DEPTH STEP
~WELL INFORMATION
#MNEM.UNIT      DATA TYPE    INFORMATION
#----------   ------------   ------------------------------
 STRT.F           14.0000:   START DEPTH
 STOP.F         3030.0000:   STOP DEPTH
 STEP.F            0.5000:   STEP LENGTH
 NULL.          -999.2500:   NO VALUE
 COMP. LAWRENCE ALLISON & ASSOC. WEST:   COMPANY
 WELL. LAWRENCE "X" #37-28:   WELL
 FLD .          N.P.R. #3:   FIELD
 LOC .      S28 T39N R78W:   LOCATION
 CNTY.            NATRONA:   COUNTY
 STAT.            WYOMING:   STATE
 CTRY. UNITED STATES OF AMERICA:   COUNTRY
 SRVC.      DRESSER ATLAS:   SERVICE COMPANY
 DATE.        22-SEP-1986:   LOGDATE
 API .     49025111090000:   API NUMBER
~CURVE INFORMATION
#MNEM.UNIT       API CODE    CURVE DESCRIPTION
#----------   ------------   ------------------------------
 DEPT.F                  :   
 GRR .GAPI   07 310 01 00:   GAMMA RAY FROM RESISTIVITY
 SPR .MV     07 010 01 00:   SPONTANEOUS POTENTIAL
 TENR.LBS    07 635 01 00:   TENSION FROM RESISTIVITY
 RILD.OHMM   07 120 46 00:   DEEP INDUCTION RESISTIVITY
 RILM.OHMM   07 120 44 00:   INDUCTION LOG MEDIUM RESISTIVITY
 RFOC.OHMM   07 220 04 00:   RESISTIVITY FOCUSED LOG RES.
 CNC .DEC    42 890 03 00:   NEUTRON PORISITY SANDSTONE
 RHOB.G/C3   45 350 01 00:   BULK DENSITY
 CORR.G/C3   45 356 01 00:   DENSITY CORRECTION
 TEND.LBS    45 635 01 00:   TENSION FROM DENSITY LOG
 CALD.IN     45 280 60 00:   CALIPER FROM DENSITY LOG
~PARAMETER INFORMATION
#MNEM.UNIT          VALUE    DESCRIPTION
#----------   ------------   ------------------------------
 EKB .F         5124.0000:   Kelly bushing
 EGL .F         5113.0000:   Ground level
 EDF .F         5123.0000:   Drilling floor
 TD  .F         3026.0000:   Total depth
 DATE.        22-SEP-1986:   Date logged
 CLNT.            A2DTECH:   Client Code
 SL  . 1097' FSL & 1722' FWL:   Surface Location
 PD  .                 GL:   Permanent Datum
 EPD .F              5113:   Elevation Permanent Datum
 LMF .                 KB:   Log Measured From
 DMF .                 KB:   Drilling Measured From
 DAPD.F                11:   Feet Above Permanent Datum
 DD  .F              3026:   Depth driller
 DL  .F              3023:   Depth logger
 BLI .F              3020:   Bottom log interval
 CS1 .IN            8.625:   Casing size
 CBD1.      8.625" @ 517':   Casing driller 1
 CBL1.F               518:   Casing logger 1
 BS1 .IN            7.875:   Bit size
 BSD1.F              3026:   Depth drilled with bit1
 DFT .            KCL-GEL:   Type fluid in hole
 DFD .                8.6:   Density
 DFV .                 41:   Viscosity
 DFPH.                9.5:   pH
 DFL .                6.8:   Fluid loss
 MSS .           FLOWLINE:   Source of sample
 RMS .OHMM           0.37:   Rm
 MST .F                58:   Rm Meas. temp.
 RMF .OHMM           0.33:   Rmf
 MFST.F                63:   Rmf Meas. temp.
 RMC .OHMM           0.59:   Rmc
 MCST.F                58:   Rmc Meas. temp.
 MFSS.               MEAS:   Source Rmf.
 MCSS.               CALC:   Source Rmc.
 RMB .OHMM           0.16:   Rm. at BHT
 BHT .F               131:   BHT.
 TCS .HRS               3:   Time Circ. stopped
 MRT .F               131:   Maximum recorded temp.
 LUN .            HL 6426:   Logging unit number
 LUL .                 RS:   Logging unit location
 ENGI.               RALL:   Recorded By
 WITN.             STRONG:   Witnessed by
 ORIG.           5" PRINT:   Origin of data
 UWI .     49025111090000:   Unique Well ID
 DICO. A2D TECHNOLOGIES, INC.:   Digitizing Company
~OTHER INFORMATION
~A   DEPT      GRR        SPR       TENR       RILD       RILM       RFOC        CNC       RHOB       CORR       TEND       CALD   
# ...
 2332.0000   111.5660   -15.1720   -62.2080     6.0270     7.0260     6.6330  -999.2500  -999.2500  -999.2500  -999.2500  -999.2500
 2332.5000   109.0400   -15.3930   -61.5240     6.1140     7.1380     6.8080  -999.2500  -999.2500  -999.2500  -999.2500  -999.2500
 2333.0000   106.2800   -15.6450   -60.8410     6.2520     7.2500     7.0820  -999.2500  -999.2500  -999.2500  -999.2500  -999.2500
 2333.5000   104.8780   -15.8800   -60.1570     6.3890     7.3020     7.2920  -999.2500  -999.2500  -999.2500  -999.2500  -999.2500
 2334.0000   104.8770   -16.1210   -59.4740     6.4650     7.3250     7.6340  -999.2500  -999.2500  -999.2500  -999.2500  -999.2500
 2334.5000   105.9980   -16.3630   -58.7910     6.4650     7.3480     7.8150  -999.2500  -999.2500  -999.2500  -999.2500  -999.2500
 2335.0000   107.4540   -16.6010   -58.1070     6.4650     7.2920     7.8520  -999.2500  -999.2500  -999.2500  -999.2500  -999.2500
 2335.5000   108.4370   -16.8440   -57.4240     6.4490     7.0900     7.5900  -999.2500  -999.2500  -999.2500  -999.2500  -999.2500
 2336.0000   109.3240   -17.0810   -56.7400     6.4310     6.9340     7.2250  -999.2500  -999.2500  -999.2500  -999.2500  -999.2500
 2336.5000   110.0520   -17.3260   -56.0570     6.4130     6.7710     6.9380  -999.2500  -999.2500  -999.2500  -999.2500  -999.2500
 2337.0000   109.4280   -17.4490   -55.3740     6.4060     6.7910     6.9470  -999.2500  -999.2500  -999.2500  -999.2500  -999.2500
 2337.5000   107.4380   -17.4020   -54.6900     6.4060     6.8340     7.2550  -999.2500  -999.2500  -999.2500  -999.2500  -999.2500
 2338.0000   105.5380   -17.3380   -54.0200     6.8300     7.1100     7.4970  -999.2500  -999.2500  -999.2500  -999.2500  -999.2500
 2338.5000   104.0560   -17.2890   -52.9750     7.0270     7.4600     7.7660  -999.2500  -999.2500  -999.2500  -999.2500  -999.2500
 2339.0000   102.7160   -17.2280   -51.9500     7.0920     7.8090     7.9880  -999.2500  -999.2500  -999.2500  -999.2500  -999.2500
 2339.5000   100.7300   -17.1760   -50.9250     7.0270     7.9250     8.1490  -999.2500  -999.2500  -999.2500  -999.2500  -999.2500
 2340.0000    97.5220   -17.1180   -49.8990     6.7940     7.6020     8.1070  -999.2500  -999.2500  -999.2500  -999.2500  -999.2500
 2340.5000    97.4860   -17.0650   -48.8740     6.6110     7.3800     8.0730  -999.2500  -999.2500  -999.2500  -999.2500  -999.2500
 2341.0000   102.4380   -17.0080   -47.8490     6.4470     7.1720     7.4970  -999.2500  -999.2500  -999.2500  -999.2500  -999.2500
 2341.5000   108.0790   -16.9520   -46.8240     6.2980     6.9650     7.1720  -999.2500  -999.2500  -999.2500  -999.2500  -999.2500
 2342.0000   112.2640   -16.9000   -45.7990     6.1500     6.8000     6.8900  -999.2500  -999.2500  -999.2500  -999.2500  -999.2500
 2342.5000   112.7030   -16.8360   -44.7740     6.0280     6.7090     6.8700  -999.2500  -999.2500  -999.2500  -999.2500  -999.2500
 2343.0000   108.7370   -16.7940   -43.9700     5.9480     6.7090     6.8500  -999.2500  -999.2500  -999.2500  -999.2500  -999.2500
 2343.5000   104.8580   -16.7210   -42.9140     5.8680     6.7090     6.8340  -999.2500  -999.2500  -999.2500  -999.2500  -999.2500
 2344.0000   104.9030   -16.6770   -42.0450     5.8340     6.7090     6.8740  -999.2500  -999.2500  -999.2500  -999.2500  -999.2500
 2344.5000   108.2140   -16.8070   -41.1760     5.8220     6.6750     6.8980  -999.2500  -999.2500  -999.2500  -999.2500  -999.2500
 2345.0000   111.3850   -16.9920   -40.3070     5.8100     6.6010     6.8250  -999.2500  -999.2500  -999.2500  -999.2500  -999.2500
 2345.5000   112.6780   -17.1560   -39.4390     5.7980     6.5280     6.7180  -999.2500  -999.2500  -999.2500  -999.2500  -999.2500
 2346.0000   113.2810   -17.2240   -38.5700     5.7850     6.4650     6.6470  -999.2500  -999.2500  -999.2500  -999.2500  -999.2500
 2346.5000   113.0650   -17.0780   -37.7010     5.7400     6.4650     6.6870  -999.2500  -999.2500  -999.2500  -999.2500  -999.2500
 2347.0000   108.9340   -16.9270   -36.8320     5.6560     6.4650     6.7220  -999.2500  -999.2500  -999.2500  -999.2500  -999.2500
 2347.5000   103.5260   -16.9600   -35.9640     5.5730     6.4650     6.7580  -999.2500  -999.2500  -999.2500  -999.2500  -999.2500
 2348.0000   102.1120   -17.1040   -35.0950     5.4830     6.3790     6.7060  -999.2500  -999.2500  -999.2500  -999.2500  -999.2500
 2348.5000   103.9510   -17.2600   -34.2260     5.3850     6.1710     6.4380  -999.2500  -999.2500  -999.2500  -999.2500  -999.2500
 2349.0000   106.6180   -17.4050   -33.9200     5.2870     5.9630     6.0600  -999.2500  -999.2500  -999.2500  -999.2500  -999.2500
 2349.5000   107.9350   -17.5610   -33.9200     5.1770     5.8390     5.9950  -999.2500  -999.2500  -999.2500  -999.2500  -999.2500
 2350.0000   108.6900   -17.7060   -33.9200     5.0930     5.7220     5.9210  -999.2500  -999.2500  -999.2500  -999.2500  -999.2500
 2350.5000   109.7220   -17.8600   -33.9200     4.9690     5.6120     5.8390  -999.2500  -999.2500  -999.2500  -999.2500  -999.2500
 2351.0000   108.1000   -18.0100   -29.6310     4.8460     5.4730     5.8170  -999.2500  -999.2500  -999.2500  -999.2500  -999.2500
 2351.5000   105.1700   -17.9880   -16.0970     4.7390     5.3270     5.7750  -999.2500  -999.2500  -999.2500  -999.2500  -999.2500
 2352.0000   104.9760   -17.8260    -2.5630     4.6660     5.1440     5.7320  -999.2500  -999.2500  -999.2500  -999.2500  -999.2500
 2352.5000   107.1040   -17.6490     6.2810     4.5080     4.9610     5.6790  -999.2500  -999.2500  -999.2500  -999.2500  -999.2500
 2353.0000   108.3030   -17.4800    -0.1950     4.2780     4.8080     5.5930  -999.2500  -999.2500  -999.2500  -999.2500  -999.2500
 2353.5000   107.8090   -17.3200    -5.8350     3.9950     4.6150     5.4380  -999.2500  -999.2500  -999.2500  -999.2500  -999.2500
 2354.0000   109.2070   -17.1270   -11.4740     3.9140     4.4210     5.1200  -999.2500  -999.2500  -999.2500  -999.2500  -999.2500
 2354.5000   114.6220   -16.9940   -11.2060     3.7730     4.2630     4.5900  -999.2500  -999.2500  -999.2500  -999.2500  -999.2500
 2355.0000   122.0620   -16.7760    -4.4390     3.6310     4.1900     4.4250  -999.2500  -999.2500  -999.2500  -999.2500  -999.2500
 2355.5000   125.6180   -16.4910     2.3280     3.5530     4.1290     4.3420  -999.2500  -999.2500  -999.2500  -999.2500  -999.2500
 2356.0000   121.8800   -16.5720     6.2810     3.4980     4.0700     4.3830  -999.2500  -999.2500  -999.2500  -999.2500  -999.2500
 2356.5000   117.7360   -16.8180   -14.3220     3.4770     4.0900     4.5370  -999.2500  -999.2500  -999.2500  -999.2500  -999.2500
 2357.0000   116.5380   -17.0020   -18.3420     3.4970     4.1140     4.6330  -999.2500  -999.2500  -999.2500  -999.2500  -999.2500
 2357.5000   116.2080   -17.2250    -5.6530     3.5100     4.1380     4.9430  -999.2500  -999.2500  -999.2500  -999.2500  -999.2500
 2358.0000   118.0500   -17.4240     7.0350     3.6580     4.2370     4.8980  -999.2500  -999.2500  -999.2500  -999.2500  -999.2500
 2358.5000   120.1420   -17.6430    16.3320     3.7780     4.3760     4.6850  -999.2500  -999.2500  -999.2500  -999.2500  -999.2500
 2359.0000   120.3300   -17.8360    -0.3670     3.8970     4.5150     4.5060  -999.2500  -999.2500  -999.2500  -999.2500  -999.2500
 2359.5000   116.9460   -18.0660   -15.9840     3.9950     4.6550     4.8850  -999.2500  -999.2500  -999.2500  -999.2500  -999.2500
 2360.0000   111.5020   -18.2720   -23.8690     4.0700     4.8080     5.3050  -999.2500  -999.2500  -999.2500  -999.2500  -999.2500
 2360.5000   109.5530   -18.2910   -15.2880     4.1460     4.8470     5.5750  -999.2500  -999.2500  -999.2500  -999.2500  -999.2500
 2361.0000   110.1800   -18.5210    -7.4800     4.2210     4.9020     5.5560  -999.2500  -999.2500  -999.2500  -999.2500  -999.2500
 2361.5000   112.9150   -18.9780   -10.4270     4.3020     4.9580     5.4960  -999.2500  -999.2500  -999.2500  -999.2500  -999.2500
 2362.0000   116.1200   -19.3070   -23.1160     4.3610     5.0130     5.4360  -999.2500  -999.2500  -999.2500  -999.2500  -999.2500
