~VERSION INFORMATION
 VERS.                2.0:   CWLS LOG ASCII STANDARD - VERSION 2.0
 WRAP.                 NO:   ONE LINE PER DEPTH STEP
~WELL INFORMATION
#MNEM.UNIT      DATA TYPE    INFORMATION
#----------   ------------   ------------------------------
 STRT.F           36.0000:   START DEPTH
 STOP.F         3014.5000:   STOP DEPTH
 STEP.F            0.5000:   STEP LENGTH
 NULL.          -999.2500:   NO VALUE
 COMP.    TESRO PETROLEUM:   COMPANY
 WELL. TESORO N.P.R. "A" #6-21:   WELL
 FLD .             TEAPOT:   FIELD
 LOC .      S21 T39N R78W:   LOCATION
 CNTY.            NATRONA:   COUNTY
 STAT.            WYOMING:   STATE
 CTRY. UNITED STATES OF AMERICA:   COUNTRY
 SRVC.              WELEX:   SERVICE COMPANY
 DATE.        16-JUL-1968:   LOGDATE
 API .     49025100180000:   API NUMBER
~CURVE INFORMATION
#MNEM.UNIT       API CODE    CURVE DESCRIPTION
#----------   ------------   ------------------------------
 DEPT.F                  :   
 SPR .MV     05 010 01 00:   SPONTANEOUS POTENTIAL FROM RES.
 ASN .OHMM   05 041 18 00:   AMPLIFIED SHORT NORMAL 18"
 IL  .OHMM   05 120 00 00:   INDUCTION LOG
 GRD .GAPI   45 310 01 00:   GAMMA RAY FROM DENSITY LOG
 CALD.IN     45 280 60 00:   CALIPER FROM DENSITY LOG
 GDEN.CPS    45 350 30 00:   GAMMA DENS
~PARAMETER INFORMATION
#MNEM.UNIT          VALUE    DESCRIPTION
#----------   ------------   ------------------------------
 EKB .F         5002.0000:   Kelly bushing
 EGL .F         4991.0000:   Ground level
 EDF .F         5001.0000:   Drilling floor
 TD  .F         3025.0000:   Total depth
 DATE.        16-JUL-1968:   Date logged
 CLNT.            A2DTECH:   Client Code
 PD  .                 GL:   Permanent Datum
 EPD .F              4991:   Elevation Permanent Datum
 LMF .                 KB:   Log Measured From
 DMF .                 KB:   Drilling Measured From
 DD  .F              3025:   Depth driller
 DL  .F              3019:   Depth logger
 BLI .F              3014:   Bottom log interval
 TLI .F              2670:   Top log interval
 CS1 .IN            10.75:   Casing size
 CBD1.      10.75" @ 325':   Casing driller 1
 CBL1.F               325:   Casing logger 1
 BS1 .IN                9:   Bit size
 BSD1.F              3025:   Depth drilled with bit1
 DFT .     WATER BASE MUD:   Type fluid in hole
 DFD .                9.7:   Density
 DFV .                 60:   Viscosity
 DFL .                6.4:   Fluid loss
 MSS .              CIRC.:   Source of sample
 RMS .OHMM            2.2:   Rm
 MST .F                84:   Rm Meas. temp.
 RMF .OHMM            1.6:   Rmf
 MFST.F                70:   Rmf Meas. temp.
 RMC .OHMM            3.3:   Rmc
 MCST.F                68:   Rmc Meas. temp.
 MFSS.               MEAS:   Source Rmf.
 RMB .OHMM           1.55:   Rm. at BHT
 BHT .F               120:   BHT.
 MRT .F               120:   Maximum recorded temp.
 LUN .               6869:   Logging unit number
 LUL .                 NC:   Logging unit location
 ENGI.          H. STEITZ:   Recorded By
 WITN.                MAY:   Witnessed by
 ORIG.           5" PRINT:   Origin of data
 UWI .     49025100180000:   Unique Well ID
 DICO. A2D TECHNOLOGIES, INC.:   Digitizing Company
~OTHER INFORMATION
~A   DEPT      SPR        ASN           IL      GRD       CALD       GDEN   
# ...
 2584.0000   -30.3870    17.1360    13.2340    69.3080     9.4150   994.1350
 2584.5000   -30.4880    17.0160    12.7230    71.0600     9.4130  1009.5100
 2585.0000   -30.5890    16.3720    12.2120    73.0310     9.4100  1021.7610
 2585.5000   -30.6880    15.7240    11.7030    74.8970     9.4080  1034.0129
 2586.0000   -30.7850    15.1140    11.2340    75.7810     9.4050  1046.2640
 2586.5000   -30.7620    14.9970    11.0170    75.6410     9.4030  1051.7889
 2587.0000   -30.9430    15.4480    11.1220    71.1380     9.4000  1049.4830
 2587.5000   -31.0360    16.0010    11.2770    66.2230     9.3980  1043.8370
 2588.0000   -31.1290    16.4770    11.6540    62.1960     9.3950  1045.4440
 2588.5000   -31.2220    16.6870    12.1080    61.8200     9.3930  1034.8910
 2589.0000   -31.2350    17.7640    12.9480    63.1980     9.3900  1038.8010
 2589.5000   -31.0660    18.8070    14.0270    62.1480     9.3870  1043.3070
 2590.0000   -30.8960    19.8550    15.4330    60.3070     9.3850  1043.8370
 2590.5000   -30.7210    20.6030    16.8320    59.9840     9.3830  1043.8370
 2591.0000   -30.6530    20.9470    17.9710    59.0550     9.3890  1040.6680
 2591.5000   -30.6080    21.2570    18.5090    57.3790     9.3940  1045.5270
 2592.0000   -30.5650    21.3580    17.6130    62.9420     9.4000  1053.1310
 2592.5000   -30.5220    19.3510    15.5110    70.6070     9.4050  1068.6880
 2593.0000   -30.4790    16.4840    12.7160    78.6930     9.4110  1096.5710
 2593.5000   -30.4360    13.3960     9.9110    88.3850     9.4160  1120.2780
 2594.0000   -30.3930    10.5850     8.0090    99.1380     9.4220  1135.0890
 2594.5000   -30.3500     9.4180     6.6370   104.9940     9.4270  1157.1570
 2595.0000   -30.3070     8.4740     5.8830   101.5010     9.4330  1143.2410
 2595.5000   -30.2760     7.5600     5.3230    98.1400     9.4380  1118.0720
 2596.0000   -30.3690     7.3410     4.9240    96.0830     9.4440  1078.6281
 2596.5000   -30.4730     7.2110     5.0090    95.4240     9.4490  1088.5690
 2597.0000   -30.5780     7.1300     5.1300    94.5660     9.4550  1081.6100
 2597.5000   -30.6820     7.0750     5.1510    94.4240     9.4600  1086.0120
 2598.0000   -30.7840     7.0180     5.1680    94.3300     9.4660  1091.8060
 2598.5000   -30.8140     6.9600     5.1840    94.4310     9.4710  1097.6000
 2599.0000   -30.5330     6.9070     5.2000    96.5030     9.4770  1100.4969
 2599.5000   -30.2550     6.9330     5.2150    97.2580     9.4820  1097.2170
 2600.0000   -29.9780     6.9840     5.2290    99.0990     9.4880  1094.5330
 2600.5000   -29.7010     6.9440     5.2150    98.7360     9.4930  1097.8080
 2601.0000   -29.8060     6.8690     5.1950    98.2860     9.4980  1100.4969
 2601.5000   -29.9380     6.7940     5.1750    98.2590     9.4980  1111.0510
 2602.0000   -30.0700     6.7410     5.1550    99.2300     9.4920  1125.3480
 2602.5000   -30.2030     6.7540     5.1310    97.8360     9.4870  1126.3420
 2603.0000   -30.2770     6.9190     5.2990    95.4540     9.4820  1121.2130
 2603.5000   -30.3110     7.2380     5.5610    93.0820     9.4760  1101.6801
 2604.0000   -30.3880     7.6980     5.8240    90.7040     9.4710  1083.1281
 2604.5000   -30.4640     8.1420     6.0870    89.4630     9.4650  1075.6460
 2605.0000   -30.5390     8.5890     6.3500    90.3790     9.4600  1070.3979
 2605.5000   -30.6150     8.8120     6.6110    94.0640     9.4540  1063.9810
 2606.0000   -30.6910     8.7860     6.8250    96.3900     9.4490  1056.3920
 2606.5000   -30.7680     8.6310     6.7910    95.8720     9.4430  1056.1010
 2607.0000   -30.8470     8.4760     6.7600    96.6910     9.4450  1055.7650
 2607.5000   -30.7930     8.3220     6.7300    96.6360     9.4490  1053.6990
 2608.0000   -30.6340     8.1620     6.7470    94.4970     9.4530  1055.7650
 2608.5000   -30.4760     8.1790     6.7810    92.7250     9.4580  1059.5150
 2609.0000   -30.3180     8.4680     6.8160    92.5810     9.4620  1063.3101
 2609.5000   -30.1600     8.7600     6.8220    94.2310     9.4660  1064.7120
 2610.0000   -30.0050     9.0500     6.8230    95.7680     9.4700  1058.5630
 2610.5000   -29.9470     9.2930     6.8230    97.0940     9.4740  1053.3361
 2611.0000   -30.2750     9.0890     6.8230    98.1040     9.4790  1055.3600
 2611.5000   -30.5970     8.6560     6.8070    98.9050     9.4830  1056.7590
 2612.0000   -30.9200     8.2300     6.5210    99.0680     9.4870  1052.9890
 2612.5000   -30.9850     7.8200     6.2440    99.5530     9.4910  1047.6760
 2613.0000   -30.8310     7.6630     5.9670   100.1600     9.4950  1042.3640
 2613.5000   -30.6780     7.4980     5.6900   103.1280     9.5000  1037.0510
 2614.0000   -30.5190     7.3630     5.5350   107.6570     9.5040  1036.2841
 2614.5000   -30.5400     7.3320     5.5840   106.5340     9.5080  1038.6340
 2615.0000   -30.6400     7.3040     5.6310   103.9210     9.5120  1040.9830
 2615.5000   -30.7400     7.2750     5.6760   101.5320     9.5160  1043.3320
 2616.0000   -30.8420     7.1780     5.7010   100.6450     9.5200  1045.6810
 2616.5000   -30.9450     7.0360     5.6100    99.3000     9.5250  1047.8130
 2617.0000   -31.0510     6.8970     5.4610    97.7410     9.5290  1048.5040
 2617.5000   -30.8960     6.7570     5.3130    97.7190     9.5330  1046.1730
 2618.0000   -30.6870     6.6170     5.1660    97.6100     9.5370  1040.8550
 2618.5000   -30.4760     6.4770     5.0190    96.1270     9.5390  1046.7860
 2619.0000   -30.2660     6.3990     4.8660    96.1400     9.5350  1053.0360
 2619.5000   -30.0950     6.3900     5.0130    96.2000     9.5300  1059.2860
 2620.0000   -30.3440     6.4000     5.0360    96.2660     9.5250  1063.7180
 2620.5000   -30.5870     6.4810     5.0840    96.3210     9.5210  1052.7830
 2621.0000   -30.8290     6.5830     5.1310    97.1900     9.5160  1055.2090
 2621.5000   -31.0550     6.6850     5.1790    99.1880     9.5110  1058.4041
 2622.0000   -30.9730     6.7870     5.2260   101.2070     9.5070  1061.6000
 2622.5000   -30.8800     6.8860     5.2740   101.5430     9.5020  1064.7950
 2623.0000   -30.7870     7.0000     5.3220   100.1570     9.4980  1070.5300
 2623.5000   -30.6940     7.1110     5.3690    99.7120     9.4930  1077.6340
 2624.0000   -30.7060     7.1630     5.4170   100.6310     9.4880  1077.4310
 2624.5000   -30.9430     7.1260     5.4170   101.3930     9.4840  1067.6940
 2625.0000   -31.1820     7.0810     5.3520   101.8610     9.4810  1071.6700
 2625.5000   -31.4210     6.9820     5.2860   103.7880     9.4900  1068.3300
 2626.0000   -31.3900     6.8530     5.2210   106.8670     9.5000  1061.7300
 2626.5000   -31.2320     6.7210     5.1550   107.4410     9.5100  1059.7540
 2627.0000   -31.0740     6.6650     5.0900   105.4420     9.5200  1055.8180
 2627.5000   -30.9160     6.6600     5.0240   102.7120     9.5210  1050.2770
 2628.0000   -30.7580     6.7250     4.9580    99.5340     9.5210  1036.8790
 2628.5000   -30.6000     6.7890     4.9490    99.5340     9.5210  1041.4810
 2629.0000   -30.4660     6.8240     4.9810   100.6410     9.5210  1046.8190
 2629.5000   -30.4640     6.7590     5.0130   100.8050     9.5210  1051.8820
 2630.0000   -30.6880     6.7430     5.0460   102.4570     9.5210  1057.2390
 2630.5000   -30.9400     6.7990     5.0780   101.2770     9.5210  1062.5959
 2631.0000   -31.0670     6.9200     5.1100    99.7570     9.5210  1069.1650
 2631.5000   -31.0860     7.0040     5.1430    98.2270     9.5210  1076.5240
 2632.0000   -31.1080     6.9870     5.1750    98.2810     9.5210  1080.6160
 2632.5000   -31.1310     6.9330     5.2070    99.6320     9.5210  1074.4690
 2633.0000   -31.1530     6.8810     5.2400    99.4450     9.5180  1065.1281
 2633.5000   -31.1760     6.8670     5.2720   100.2160     9.5140  1056.7590
 2634.0000   -31.1980     6.9110     5.3040    99.4480     9.5100  1060.3680
 2634.5000   -31.2210     6.9560     5.3370    98.6830     9.5060  1064.3430
 2635.0000   -31.2420     7.0020     5.3690    99.2330     9.5020  1067.6940
 2635.5000   -31.2120     7.0460     5.4010    99.6700     9.4980  1059.9980
