~VERSION INFORMATION
 VERS.                2.0:   CWLS LOG ASCII STANDARD - VERSION 2.0
 WRAP.                 NO:   ONE LINE PER DEPTH STEP
~WELL INFORMATION
#MNEM.UNIT      DATA TYPE    INFORMATION
#----------   ------------   ------------------------------
 STRT.F          200.5000:   START DEPTH
 STOP.F         3164.0000:   STOP DEPTH
 STEP.F            0.5000:   STEP LENGTH
 NULL.          -999.2500:   NO VALUE
 COMP. FENIX & SCISSON U.S NAVY:   COMPANY
 WELL. FENIX & SCISSON "A" #83-4:   WELL
 FLD .              NPR-3:   FIELD
 LOC .       S4 T38N R78W:   LOCATION
 CNTY.            NATRONA:   COUNTY
 STAT.            WYOMING:   STATE
 CTRY. UNITED STATES OF AMERICA:   COUNTRY
 SRVC.       SCHLUMBERGER:   SERVICE COMPANY
 DATE.        25-MAY-1977:   LOGDATE
 API .     49025103660000:   API NUMBER
~CURVE INFORMATION
#MNEM.UNIT       API CODE    CURVE DESCRIPTION
#----------   ------------   ------------------------------
 DEPT.F                  :   
 CALD.IN     45 280 60 00:   CALIPER FROM DENSITY LOG
 GRD .GAPI   45 310 01 00:   GAMMA RAY FROM DENSITY LOG
 RHOB.G/C3   45 350 01 00:   BULK DENSITY
 CORR.G/C3   45 356 01 00:   DENSITY CORRECTION
 SPR .MV     07 010 01 00:   SPONTANEOUS POTENTIAL
 SFLU.OHMM   07 220 01 00:   SPHERICALLY FOCUSED LOG UNAVERAGED RESISTIVITY
 ILD .OHMM   07 120 46 00:   DEEP INDUCTION RESISTIVITY
 ILM .OHMM   07 120 44 00:   INDUCTION LOG MEDIUM RESISTIVITY
~PARAMETER INFORMATION
#MNEM.UNIT          VALUE    DESCRIPTION
#----------   ------------   ------------------------------
 EKB .F         5163.0000:   Kelly bushing
 EGL .F         5149.0000:   Ground level
 EDF .F            0.0000:   Drilling floor
 EPD .F            0.0000:   Permanent datum
 TD  .F         3173.0000:   Total depth
 DATE.        25-MAY-1977:   Date logged
 CLNT.            A2DTECH:   Client Code
 SL  . 1650' FNL & 330 ' FEL:   Surface Location
 PD  .                 GL:   Permanent Datum
 DAPD.F                14:   Feet Above Permanent Datum
 DD  .F              3173:   Depth driller
 DL  .F              3157:   Depth logger
 BLI .F              3165:   Bottom log interval
 TLI .F               200:   Top log interval
 CS1 .IN            8.625:   Casing size
 CBD1.      8.625" @ 204':   Casing driller 1
 CBL1.F               220:   Casing logger 1
 BS1 .IN            7.875:   Bit size
 BSD1.F              3173:   Depth drilled with bit1
 DFT .            KCL MUD:   Type fluid in hole
 DFD .                8.8:   Density
 DFV .                 37:   Viscosity
 DFPH.                7.5:   pH
 DFL .                4.4:   Fluid loss
 MSS .           FLOWLINE:   Source of sample
 RMS .OHMM            .39:   Rm
 MST .F                79:   Rm Meas. temp.
 RMF .OHMM            .31:   Rmf
 MFST.F                79:   Rmf Meas. temp.
 RMC .OHMM            .63:   Rmc
 MCST.F                79:   Rmc Meas. temp.
 MFSS.           FANN KIT:   Source Rmf.
 MCSS.           FANN KIT:   Source Rmc.
 RMB .OHMM            .27:   Rm. at BHT
 BHT .F               112:   BHT.
 TCS .HRS             2.5:   Time Circ. stopped
 MRT .F               112:   Maximum recorded temp.
 LUN .               8611:   Logging unit number
 LUL .             CASPER:   Logging unit location
 ENGI.            C. DOAK:   Recorded By
 WITN.      B. HARRINGTON:   Witnessed by
 ORIG.       2.5"5" PRINT:   Origin of data
 UWI .     49025103660000:   Unique Well ID
 DICO. A2D TECHNOLOGIES, INC.:   Digitizing Company
~OTHER INFORMATION
~A   DEPT     CALD        GRD         RHOB     CORR        SPR       SFLU        ILD        ILM   
# ...
 2549.5000     9.8953   114.1138     2.5427     0.0172   -39.3820     9.3727     8.2546     6.0639
 2550.0000     9.9343   115.6773     2.5525     0.0172   -39.3789     9.2057     8.7180     6.0655
 2550.5000     9.8560   116.4588     2.5506     0.0172   -39.3743     9.2082     8.7202     6.0665
 2551.0000     9.8558   118.0224     2.5525     0.0172   -39.3712     9.0441     8.8815     6.0681
 2551.5000     9.8949   119.3683     2.5545     0.0172   -39.3665     9.0465     8.8838     6.0696
 2552.0000     9.8947   118.0192     2.5486     0.0172   -39.7525     9.2130     9.0500     6.0707
 2552.5000     9.8555   118.0179     2.5506     0.0172   -39.3588     9.5569     9.2181     6.1835
 2553.0000     9.8945   114.8844     2.5447     0.0171   -39.3557     9.5585     9.3886     6.1845
 2553.5000     9.9335   114.1002     2.5388     0.0132   -39.7401     9.5611     9.3899     6.2994
 2554.0000     9.8159   112.5324     2.5388     0.0093   -39.7371     9.9180     9.3914     6.3005
 2554.5000     9.8158   112.5310     2.5309     0.0014   -39.7324     9.9188     9.2243     6.1888
 2555.0000     9.8157   113.3119     2.5270     0.0014   -39.7293     9.7421     8.8970     6.1898
 2555.5000     9.8939   113.3105     2.5329     0.0053   -39.7247     9.5694     8.5821     6.1914
 2556.0000     9.8938   118.0062     2.5407     0.0153   -39.7216     9.3990     8.4309     6.1925
 2556.5000     9.8154   118.7879     2.5387     0.0074   -39.7169     9.4014     8.2814     6.1941
 2557.0000     9.7761   120.3519     2.5328     0.0113   -39.7138     9.2339     8.2821     6.1951
 2557.5000     9.7760   121.1337     2.5309     0.0074   -38.9295     9.2364     8.1360     6.1967
 2558.0000     9.7758   121.1318     2.5387     0.0074   -39.7061     9.2380     8.1374     6.1978
 2558.5000     9.7757   121.1306     2.5328     0.0074   -39.7015     9.2404     7.9931     6.0879
 2559.0000     9.7364   121.1287     2.5309     0.0035   -39.6984     9.2420     7.9945     5.9794
 2559.5000     9.6972   120.3444     2.5250     0.0035   -40.0828     9.0781     7.8527     5.9809
 2560.0000     9.6970   122.6917     2.5191     0.0034   -39.6906     9.0797     7.7128     5.9820
 2560.5000     9.6969   122.6905     2.5171     0.0034   -39.6860     8.9187     7.7148     5.8759
 2561.0000     9.6576   125.8211     2.5191     0.0034   -39.6814     8.7598     7.3072     5.6673
 2561.5000     9.6575   126.6031     2.5151     0.0034   -39.6783     8.4497     7.1768     5.4667
 2562.0000     9.6574   127.3845     2.5151     0.0034   -39.6736     8.4512     7.1780     5.2727
 2562.5000     9.6181   126.6002     2.5073     0.0034   -39.6705     8.1520     7.1793     5.4690
 2563.0000     9.6180   123.4657     2.5151     0.0034   -39.6659     8.1534     7.3121     5.4699
 2563.5000     9.6179   122.6814     2.5230     0.0034   -40.0519     8.0089     7.4479     5.4713
 2564.0000     9.5786   121.8963     2.5249     0.0073   -39.6582     7.8661     7.4492     5.4723
 2564.5000     9.5785   122.6777     2.5289     0.0113   -39.6551     9.0980     7.3171     5.5739
 2565.0000     9.6174   122.6765     2.5249     0.0073   -39.6504     9.4360     7.1867     5.8874
 2565.5000     9.6173   121.8913     2.5131     0.0073   -39.6473     9.4385     7.0593     5.5763
 2566.0000     9.6173   121.8901     2.5072     0.0034   -39.6427     9.4393     6.9335     5.6790
 2566.5000     9.4996   121.8883     2.5171     0.0034   -39.6396     9.4426     7.1917     5.7850
 2567.0000     9.4603   122.6703     2.5249     0.0073   -39.6349     9.4451     7.5955     5.7860
 2567.5000     9.4602   126.3678     2.5308    -0.0006   -40.0209     9.1099     8.0244     5.8935
 2568.0000     9.4209   125.5839     2.5308     0.0034   -39.6272     9.1115     7.6017     5.7885
 2568.5000     9.4208   124.0155     2.5249     0.0034   -39.6241     8.9499     7.6029     5.6858
 2569.0000     9.4206   124.0143     2.5248     0.0034   -39.6195     8.9523     7.6036     5.6867
 2569.5000     9.4205   123.2291     2.5386     0.0034   -39.6164     8.9538     7.3344     5.5859
 2570.0000     9.3812   122.4445     2.5406    -0.0006   -39.6117     8.9562     7.3357     5.5868
 2570.5000     9.3810   122.6593     2.5425     0.0033   -39.6086     8.9577     7.3376     5.5882
 2571.0000     9.3418   122.6581     2.5445     0.0033   -39.6040     8.7981     7.3388     5.5892
 2571.5000     9.3416   123.4397     2.5445     0.0033   -39.6009     8.7996     7.4746     5.5906
 2572.0000     9.3415   125.5723     2.5445     0.0073   -39.5963     8.8019     7.4765     5.5916
 2572.5000     9.3022   122.6532     2.5405     0.0073   -39.5932     8.9436     7.6155     5.6955
 2573.0000     9.3021   121.8685     2.5405     0.0072   -39.5885     9.1322     8.3414     5.9071
 2573.5000     9.3411   119.5161     2.5503     0.0072   -39.5854     9.1338     8.4957     5.9087
 2574.0000     9.2626   115.5973     2.5503     0.0072   -39.5808     9.8244     8.8122     5.9097
 2574.5000     9.2625   110.8941     2.5523     0.0072   -39.5777    10.0062     8.8137     6.2421
 2575.0000     9.2624   107.7586     2.5543     0.0072   -39.5731    10.7627     9.3096     6.2432
 2575.5000     9.3014   104.4049     2.5504     0.0072   -39.5700    11.1627     9.4818     6.4757
 2576.0000     9.2621    96.7849     2.5464     0.0033   -39.5653    11.3703    10.0153     6.5961
 2576.5000     9.2619    86.3793     2.5405     0.0072   -39.5622    11.5806    10.3875     6.9666
 2577.0000     9.2618    77.9743     2.5424     0.0072   -39.5576    12.0121    10.7736     7.2261
 2577.5000     9.2616    74.6206     2.5483     0.0072   -39.9420    12.4585    10.9725     7.4947
 2578.0000     9.2616    67.5659     2.5483     0.0111   -39.5499    14.4102    11.8012     7.9163
 2578.5000     9.2425    77.1830     2.5444     0.0111   -39.5452    17.6007    15.5013     8.0628
 2579.0000     9.2234    83.4504     2.5464     0.0111   -39.5421    23.5409    15.5027     8.3632
 2579.5000     9.2043    98.3376     2.5503     0.0190   -39.5375    57.3215    15.2264     8.5179
 2580.0000     9.1826   108.5240     2.5798     0.0190   -39.9235    51.4191    15.5096     8.5202
 2580.5000     9.2216   117.9264     2.5857     0.0190   -39.5297    47.8257    16.9898     8.5216
 2581.0000     9.2631   119.4926     2.5739     0.0190   -39.5266    30.4104    16.9913     8.3705
 2581.5000     9.3045   121.0582     2.5640     0.0189   -39.9111    19.3368    13.4209     7.9280
 2582.0000     9.3460   121.0569     2.5523     0.0189   -39.5189    10.9948    10.6017     7.6472
 2582.5000     9.3874   121.8388     2.5523     0.0229   -39.5143    10.9957    10.4127     7.3757
 2583.0000     9.3778   121.8376     2.5522     0.0229   -39.5112    10.8007    10.2280     6.9865
 2583.5000     9.4168   122.6195     2.5601     0.0268   -39.8956    10.8026    10.2320     6.9877
 2584.0000     9.4167   122.6177     2.5660     0.0299   -39.8925    11.0035    10.2347     6.9895
 2584.5000     9.4558   121.8326     2.5660     0.0307   -39.4988    11.0044    10.2365     6.8649
 2585.0000     9.4557   121.8314     2.5640     0.0307   -39.8848    10.6157    10.0549     6.6217
 2585.5000     9.4555   121.8295     2.5660     0.0307   -39.8802    10.2388    10.0567     6.6229
 2586.0000     9.4162   121.0444     2.5699     0.0346   -39.8771     9.8762     9.5259     6.6246
 2586.5000     9.4161   121.0425     2.5738     0.0346   -39.8724     9.8779     9.5276     6.6257
 2587.0000     9.4160   121.0413     2.5738     0.0346   -39.8693     9.7027     9.1901     6.6274
 2587.5000     9.4550   120.2555     2.5699     0.0346   -39.8647     9.7044     9.1909     6.5093
 2588.0000     9.4158   118.6863     2.5660     0.0286   -39.8616    10.0660     9.1941     6.5109
 2588.5000     9.4156   118.6844     2.5620     0.0286   -39.8570    10.0678     9.1958     6.6314
 2589.0000     9.4546   118.6831     2.5620     0.0267   -39.8539    10.6344     9.3668     6.7547
 2589.5000     9.4545   118.6812     2.5502     0.0189   -39.8492    10.6372     9.3684     6.6343
