~VERSION INFORMATION
 VERS.                2.0:   CWLS LOG ASCII STANDARD - VERSION 2.0
 WRAP.                 NO:   ONE LINE PER DEPTH STEP
~WELL INFORMATION
#MNEM.UNIT      DATA TYPE    INFORMATION
#----------   ------------   ------------------------------
 STRT.F         2496.0000:   START DEPTH
 STOP.F         4120.0000:   STOP DEPTH
 STEP.F            0.5000:   STEP LENGTH
 NULL.          -999.2500:   NO VALUE
 COMP. LAWRENCE ALLISON AND ASSOCIATES:   COMPANY
 WELL. LAWRENCE "X" #85-10:   WELL
 FLD .              N P R:   FIELD
 LOC .      S10 T38N R78W:   LOCATION
 CNTY.            NATRONA:   COUNTY
 STAT.            WYOMING:   STATE
 CTRY. UNITED STATES OF AMERICA:   COUNTRY
 SRVC.      DRESSER ATLAS:   SERVICE COMPANY
 DATE.        20-JAN-1984:   LOGDATE
 API .     49025109580000:   API NUMBER
~CURVE INFORMATION
#MNEM.UNIT       API CODE    CURVE DESCRIPTION
#----------   ------------   ------------------------------
 DEPT.F                  :   
 SPR .MV     07 010 01 00:   SPONTANEOUS POTENTIAL
 TENR.LBS    07 635 01 00:   TENSION FROM RESISTIVITY
 ILD .OHMM   07 120 46 00:   DEEP INDUCTION RESISTIVITY
 ILM .OHMM   07 120 44 00:   INDUCTION LOG MEDIUM RESISTIVITY
 RFOC.OHMM   07 220 04 00:   RESISTIVITY FOCUSED LOG RES.
 GRD .GAPI   45 310 01 00:   GAMMA RAY FROM DENSITY LOG
 CALD.IN     45 280 60 00:   CALIPER FROM DENSITY LOG
 TEND.LBS    45 635 01 00:   TENSION FROM DENSITY LOG
 RHOB.G/C3   45 350 01 00:   BULK DENSITY
 CORR.G/C3   45 356 01 00:   DENSITY CORRECTION
 CN  .DEC    42 890 03 00:   NEUTRON POROSITY SANDSTONE
~PARAMETER INFORMATION
#MNEM.UNIT          VALUE    DESCRIPTION
#----------   ------------   ------------------------------
 EKB .F         5231.0000:   Kelly bushing
 EGL .F         5221.0000:   Ground level
 EDF .F            0.0000:   Drilling floor
 TD  .F         4115.0000:   Total depth
 DATE.        20-JAN-1984:   Date logged
 CLNT.            A2DTECH:   Client Code
 SL  . 2159' FSL & 292' FEL:   Surface Location
 PD  .                 GL:   Permanent Datum
 EPD .F              5221:   Elevation Permanent Datum
 LMF .                 KB:   Log Measured From
 DMF .                 KB:   Drilling Measured From
 DD  .F              4115:   Depth driller
 DL  .F              4111:   Depth logger
 BLI .F              4109:   Bottom log interval
 TLI .F              2496:   Top log interval
 CS1 .IN            8.625:   Casing size
 CBD1.       8.625 @ 537':   Casing driller 1
 BS1 .IN            7.875:   Bit size
 DFT .            GEL KCL:   Type fluid in hole
 DFD .                8.8:   Density
 DFV .                 40:   Viscosity
 DFPH.                  9:   pH
 DFL .                9.8:   Fluid loss
 MSS .           FLOWLINE:   Source of sample
 RMS .OHMM           0.61:   Rm
 MST .F                77:   Rm Meas. temp.
 RMF .OHMM           0.51:   Rmf
 MFST.F                69:   Rmf Meas. temp.
 RMC .OHMM           0.76:   Rmc
 MCST.F                77:   Rmc Meas. temp.
 MFSS.               MEAS:   Source Rmf.
 RMB .OHMM           0.38:   Rm. at BHT
 BHT .F               122:   BHT.
 TCS .HRS               4:   Time Circ. stopped
 MRT .F               122:   Maximum recorded temp.
 LUN .               6307:   Logging unit number
 LUL .               GLTE:   Logging unit location
 ENGI.            DEYOUNG:   Recorded By
 WITN.           R. SCOTT:   Witnessed by
 ORIG.           5" PRINT:   Origin of data
 UWI .     49025109580000:   Unique Well ID
 DICO. A2D TECHNOLOGIES, INC.:   Digitizing Company
 DAPD.                 10:   Feet Above Permanent Datum
 MCSS.               CALC:   Source Rmc.
~OTHER INFORMATION
~A  DEPT       SPR       TENR        ILD        ILM       RFOC        GRD       CALD       TEND       RHOB       CORR         CN   
# ...
 3777.0000   -46.8000   -19.1680     3.5130     3.5260     4.3460   111.1710     8.0920   -23.5850     2.5810     0.1200     0.2220
 3777.5000   -47.1670   -19.3800     3.6210     3.6210     4.9550   108.6910     8.0910   -23.3800     2.5940     0.0700     0.2230
 3778.0000   -47.5760   -19.5920     3.6210     3.6350     5.5650   110.0780     8.0900   -23.1760     2.5970     0.0780     0.2350
 3778.5000   -47.9860   -19.8030     3.6210     3.6540     5.8540   112.6040     8.0890   -22.9710     2.5950     0.0890     0.2470
 3779.0000   -48.3940   -20.0150     3.5510     3.5870     5.2150   115.0850     8.0880   -22.7660     2.5900     0.1000     0.2590
 3779.5000   -48.8010   -20.2270     3.4190     3.4950     4.6480   117.5640     8.0880   -22.5610     2.5830     0.1100     0.2710
 3780.0000   -49.2100   -20.4390     3.2860     3.4030     4.0810   120.0680     8.0870   -22.3560     2.5770     0.1030     0.2730
 3780.5000   -49.2960   -20.6510     3.1540     3.3110     3.9350   122.6100     8.0860   -22.1510     2.5640     0.0960     0.2690
 3781.0000   -49.1150   -20.8620     3.0220     3.2190     3.9520   121.4560     8.0850   -21.9460     2.5600     0.0900     0.2720
 3781.5000   -48.9340   -21.0740     2.8900     3.1270     3.9710   120.0180     8.0850   -21.7420     2.5650     0.0840     0.2790
 3782.0000   -48.7510   -21.2860     2.7580     3.0350     3.9890   118.5770     8.0840   -21.6870     2.5840     0.0840     0.2860
 3782.5000   -48.5680   -21.4980     2.6200     2.9430     4.0080   118.3080     8.0830   -21.6870     2.6100     0.0750     0.2810
 3783.0000   -48.3850   -21.7100     2.5630     2.8510     3.8400   118.9860     8.0820   -21.6870     2.6200     0.0690     0.2750
 3783.5000   -48.2020   -21.9210     2.5030     2.7590     3.6650   119.6780     8.0820   -21.6870     2.6100     0.0770     0.2680
 3784.0000   -48.0190   -22.1330     2.4430     2.6670     3.5700   120.3650     8.0810   -21.6870     2.5990     0.0820     0.2660
 3784.5000   -47.8360   -22.3450     2.3830     2.5730     3.7250   122.5660     8.0800   -21.6870     2.5980     0.0820     0.2830
 3785.0000   -47.6530   -22.5570     2.3120     2.5080     3.8270   125.7790     8.0790   -21.6870     2.5960     0.0900     0.2950
 3785.5000   -47.4710   -22.7680     2.2220     2.4410     3.6140   129.0460     8.0780   -21.6870     2.5880     0.0990     0.2970
 3786.0000   -47.2880   -22.9800     2.1330     2.3750     3.4340   129.5170     8.0770   -21.6870     2.5780     0.0920     0.2940
 3786.5000   -47.1050   -23.1920     2.0610     2.2810     3.2530   128.3490     8.0750   -21.6870     2.5690     0.0850     0.2960
 3787.0000   -46.9210   -23.4040     2.0610     2.3100     3.0720   128.0270     8.0740   -21.6870     2.5670     0.0770     0.2970
 3787.5000   -46.7410   -23.6160     2.0610     2.3580     2.9140   127.9480     8.0720   -21.6870     2.5660     0.0870     0.2900
 3788.0000   -46.6170   -23.8270     2.0610     2.4060     2.8480   121.8350     8.0710   -21.6870     2.5630     0.1130     0.2790
 3788.5000   -46.7650   -24.0390     2.0610     2.4550     3.1210   111.2760     8.0690   -21.6870     2.5700     0.1410     0.2790
 3789.0000   -46.9730   -24.2510     2.0610     2.5020     3.6150   100.7760     8.0680   -21.6870     2.6150     0.1450     0.2790
 3789.5000   -47.2630   -24.4630     2.0610     2.4710     4.1090    92.5970     8.0660   -21.6870     2.6870     0.0950     0.2800
 3790.0000   -47.5540   -24.6750     2.0610     2.4400     4.3960    97.1780     8.0650   -21.6870     2.7560     0.0440     0.2870
 3790.5000   -47.8450   -24.8860     2.1010     2.4090     3.8750   113.9700     8.0630   -21.6870     2.7010     0.0640     0.2940
 3791.0000   -48.1360   -25.0980     2.1390     2.3790     3.2890   123.9950     8.0610   -21.6870     2.6610     0.0910     0.2960
 3791.5000   -48.4280   -25.3100     2.1140     2.3480     2.9550   127.7880     8.0600   -21.6870     2.6180     0.1010     0.2940
 3792.0000   -48.7210   -25.5220     2.0850     2.3170     2.8740   127.5620     8.0580   -21.6870     2.5960     0.1060     0.2920
 3792.5000   -48.9810   -25.7340     2.0550     2.2860     2.9870   125.4650     8.0570   -21.6870     2.5950     0.1110     0.2900
 3793.0000   -48.6920   -25.8520     2.0260     2.2550     3.1640   123.5110     8.0550   -21.6870     2.5980     0.0940     0.2870
 3793.5000   -48.3920   -25.8520     1.9970     2.2240     3.3320   122.0980     8.0540   -21.6870     2.6000     0.0710     0.3050
 3794.0000   -48.0940   -25.8520     1.9860     2.1940     3.2050   124.0850     8.0520   -21.6870     2.5900     0.0470     0.3150
 3794.5000   -47.7970   -25.8520     1.9860     2.1630     3.0840   126.0040     8.0510   -21.6870     2.5790     0.0670     0.3180
 3795.0000   -47.5000   -25.8520     1.9960     2.2090     2.9630   127.7770     8.0490   -21.6870     2.5730     0.1020     0.3000
 3795.5000   -47.2030   -25.8520     2.0080     2.2670     2.8740   128.7010     8.0470   -21.6870     2.5690     0.1240     0.2910
 3796.0000   -46.9050   -25.8520     2.0200     2.3460     3.0270   125.9080     8.0460   -21.6870     2.5650     0.1100     0.2860
 3796.5000   -46.6120   -25.8520     2.0310     2.3410     3.2580   122.4570     8.0440   -21.6870     2.5690     0.0890     0.2910
 3797.0000   -46.4510   -25.8520     2.0430     2.3350     3.4880   119.2340     8.0430   -21.6870     2.5950     0.0330     0.2950
 3797.5000   -46.7140   -25.8520     2.0550     2.3290     3.6540   120.2950     8.0410   -21.6870     2.6260     0.0210     0.2980
 3798.0000   -46.9670   -25.8520     2.0990     2.3240     3.4420   125.6210     8.0400   -21.6870     2.6300     0.0520     0.2950
 3798.5000   -47.2180   -25.8520     2.1780     2.4610     3.0700   130.7810     8.0380   -21.6870     2.6000     0.0830     0.2920
 3799.0000   -47.4700   -25.8520     2.2570     2.5680     2.9550   131.6670     8.0370   -21.6870     2.5740     0.0980     0.2880
 3799.5000   -47.7220   -25.8520     2.3370     2.6740     3.2280   129.3230     8.0350   -21.6870     2.5480     0.0840     0.2850
 3800.0000   -47.9740   -25.8520     2.4160     2.7810     3.5350   125.9230     8.0330   -21.6870     2.5570     0.0550     0.2750
 3800.5000   -48.2260   -25.8520     2.4950     2.8880     3.8420   121.4120     8.0320   -21.6870     2.5690     0.0410     0.2650
 3801.0000   -48.4780   -25.8520     2.5740     3.0100     4.1480   116.9100     8.0300   -21.6870     2.5930     0.0280     0.2600
 3801.5000   -48.7300   -25.8520     2.5960     2.9320     4.4780   113.3940     8.0290   -21.6870     2.6230     0.0230     0.2570
 3802.0000   -48.9810   -25.8520     2.5470     2.8240     4.2230   114.9810     8.0270   -21.6870     2.6150     0.0520     0.2560
 3802.5000   -49.1980   -25.8520     2.4700     2.7160     3.9290   118.1440     8.0260   -21.6870     2.6000     0.0810     0.2640
 3803.0000   -49.1990   -25.8520     2.3930     2.6080     3.6350   121.3080     8.0240   -21.6870     2.5850     0.0960     0.2730
 3803.5000   -49.1980   -25.8520     2.3160     2.5000     3.3410   124.2470     8.0230   -21.6870     2.5710     0.1070     0.2820
 3804.0000   -49.1980   -25.8520     2.2400     2.3920     3.0950   125.4210     8.0210   -21.6870     2.5610     0.1060     0.2910
 3804.5000   -49.1980   -25.8520     2.1630     2.3270     3.0800   126.5050     8.0190   -21.6870     2.5560     0.1010     0.2980
 3805.0000   -49.1980   -25.8520     2.0860     2.3570     3.0650   126.6520     8.0180   -21.6870     2.5520     0.0950     0.2980
 3805.5000   -49.1980   -25.8520     2.0230     2.3820     3.0500   126.6550     8.0160   -21.6870     2.5540     0.0900     0.2970
 3806.0000   -49.1980   -25.8520     2.1270     2.4060     3.0380   126.6900     8.0150   -21.6870     2.5590     0.0890     0.2940
 3806.5000   -49.1980   -25.8520     2.2130     2.5260     3.0890   124.6650     8.0130   -21.6870     2.5660     0.0890     0.2860
 3807.0000   -49.1980   -25.8520     2.3000     2.6690     3.2290   121.0620     8.0120   -21.6870     2.5720     0.0880     0.2770
