~VERSION INFORMATION
 VERS.                2.0:   CWLS LOG ASCII STANDARD - VERSION 2.0
 WRAP.                 NO:   ONE LINE PER DEPTH STEP
~WELL INFORMATION
#MNEM.UNIT      DATA TYPE    INFORMATION
#----------   ------------   ------------------------------
 STRT.F          212.0000:   START DEPTH
 STOP.F         2806.0000:   STOP DEPTH
 STEP.F            0.5000:   STEP LENGTH
 NULL.          -999.2500:   NO VALUE
 COMP.    FENIX & SCISSON:   COMPANY
 WELL.    FENIX AX #12-21:   WELL
 FLD .        TEAPOT DOME:   FIELD
 LOC .      S21 T39N R78W:   LOCATION
 CNTY.            NATRONA:   COUNTY
 STAT.            WYOMING:   STATE
 CTRY. UNITED STATES OF AMERICA:   COUNTRY
 SRVC.           BIRDWELL:   SERVICE COMPANY
 DATE.        14-AUG-1973:   LOGDATE
 API .     49025106930000:   API NUMBER
~CURVE INFORMATION
#MNEM.UNIT       API CODE    CURVE DESCRIPTION
#----------   ------------   ------------------------------
 DEPT.F                  :   
 SN  .OHMM   05 040 16 00:   SHORT NORMAL 16"
 ILD .OHMM   05 120 46 00:   INDUCTION LOG DEEP RESISTIVITY
 RHOB.G/C3   45 350 01 00:   BULK DENSITY
 CORR.G/C3   45 356 01 00:   DENSITY CORRECTION
 GRD .GAPI   45 310 01 00:   GAMMA RAY FROM DENSITY LOG
 CALD.IN     45 280 60 00:   CALIPER FROM DENSITY LOG
 SPR .MV     05 010 01 00:   SPONTANEOUS POTENTIAL
~PARAMETER INFORMATION
#MNEM.UNIT          VALUE    DESCRIPTION
#----------   ------------   ------------------------------
 EKB .F         4998.0000:   Kelly bushing
 EGL .F         4988.0000:   Ground level
 EDF .F            0.0000:   Drilling floor
 EPD .F         4988.0000:   Permanent datum
 TD  .F         2809.0000:   Total depth
 DATE.        14-AUG-1973:   Date logged
 CLNT.            A2DTECH:   Client Code
 SL  . 1300' FNL & 300' FWL:   Surface Location
 PD  .                 GL:   Permanent Datum
 DD  .F              2800:   Depth driller
 DL  .F              2809:   Depth logger
 BLI .F              2803:   Bottom log interval
 TLI .F               235:   Top log interval
 CS1 .IN            8.625:   Casing size
 BS1 .IN            7.875:   Bit size
 BSD1.F              2800:   Depth drilled with bit1
 DFT .                GEL:   Type fluid in hole
 DFD .                9.7:   Density
 DFV .                 34:   Viscosity
 DFPH.                 12:   pH
 MSS .           FLOWLINE:   Source of sample
 RMS .OHMM            .15:   Rm
 MST .F                57:   Rm Meas. temp.
 RMF .OHMM            .95:   Rmf
 MFST.F                69:   Rmf Meas. temp.
 RMC .OHMM            1.5:   Rmc
 MCST.F                78:   Rmc Meas. temp.
 MFSS.               MEAS:   Source Rmf.
 RMB .OHMM            .87:   Rm. at BHT
 BHT .F               115:   BHT.
 TCS .HRS               3:   Time Circ. stopped
 MRT .F               115:   Maximum recorded temp.
 LUN .               3006:   Logging unit number
 LUL .               CASP:   Logging unit location
 ENGI.             MILLER:   Recorded By
 WITN.           MCGINLEY:   Witnessed by
 UWI .     49025106930000:   Unique Well ID
 DICO. A2D TECHNOLOGIES, INC.:   Digitizing Company
 ORIG.           5" PRINT:   Origin of data
~OTHER INFORMATION
~A   DEPT       SN        ILD       RHOB       CORR         GRD      CALD        SPR   
# ...
  530.5000    10.1770     8.1750     2.4550     0.1700    73.0420     9.2600    -8.2030
  531.0000    10.1770     8.1830     2.4150     0.1700    74.0550     9.1760    -8.2020
  531.5000    10.1770     8.1900     2.3810     0.1790    74.4860     9.0930    -8.2020
  532.0000    10.1770     8.1980     2.3470     0.1900    74.6870     9.0700    -8.2020
  532.5000    10.1770     8.2060     2.2910     0.2000    76.0090     9.0570    -8.2020
  533.0000    10.2150     8.2130     2.1810     0.1980    77.6700     9.0440    -8.2020
  533.5000    10.2650     8.2210     2.0740     0.1970    78.1320     9.0300    -8.2020
  534.0000    10.3150     8.2290     2.0250     0.1990    77.8040     9.0630    -8.2020
  534.5000    10.3660     8.2360     2.0200     0.2080    71.7080     9.0860    -8.2020
  535.0000    10.3460     8.2440     2.0140     0.2520    73.8410     9.0540    -8.2020
  535.5000    10.3260     8.2520     2.0160     0.3370    74.6550     9.0270    -8.2020
  536.0000    10.3060     8.2590     2.0180     0.4180    76.8310     9.2110    -8.2020
  536.5000    10.2860     8.2670     2.5470     0.3940    78.6570     9.2250    -8.2020
  537.0000    10.2650     8.2750     2.6020     0.3130    78.1300     9.1850    -8.2020
  537.5000    10.2450     8.2820     2.5920     0.2540    76.2710     9.1410    -8.2020
  538.0000    10.2250     8.2900     2.5930     0.2010    74.5050     9.0990    -8.2020
  538.5000    10.2050     8.2980     2.5700     0.1450    73.2100     9.0540    -8.2020
  539.0000    10.1850     8.3050     2.5480     0.1180    73.7390     9.0060    -8.2020
  539.5000    10.1650     8.3130     2.5270     0.1020    74.3660     8.9560    -8.2020
  540.0000    10.1450     8.2430     2.5250     0.0970    75.5950     8.9070    -8.2020
  540.5000    10.1250     8.1630     2.5250     0.0920    76.1100     8.8800    -8.2020
  541.0000    10.1050     8.0830     2.5210     0.0820    76.9660     8.8690    -8.2020
  541.5000    10.0850     8.0140     2.5180     0.0740    79.2390     8.8580    -8.2020
  542.0000    10.0640     8.0080     2.5150     0.0670    82.6780     8.8480    -8.2020
  542.5000    10.0440     8.0010     2.5100     0.0610    84.3580     8.8670    -8.2020
  543.0000    10.0240     7.9950     2.5050     0.0550    83.8810     8.8870    -8.2020
  543.5000    10.0040     7.9890     2.5050     0.0540    82.4280     8.9070    -8.2020
  544.0000     9.9840     7.9830     2.5050     0.0560    79.6510     8.9600    -8.2020
  544.5000     9.9640     7.9770     2.5050     0.0580    75.0670     9.0130    -8.2070
  545.0000     9.9440     7.9700     2.5080     0.0600    75.6180     9.0330    -8.2160
  545.5000     9.9240     7.9640     2.5150     0.0620    75.7330     9.0110    -8.2250
  546.0000     9.9040     7.9580     2.5180     0.0640    75.3440     8.9890    -8.2340
  546.5000     9.9000     7.9520     2.5180     0.0680    75.4580     8.9670    -8.2430
  547.0000     9.9000     7.9450     2.5190     0.0730    76.1650     8.9420    -8.2520
  547.5000     9.9000     7.9390     2.5190     0.0790    76.5600     8.8530    -8.2610
  548.0000     9.9000     7.9330     2.5190     0.0840    75.9300     8.8230    -8.2700
  548.5000     9.9000     7.9270     2.5170     0.0850    75.3280     8.8150    -8.2790
  549.0000     9.9000     7.9200     2.5160     0.0860    74.7070     8.8080    -8.2880
  549.5000     9.9000     7.9140     2.5150     0.0870    74.3580     8.8160    -8.2970
  550.0000     9.9000     7.9080     2.5140     0.0880    74.2260     8.8260    -8.3060
  550.5000     9.9000     7.9020     2.5130     0.0930    76.0260     8.8350    -8.3150
  551.0000     9.9010     7.8950     2.5120     0.0990    77.8220     8.8440    -8.3240
  551.5000     9.8910     7.8890     2.5160     0.1050    78.0930     8.8530    -8.3330
  552.0000     9.8210     7.8830     2.5240     0.1110    77.8670     8.8620    -8.3420
  552.5000     9.7510     7.8770     2.5280     0.1170    77.0760     8.8710    -8.3510
  553.0000     9.6810     7.8700     2.5290     0.1220    76.2400     8.8810    -8.3600
  553.5000     9.6110     7.8440     2.5370     0.1260    75.6640     8.8960    -8.3690
  554.0000     9.5410     7.8030     2.5460     0.1300    76.7610     8.9240    -8.3780
  554.5000     9.4710     7.7620     2.5540     0.1300    77.4810     8.9510    -8.3860
  555.0000     9.4550     7.7200     2.5530     0.1300    76.0880     8.9780    -8.3960
  555.5000     9.4550     7.6790     2.5560     0.1300    74.7860     8.9930    -8.3990
  556.0000     9.4550     7.6500     2.5570     0.1300    75.3660     9.0050    -8.3990
  556.5000     9.4550     7.6420     2.5570     0.1300    76.6610     9.0160    -8.3990
  557.0000     9.4550     7.6340     2.5570     0.1300    77.9720     9.0270    -8.3990
  557.5000     9.4550     7.6260     2.5590     0.1290    77.9700     9.0390    -8.3990
  558.0000     9.4550     7.6180     2.5610     0.1290    76.4270     9.0440    -8.3990
  558.5000     9.4550     7.6090     2.5520     0.1290    75.0940     9.0470    -8.3990
  559.0000     9.4550     7.6010     2.5350     0.1290    74.1650     9.0490    -8.3990
  559.5000     9.4550     7.5930     2.5340     0.1290    74.0440     9.0520    -8.3990
  560.0000     9.4240     7.5850     2.5340     0.1290    73.9730     9.0540    -8.3990
  560.5000     9.3550     7.5750     2.5340     0.1320    75.8160     9.0560    -8.3990
  561.0000     9.2860     7.5570     2.5370     0.1400    75.6760     9.0590    -8.3990
  561.5000     9.2180     7.5390     2.5400     0.1460    75.1910     9.0610    -8.3990
  562.0000     9.1490     7.5210     2.5430     0.1480    75.0370     9.0640    -8.3990
  562.5000     9.1140     7.5040     2.5450     0.1500    75.2420     9.0660    -8.3990
  563.0000     9.1140     7.4860     2.5470     0.1520    75.4470     9.0680    -8.3990
  563.5000     9.1140     7.4680     2.5500     0.1570    75.6550     9.0710    -8.3990
  564.0000     9.1140     7.4500     2.5500     0.1640    75.9150     9.0730    -8.3990
  564.5000     9.1140     7.4320     2.5500     0.1670    76.1890     9.0750    -8.3990
  565.0000     9.1140     7.4140     2.5500     0.1670    77.7970     9.0780    -8.3990
  565.5000     9.1140     7.3960     2.5540     0.1660    80.5410     9.0800    -8.3990
  566.0000     9.1140     7.3770     2.5600     0.1640    81.9700     9.0800    -8.3990
  566.5000     9.1140     7.3580     2.5640     0.1620    81.6880     9.0650    -8.3990
  567.0000     9.1140     7.3380     2.5680     0.1610    80.9020     9.0500    -8.3990
  567.5000     9.1140     7.3170     2.5690     0.1590    79.0130     9.0360    -8.3990
  568.0000     9.1140     7.2970     2.5650     0.1550    74.8730     9.0230    -8.3990
  568.5000     9.1140     7.2770     2.5570     0.1490    76.0700     9.0230    -8.3990
  569.0000     9.1140     7.2570     2.5530     0.1430    78.2280     9.0240    -8.3990
  569.5000     9.1140     7.2370     2.5530     0.1370    80.4170     9.0230    -8.3990
  570.0000     9.1140     7.2160     2.5520     0.1310    80.5790     9.0230    -8.3990
  570.5000     9.1140     7.1960     2.5510     0.1250    80.3420     9.0230    -8.3990
  571.0000     9.1140     7.1770     2.5390     0.1190    80.1370     9.0230    -8.3990
  571.5000     9.1140     7.1770     2.5350     0.1140    78.8880     9.0230    -8.3990
  572.0000     9.1140     7.1770     2.5350     0.1080    77.3180     9.0230    -8.3990
  572.5000     9.1140     7.1770     2.5290     0.1020    77.4490     9.0230    -8.3990
  573.0000     9.1140     7.1770     2.5220     0.0960    77.9960     9.0230    -8.3990
  573.5000     9.1140     7.1770     2.5200     0.0900    78.5540     9.0230    -8.3990
  574.0000     9.1140     7.1770     2.5080     0.0840    78.9020     9.0230    -8.3990
  574.5000     9.1140     7.1770     2.4940     0.0790    79.1230     9.0230    -8.3990
  575.0000     9.1140     7.1770     2.4890     0.0800    79.4080     9.0230    -8.3990
  575.5000     9.1140     7.1770     2.4990     0.0920    79.2210     9.0230    -8.3990
