~VERSION INFORMATION
 VERS.                2.0:   CWLS LOG ASCII STANDARD - VERSION 2.0
 WRAP.                 NO:   ONE LINE PER DEPTH STEP
~WELL INFORMATION
#MNEM.UNIT      DATA TYPE    INFORMATION
#----------   ------------   ------------------------------
 STRT.F            9.0000:   START DEPTH
 STOP.F         2876.0000:   STOP DEPTH
 STEP.F            0.5000:   STEP LENGTH
 NULL.          -999.2500:   NO VALUE
 COMP.    FENIX & SCISSON:   COMPANY
 WELL. FENIX & SCISSON "AX" #82-29:   WELL
 FLD .        TEAPOT DOME:   FIELD
 LOC .      S29 T39N R78W:   LOCATION
 CNTY.            NATRONA:   COUNTY
 STAT.            WYOMING:   STATE
 CTRY. UNITED STATES OF AMERICA:   COUNTRY
 SRVC.           BIRDWELL:   SERVICE COMPANY
 DATE.        12-JAN-1980:   LOGDATE
 API .     49025107980000:   API NUMBER
~CURVE INFORMATION
#MNEM.UNIT       API CODE    CURVE DESCRIPTION
#----------   ------------   ------------------------------
 DEPT.F                  :   
 GRD .GAPI   45 310 01 00:   GAMMA RAY FROM DENSITY LOG
 CALD.IN     45 280 60 00:   CALIPER FROM DENSITY LOG
 CORR.G/C3   45 356 01 00:   DENSITY CORRECTION
 RHOB.G/C3   45 350 01 00:   BULK DENSITY
 SPR .MV     07 010 01 00:   SPONTANEOUS POTENTIAL
 ILD .OHMM   07 120 46 00:   DEEP INDUCTION RESISTIVITY
 SN  .OHMM   07 220 01 00:   SHALLOW FOCUSED LOG RESISTIVITY
~PARAMETER INFORMATION
#MNEM.UNIT          VALUE    DESCRIPTION
#----------   ------------   ------------------------------
 EKB .F         4985.0000:   Kelly bushing
 EGL .F         4973.0000:   Ground level
 EDF .F         4982.0000:   Drilling floor
 TD  .F         2876.0000:   Total depth
 CLNT.            A2DTECH:   Client Code
 SL  . 1821' FEL & 414' FEL:   Surface Location
 DATE.        12-JAN-1980:   Date Logged [DD-MMM-YYYY]
 DD  .F              2870:   Depth driller
 DL  .F              2876:   Depth logger
 BLI .F              2876:   Bottom log interval
 TLI .F               320:   Top log interval
 CS1 .IN            8.625:   Casing size
 CBD1.      8.625" @ 280':   Casing driller 1
 CBL1.IN              320:   Casing logger 1
 BS1 .IN            7.875:   Bit size
 BSD1.F              2870:   Depth drilled with bit1
 DFT .            GEL MUD:   Type fluid in hole
 DFD .                8.7:   Density
 DFV .                 53:   Viscosity
 DFPH.               10.5:   pH
 DFL .               15.4:   Fluid loss
 MSS .            MUD PIT:   Source of sample
 RMS .OHMM            1.8:   Rm
 MST .F                50:   Rm Meas. temp.
 RMF .OHMM            1.4:   Rmf
 MFST.F                60:   Rmf Meas. temp.
 MFSS.               MEAS:   Source Rmf.
 RMC .OHMM            1.9:   Rmc
 MCST.F                60:   Rmc Meas. temp.
 MCSS.               MEAS:   Source Rmc.
 RMB .OHMM           0.65:   Rm. at BHT
 BHT .F               138:   BHT.
 TCS .HRS              11:   Time Circ. stopped
 MRT .F               138:   Maximum recorded temp.
 LUN .               3029:   Logging unit number
 LUL .             CASPEL:   Logging unit location
 ENGI.           T. VOLFF:   Recorded By
 WITN.          MR. AMEND:   Witnessed by
 ORIG.         2.5" PRINT:   Origin of data
 UWI .     49025107980000:   Unique Well ID
 DICO. A2D TECHNOLOGIES,INC.:   Digitizing Company
 PD  .                 GL:   Permanent Datum
 EPD .F              4973:   Elevation Permanent Datum
 LMF .                 DF:   Log Measured From
 DMF .                 KB:   Drilling Measured From
 DAPD.F                 9:   Feet Above Permanent Datum
~OTHER INFORMATION
~A    DEPT      GRD      CALD       CORR       RHOB        SPR        ILD         SN   
# ...
  509.5000   120.0492     8.6060     0.0820     2.4526   -11.3094     6.8438     8.0295
  510.0000   122.2178     8.8907     0.1226     2.4724   -12.2257     6.8419     8.0295
  510.5000   121.3000     9.4353     0.1189     2.4877   -13.1418     6.7446     8.0295
  511.0000   120.0783     9.6163     0.1025     2.4872   -13.7531     6.7427     8.0295
  511.5000   119.7168     9.6154     0.0941     2.4612   -14.6692     6.7408     8.0295
  512.0000   121.5863     9.5236     0.0911     2.4386   -14.6911     6.7386     7.8072
  512.5000   122.7962     9.3106     0.1044     2.4470   -14.6722     6.7368     7.8072
  513.0000   121.2278     9.0644     0.1202     2.4678   -14.5618     6.7349     7.8072
  513.5000   117.7865     8.9755     0.1246     2.4777   -13.3821     6.6392     7.6983
  514.0000   114.5022     9.1050     0.1032     2.4839   -13.5488     6.6374     7.7048
  514.5000   113.0462     9.2293     0.1154     2.4984   -13.7635     6.6356     7.8072
  515.0000   116.1196     9.3621     0.1162     2.5001   -13.2064     6.5413     7.8072
  515.5000   117.6985     9.4778     0.0910     2.4765   -12.2424     6.5395     7.8072
  516.0000   118.1945     9.5770     0.0845     2.4706   -11.6138     6.5376     7.8072
  516.5000   117.7391     9.5761     0.1001     2.5023   -10.4165     6.5358     7.8072
  517.0000   118.5387     9.3223     0.1245     2.5206    -9.8079     6.5045     7.8072
  517.5000   118.8373     9.1078     0.1306     2.5129   -11.3341     6.4410     7.8072
  518.0000   120.9048     9.2702     0.1305     2.5205   -12.8599     6.4392     7.8072
  518.5000   120.5950     9.3300     0.1305     2.5265   -14.0809     6.4374     7.9176
  519.0000   120.5891     9.3290     0.1268     2.5280   -15.9117     6.4353     7.9176
  519.5000   121.4950     9.3585     0.1111     2.5310   -14.9985     6.4335     7.9176
  520.0000   122.7050     9.3272     0.0848     2.5310   -14.3902     6.4318     7.8072
  520.5000   123.6109     9.3264     0.0756     2.5167   -14.0868     6.4300     7.6983
  521.0000   123.9090     9.2952     0.0742     2.5019   -14.0884     6.5192     7.6983
  521.5000   123.8637     9.2639     0.0725     2.5051   -14.1433     6.5174     7.5910
  522.0000   123.1712     9.2328     0.0591     2.5031   -15.7582     6.5156     7.3808
  522.5000   120.2122     9.3002     0.0477     2.4869   -16.2269     6.5138     7.3808
  523.0000   115.9908     9.4020     0.0664     2.4834   -14.9025     6.5120     7.3808
  523.5000   115.3689     9.4842     0.0785     2.4834   -12.9882     6.5101     7.4050
  524.0000   119.9740     9.5321     0.0877     2.4894   -12.1057     6.5083     7.4852
  524.5000   121.8961     9.4538     0.0907     2.4999   -13.6645     6.5065     7.4852
  525.0000   121.2007     9.2828     0.0633     2.5030   -14.8375     6.5047     7.5910
  525.5000   118.0780     9.2262     0.0693     2.4893   -14.4073     6.5029     7.6423
  526.0000   117.7682     9.2253     0.0848     2.5045   -13.4941     6.5010     7.6983
  526.5000   118.3702     9.2851     0.0940     2.5166   -12.2761     6.4989     7.8072
  527.0000   118.9722     9.3146     0.0967     2.5171   -11.9726     6.4971     7.8072
  527.5000   118.9663     9.3439     0.0826     2.5150   -12.2791     6.4953     7.9176
  528.0000   120.4802     9.3733     0.0715     2.5196   -15.0244     6.6785     8.0295
  528.5000   125.0335     9.3724     0.0693     2.5287   -15.6357     6.6767     8.1430
  529.0000   123.0779     9.3715     0.0681     2.5256   -14.7225     6.7692     8.1430
  529.5000   120.9164     9.4465     0.0780     2.5118   -14.7241     6.7674     8.2582
  530.0000   118.6525     9.6192     0.0875     2.5087   -14.7256     6.8612     8.2582
  530.5000   117.7152     9.6719     0.0681     2.5117   -14.7272     6.8592     8.2582
  531.0000   123.6486     9.6709     0.0539     2.4750   -14.8150     6.9545     8.2582
  531.5000   124.9104     9.6700     0.0692     2.4881   -15.7490     6.9523     8.2582
  532.0000   121.8139     9.6542     0.0844     2.4984   -17.2318     6.9503     8.2582
  532.5000   118.5307     9.6210     0.0905     2.5031   -18.3918     6.9484     8.2582
  533.0000   116.4670     9.5459     0.0874     2.5059   -16.7012     6.9464     8.2582
  533.5000   118.8927     9.4541     0.0843     2.5069   -16.1312     6.8477     8.2582
  534.0000   122.5342     9.3926     0.0813     2.5080   -16.8722     6.8454     8.2582
  534.5000   124.3520     9.3008     0.0782     2.5121   -16.2639     6.8436     8.2582
  535.0000   124.9544     9.2090     0.0968     2.5152   -14.7410     6.7463     8.2582
  535.5000   123.1245     9.1476     0.1065     2.5189   -15.0474     6.7445     8.2582
  536.0000   115.1839     9.0554     0.1148     2.5249   -15.6586     6.7426     8.2582
  536.5000   111.5625     8.9616     0.0842     2.5096   -15.6601     6.7408     8.1430
  537.0000   114.0327     8.9327     0.0751     2.5035   -15.6616     6.7389     8.1430
  537.5000   120.7449     8.9015     0.0720     2.5019   -15.3329     6.7371     8.0295
  538.0000   121.5753     8.8620     0.0720     2.5034   -14.7499     6.6412     7.8072
  538.5000   118.5831     8.8391     0.0690     2.4927   -15.1530     6.6152     7.7983
  539.0000   115.9408     8.8079     0.0689     2.4909   -16.1047     6.5149     7.6983
  539.5000   113.0450     8.7928     0.0689     2.4956   -16.9725     6.4519     7.6983
  540.0000   115.4707     8.7596     0.0659     2.5002   -17.2968     6.4081     7.5628
  540.5000   117.5925     8.7141     0.0628     2.5032   -17.9258     6.3584     7.4509
  541.0000   119.4103     8.7435     0.0628     2.4998   -16.7865     6.3563     7.3407
  541.5000   120.9427     8.8032     0.0597     2.4939   -15.3653     6.3545     7.2779
  542.0000   121.2223     8.8327     0.0597     2.4978   -15.0671     6.3528     7.2258
  542.5000   119.7088     8.9227     0.0749     2.5087   -14.9543     6.3511     7.2779
  543.0000   117.2506     9.0430     0.0686     2.5106   -15.9850     6.3494     7.2779
  543.5000   115.3308     9.0421     0.0534     2.4998   -17.2060     6.3476     7.3808
  544.0000   115.7751     8.7939     0.0474     2.4967   -18.4270     6.3459     7.4852
  544.5000   117.8480     8.7676     0.0407     2.4831   -17.8187     6.3441     7.5910
  545.0000   116.6061     8.8935     0.0383     2.4836   -16.2958     6.3424     7.6983
  545.5000   113.1772     8.9174     0.0432     2.4908   -16.2973     6.3405     7.8072
  546.0000   112.3576     8.9164     0.0504     2.4996   -16.6036     6.3388     7.8079
  546.5000   112.9596     8.8851     0.0535     2.4995   -16.9101     6.3370     7.9176
  547.0000   112.6498     8.8539     0.0534     2.4965   -17.2165     6.3352     7.9322
  547.5000   110.2123     8.8227     0.0504     2.4979   -17.2180     6.3335     8.0513
  548.0000   109.2946     8.7915     0.0504     2.5025   -17.2195     6.4212     8.1430
  548.5000   112.3282     8.8209     0.0503     2.5055   -17.1219     6.6019     8.2582
  549.0000   118.7611     8.8199     0.0412     2.5085   -15.5357     6.6937     8.3749
  549.5000   121.4350     8.8796     0.0412     2.4978   -13.7358     6.7862     8.3749
  550.0000   113.8298     8.9090     0.0381     2.4855   -14.3293     6.8803     8.4933
  550.5000   114.1981     8.9385     0.0378     2.4902   -16.0431     7.0743     9.0004
  551.0000   114.7304     8.8770     0.0503     2.5028   -17.2289     7.3766     9.6373
  551.5000   114.0057     8.6631     0.0655     2.5183   -16.0109     7.5928    10.1941
  552.0000   111.4226     8.6328     0.0529     2.5266   -14.7929     7.9206    10.3382
  552.5000   110.5953     8.6318     0.0380     2.5220   -15.0992     8.3839    10.7829
  553.0000   113.4234     8.6613     0.0380     2.5111   -17.2349     8.8742    11.2468
  553.5000   116.5217     8.6603     0.0433     2.4987   -18.6769     9.4351    11.4058
  554.0000   118.6435     8.6594     0.0651     2.4821   -19.9513     9.9427    11.7307
  554.5000   116.2060     8.5725     0.0840     2.4598   -21.0070    10.3774    11.8965
