~VERSION INFORMATION
 VERS.                2.0:   CWLS LOG ASCII STANDARD - VERSION 2.0
 WRAP.                 NO:   ONE LINE PER DEPTH STEP
~WELL INFORMATION
#MNEM.UNIT      DATA TYPE    INFORMATION
#----------   ------------   ------------------------------
 STRT.F          670.0000:   START DEPTH
 STOP.F         3440.0000:   STOP DEPTH
 STEP.F            0.5000:   STEP LENGTH
 NULL.          -999.2500:   NO VALUE
 COMP.    FENIX & SCISSON:   COMPANY
 WELL.   FENIX "A" #57-33:   WELL
 FLD .             NPR #3:   FIELD
 LOC .      S33 T39N R78W:   LOCATION
 CNTY.            NATRONA:   COUNTY
 STAT.            WYOMING:   STATE
 CTRY. UNITED STATES OF AMERICA:   COUNTRY
 SRVC.       SCHLUMBERGER:   SERVICE COMPANY
 DATE.        27-APR-1977:   LOGDATE
 API .     49025103600000:   API NUMBER
~CURVE INFORMATION
#MNEM.UNIT       API CODE    CURVE DESCRIPTION
#----------   ------------   ------------------------------
 DEPT.F                  :   
 SPR .MV     11 010 01 00:   SPONTANEOUS POTENTIAL FROM RES.
 MSFL.OHMM   11 270 04 00:   MICRO SPHERICALLY FOCUSED
 LLD .OHMM   11 220 10 00:   LATEROLOG LOG DEEP
 LLS .OHMM   11 220 09 00:   LATEROLOG LOG SHALLOW
 CALD.IN     45 280 60 00:   CALIPER FROM DENSITY LOG
 DRHO.G/C3   45 356 01 00:   DENSITY CORRECTION
 NPHI.DEC    42 890 03 00:   NEUTRON POROSITY SANDSTONE
 RHOB.G/C3   45 350 01 00:   BULK DENSITY
 GRD .GAPI   45 310 01 00:   GAMMA RAY FROM RESISTIVITY
~PARAMETER INFORMATION
#MNEM.UNIT          VALUE    DESCRIPTION
#----------   ------------   ------------------------------
 EKB .F         5183.0000:   Kelly bushing
 EGL .F         5172.0000:   Ground level
 EDF .F            0.0000:   Drilling floor
 TD  .F         3424.0000:   Total depth
 DATE.        27-APR-1977:   Date logged
 CLNT.            A2DTECH:   Client Code
 SL  . 990' FSL & 2310' FEL:   Surface Location
 PD  .                 GL:   Permanent Datum
 EPD .F              5172:   Elevation Permanent Datum
 LMF .                 KB:   Log Measured From
 DMF .                 KB:   Drilling Measured From
 DAPD.F                11:   Feet Above Permanent Datum
 DD  .F              3421:   Depth driller
 DL  .F              3424:   Depth logger
 BLI .F              3423:   Bottom log interval
 TLI .F               764:   Top log interval
 CS1 .IN            8.625:   Casing size
 CBD1.      8.625" @ 711':   Casing driller 1
 BS1 .IN            7.875:   Bit size
 BSD1.F              3421:   Depth drilled with bit1
 DFT .            KCL MUD:   Type fluid in hole
 DFD .                9.5:   Density
 DFV .                 41:   Viscosity
 DFPH.                  8:   pH
 DFL .               10.8:   Fluid loss
 MSS .            MUD PIT:   Source of sample
 RMS .OHMM           0.26:   Rm
 MST .F                74:   Rm Meas. temp.
 RMF .OHMM           0.21:   Rmf
 MFST.F                74:   Rmf Meas. temp.
 RMC .OHMM            .09:   Rmc
 MCST.F                74:   Rmc Meas. temp.
 MFSS.               MEAS:   Source Rmf.
 MCSS.               CALC:   Source Rmc.
 RMB .OHMM           0.15:   Rm. at BHT
 BHT .F               126:   BHT.
 TCS .HRS            0900:   Time Circ. stopped
 TLAB.HRS            1430:   Time logger at bottom
 MRT .F               126:   Maximum recorded temp.
 LUN .               7711:   Logging unit number
 LUL .               CSPR:   Logging unit location
 ENGI.             SAYLER:   Recorded By
 WITN.         PETTINGILL:   Witnessed by
 ORIG.           5" PRINT:   Origin of data
 UWI .     49025103600000:   Unique Well ID
 DICO. A2D TECHNOLOGIES, INC.:   Digitizing Company
~OTHER INFORMATION
~A   DEPT      SPR       MSFL        LLD        LLS         CALD      DRHO        NPHI       RHOB      GRD   
# ...
 2130.0000   -53.1520    11.2720     8.6970     9.6360     8.9380     0.0070     0.3860     2.5320   167.0360
 2130.5000   -53.1930    11.3030     8.6890     9.6140     8.9380     0.0020     0.3820     2.5290   164.3650
 2131.0000   -53.2330    11.3340     8.7170     9.6380     8.9380     0.0030     0.3730     2.5280   163.1000
 2131.5000   -53.2730    11.4690     8.7420     9.6570     8.9380     0.0100     0.3590     2.5320   161.5660
 2132.0000   -53.3130    11.6500     8.7660     9.6760     8.9380     0.0080     0.3540     2.5260   159.4220
 2132.5000   -53.3540    11.8770     8.7920     9.6950     8.9380     0.0050     0.3550     2.5190   162.6360
 2133.0000   -53.3940    11.7830     8.8180     9.7930     8.9380     0.0030     0.3550     2.5210   162.2350
 2133.5000   -53.4350    11.6570     8.8410     9.7930     8.9380     0.0040     0.3570     2.5210   163.7950
 2134.0000   -53.4680    11.4480     8.9330     9.7930     8.9380     0.0050     0.3590     2.5150   163.6780
 2134.5000   -53.3620    11.4480     8.7470     9.6490     8.9380     0.0060     0.3580     2.5160   162.3730
 2135.0000   -53.2550    11.5540     8.5910     9.4670     8.9380     0.0080     0.3610     2.5220   164.0840
 2135.5000   -53.1490    11.0010     8.3150     9.2850     8.9380     0.0090     0.3610     2.5350   166.0210
 2136.0000   -53.0680     9.6170     7.9670     9.1030     8.9380     0.0050     0.3630     2.5300   161.8260
 2136.5000   -53.0460    10.2700     7.7120     8.9330     8.9380     0.0000     0.3720     2.5260   163.8890
 2137.0000   -53.0230    11.1400     7.9270     9.1040     8.9380     0.0070     0.3570     2.5310   170.6000
 2137.5000   -53.0000    11.2400     8.2420     9.3580     8.9380     0.0140     0.3580     2.5360   177.3760
 2138.0000   -52.9770    11.3670     8.5920     9.6120     8.9380     0.0100     0.3610     2.5320   179.0310
 2138.5000   -52.9540    11.5080     8.6900     9.8830     8.9300     0.0060     0.3590     2.5270   173.0200
 2139.0000   -52.9310    11.6500     8.7160     9.7930     8.9140     0.0070     0.3520     2.5160   167.7740
 2139.5000   -52.9080    11.7910     8.7430     9.8800     8.8980     0.0110     0.3490     2.5190   163.6740
 2140.0000   -52.8870    11.9320     8.7700     9.9360     8.8830     0.0150     0.3620     2.5200   162.8780
 2140.5000   -52.7860    12.0730     8.8950     9.9920     8.8660     0.0180     0.3660     2.5170   162.2540
 2141.0000   -52.6430    12.2140     9.0070    10.0490     8.8490     0.0200     0.3540     2.5260   161.2010
 2141.5000   -52.5000    12.3560     9.1200    10.1050     8.8400     0.0150     0.3570     2.5210   158.4550
 2142.0000   -52.3570    12.4350     9.1830    10.1590     8.8410     0.0100     0.3630     2.5130   157.5410
 2142.5000   -52.3300    12.0620     8.9160     9.9430     8.8420     0.0040     0.3680     2.5270   160.9920
 2143.0000   -52.4290    11.7040     8.6600     9.6870     8.8430     0.0100     0.3620     2.5370   158.9820
 2143.5000   -52.5270    10.6190     8.3770     9.3530     8.8450     0.0180     0.3570     2.5320   154.8020
 2144.0000   -52.6250     9.7930     8.4650     9.4490     8.8460     0.0110     0.3530     2.5220   150.4140
 2144.5000   -52.7240    10.9240     8.5660     9.5440     8.8470     0.0100     0.3530     2.5140   151.6720
 2145.0000   -52.8230    12.2090     8.6680     9.6380     8.8480     0.0130     0.3590     2.5180   154.5780
 2145.5000   -52.9210    11.8090     8.7690     9.7330     8.8500     0.0140     0.3610     2.5150   158.2850
 2146.0000   -53.0200    11.2720     8.9210    10.0660     8.8510     0.0120     0.3550     2.5100   157.3020
 2146.5000   -53.1180    10.8340     8.8480     9.8780     8.8520     0.0090     0.3520     2.5140   156.0730
 2147.0000   -53.2160    11.2680     8.8320     9.7160     8.8530     0.0070     0.3500     2.5100   159.4050
 2147.5000   -53.2750    11.6340     8.8160     9.5270     8.8550    -0.0010     0.3480     2.5070   162.6580
 2148.0000   -53.1290    12.0970     8.7990     9.5620     8.8560    -0.0030     0.3530     2.5060   160.8260
 2148.5000   -52.9060    12.0640     8.7830     9.6180     8.8570     0.0030     0.3590     2.5150   158.6180
 2149.0000   -52.6800    12.0130     8.7670     9.6740     8.8580     0.0100     0.3620     2.5090   157.2460
 2149.5000   -52.4550    11.9860     8.7500     9.7930     8.8590     0.0100     0.3650     2.4950   156.7690
 2150.0000   -52.2300    12.6660     8.7340     9.7930     8.8610     0.0070     0.3680     2.5030   161.6950
 2150.5000   -52.0050    12.4790     8.7180     9.7930     8.8620     0.0050     0.3780     2.5120   165.0170
 2151.0000   -51.7800    12.2130     8.7010     9.7930     8.8630     0.0090     0.3820     2.5030   163.4120
 2151.5000   -51.5470    11.8770     8.6900     9.7930     8.8640     0.0130     0.3700     2.5100   166.3480
 2152.0000   -51.5360    12.1140     8.8160     9.7930     8.8660     0.0130     0.3600     2.5160   169.4230
 2152.5000   -51.5980    12.6660     8.9880     9.7930     8.8670     0.0120     0.3590     2.5130   171.7460
 2153.0000   -51.6630    12.5500     9.1830     9.7930     8.8680     0.0100     0.3570     2.5160   168.9500
 2153.5000   -51.7270    12.0850     9.1130     9.7930     8.8690     0.0120     0.3490     2.5260   164.6740
 2154.0000   -51.7920    11.6260     8.9240     9.7930     8.8700     0.0130     0.3550     2.5360   163.7770
 2154.5000   -51.8560    11.3440     8.7700     9.7930     8.8720     0.0140     0.3610     2.5350   161.0250
 2155.0000   -51.9210    11.8400     8.7930     9.7930     8.8730     0.0120     0.3630     2.5280   159.6010
 2155.5000   -51.9860    12.4350     8.8210     9.7930     8.8740     0.0100     0.3790     2.5220   163.7100
 2156.0000   -52.0500    12.3640     8.8500     9.7930     8.8750     0.0070     0.3760     2.5060   167.2000
 2156.5000   -52.1150    12.1930     8.8780     9.7930     8.8770     0.0020     0.3620     2.4960   166.5510
 2157.0000   -52.1790    12.0220     8.9060     9.7930     8.8780     0.0100     0.3580     2.4990   165.3030
 2157.5000   -52.2440    11.8500     8.9330     9.7270     8.8790     0.0190     0.3630     2.5040   163.9080
 2158.0000   -52.3080    11.6790     8.6680     9.6250     8.8810     0.0350     0.3710     2.5190   163.3300
 2158.5000   -52.3730    11.4170     8.4420     9.5230     8.8820     0.0360     0.3710     2.5370   162.6760
 2159.0000   -52.4360    10.9050     8.2500     9.4210     8.8840     0.0240     0.3560     2.5340   163.1080
 2159.5000   -52.4420    10.5400     8.0740     9.3190     8.8850     0.0150     0.3600     2.5200   164.3680
 2160.0000   -52.3080    11.4480     8.2240     9.1830     8.8870     0.0050     0.3670     2.5110   162.7720
 2160.5000   -52.1790    11.3610     8.2770     9.2670     8.8890     0.0020     0.3750     2.5090   160.5080
 2161.0000   -52.0500    11.1880     8.3250     9.3430     8.8900     0.0050     0.3830     2.5150   165.5150
 2161.5000   -51.9210    11.0150     8.3770     9.4390     8.8920     0.0080     0.3910     2.5200   167.5250
 2162.0000   -51.7920    10.9340     8.2470     9.4080     8.8930     0.0130     0.3970     2.5020   162.0080
 2162.5000   -51.6640    11.0760     8.1090     9.3640     8.8950     0.0180     0.3920     2.5200   155.1370
 2163.0000   -51.5350    11.4850     8.0740     9.3210     8.8960     0.0230     0.3870     2.5380   156.6450
 2163.5000   -51.4060    11.9860     8.2490     9.2680     8.8980     0.0300     0.3830     2.5290   157.3470
 2164.0000   -51.2770    11.9470     8.3790     9.3490     8.8900     0.0060     0.3760     2.5120   156.7490
 2164.5000   -51.1490    11.8770     8.5100     9.4900     8.8770     0.0020     0.3680     2.5030   159.3980
 2165.0000   -51.1340    12.0430     8.6410     9.6310     8.8650     0.0060     0.3680     2.4950   162.3900
 2165.5000   -51.2540    12.2090     8.7700     9.7730     8.8520     0.0100     0.3700     2.4990   164.4540
 2166.0000   -51.3730    11.8000     8.5950     9.8830     8.8390     0.0150     0.3630     2.5210   162.9640
