~VERSION INFORMATION
 VERS.                2.0:   CWLS LOG ASCII STANDARD - VERSION 2.0
 WRAP.                 NO:   ONE LINE PER DEPTH STEP
~WELL INFORMATION
#MNEM.UNIT      DATA TYPE    INFORMATION
#----------   ------------   ------------------------------
 STRT.F          450.0000:   START DEPTH
 STOP.F         3070.0000:   STOP DEPTH
 STEP.F            0.5000:   STEP LENGTH
 NULL.          -999.2500:   NO VALUE
 COMP. LAWRENCE ALLISON & ASSOCIATES:   COMPANY
 WELL. LAWRENCE "X" #86-28:   WELL
 FLD .             NPR #3:   FIELD
 LOC .      S28 T39N R78W:   LOCATION
 CNTY.            NATRONA:   COUNTY
 STAT.            WYOMING:   STATE
 CTRY. UNITED STATES OF AMERICA:   COUNTRY
 SRVC.      WESTERN ATLAS:   SERVICE COMPANY
 DATE.        03-JAN-1988:   LOGDATE
 API .     49025111920000:   API NUMBER
~CURVE INFORMATION
#MNEM.UNIT       API CODE    CURVE DESCRIPTION
#----------   ------------   ------------------------------
 DEPT.F                  :   
 TEND.LBS    45 635 01 00:   TENSION FROM DENSITY LOG
 CALD.IN     45 280 60 00:   CALIPER FROM DENSITY LOG
 NPHI.DEC    42 890 03 00:   NEUTRON POROSITY SANDSTONE
 DEN .G/C3   45 350 01 00:   BULK DENSITY
 CORR.G/C3   45 356 01 00:   DENSITY CORRECTION
 TENR.LBS    07 635 01 00:   TENSION FROM RESISTIVITY
 RFOC.OHMM   07 220 04 00:   RESISTIVITY FOCUSED LOG RES.
 RILD.OHMM   07 120 46 00:   DEEP INDUCTION RESISTIVITY
 RILM.OHMM   07 120 44 00:   INDUCTION LOG MEDIUM RESISTIVITY
 SPR .MV     07 010 01 00:   SPONTANEOUS POTENTIAL
 GRR .GAPI   07 310 01 00:   GAMMA RAY FROM RESISTIVITY
~PARAMETER INFORMATION
#MNEM.UNIT          VALUE    DESCRIPTION
#----------   ------------   ------------------------------
 EKB .F         5072.0000:   Kelly bushing
 EGL .F         5061.0000:   Ground level
 EDF .F         5071.0000:   Drilling floor
 TD  .F         3062.0000:   Total depth
 DATE.        03-JAN-1988:   Date logged
 CLNT.            A2DTECH:   Client Code
 SL  . 1721' FSL & 556' FEL:   Surface Location
 PD  .                 GL:   Permanent Datum
 DD  .F              3060:   Depth driller
 DL  .F              3062:   Depth logger
 BLI .F              3060:   Bottom log interval
 CS1 .IN            8.625:   Casing size
 CBD1.      8.625" @ 480':   Casing driller 1
 CBL1.F               480:   Casing logger 1
 BS1 .IN            7.875:   Bit size
 DFT .        KCL-POLYMER:   Type fluid in hole
 DFD .                8.9:   Density
 DFV .                 36:   Viscosity
 DFPH.                9.5:   pH
 DFL .                8.4:   Fluid loss
 MSS .               TANK:   Source of sample
 RMS .OHMM           0.45:   Rm
 MST .F                80:   Rm Meas. temp.
 RMF .OHMM           0.41:   Rmf
 MFST.F                60:   Rmf Meas. temp.
 RMC .OHMM           0.65:   Rmc
 MCST.F                60:   Rmc Meas. temp.
 MFSS.               MEAS:   Source Rmf.
 RMB .OHMM           0.31:   Rm. at BHT
 BHT .F               110:   BHT.
 TCS .HRS               4:   Time Circ. stopped
 MRT .F               110:   Maximum recorded temp.
 LUN .            HL 6343:   Logging unit number
 LUL .               CODY:   Logging unit location
 ENGI.               RALL:   Recorded By
 WITN.              FIVRS:   Witnessed by
 ORIG.     2.5", 5" PRINT:   Origin of data
 UWI .     49025111920000:   Unique Well ID
 DICO. A2D TECHNOLOGIES, INC.:   Digitizing Company
 DAPD.                 11:   Feet Above Permanent Datum
 BSD1.               3060:   Depth drilled with bit1
 MCSS.               CALC:   Source Rmc.
 EPD .               5061:   Elevation Permanent Datum
 LMF .                 KB:   Log Measured From
 DMF .                 KB:   Drilling Measured From
 TLI .                480:   Top log interval
~OTHER INFORMATION
~A   DEPT     TEND       CALD       NPHI        DEN       CORR       TENR       RFOC       RILD       RILM        SPR         GRR  
# ...
  663.5000  -999.2500  -999.2500  -999.2500  -999.2500  -999.2500   -87.9850     8.3260     7.8150     7.8980   -15.3110   111.5290
  664.0000  -999.2500  -999.2500  -999.2500  -999.2500  -999.2500   -88.8790     8.1020     7.5140     7.6680   -15.6610   113.6430
  664.5000  -999.2500  -999.2500  -999.2500  -999.2500  -999.2500   -89.7720     7.8770     7.1880     7.4380   -15.8730   111.6870
  665.0000  -999.2500  -999.2500  -999.2500  -999.2500  -999.2500   -90.6660     7.6530     6.8610     7.2120   -15.9420   109.5020
  665.5000  -999.2500  -999.2500  -999.2500  -999.2500  -999.2500   -91.5590     7.4290     6.7620     7.0060   -16.0010   110.7330
  666.0000  -999.2500  -999.2500  -999.2500  -999.2500  -999.2500   -92.4530     7.3220     6.7010     6.8010   -16.0610   113.3990
  666.5000  -999.2500  -999.2500  -999.2500  -999.2500  -999.2500   -90.4760     7.2470     6.6400     6.6820   -16.1210   117.7800
  667.0000  -999.2500  -999.2500  -999.2500  -999.2500  -999.2500   -86.6840     7.1720     6.5800     6.5870   -16.1810   118.2540
  667.5000  -999.2500  -999.2500  -999.2500  -999.2500  -999.2500   -82.8920     7.0970     6.5350     6.4920   -16.2330   118.7600
  668.0000  -999.2500  -999.2500  -999.2500  -999.2500  -999.2500   -79.1000     7.0320     6.4330     6.3980   -16.2000   118.7670
  668.5000  -999.2500  -999.2500  -999.2500  -999.2500  -999.2500   -75.3080     6.9940     6.3370     6.2950   -16.1620   117.2790
  669.0000  -999.2500  -999.2500  -999.2500  -999.2500  -999.2500   -71.5160     6.9560     6.2410     6.2380   -16.1240   114.9130
  669.5000  -999.2500  -999.2500  -999.2500  -999.2500  -999.2500   -67.7240     6.9170     6.1210     6.1300   -16.0860   113.0530
  670.0000  -999.2500  -999.2500  -999.2500  -999.2500  -999.2500   -63.9320     6.8790     6.0290     6.0210   -16.0480   112.6250
  670.5000  -999.2500  -999.2500  -999.2500  -999.2500  -999.2500   -64.1180     6.8480     5.9330     5.9130   -15.9540   114.5190
  671.0000  -999.2500  -999.2500  -999.2500  -999.2500  -999.2500   -67.0790     6.6640     5.8190     5.8050   -15.7940   117.2360
  671.5000  -999.2500  -999.2500  -999.2500  -999.2500  -999.2500   -70.0410     6.4340     5.6920     5.6960   -15.6340   120.0520
  672.0000  -999.2500  -999.2500  -999.2500  -999.2500  -999.2500   -73.0020     6.2050     5.5740     5.5220   -15.4740   120.4420
  672.5000  -999.2500  -999.2500  -999.2500  -999.2500  -999.2500   -75.9630     5.9760     5.5020     5.5660   -15.3140   120.0370
  673.0000  -999.2500  -999.2500  -999.2500  -999.2500  -999.2500   -78.9250     5.8410     5.4730     5.6560   -15.1550   119.5350
  673.5000  -999.2500  -999.2500  -999.2500  -999.2500  -999.2500   -81.8860     5.8410     5.4440     5.7470   -15.0160   117.2270
  674.0000  -999.2500  -999.2500  -999.2500  -999.2500  -999.2500   -77.1810     6.1560     5.4190     5.8380   -15.0880   114.7940
  674.5000  -999.2500  -999.2500  -999.2500  -999.2500  -999.2500   -69.7770     6.4350     5.4840     5.8960   -15.2790   114.4200
  675.0000  -999.2500  -999.2500  -999.2500  -999.2500  -999.2500   -62.3730     6.6590     5.5390     5.8960   -15.4680   114.9300
  675.5000  -999.2500  -999.2500  -999.2500  -999.2500  -999.2500   -54.9700     6.6590     5.5950     5.8960   -15.6580   115.9460
  676.0000  -999.2500  -999.2500  -999.2500  -999.2500  -999.2500   -58.3540     6.6590     5.6870     5.9140   -15.8480   117.1820
  676.5000  -999.2500  -999.2500  -999.2500  -999.2500  -999.2500   -68.0720     6.7360     5.8270     5.9890   -16.0220   119.2590
  677.0000  -999.2500  -999.2500  -999.2500  -999.2500  -999.2500   -77.7890     6.8540     5.9660     6.0650   -15.9320   119.9580
  677.5000  -999.2500  -999.2500  -999.2500  -999.2500  -999.2500   -80.8740     6.9780     6.0640     6.1410   -15.8390   119.9510
  678.0000  -999.2500  -999.2500  -999.2500  -999.2500  -999.2500   -77.2990     6.9370     6.0470     6.2160   -16.1910   117.7500
  678.5000  -999.2500  -999.2500  -999.2500  -999.2500  -999.2500   -73.7250     6.9060     6.0350     6.2950   -16.6080   116.0350
  679.0000  -999.2500  -999.2500  -999.2500  -999.2500  -999.2500   -70.1510     6.8750     6.0220     6.2870   -17.0260   116.6390
  679.5000  -999.2500  -999.2500  -999.2500  -999.2500  -999.2500   -66.5770     6.8430     6.0100     6.2780   -17.4460   117.1680
  680.0000  -999.2500  -999.2500  -999.2500  -999.2500  -999.2500   -63.0030     6.8120     5.9970     6.2690   -17.6670   117.1890
  680.5000  -999.2500  -999.2500  -999.2500  -999.2500  -999.2500   -62.3730     6.7810     5.9850     6.2600   -17.8520   115.9330
  681.0000  -999.2500  -999.2500  -999.2500  -999.2500  -999.2500   -62.3730     6.7500     5.9720     6.2510   -17.7140   114.7310
  681.5000  -999.2500  -999.2500  -999.2500  -999.2500  -999.2500   -62.3730     6.7210     5.9600     6.2430   -17.5430   113.5030
  682.0000  -999.2500  -999.2500  -999.2500  -999.2500  -999.2500   -62.3730     6.8030     5.9510     6.2360   -17.2910   111.5340
  682.5000  -999.2500  -999.2500  -999.2500  -999.2500  -999.2500   -62.3730     6.8780     6.4740     6.4360   -16.9120   110.2750
  683.0000  -999.2500  -999.2500  -999.2500  -999.2500  -999.2500   -62.3730     6.9530     6.4510     6.5970   -16.5570   111.6820
  683.5000  -999.2500  -999.2500  -999.2500  -999.2500  -999.2500   -62.3730     7.0280     6.4140     6.5630   -16.2220   113.9320
  684.0000  -999.2500  -999.2500  -999.2500  -999.2500  -999.2500   -62.3730     7.1030     6.3800     6.4740   -16.0730   115.3720
  684.5000  -999.2500  -999.2500  -999.2500  -999.2500  -999.2500   -62.3730     7.1760     6.3370     6.4530   -16.2690   114.4520
  685.0000  -999.2500  -999.2500  -999.2500  -999.2500  -999.2500   -62.3730     7.1060     6.2940     6.4170   -16.4600   113.1950
  685.5000  -999.2500  -999.2500  -999.2500  -999.2500  -999.2500   -62.3730     7.0370     6.2500     6.3800   -16.6290   111.9600
  686.0000  -999.2500  -999.2500  -999.2500  -999.2500  -999.2500   -62.3730     6.9680     6.2070     6.3440   -16.5690   110.9840
  686.5000  -999.2500  -999.2500  -999.2500  -999.2500  -999.2500   -62.3730     6.8990     6.1640     6.3080   -16.5090   110.6740
  687.0000  -999.2500  -999.2500  -999.2500  -999.2500  -999.2500   -62.3730     6.8300     6.1200     6.2720   -16.4430   110.2950
  687.5000  -999.2500  -999.2500  -999.2500  -999.2500  -999.2500   -62.3730     6.7520     6.0770     6.2360   -16.3280   112.8500
  688.0000  -999.2500  -999.2500  -999.2500  -999.2500  -999.2500   -62.3730     6.6560     6.0340     6.2000   -15.9720   116.2630
  688.5000  -999.2500  -999.2500  -999.2500  -999.2500  -999.2500   -62.3730     6.5970     6.0050     6.1780   -15.6320   119.3300
  689.0000  -999.2500  -999.2500  -999.2500  -999.2500  -999.2500   -62.3730     6.6140     6.0010     6.1640   -15.2920   119.6600
  689.5000  -999.2500  -999.2500  -999.2500  -999.2500  -999.2500   -62.3730     6.6280     5.9960     6.1490   -14.9510   120.0900
  690.0000  -999.2500  -999.2500  -999.2500  -999.2500  -999.2500   -62.1220     6.6430     5.9910     6.1340   -14.6090   120.5460
  690.5000  -999.2500  -999.2500  -999.2500  -999.2500  -999.2500   -61.1350     6.6570     5.9860     6.1210   -14.2560   121.5010
  691.0000  -999.2500  -999.2500  -999.2500  -999.2500  -999.2500   -60.1480     6.6590     5.9810     6.1210   -14.5250   120.4560
  691.5000  -999.2500  -999.2500  -999.2500  -999.2500  -999.2500   -59.1610     6.6590     5.9760     6.1210   -14.9080   120.3570
  692.0000  -999.2500  -999.2500  -999.2500  -999.2500  -999.2500   -58.1740     6.6590     5.9720     6.1210   -15.0170   120.5630
  692.5000  -999.2500  -999.2500  -999.2500  -999.2500  -999.2500   -57.1870     6.6590     5.9670     6.1210   -15.0220   119.6410
  693.0000  -999.2500  -999.2500  -999.2500  -999.2500  -999.2500   -56.2000     6.6430     5.9620     6.1210   -15.0210   117.2800
  693.5000  -999.2500  -999.2500  -999.2500  -999.2500  -999.2500   -55.2130     6.6030     5.9570     6.1210   -14.9700   114.7190
