~VERSION INFORMATION
 VERS.                2.0:   CWLS LOG ASCII STANDARD - VERSION 2.0
 WRAP.                 NO:   ONE LINE PER DEPTH STEP
~WELL INFORMATION
#MNEM.UNIT      DATA TYPE    INFORMATION
#----------   ------------   ------------------------------
 STRT.F          150.0000:   START DEPTH
 STOP.F         2980.0000:   STOP DEPTH
 STEP.F            0.5000:   STEP LENGTH
 NULL.          -999.2500:   NO VALUE
 COMP. FENIX & SCISSION U.S. NAVY:   COMPANY
 WELL.   FENIX "A" #84-20:   WELL
 FLD .             NPR #3:   FIELD
 LOC .      S20 T39N R78W:   LOCATION
 CNTY.            NATRONA:   COUNTY
 STAT.            WYOMING:   STATE
 CTRY. UNITED STATES OF AMERICA:   COUNTRY
 SRVC.       SCHLUMBERGER:   SERVICE COMPANY
 DATE.        21-FEB-1977:   LOGDATE
 API .     49025103020000:   API NUMBER
~CURVE INFORMATION
#MNEM.UNIT       API CODE    CURVE DESCRIPTION
#----------   ------------   ------------------------------
 DEPT.F                  :   
 NPHI.DEC    42 890 03 00:   NEUTRON POROSITY SANDSTONE
 GRD .GAPI   45 310 01 00:   GAMMA RAY FROM DENSITY LOG
 CALD.IN     45 280 60 00:   CALIPER FROM DENSITY LOG
 RHOB.G/C3   45 350 01 00:   BULK DENSITY
 DCOR.G/C3   45 356 01 00:   DENSITY CORRECTION
 SPR .MV     07 010 01 00:   SPONTANEOUS POTENTIAL
 LLD .OHMM   11 220 10 00:   LATEROLOG DEEP
 LLS .OHMM   11 220 09 00:   LATEROLOG SHALLOW
 MSFL.OHMM   07 270 04 00:   MICRO SPHERICALLY FOCUSED RES.
~PARAMETER INFORMATION
#MNEM.UNIT          VALUE    DESCRIPTION
#----------   ------------   ------------------------------
 EKB .F         5006.0000:   Kelly bushing
 EGL .F         4996.0000:   Ground level
 EDF .F            0.0000:   Drilling floor
 TD  .F         2973.0000:   Total depth
 DATE.        21-FEB-1977:   Date logged
 CLNT.            A2DTECH:   Client Code
 SL  . 330' FEL & 2310' FNL:   Surface Location
 PD  .                 GL:   Permanent Datum
 EPD .F              4996:   Elevation Permanent Datum
 LMF .                 KB:   Log Measured From
 DMF .                 KB:   Drilling Measured From
 DAPD.F                10:   Feet Above Permanent Datum
 DD  .F              2973:   Depth driller
 DL  .F              2971:   Depth logger
 BLI .F              2970:   Bottom log interval
 TLI .F               164:   Top log interval
 CS1 .IN            8.625:   Casing size
 CBD1.      8.625" @ 167':   Casing driller 1
 CBL1.F               164:   Casing logger 1
 BS1 .IN            7.875:   Bit size
 BSD1.F              2973:   Depth drilled with bit1
 DFT .            KCL MUD:   Type fluid in hole
 DFD .                9.5:   Density
 DFV .                 35:   Viscosity
 DFPH.                6.5:   pH
 DFL .                 11:   Fluid loss
 MSS .              CIRC.:   Source of sample
 RMS .OHMM           0.27:   Rm
 MST .F                72:   Rm Meas. temp.
 RMF .OHMM           0.19:   Rmf
 MFST.F                72:   Rmf Meas. temp.
 RMC .OHMM           0.35:   Rmc
 MCST.F                72:   Rmc Meas. temp.
 MFSS.               MEAS:   Source Rmf.
 MCSS.               CALC:   Source Rmc.
 RMB .OHMM           0.18:   Rm. at BHT
 BHT .F               110:   BHT.
 TCS .HRS            0300:   Time Circ. stopped
 TLAB.HRS            1000:   Time logger at bottom
 MRT .F               110:   Maximum recorded temp.
 LUN .               7711:   Logging unit number
 LUL .               CSPR:   Logging unit location
 ENGI.             SAYLER:   Recorded By
 WITN.               JAPP:   Witnessed by
 ORIG.           5" PRINT:   Origin of data
 UWI .     49025103020000:   Unique Well ID
 DICO. A2D TECHNOLOGIES, INC.:   Digitizing Company
~OTHER INFORMATION
~A   DEPT       NPHI       GRD      CALD       RHOB       DCOR        SPR        LLD        LLS       MSFL   
# ...
 1099.0000     0.3680   114.0990    11.0970     2.5240     0.0270   -33.0790     8.1780     8.7480     9.7500
 1099.5000     0.3700   112.0690    11.0940     2.5290     0.0250   -33.0280     8.1630     8.7440    10.0220
 1100.0000     0.3700   109.5740    11.0920     2.5490     0.0370   -32.9790     8.1460     8.7450    10.2440
 1100.5000     0.3660   108.5450    11.0900     2.5440     0.0320   -32.9290     8.1260     8.7440    10.5100
 1101.0000     0.3650   107.7890    11.0870     2.5390     0.0270   -32.8790     8.1420     8.7450    10.2750
 1101.5000     0.3630   108.2570    11.0850     2.5570     0.0440   -32.8300     8.1750     8.7450     9.8800
 1102.0000     0.3590   109.2170    11.0820     2.5450     0.0560   -32.7800     8.2070     8.7450     9.2410
 1102.5000     0.3530   108.7400    11.0800     2.5340     0.0390   -32.7300     8.2390     8.7880     9.6420
 1103.0000     0.3470   108.2550    11.0780     2.5280     0.0350   -32.6810     8.2710     8.9000    10.5100
 1103.5000     0.3490   108.8070    11.0760     2.5280     0.0360   -32.6310     8.3030     9.0120    10.0590
 1104.0000     0.3530   109.3600    11.0740     2.5480     0.0380   -32.5810     8.3350     9.1240     9.6760
 1104.5000     0.3500   109.5960    11.0720     2.5670     0.0660   -32.5330     8.3670     9.2410    10.2320
 1105.0000     0.3510   108.5530    11.0700     2.5730     0.0600   -32.4830     8.3990     9.2250    11.0740
 1105.5000     0.3610   106.9110    11.0690     2.5710     0.0480   -32.5060     8.4310     9.2090    11.9530
 1106.0000     0.3580   106.0930    11.0670     2.5600     0.0440   -32.5570     8.4620     9.1920    11.0850
 1106.5000     0.3540   105.3300    11.0650     2.5370     0.0270   -32.6070     8.4940     9.1770     9.7650
 1107.0000     0.3520   103.5740    11.0630     2.5280     0.0240   -32.6560     8.5260     9.1610     9.9090
 1107.5000     0.3510   103.3880    11.0610     2.5170     0.0190   -32.7060     8.5580     9.1440    10.1740
 1108.0000     0.3470   103.7750    11.0600     2.5040     0.0140   -32.7560     8.5860     9.1280    10.4630
 1108.5000     0.3430   103.3640    11.0580     2.5190     0.0320   -32.8050     8.5980     9.1120    10.3620
 1109.0000     0.3400   102.7960    11.0560     2.5330     0.0280   -32.8550     8.6080     9.0960    10.1620
 1109.5000     0.3470   104.0370    11.0540     2.5360     0.0240   -32.9050     8.6190     9.0740     9.9460
 1110.0000     0.3510   104.9930    11.0520     2.5460     0.0290   -32.9540     8.6300     9.0790    10.2370
 1110.5000     0.3510   105.0260    11.0500     2.5340     0.0320   -33.0040     8.6410     9.0960    10.7050
 1111.0000     0.3510   104.2830    11.0480     2.5250     0.0270   -33.0530     8.6510     9.1110    10.5810
 1111.5000     0.3520   103.5350    11.0460     2.5230     0.0300   -33.1030     8.6620     9.1270    10.3180
 1112.0000     0.3530   102.7670    11.0450     2.5220     0.0340   -33.1530     8.6730     9.1430    11.1570
 1112.5000     0.3580   102.4000    11.0430     2.5330     0.0510   -33.2010     8.6830     9.1580    12.1750
 1113.0000     0.3530   103.5310    11.0410     2.5470     0.0510   -33.2530     8.6940     9.1730     9.5870
 1113.5000     0.3480   105.1700    11.0410     2.5540     0.0530   -33.2550     8.7050     9.1890     9.9620
 1114.0000     0.3430   106.7440    11.0450     2.5460     0.0430   -33.2320     8.7150     9.2050    10.5020
 1114.5000     0.3390   108.0880    11.0500     2.5350     0.0300   -33.2110     8.7260     9.2200    11.1060
 1115.0000     0.3340   107.8950    11.0540     2.5250     0.0210   -33.1910     8.7360     9.2380    10.6730
 1115.5000     0.3260   106.2650    11.0590     2.5210     0.0240   -33.1700     8.7440     9.2280    10.3450
 1116.0000     0.3300   104.7490    11.0630     2.5410     0.0380   -33.1490     8.6960     9.2030    10.4400
 1116.5000     0.3390   104.4590    11.0670     2.5540     0.0490   -33.1290     8.6410     9.1810    11.1060
 1117.0000     0.3490   105.0100    11.0720     2.5560     0.0560   -33.1080     8.5860     9.1600    10.6840
 1117.5000     0.3570   105.4870    11.0760     2.5550     0.0530   -33.0870     8.5310     9.1370    10.1300
 1118.0000     0.3620   104.6690    11.0740     2.5560     0.0510   -33.0670     8.4760     9.1150    10.5100
 1118.5000     0.3660   104.3190    11.0610     2.5610     0.0670   -33.0460     8.4210     9.0930     9.9460
 1119.0000     0.3700   105.2270    11.0480     2.5500     0.0690   -33.0250     8.3660     9.0720    10.0870
 1119.5000     0.3680   106.2580    11.0350     2.5530     0.0700   -33.0050     8.3110     8.9450    10.4020
 1120.0000     0.3350   105.6520    11.0220     2.5570     0.0640   -32.9840     8.2550     8.8240    10.7050
 1120.5000     0.3390   104.1860    11.0090     2.5320     0.0480   -32.9630     8.2000     8.7030     9.9460
 1121.0000     0.3310   102.7080    10.9960     2.5340     0.0350   -32.9420     8.1250     8.5850     9.2410
 1121.5000     0.3330   102.5290    10.9830     2.5440     0.0300   -32.9220     8.2600     8.8020     9.5260
 1122.0000     0.3340   103.5660    11.0020     2.5690     0.0520   -32.9010     8.4730     9.0120     9.8030
 1122.5000     0.3320   104.5940    11.0290     2.5780     0.0620   -32.8790     8.6870     9.2210    10.1300
 1123.0000     0.3300   105.6190    11.0590     2.5520     0.0490   -32.8680     8.9010     9.4310    11.1730
 1123.5000     0.3380   106.4260    11.0380     2.5370     0.0370   -32.8690     9.2410     9.7650    11.9940
 1124.0000     0.3470   106.5540    11.0070     2.5410     0.0380   -32.8680     9.1990     9.7190    11.1460
 1124.5000     0.3550   105.1880    11.0120     2.5610     0.0490   -32.8680     9.0980     9.6060    10.1300
 1125.0000     0.3580   103.4210    11.0290     2.5610     0.0480   -32.8690     8.9970     9.4940    10.5200
 1125.5000     0.3560   102.8500    11.0460     2.5620     0.0530   -32.8680     8.8960     9.3810    11.0680
 1126.0000     0.3540   104.4660    11.0640     2.5790     0.0740   -32.8690     8.7950     9.2690    11.0050
 1126.5000     0.3530   106.0580    11.0770     2.5680     0.0650   -32.8690     8.6940     9.1570    10.9030
 1127.0000     0.3560   107.1700    11.0310     2.5490     0.0480   -32.8690     8.5930     9.0440    10.5490
 1127.5000     0.3590   107.6420    10.9860     2.5470     0.0490   -32.8690     8.4290     8.9320    10.2510
 1128.0000     0.3590   106.5550    10.9580     2.5610     0.0550   -32.8690     8.5380     9.0390     9.9460
 1128.5000     0.3570   106.3580    10.9520     2.5550     0.0520   -32.8690     8.8270     9.2080    10.6700
 1129.0000     0.3510   107.3030    10.9460     2.5420     0.0390   -32.8690     9.2410     9.3770    11.4130
 1129.5000     0.3440   107.8850    10.9400     2.5290     0.0270   -32.8690     9.1100     9.5680    11.7350
 1130.0000     0.3400   107.9100    10.9340     2.5180     0.0230   -32.8690     8.8780     9.5310    11.7350
 1130.5000     0.3440   108.6550    10.9280     2.5290     0.0370   -32.8690     8.6460     9.4590    10.7420
 1131.0000     0.3480   109.2210    10.9220     2.5340     0.0450   -32.8690     8.4150     9.3820     9.2410
 1131.5000     0.3510   108.8470    10.9180     2.5380     0.0490   -32.8690     8.1540     9.2980     9.5270
 1132.0000     0.3520   108.4920    10.9140     2.5460     0.0500   -32.8690     8.2130     9.2130    10.0480
 1132.5000     0.3470   108.1410    10.9100     2.5610     0.0660   -32.8690     8.3310     9.0720    10.5690
 1133.0000     0.3390   107.7850    10.9070     2.5690     0.0690   -32.8690     8.4490     9.1210    10.8890
 1133.5000     0.3320   107.3740    10.9030     2.5520     0.0390   -32.8690     8.5670     9.2640    11.1060
 1134.0000     0.3290   106.2300    10.8990     2.5300     0.0370   -32.8690     8.6850     9.4080    10.7880
 1134.5000     0.3300   104.6760    10.8950     2.5390     0.0450   -32.8690     8.8030     9.5520    10.3180
 1135.0000     0.3330   103.7840    10.8910     2.5570     0.0430   -32.8690     8.9210     9.7650    10.6390
