~VERSION INFORMATION
 VERS.                2.0:   CWLS LOG ASCII STANDARD - VERSION 2.0
 WRAP.                 NO:   ONE LINE PER DEPTH STEP
~WELL INFORMATION
#MNEM.UNIT      DATA TYPE    INFORMATION
#----------   ------------   ------------------------------
 STRT.F           60.0000:   START DEPTH
 STOP.F         5768.0000:   STOP DEPTH
 STEP.F            0.5000:   STEP LENGTH
 NULL.          -999.2500:   NO VALUE
 COMP.              RMOTC:   COMPANY
 WELL. RMOTC NPR-3 61 "X" #2-15:   WELL
 FLD .            N P R-3:   FIELD
 LOC .      S15 T38N R78W:   LOCATION
 CNTY.            NATRONA:   COUNTY
 STAT.            WYOMING:   STATE
 CTRY. UNITED STATES OF AMERICA:   COUNTRY
 SRVC.       SCHLUMBERGER:   SERVICE COMPANY
 DATE.        07-JAN-2002:   LOGDATE
 API .     49025230310000:   API NUMBER
~CURVE INFORMATION
#MNEM.UNIT       API CODE    CURVE DESCRIPTION
#----------   ------------   ------------------------------
 DEPT.F                  :   
 CALD.IN     45 280 60 00:   CALIPER FROM DENSITY LOG
 TEND.LBS    45 635 01 00:   TENSION FROM DENSITY LOG
 PEFZ.B/E    45 358 01 00:   HILT PHOTOELECTRIC FACTOR
 RHOZ.G/C3   45 350 01 00:   HILT BULK DENSITY
 NPOR.DEC    42 890 03 00:   ALPHA PROCESSED NEUTRON POROSITY
 HDRA.G/C3   45 356 01 00:   DELTA RHO HIP TOOL
 GRS .GAPI   60 310 01 00:   GAMMA RAY FROM SONIC LOG
 DTSM.US/F   61 523 00 00:   SHEAR-WAVE INTERVAL TRANSIT TIME DELTA-T
 GRR .GAPI   07 310 01 00:   GAMMA RAY FROM RESISTIVITY
 TENR.LBS    01 635 01 00:   TENSION FROM RES.
 SPR .MV     07 010 01 00:   SPONTANEOUS POTENTIAL
 HLLD.OHMM   11 220 10 00:   LATEROLOG DEEP RES.
 HLLS.OHMM   11 220 09 00:   LATEROLOG SHALLOW RES.
 HRLD.OHMM   11 220 10 00:   HIGH RESOLUTION DEEP RESISTIVITY
~PARAMETER INFORMATION
#MNEM.UNIT          VALUE    DESCRIPTION
#----------   ------------   ------------------------------
 EKB .F         5244.0000:   Kelly bushing
 EGL .F         5227.0000:   Ground level
 EDF .F         5243.0000:   Drilling floor
 EPD .F            0.0000:   Permanent datum
 TD  .F         5756.0000:   Total depth
 DATE.        07-JAN-2002:   Date logged
 CLNT.            A2DTECH:   Client Code
 SL  . 189' FNL & 1895' FEL:   Surface Location
 PD  .                 GL:   Permanent Datum
 DD  .F              5750:   Depth driller
 DL  .F              5756:   Depth logger
 BLI .F              5748:   Bottom log interval
 CS1 .IN             3054:   Casing size
 CBD1.     9.625" @ 3052':   Casing driller 1
 CBL1.F              3054:   Casing logger 1
 BS1 .IN            8.750:   Bit size
 DFT .             3% KCL:   Type fluid in hole
 DFD .                9.3:   Density
 DFV .                 42:   Viscosity
 DFPH.                  8:   pH
 DFL .                 28:   Fluid loss
 MSS .           FLOWLINE:   Source of sample
 RMS .OHMM          0.413:   Rm
 MST .F                74:   Rm Meas. temp.
 RMF .OHMM          0.305:   Rmf
 MFST.F                74:   Rmf Meas. temp.
 RMC .OHMM          0.637:   Rmc
 MCST.F                74:   Rmc Meas. temp.
 MFSS.               CALC:   Source Rmf.
 RMB .OHMM          0.187:   Rm. at BHT
 BHT .F               172:   BHT.
 TCS .HRS            0800:   Time Circ. stopped
 MRT .F               172:   Maximum recorded temp.
 LUN .               2211:   Logging unit number
 LUL .             CASPER:   Logging unit location
 ENGI.        J.L. FLORES:   Recorded By
 WITN.      MARK MILLIKEN:   Witnessed by
 ORIG.           5" PRINT:   Origin of data
 UWI .     49025230310000:   Unique Well ID
 DICO. A2D TECHNOLOGIES, INC.:   Digitizing Company
 DAPD.                 17:   Feet Above Permanent Datum
 BSD1.               5750:   Depth drilled with bit1
 MCSS.               CALC:   Source Rmc.
 LMF .                 KB:   Log Measured From
 DMF .                 KB:   Drilling Measured From
 TLI .               3054:   Top log interval
~OTHER INFORMATION
~A   DEPT     CALD       TEND       PEFZ       RHOZ       NPOR       HDRA        GRS       DTSM         GRR      TENR        SPR       HLLD       HLLS       HRLD   
# ...
 4298.5000    12.1870  2401.0820     3.5480     2.5780     0.3210     0.0010    84.0740  -999.2500    99.4690  2430.3379   -54.6010     4.2890     5.2060     4.1950
 4299.0000    12.1910  2412.1489     3.5520     2.5970     0.3070     0.0060    82.8970  -999.2500    95.9540  2452.8301   -54.2650     4.7850     5.7580     4.6940
 4299.5000    12.1970  2418.8191     3.6030     2.6150     0.3060     0.0110    82.7960  -999.2500    92.9440  2452.8301   -53.9010     5.0260     6.2030     5.0720
 4300.0000    12.2020  2423.5730     3.6270     2.6240     0.3050     0.0110    85.3030  -999.2500    92.7830  2452.8301   -53.5230     4.8580     5.9420     4.8900
 4300.5000    12.2250  2428.3269     3.5830     2.6150     0.3050     0.0060    88.3840  -999.2500    92.6000  2452.8301   -53.1990     4.6720     5.6520     4.6860
 4301.0000    12.2430  2433.0811     3.5660     2.5770     0.3230     0.0030    87.5160  -999.2500    93.0400  2452.8301   -53.8650     4.4830     5.4450     4.4830
 4301.5000    12.3190  2435.3879     3.8500     2.5380     0.3370     0.0200    85.6730  -999.2500    93.7930  2452.8301   -54.4910     4.5010     5.3100     4.4550
 4302.0000    12.3180  2435.3879     4.5920     2.4950     0.3360     0.0550    83.8350  -999.2500    93.5750  2452.8301   -55.0930     4.5870     5.3380     4.5020
 4302.5000    12.3230  2435.3879     5.4280     2.4560     0.3390     0.1130    84.2190  -999.2500    92.5190  2452.8301   -55.4060     4.5870     5.3580     4.5450
 4303.0000    12.6720  2435.3879     5.8180     2.4730     0.3550     0.1730    87.1260  -999.2500    91.7260  2432.9690   -55.3950     4.3180     5.2950     4.2560
 4303.5000    13.0220  2435.3879     5.7640     2.5100     0.3640     0.1890    87.8230  -999.2500    93.7740  2432.9690   -55.4040     4.1480     5.2130     4.0350
 4304.0000    13.0710  2435.3879     5.4390     2.5720     0.3230     0.1860    87.2350  -999.2500    95.3270  2432.9690   -55.3970     4.3660     5.1900     4.2730
 4304.5000    12.9370  2431.6399     4.9540     2.6000     0.3010     0.1570    82.4280  -999.2500    93.3160  2432.9690   -54.8850     4.8360     5.5470     4.7480
 4305.0000    12.8470  2426.6399     4.4540     2.6110     0.2870     0.1160    78.0350   137.7990    90.0600  2432.9690   -54.4200     5.1660     6.1460     5.0030
 4305.5000    12.7900  2421.6399     3.8960     2.6150     0.2600     0.0750    74.0430   132.2300    88.1170  2432.9690   -54.2840     5.5580     6.9050     5.4570
 4306.0000    12.4130  2416.6399     3.4420     2.6020     0.2290     0.0340    67.1970   128.9370    86.5150  2432.9690   -54.4560     7.0570     8.4760     6.1230
 4306.5000    12.2110  2426.5549     3.2220     2.5840     0.1990     0.0080    61.5470   126.0410    82.4840  2432.9690   -54.5950     8.7230     9.8890     7.3150
 4307.0000    12.1400  2440.8411     3.0220     2.5930     0.1720     0.0030    59.9170   125.3580    77.6850  2432.9690   -54.2810    10.1380    11.1630     8.7070
 4307.5000    12.1420  2455.2681     3.0060     2.6050     0.1580     0.0030    58.2130   125.3660    72.1350  2432.9690   -53.9810    10.9650    12.2050    10.9000
 4308.0000    12.1400  2430.5171     2.9860     2.6170     0.1450     0.0030    56.5010   126.0900    68.2140  2432.9690   -53.9890    11.8740    12.9390    11.7670
 4308.5000    12.1370  2395.6260     2.9740     2.6180     0.1390     0.0030    56.4710   126.8140    65.3250  2432.9690   -54.5310    11.8740    13.7550    12.6330
 4309.0000    12.1340  2410.7361     2.9780     2.6160     0.1450     0.0030    58.7290   127.0560    64.2680  2432.9690   -55.1070    11.8740    13.6480    12.4720
 4309.5000    12.1310  2435.7361     2.9820     2.6160     0.1500     0.0030    60.2440   127.0560    65.5250  2432.9690   -55.6470    11.7660    13.3050    11.8690
 4310.0000    12.1280  2455.2681     2.9860     2.6230     0.1510     0.0030    60.0130   125.3740    67.3010  2432.9690   -55.5660    11.3440    13.0300    11.4480
 4310.5000    12.1250  2439.7119     2.9900     2.6300     0.1490     0.0030    58.7200   124.0100    69.3400  2432.9690   -55.2110    11.3440    12.8930    11.7390
 4311.0000    12.1220  2415.5071     2.9880     2.6350     0.1480     0.0030    59.3690   124.0100    68.0530  2432.9690   -55.0950    11.2810    13.0730    12.0940
 4311.5000    12.1120  2427.4070     2.9650     2.6340     0.1480     0.0030    59.1450   125.0130    63.5440  2432.9690   -55.3170    11.2400    13.2520    11.7560
 4312.0000    12.1000  2441.6931     2.9540     2.6330     0.1560     0.0030    58.7080   125.9630    60.0350  2432.9690   -55.5790    11.0540    13.3740    11.3440
 4312.5000    12.1240  2455.2681     2.9440     2.6280     0.1540     0.0030    58.9310   126.9130    61.3180  2432.9690   -55.8010    10.8870    13.3740    11.7660
 4313.0000    12.1310  2445.9529     2.9340     2.6270     0.1510     0.0030    59.2090   126.9140    66.8500  2432.9690   -56.0610    10.6400    13.2760    11.5530
 4313.5000    12.1390  2431.6670     2.9380     2.6320     0.1530     0.0030    60.0680   126.5970    68.1340  2432.9690   -56.2860    10.6400    12.9520    11.0480
 4314.0000    12.1460  2417.3811     2.9600     2.6380     0.1570     0.0030    58.3770   126.8560    67.5350  2432.9690   -56.1320    10.6400    12.6600    10.5430
 4314.5000    12.1520  2418.4519     2.9830     2.6460     0.1660     0.0030    58.3240   127.5460    66.9210  2432.9690   -55.6150    10.6400    12.5440    10.6570
 4315.0000    12.1590  2424.7019     3.0060     2.6390     0.1710     0.0020    59.7620   128.0710    68.4860  2432.9690   -55.0060    10.6400    12.6250    10.7380
 4315.5000    12.1630  2430.9519     3.0120     2.6240     0.1660     0.0010    61.3510   129.3260    70.6930  2432.9690   -55.1750    10.6400    12.6230    10.6650
 4316.0000    12.1750  2433.3140     2.9920     2.6120     0.1620     0.0000    62.7850   130.5320    72.8710  2432.9690   -55.4240    10.6400    12.5710    10.5990
 4316.5000    12.1880  2426.1721     2.9750     2.6170     0.1710    -0.0010    62.6260   131.7380    74.5170  2432.9690   -55.6530    10.6400    12.4500    10.5330
 4317.0000    12.2000  2419.0291     3.0240     2.6330     0.1830     0.0000    64.1320   132.9440    74.9330  2472.6909   -55.8990    10.5220    12.2630    10.4670
 4317.5000    12.2130  2416.5630     3.0720     2.6390     0.1880     0.0010    65.7900   134.1500    75.7190  2472.6909   -56.1310    10.1270    12.0940    10.1220
 4318.0000    12.2250  2418.6460     3.1190     2.6340     0.1890     0.0020    65.5200   135.3570    74.5420  2472.6909   -56.3740     9.7320    11.3440     9.6700
 4318.5000    12.2380  2420.7300     3.1510     2.6260     0.1950     0.0030    64.7540   136.5630    73.1150  2472.6909   -56.6090     9.5340    11.3440     9.5340
 4319.0000    12.2430  2422.8130     3.1320     2.6200     0.2000     0.0010    63.9620   137.7690    71.2630  2472.6909   -56.8060     9.5340    11.2480     9.5340
 4319.5000    12.2600  2424.8960     3.1130     2.6220     0.2040    -0.0010    64.1420   138.9000    70.5360  2472.6909   -56.1610     9.1610    10.9280     9.3220
 4320.0000    12.2770  2426.9800     3.1280     2.6230     0.2050    -0.0010    65.1030   139.9850    70.0520  2472.6909   -55.6140     8.7460    10.5920     8.5430
 4320.5000    12.2940  2429.0630     3.1580     2.6190     0.2050    -0.0010    66.1490   141.0710    70.9210  2472.6909   -55.0680     8.6230    10.5360     8.8000
 4321.0000    12.3100  2431.1460     3.1710     2.6160     0.2030    -0.0010    69.0200   142.1570    75.6630  2456.1399   -54.3980     8.9020    10.5120     9.1660
 4321.5000    12.3270  2433.2300     3.1810     2.6170     0.1990    -0.0010    68.0110   143.2420    77.3140  2432.9690   -54.7040     8.7940    10.4880     8.9900
 4322.0000    12.3440  2435.3879     3.1940     2.6210     0.1970     0.0000    66.9570   144.3150    78.4660  2452.8301   -55.0770     8.4650    10.4640     8.6220
 4322.5000    12.3610  2444.1531     3.2060     2.6130     0.1980     0.0020    65.8170   145.9750    78.5440  2472.6909   -55.4710     8.4650    10.3020     8.6220
