~VERSION INFORMATION
 VERS.                2.0:   CWLS LOG ASCII STANDARD - VERSION 2.0
 WRAP.                 NO:   ONE LINE PER DEPTH STEP
~WELL INFORMATION
#MNEM.UNIT      DATA TYPE    INFORMATION
#----------   ------------   ------------------------------
 STRT.F           60.0000:   START DEPTH
 STOP.F         5768.0000:   STOP DEPTH
 STEP.F            0.5000:   STEP LENGTH
 NULL.          -999.2500:   NO VALUE
 COMP.              RMOTC:   COMPANY
 WELL. RMOTC NPR-3 61 "X" #2-15:   WELL
 FLD .            N P R-3:   FIELD
 LOC .      S15 T38N R78W:   LOCATION
 CNTY.            NATRONA:   COUNTY
 STAT.            WYOMING:   STATE
 CTRY. UNITED STATES OF AMERICA:   COUNTRY
 SRVC.       SCHLUMBERGER:   SERVICE COMPANY
 DATE.        07-JAN-2002:   LOGDATE
 API .     49025230310000:   API NUMBER
~CURVE INFORMATION
#MNEM.UNIT       API CODE    CURVE DESCRIPTION
#----------   ------------   ------------------------------
 DEPT.F                  :   
 CALD.IN     45 280 60 00:   CALIPER FROM DENSITY LOG
 TEND.LBS    45 635 01 00:   TENSION FROM DENSITY LOG
 PEFZ.B/E    45 358 01 00:   HILT PHOTOELECTRIC FACTOR
 RHOZ.G/C3   45 350 01 00:   HILT BULK DENSITY
 NPOR.DEC    42 890 03 00:   ALPHA PROCESSED NEUTRON POROSITY
 HDRA.G/C3   45 356 01 00:   DELTA RHO HIP TOOL
 GRS .GAPI   60 310 01 00:   GAMMA RAY FROM SONIC LOG
 DTSM.US/F   61 523 00 00:   SHEAR-WAVE INTERVAL TRANSIT TIME DELTA-T
 GRR .GAPI   07 310 01 00:   GAMMA RAY FROM RESISTIVITY
 TENR.LBS    01 635 01 00:   TENSION FROM RES.
 SPR .MV     07 010 01 00:   SPONTANEOUS POTENTIAL
 HLLD.OHMM   11 220 10 00:   LATEROLOG DEEP RES.
 HLLS.OHMM   11 220 09 00:   LATEROLOG SHALLOW RES.
 HRLD.OHMM   11 220 10 00:   HIGH RESOLUTION DEEP RESISTIVITY
~PARAMETER INFORMATION
#MNEM.UNIT          VALUE    DESCRIPTION
#----------   ------------   ------------------------------
 EKB .F         5244.0000:   Kelly bushing
 EGL .F         5227.0000:   Ground level
 EDF .F         5243.0000:   Drilling floor
 EPD .F            0.0000:   Permanent datum
 TD  .F         5756.0000:   Total depth
 DATE.        07-JAN-2002:   Date logged
 CLNT.            A2DTECH:   Client Code
 SL  . 189' FNL & 1895' FEL:   Surface Location
 PD  .                 GL:   Permanent Datum
 DD  .F              5750:   Depth driller
 DL  .F              5756:   Depth logger
 BLI .F              5748:   Bottom log interval
 CS1 .IN             3054:   Casing size
 CBD1.     9.625" @ 3052':   Casing driller 1
 CBL1.F              3054:   Casing logger 1
 BS1 .IN            8.750:   Bit size
 DFT .             3% KCL:   Type fluid in hole
 DFD .                9.3:   Density
 DFV .                 42:   Viscosity
 DFPH.                  8:   pH
 DFL .                 28:   Fluid loss
 MSS .           FLOWLINE:   Source of sample
 RMS .OHMM          0.413:   Rm
 MST .F                74:   Rm Meas. temp.
 RMF .OHMM          0.305:   Rmf
 MFST.F                74:   Rmf Meas. temp.
 RMC .OHMM          0.637:   Rmc
 MCST.F                74:   Rmc Meas. temp.
 MFSS.               CALC:   Source Rmf.
 RMB .OHMM          0.187:   Rm. at BHT
 BHT .F               172:   BHT.
 TCS .HRS            0800:   Time Circ. stopped
 MRT .F               172:   Maximum recorded temp.
 LUN .               2211:   Logging unit number
 LUL .             CASPER:   Logging unit location
 ENGI.        J.L. FLORES:   Recorded By
 WITN.      MARK MILLIKEN:   Witnessed by
 ORIG.           5" PRINT:   Origin of data
 UWI .     49025230310000:   Unique Well ID
 DICO. A2D TECHNOLOGIES, INC.:   Digitizing Company
 DAPD.                 17:   Feet Above Permanent Datum
 BSD1.               5750:   Depth drilled with bit1
 MCSS.               CALC:   Source Rmc.
 LMF .                 KB:   Log Measured From
 DMF .                 KB:   Drilling Measured From
 TLI .               3054:   Top log interval
~OTHER INFORMATION
~A   DEPT     CALD       TEND       PEFZ       RHOZ       NPOR       HDRA        GRS       DTSM         GRR      TENR        SPR       HLLD       HLLS       HRLD   
# ...
 5719.5000     8.7550  3011.9280     2.7980     2.6380     0.1660     0.0360  -999.2500   105.7680    19.4860  2992.9929  -999.2500    71.3120    44.4520    67.3060
 5720.0000     8.7500  2973.7571     2.7640     2.6570     0.1710     0.0250  -999.2500   102.5850  -999.2500  2965.3540  -999.2500    98.5460    54.6990    75.3350
 5720.5000     8.7400  2933.8369     2.7670     2.6690     0.1810     0.0030  -999.2500    99.4010  -999.2500  2937.7141  -999.2500   126.3900    72.0360   119.3590
 5721.0000     8.7310  2912.5249     2.8210     2.6710     0.1740     0.0030  -999.2500    97.6140  -999.2500  2909.6331  -999.2500   154.2350    89.3730   156.6780
 5721.5000     8.7220  2907.0811     2.8740     2.6560     0.1680     0.0040  -999.2500    99.0850  -999.2500  2917.8469  -999.2500   188.0260    99.1210   179.6210
 5722.0000     8.7120  2937.7891     2.9130     2.6400     0.1800     0.0060  -999.2500   100.1520  -999.2500  2939.1689  -999.2500   147.1560    96.4380   140.6060
 5722.5000     8.7030  2968.4971     2.8870     2.6260     0.2220     0.0080  -999.2500   102.2020  -999.2500  2960.4910  -999.2500   103.7590    65.0790   101.0380
 5723.0000     8.6930  3011.9280     2.8580     2.6000     0.2540     0.0090  -999.2500   104.1610  -999.2500  2969.2151  -999.2500   120.1100    59.6190    83.3940
 5723.5000     8.6840  2993.0129     2.8280     2.5570     0.2560     0.0100  -999.2500   106.6550  -999.2500  2963.9590  -999.2500   119.7490    55.0290    79.6780
 5724.0000     8.6740  2971.6270     2.8130     2.5190  -999.2500     0.0140  -999.2500   109.7890  -999.2500  2957.3250  -999.2500   119.0170    51.1480    76.7260
 5724.5000     8.6650  2952.2859     2.8060     2.5150  -999.2500     0.0230  -999.2500   112.9230  -999.2500  2949.3550  -999.2500   105.6740    49.0120    70.2040
 5725.0000     8.6560  2967.1970     2.7790     2.5290  -999.2500     0.0300  -999.2500   113.2660  -999.2500  2949.3550  -999.2500    57.2920    36.1770    49.8060
 5725.5000     8.6610  2980.8059     2.7520     2.5250  -999.2500     0.0300  -999.2500   113.8580  -999.2500  2971.7351  -999.2500    37.9390    27.5460    37.5930
 5726.0000     8.6670  2994.4150     2.7320     2.5200  -999.2500     0.0180  -999.2500   111.9580  -999.2500  2990.3921  -999.2500    60.9750    41.3270    58.2620
 5726.5000     8.6730  3008.0249     2.7860     2.5460  -999.2500     0.0150  -999.2500   110.8120  -999.2500  3008.9370  -999.2500    71.1970    52.2530    74.6490
 5727.0000     8.6780  2989.1321     2.8580     2.5750  -999.2500     0.0230  -999.2500   110.8120  -999.2500  2974.5500  -999.2500    61.0430    47.2180    64.3770
 5727.5000     8.6840  2944.7759     2.9340     2.5950  -999.2500     0.0270  -999.2500   110.8120  -999.2500  2931.9050  -999.2500    62.7870    43.9180    61.6040
 5728.0000     8.6900  2900.4199     2.9250     2.5800  -999.2500     0.0180  -999.2500   110.8120  -999.2500  2889.7720  -999.2500    64.4870    43.1220    64.4870
 5728.5000     8.6960  2852.8831     2.8760     2.5670  -999.2500     0.0080  -999.2500   110.8120  -999.2500  2850.0500  -999.2500    64.2210    41.9540    64.1150
 5729.0000     8.7020  2871.4460     2.8270     2.5620  -999.2500     0.0050  -999.2500   110.8120  -999.2500  2900.4971  -999.2500    63.9000    40.4470    63.9000
 5729.5000     8.7070  2927.5840     2.7770     2.5700  -999.2500     0.0080  -999.2500   110.8120  -999.2500  2950.2480  -999.2500    51.4810    37.0770    47.6860
 5730.0000     8.7130  2983.7229     2.7620     2.5850  -999.2500     0.0110  -999.2500   110.8120  -999.2500  3000.0000  -999.2500    47.6860    34.9410    49.4630
 5730.5000     8.7170  3031.8091     2.7920     2.6250  -999.2500     0.0140  -999.2500  -999.2500  -999.2500  3028.7981  -999.2500    80.7460    46.1080    80.7720
 5731.0000     8.7240  2990.5010     2.8200     2.6360  -999.2500     0.0170  -999.2500  -999.2500  -999.2500  3048.6589  -999.2500    85.0160    53.2180    83.5950
 5731.5000     8.7310  2935.0559     2.8560     2.6330  -999.2500     0.0170  -999.2500  -999.2500  -999.2500  2969.8811  -999.2500    70.0200    52.0960    70.6630
 5732.0000     8.7380  2879.6111     2.8640     2.6240  -999.2500     0.0150  -999.2500  -999.2500  -999.2500  2905.4971  -999.2500    70.8110    51.0010    71.3120
 5732.5000     8.7450  2833.0020     2.8720     2.6140  -999.2500     0.0170  -999.2500  -999.2500  -999.2500  2830.1890  -999.2500    72.0740    49.9170    73.1280
 5733.0000     8.7520  2865.8960     2.8400     2.6170  -999.2500     0.0220  -999.2500  -999.2500  -999.2500  2840.3569  -999.2500    73.2960    50.8800    73.9700
 5733.5000     8.7590  2956.6240     2.8060     2.6270  -999.2500     0.0280  -999.2500  -999.2500  -999.2500  2910.0100  -999.2500    75.4650    56.3680    75.3350
 5734.0000     8.7660  3030.5879     2.6840     2.6390  -999.2500     0.0310  -999.2500  -999.2500  -999.2500  2979.6621  -999.2500  -999.2500    65.6770  -999.2500
 5734.5000     8.7730  3023.4590     2.4990     2.6220  -999.2500     0.0210  -999.2500  -999.2500  -999.2500  3049.3149  -999.2500  -999.2500  -999.2500  -999.2500
 5735.0000     8.7730  3016.3311     2.3140     2.5880  -999.2500     0.0110  -999.2500  -999.2500  -999.2500  3088.3811  -999.2500  -999.2500  -999.2500  -999.2500
 5735.5000     8.7620  2978.8469     2.1700     2.5610  -999.2500     0.0110  -999.2500  -999.2500  -999.2500  2964.2109  -999.2500  -999.2500  -999.2500  -999.2500
 5736.0000     8.7510  2892.3530     2.1410     2.5650  -999.2500     0.0130  -999.2500  -999.2500  -999.2500  2844.8059  -999.2500  -999.2500  -999.2500  -999.2500
 5736.5000     8.7390  2805.8579     2.1120     2.5660  -999.2500     0.0150  -999.2500  -999.2500  -999.2500  2730.8840  -999.2500  -999.2500  -999.2500  -999.2500
 5737.0000     8.7360  2753.4790     2.0850  -999.2500  -999.2500     0.0170  -999.2500  -999.2500  -999.2500  2800.2649  -999.2500  -999.2500  -999.2500  -999.2500
 5737.5000  -999.2500  2857.4709  -999.2500  -999.2500  -999.2500     0.0180  -999.2500  -999.2500  -999.2500  2866.6001  -999.2500  -999.2500  -999.2500  -999.2500
 5738.0000  -999.2500  2987.9800  -999.2500  -999.2500  -999.2500     0.0200  -999.2500  -999.2500  -999.2500  2932.9360  -999.2500  -999.2500  -999.2500  -999.2500
 5738.5000  -999.2500  3098.9700  -999.2500  -999.2500  -999.2500  -999.2500  -999.2500  -999.2500  -999.2500  2999.2720  -999.2500  -999.2500  -999.2500  -999.2500
 5739.0000  -999.2500  3135.2610  -999.2500  -999.2500  -999.2500  -999.2500  -999.2500  -999.2500  -999.2500  3048.6589  -999.2500  -999.2500  -999.2500  -999.2500
 5739.5000  -999.2500  3170.9741  -999.2500  -999.2500  -999.2500  -999.2500  -999.2500  -999.2500  -999.2500  3020.6550  -999.2500  -999.2500  -999.2500  -999.2500
 5740.0000  -999.2500  3113.1960  -999.2500  -999.2500  -999.2500  -999.2500  -999.2500  -999.2500  -999.2500  2978.0110  -999.2500  -999.2500  -999.2500  -999.2500
 5740.5000  -999.2500  3019.6321  -999.2500  -999.2500  -999.2500  -999.2500  -999.2500  -999.2500  -999.2500  2935.3669  -999.2500  -999.2500  -999.2500  -999.2500
 5741.0000  -999.2500  2926.0691  -999.2500  -999.2500  -999.2500  -999.2500  -999.2500  -999.2500  -999.2500  2892.7219  -999.2500  -999.2500  -999.2500  -999.2500
 5741.5000  -999.2500  2852.8831  -999.2500  -999.2500  -999.2500  -999.2500  -999.2500  -999.2500  -999.2500  2850.0500  -999.2500  -999.2500  -999.2500  -999.2500
 5742.0000  -999.2500  2912.2410  -999.2500  -999.2500  -999.2500  -999.2500  -999.2500  -999.2500  -999.2500  2884.9060  -999.2500  -999.2500  -999.2500  -999.2500
 5742.5000  -999.2500  2983.5271  -999.2500  -999.2500  -999.2500  -999.2500  -999.2500  -999.2500  -999.2500  2959.5330  -999.2500  -999.2500  -999.2500  -999.2500
 5743.0000  -999.2500  3051.6899  -999.2500  -999.2500  -999.2500  -999.2500  -999.2500  -999.2500  -999.2500  3028.7981  -999.2500  -999.2500  -999.2500  -999.2500
 5743.5000  -999.2500  3033.8770  -999.2500  -999.2500  -999.2500  -999.2500  -999.2500  -999.2500  -999.2500  3023.8511  -999.2500  -999.2500  -999.2500  -999.2500
