~VERSION INFORMATION
 VERS.                2.0:   CWLS LOG ASCII STANDARD - VERSION 2.0
 WRAP.                 NO:   ONE LINE PER DEPTH STEP
~WELL INFORMATION
#MNEM.UNIT      DATA TYPE    INFORMATION
#----------   ------------   ------------------------------
 STRT.F           13.0000:   START DEPTH
 STOP.F         2858.0000:   STOP DEPTH
 STEP.F            0.5000:   STEP LENGTH
 NULL.          -999.2500:   NO VALUE
 COMP.    FENIX & SCISSON:   COMPANY
 WELL. FENIX & SCISSON "AX" #16-21:   WELL
 FLD .  TEAPOT DOME NRP-3:   FIELD
 LOC .      S21 T39N R78W:   LOCATION
 CNTY.            NATRONA:   COUNTY
 STAT.            WYOMING:   STATE
 CTRY. UNITED STATES OF AMERICA:   COUNTRY
 SRVC.           BIRDWELL:   SERVICE COMPANY
 DATE.        17-JUL-1978:   LOGDATE
 API .     49025106590000:   API NUMBER
~CURVE INFORMATION
#MNEM.UNIT       API CODE    CURVE DESCRIPTION
#----------   ------------   ------------------------------
 DEPT.F                  :   
 GRD .GAPI   45 310 01 00:   GAMMA RAY FROM DENSITY LOG
 CALD.IN     45 280 60 00:   CALIPER FROM DENSITY LOG
 CORR.G/C3   45 356 01 00:   DENSITY CORRECTION
 RHOB.G/C3   45 350 01 00:   BULK DENSITY
 SPR .MV     05 010 01 00:   SPONTANEOUS POTENTIAL FROM RES.
 ILD .OHMM   05 120 46 00:   INDUCTION LOG DEEP
 SN  .OHMM   05 041 16 00:   SHORT NORMAL 16"
~PARAMETER INFORMATION
#MNEM.UNIT          VALUE    DESCRIPTION
#----------   ------------   ------------------------------
 EKB .F         5003.0000:   Kelly bushing
 EGL .F         4993.0000:   Ground level
 EDF .F            0.0000:   Drilling floor
 EPD .F         4993.0000:   Permanent datum
 TD  .F         2858.0000:   Total depth
 CLNT.            A2DTECH:   Client Code
 SL  . 1420' FSL & 200' FWL:   Surface Location
 DATE.        17-JUL-1978:   Date Logged [DD-MMM-YYYY]
 DD  .F              2855:   Depth driller
 DL  .F              2858:   Depth logger
 BLI .F              2858:   Bottom log interval
 TLI .F                20:   Top log interval
 CS1 .              8.625:   Casing size
 CBD1.      8.625" @ 200':   Casing driller 1
 CBL1.IN              228:   Casing logger 1
 BS1 .IN            7.875:   Bit size
 BSD1.F              2855:   Depth drilled with bit1
 DFT .            MUD GEL:   Type fluid in hole
 DFD .                9.9:   Density
 DFV .                 32:   Viscosity
 DFPH.               10.5:   pH
 DFL .                7.2:   Fluid loss
 MSS .           FLOWLINE:   Source of sample
 RMS .OHMM            1.3:   Rm
 MST .F                80:   Rm Meas. temp.
 RMF .OHMM           0.77:   Rmf
 MFST.F                74:   Rmf Meas. temp.
 MFSS.               MEAS:   Source Rmf.
 RMC .OHMM            1.5:   Rmc
 MCST.F                73:   Rmc Meas. temp.
 MCSS.               MEAS:   Source Rmc.
 TCS .HRS               1:   Time Circ. stopped
 MRT .F               118:   Maximum recorded temp.
 LUN .               2958:   Logging unit number
 LUL .               CASP:   Logging unit location
 ENGI.              HONEA:   Recorded By
 WITN.           MCGINLEY:   Witnessed by
 ORIG.        2" 5" PRINT:   Origin of data
 UWI .     49025106590000:   Unique Well ID
 DICO. A2D TECHNOLOGIES, INC.:   Digitizing Company
 PD  .                 GL:   Permanent Datum
 DAPD.                 10:   Feet Above Permanent Datum
~OTHER INFORMATION
~A   DEPT       GRD      CALD       CORR       RHOB        SPR        ILD         SN   
# ...
 1787.5000   113.9904     8.1166     0.0259     2.4671   -31.1202     8.7584    10.8906
 1788.0000   113.1091     8.1324     0.0171     2.4664   -31.2524     8.7643    10.8936
 1788.5000   104.2040     8.1331     0.0068     2.4860   -31.3847     8.7089    10.8965
 1789.0000   103.0255     8.1784     0.0053     2.4919   -31.5170     8.7163    10.8995
 1789.5000   104.6702     8.1940     0.0143     2.4793   -31.6492     8.7222    10.9025
 1790.0000   107.8007     8.1947     0.0203     2.4719   -31.9299     8.7281    10.8308
 1790.5000   105.8362     8.1955     0.0155     2.4790   -32.0621     8.7340    10.8338
 1791.0000   105.5923     8.2110     0.0086     2.4950   -32.1944     8.7400    10.8368
 1791.5000   107.8339     8.2118     0.0190     2.4936   -32.1742     8.7459    10.9151
 1792.0000   109.6271     8.1976     0.0161     2.4847   -32.1581     8.7518    10.9180
 1792.5000   110.5288     8.1984     0.0147     2.4899   -32.1420     8.7619    10.9210
 1793.0000   109.7961     8.1842     0.0088     2.5040   -32.1259     8.8242    11.0750
 1793.5000   108.1718     8.2000     0.0044     2.5018   -32.1098     8.8302    11.2313
 1794.0000   107.4391     8.1859     0.0060     2.4937   -32.0937     8.8970    11.3897
 1794.5000   108.6380     8.1866     0.0149     2.4729   -32.0776     8.9655    11.2366
 1795.0000   118.1578     8.1873     0.0164     2.4722   -32.0615     8.9716    11.2404
 1795.5000   118.7624     8.1730     0.0150     2.4774   -32.0454     8.9777    11.5567
 1796.0000   124.9447     8.1888     0.0106     2.4908   -32.0293     9.0456    11.5598
 1796.5000   129.2001     8.1745     0.0061     2.4863   -32.0132     9.0517    11.6426
 1797.0000   129.7911     8.1902     0.0048     2.4742   -31.9970     9.0578    11.5661
 1797.5000   129.8013     8.1910     0.0064     2.4791   -31.9807     9.1263    11.5692
 1798.0000   129.9601     8.1917     0.0109     2.4702   -32.1132     9.1325    11.4931
 1798.5000   132.6449     8.2073     0.0154     2.4620   -32.0964     9.1387    11.4963
 1799.0000   138.8958     8.1931     0.0169     2.4569   -32.2294     9.1449    11.6584
 1799.5000   138.1630     8.1940     0.0170     2.4532   -32.2093     9.0871    11.9864
 1800.0000   121.3827     8.1948     0.0185     2.4577   -32.1932     8.9710    12.0723
 1800.5000   119.0155     8.1955     0.0230     2.4629   -32.1771     8.9158    11.9926
 1801.0000   117.8370     8.1962     0.0246     2.4614   -32.3133     8.8594    11.8330
 1801.5000   117.4014     8.1970     0.0335     2.4615   -32.2932     8.7462    11.6740
 1802.0000   117.2630     8.1531     0.0321     2.4749   -32.2771     8.6921    11.5186
 1802.5000   117.2741     8.1093     0.0169     2.4779   -32.3008     8.9400    11.3645
 1803.0000   117.2462     8.0505    -0.0048     2.4699   -32.3372     9.0076    11.3676
 1803.5000   117.2163     8.0364     0.0071     2.4512   -32.3736     9.0137    11.3706
 1804.0000   117.7879     7.9822     0.0101     2.4385   -32.4100     9.0818    11.3737
 1804.5000   119.8828     8.0582     0.0057     2.4288   -32.4464     9.1516    11.3767
 1805.0000   109.4963     8.0595    -0.0001     2.4266   -32.4828     9.2208    12.2405
 1805.5000   104.0131     8.0608    -0.0001     2.4370   -32.5192     9.8140    13.5650
 1806.0000   103.2812     8.0621     0.0103     2.4504   -32.5571    11.3406    14.6813
 1806.5000   105.6769     8.0486     0.0356     2.4534   -32.5381    11.9878    15.4085
 1807.0000   103.1655     8.0351     0.0238     2.4192   -32.6676    12.1614    15.6259
 1807.5000    96.0479     8.0825     0.0061     2.4400   -32.6484    12.0845    15.5220
 1808.0000    95.4682     8.6618     0.0121     2.4661   -32.6297    12.0946    15.7420
 1808.5000    96.5702     8.2304     0.0195     2.4416   -32.7591    12.1028    15.8548
 1809.0000   101.6137     8.2013     0.0181     2.4356   -32.7354    12.1110    16.0784
 1809.5000   102.0714     8.1903     0.0152     2.4505   -32.7164    12.1191    15.8633
 1810.0000   106.9717     8.1919     0.0182     2.4572   -32.5491    12.1274    15.8676
 1810.5000   110.8497     8.2081     0.0183     2.4654   -32.5301    12.1471    15.9813
 1811.0000   118.5909     8.2243     0.0154     2.4684   -32.5112    12.2292    16.3184
 1811.5000   121.1315     8.2553     0.0110     2.4631   -32.4922    12.3216    16.3229
 1812.0000   125.9010     8.2715     0.0022     2.4519   -32.4733    12.4147    15.8847
 1812.5000   126.5100     8.2877     0.0007     2.4491   -32.1576    12.4230    15.4584
 1813.0000   126.3761     8.2741     0.0097     2.4536   -31.8419    12.3465    14.8394
 1813.5000   124.6076     8.3052     0.0246     2.4306   -31.3778    11.8571    14.6399
 1814.0000   114.6668     8.2913     0.0261     2.4135   -31.2105    11.2321    14.5436
 1814.5000   109.4809     8.2930     0.0247     2.4187   -31.1914    10.8611    14.5485
 1815.0000   102.8091     8.3092     0.0232     2.4514   -31.1721    10.6473    13.9649
 1815.5000   100.2977     8.2956     0.0168     2.4633   -31.1528    10.7277    13.4962
 1816.0000    99.5694     8.2994     0.0012     2.4678   -31.1299    10.8087    13.3157
 1816.5000    99.2867     8.2982     0.0027     2.4671   -31.1110    10.8160    13.3201
 1817.0000   108.6804     8.2847     0.0220     2.4574   -31.0920    10.8234    13.3237
 1817.5000   109.8663     8.2860     0.0147     2.4478   -31.0731    10.8308    13.4192
 1818.0000   108.7223     8.2874     0.0118     2.4396   -31.0541    10.7639    13.3309
 1818.5000    96.6745     8.2738     0.0118     2.4456   -31.0352    10.7729    13.3347
 1819.0000    92.5286     8.2752     0.0148     2.4649   -31.1693    10.7802    13.3390
 1819.5000    95.5150     8.2616     0.0238     2.4634   -31.4471    10.7875    13.4346
 1820.0000   114.1032     8.3078     0.0215     2.4575   -31.7249    10.7947    13.4382
 1820.5000   128.9767     8.3537     0.0200     2.4397   -31.7012    10.8020    13.4418
 1821.0000   126.6139     8.1619     0.0186     2.4568   -31.6822    10.8093    13.4454
 1821.5000   106.2720     8.0589     0.0142     2.4642   -31.5149    10.8166    13.5417
 1822.0000   105.5400     8.0453     0.0187     2.4672   -31.4955    10.8239    13.5454
 1822.5000   107.6349     8.0470     0.0187     2.4634   -31.4763    10.8311    13.5490
 1823.0000   102.8984     8.0037     0.0185     2.4572   -31.4533    10.8384    13.5527
 1823.5000    98.9011     8.0051     0.0129     2.4457   -31.4343    10.7716    13.4636
 1824.0000    94.3095     8.0064     0.0085     2.4495   -31.5637    10.6322    13.1925
 1824.5000    92.2437     8.0523     0.0055     2.4576   -31.5448    10.5667    13.0978
 1825.0000    86.7608     8.0685     0.0041     2.4510   -31.6742    10.5016    12.8420
 1825.5000    80.3861     8.1292     0.0056     2.4458   -31.6552    10.5105    12.8463
 1826.0000    87.2901     8.1603     0.0056     2.4525   -31.7894    10.5175    12.9383
 1826.5000    87.6969     8.1913     0.0057     2.4480   -31.9188    10.4510    13.0301
 1827.0000    89.3490     8.1926     0.0102     2.4384   -32.0482    10.2469    12.8558
 1827.5000    96.4959     8.2088     0.0191     2.4325   -32.1729    10.1143    12.8601
 1828.0000   104.0885     8.2101     0.0236     2.4384   -32.1539     9.9833    12.8636
 1828.5000   106.9263     8.2114     0.0236     2.4511   -31.9866     9.9201    12.8671
 1829.0000   107.0896     8.2276     0.0207     2.4630   -31.6706     9.8590    12.5218
 1829.5000   107.5500     8.2289     0.0148     2.4749   -31.5030     9.8673    12.1857
 1830.0000   110.0906     8.2303     0.0133     2.4779   -31.1832     9.8063    12.0227
 1830.5000   110.4024     8.2343     0.0164     2.4586   -31.0158     9.8131    11.9437
 1831.0000   105.6622     8.2329     0.0240     2.4474   -30.9969     9.7527    12.0293
 1831.5000   105.0789     8.2346     0.0297     2.4549   -30.9779     9.6264    12.1990
 1832.0000   101.2339     8.2207     0.0298     2.4675   -30.9590     9.6428    12.2871
 1832.5000    96.3451     8.2072     0.0298     2.4727   -30.9400     9.7741    12.5463
