~VERSION INFORMATION
 VERS.                2.0:   CWLS LOG ASCII STANDARD - VERSION 2.0
 WRAP.                 NO:   ONE LINE PER DEPTH STEP
~WELL INFORMATION
#MNEM.UNIT      DATA TYPE    INFORMATION
#----------   ------------   ------------------------------
 STRT.F            7.0000:   START DEPTH
 STOP.F         3304.0000:   STOP DEPTH
 STEP.F            0.5000:   STEP LENGTH
 NULL.          -999.2500:   NO VALUE
 COMP. LAWRENCE ALLISON ASSOC. WEST:   COMPANY
 WELL. LAWRENCE NPR  "X" #18-2:   WELL
 FLD .              N P R:   FIELD
 LOC .       S2 T38N R78W:   LOCATION
 CNTY.            NATRONA:   COUNTY
 STAT.            WYOMING:   STATE
 CTRY. UNITED STATES OF AMERICA:   COUNTRY
 SRVC.      DRESSER ATLAS:   SERVICE COMPANY
 DATE.        28-APR-1986:   LOGDATE
 API .     49025110710000:   API NUMBER
~CURVE INFORMATION
#MNEM.UNIT       API CODE    CURVE DESCRIPTION
#----------   ------------   ------------------------------
 DEPT.F                  :   
 TEND.LBS    45 635 01 00:   TENSION FROM DENSITY LOG
 DEN .G/C3   45 635 01 00:   DENSITY
 CORR.G/C3   45 356 01 00:   DENSITY CORRECTION
 CNC .DEC    42 890 03 00:   NEUTRON PORISITY SANDSTONE
 TENR.LBS    07 635 01 00:   TENSION FROM RESISTIVITY
 CALR.IN     07 280 01 00:   CALIPER FROM RESISTIVITY
 SPR .MV     07 010 01 00:   SPONTANEOUS POTENTIAL
 GRR .GAPI   07 310 01 00:   GAMMA RAY FROM RESISTIVITY
 RFOC.OHMM   07 220 04 00:   RESISTIVITY FOCUSED LOG RES.
 RILD.OHMM   07 120 46 00:   DEEP INDUCTION RESISTIVITY
 RILM.OHMM   07 120 44 00:   INDUCTION LOG MEDIUM RESISTIVITY
 TENS.LBS    60 635 01 00:   TENSION
 AC  .US/F   60 250 00 00:   ACCOUSTIC
~PARAMETER INFORMATION
#MNEM.UNIT          VALUE    DESCRIPTION
#----------   ------------   ------------------------------
 EKB .F         5142.0000:   Kelly bushing
 EGL .F         5130.0000:   Ground level
 EDF .F            0.0000:   Drilling floor
 EPD .F         5130.0000:   Permanent datum
 TD  .F         3296.0000:   Total depth
 DATE.        28-APR-1986:   Date logged
 CLNT.            A2DTECH:   Client Code
 SL  . 210' FSL & 204' FWL:   Surface Location
 PD  .                 GL:   Permanent Datum
 DD  .F              3295:   Depth driller
 DL  .F              3290:   Depth logger
 BLI .F              3296:   Bottom log interval
 CS1 .IN            8.625:   Casing size
 CBD1.      8.625" @ 563':   Casing driller 1
 CBL1.F               560:   Casing logger 1
 BS1 .IN            7.875:   Bit size
 BSD1.F              3295:   Depth drilled with bit1
 DFT .        POLYMER KCL:   Type fluid in hole
 DFD .                8.9:   Density
 DFV .                 38:   Viscosity
 DFPH.                8.5:   pH
 DFL .                9.2:   Fluid loss
 MSS .           FLOWLINE:   Source of sample
 RMS .OHMM           .435:   Rm
 MST .F                74:   Rm Meas. temp.
 RMF .OHMM            .33:   Rmf
 MFST.F                74:   Rmf Meas. temp.
 RMC .OHMM            .54:   Rmc
 MCST.F                74:   Rmc Meas. temp.
 MFSS.               CALC:   Source Rmf.
 MCSS.               CALC:   Source Rmc.
 RMB .OHMM            .77:   Rm. at BHT
 BHT .F               119:   BHT.
 TCS .HRS               4:   Time Circ. stopped
 MRT .F               119:   Maximum recorded temp.
 LUN .            HL 6264:   Logging unit number
 LUL .           GILLETTE:   Logging unit location
 ENGI.      P.M. FAHLSING:   Recorded By
 WITN.             STRONG:   Witnessed by
 ORIG.         2.5" PRINT:   Origin of data
 UWI .     49025110710000:   Unique Well ID
 DICO. A2D TECHNOLOGIES, INC.:   Digitizing Company
 DAPD.                 12:   Feet Above Permanent Datum
~OTHER INFORMATION
~A    DEPT    TEND        DEN       CORR        CNC       TENR       CALR        SPR         GRR      RFOC       RILD       RILM       TENS         AC   
# ...
  943.0000  -999.2500  -999.2500  -999.2500  -999.2500   -83.3330    10.6650   -30.6890    91.1210     8.1550     8.3300     8.1290  -999.2500  -999.2500
  943.5000  -999.2500  -999.2500  -999.2500  -999.2500   -83.3330    10.6650   -30.2560    90.0560     8.1660     8.3300     8.1370  -999.2500  -999.2500
  944.0000  -999.2500  -999.2500  -999.2500  -999.2500   -83.3330    10.6660   -29.7740    89.1390     8.1770     8.3300     8.1450  -999.2500  -999.2500
  944.5000  -999.2500  -999.2500  -999.2500  -999.2500   -83.3330    10.6750   -29.2990    87.9080     8.1800     8.3300     8.1530  -999.2500  -999.2500
  945.0000  -999.2500  -999.2500  -999.2500  -999.2500   -83.3330    10.6840   -29.8030    87.1660     8.1600     8.3300     8.1600  -999.2500  -999.2500
  945.5000  -999.2500  -999.2500  -999.2500  -999.2500   -83.3330    10.6930   -30.2680    85.4990     8.1380     8.3300     8.1690  -999.2500  -999.2500
  946.0000  -999.2500  -999.2500  -999.2500  -999.2500   -83.3330    10.7020   -30.7730    85.2920     8.1160     8.3300     8.1790  -999.2500  -999.2500
  946.5000  -999.2500  -999.2500  -999.2500  -999.2500   -83.3330    10.7110   -31.2930    84.5530     8.0950     8.3300     8.1610  -999.2500  -999.2500
  947.0000  -999.2500  -999.2500  -999.2500  -999.2500   -83.3330    10.7200   -31.6380    84.7910     8.0750     8.3300     8.1040  -999.2500  -999.2500
  947.5000  -999.2500  -999.2500  -999.2500  -999.2500   -83.3330    10.7290   -32.0080    86.0450     8.0500     8.3300     8.0470  -999.2500  -999.2500
  948.0000  -999.2500  -999.2500  -999.2500  -999.2500   -83.3330    10.7390   -32.0910    86.9420     8.0300     8.3300     7.9910  -999.2500  -999.2500
  948.5000  -999.2500  -999.2500  -999.2500  -999.2500   -82.2100    10.7450   -32.0960    86.4090     7.9200     8.3300     7.9360  -999.2500  -999.2500
  949.0000  -999.2500  -999.2500  -999.2500  -999.2500   -79.3040    10.7440   -32.0820    85.6460     7.8230     8.3300     7.8910  -999.2500  -999.2500
  949.5000  -999.2500  -999.2500  -999.2500  -999.2500   -76.3970    10.7440   -32.0890    85.3770     7.7260     8.3300     8.0720  -999.2500  -999.2500
  950.0000  -999.2500  -999.2500  -999.2500  -999.2500   -73.4910    10.7440   -32.0890    85.3830     7.6110     8.3300     8.3020  -999.2500  -999.2500
  950.5000  -999.2500  -999.2500  -999.2500  -999.2500   -70.5840    10.7440   -32.0910    83.1070     7.9540     8.7480     8.5310  -999.2500  -999.2500
  951.0000  -999.2500  -999.2500  -999.2500  -999.2500   -67.6770    10.7440   -32.0700    79.9370     8.3810     9.0960     8.7600  -999.2500  -999.2500
  951.5000  -999.2500  -999.2500  -999.2500  -999.2500   -64.7710    10.7440   -32.1260    78.0690     8.7940     9.4450     8.9900  -999.2500  -999.2500
  952.0000  -999.2500  -999.2500  -999.2500  -999.2500   -66.1690    10.7440   -31.7760    79.6070     9.2250     9.7930     9.2190  -999.2500  -999.2500
  952.5000  -999.2500  -999.2500  -999.2500  -999.2500   -69.9850    10.7450   -31.6010    82.0690     9.4520    10.1420     9.4480  -999.2500  -999.2500
  953.0000  -999.2500  -999.2500  -999.2500  -999.2500   -73.8010    10.7580   -31.3520    84.4400     9.8000    10.5340     9.6780  -999.2500  -999.2500
  953.5000  -999.2500  -999.2500  -999.2500  -999.2500   -77.6170    10.7700   -31.1400    86.8670     9.8000    10.5340     9.9070  -999.2500  -999.2500
  954.0000  -999.2500  -999.2500  -999.2500  -999.2500   -81.4330    10.7830   -30.9080    88.5280     9.7040    10.5340    10.1600  -999.2500  -999.2500
  954.5000  -999.2500  -999.2500  -999.2500  -999.2500   -82.0230    10.7960   -30.6690    89.1410     9.3380    10.5340    10.1600  -999.2500  -999.2500
  955.0000  -999.2500  -999.2500  -999.2500  -999.2500   -79.4120    10.8090   -30.4250    90.5230     9.4690    10.5340    10.1600  -999.2500  -999.2500
  955.5000  -999.2500  -999.2500  -999.2500  -999.2500   -76.8010    10.8210   -30.1610    91.7960     9.7310    10.5340    10.1600  -999.2500  -999.2500
  956.0000  -999.2500  -999.2500  -999.2500  -999.2500   -74.1900    10.8340   -30.6460    90.7160     9.8000    10.5340    10.1600  -999.2500  -999.2500
  956.5000  -999.2500  -999.2500  -999.2500  -999.2500   -71.5790    10.8470   -31.0970    89.1090     9.8000    10.5600    10.1600  -999.2500  -999.2500
  957.0000  -999.2500  -999.2500  -999.2500  -999.2500   -68.9680    10.8600   -31.5860    88.6880     9.8000    10.6060    10.1600  -999.2500  -999.2500
  957.5000  -999.2500  -999.2500  -999.2500  -999.2500   -66.3570    10.8730   -32.0580    91.7000     9.8000    10.6530    10.1600  -999.2500  -999.2500
  958.0000  -999.2500  -999.2500  -999.2500  -999.2500   -63.7250    10.8850   -32.5320    90.7030     9.8000    10.7000    10.1600  -999.2500  -999.2500
  958.5000  -999.2500  -999.2500  -999.2500  -999.2500   -71.9280    10.8980   -33.0040    87.8390     9.8000    10.7460    10.1600  -999.2500  -999.2500
  959.0000  -999.2500  -999.2500  -999.2500  -999.2500   -80.1960    10.9080   -33.4910    84.6890     9.8820    10.7930    10.1600  -999.2500  -999.2500
  959.5000  -999.2500  -999.2500  -999.2500  -999.2500   -88.4640    10.9150   -33.9440    83.8970     9.9830    10.8400    10.1600  -999.2500  -999.2500
  960.0000  -999.2500  -999.2500  -999.2500  -999.2500   -96.7320    10.9230   -34.4280    85.0110    10.0840    10.9100    10.1600  -999.2500  -999.2500
  960.5000  -999.2500  -999.2500  -999.2500  -999.2500  -100.8820    10.9310   -34.4510    85.9770    10.1370    10.8840    10.1600  -999.2500  -999.2500
  961.0000  -999.2500  -999.2500  -999.2500  -999.2500   -92.6140    10.9390   -34.3780    86.2360    10.0410    10.7350    10.1620  -999.2500  -999.2500
  961.5000  -999.2500  -999.2500  -999.2500  -999.2500   -84.3460    10.9470   -33.9810    86.2130     9.9460    10.5850    10.0910  -999.2500  -999.2500
  962.0000  -999.2500  -999.2500  -999.2500  -999.2500   -76.0780    10.9550   -33.6370    86.0740     9.8500    10.4360     9.9830  -999.2500  -999.2500
  962.5000  -999.2500  -999.2500  -999.2500  -999.2500   -67.8100    10.9630   -33.2720    85.4470     9.7550    10.2860     9.8740  -999.2500  -999.2500
  963.0000  -999.2500  -999.2500  -999.2500  -999.2500   -63.7250    10.9710   -32.9030    85.3200     9.6600    10.1370     9.7660  -999.2500  -999.2500
  963.5000  -999.2500  -999.2500  -999.2500  -999.2500   -63.7250    10.9810   -32.5500    83.4370     9.5640     9.9870     9.6580  -999.2500  -999.2500
  964.0000  -999.2500  -999.2500  -999.2500  -999.2500   -63.7250    10.9680   -32.1800    81.3880     9.4690     9.8370     9.5500  -999.2500  -999.2500
  964.5000  -999.2500  -999.2500  -999.2500  -999.2500   -63.7250    10.9370   -31.8310    81.3150     9.3740     9.6880     9.4420  -999.2500  -999.2500
  965.0000  -999.2500  -999.2500  -999.2500  -999.2500   -63.7250    10.9070   -31.4560    83.6420     9.2780     9.5380     9.3350  -999.2500  -999.2500
  965.5000  -999.2500  -999.2500  -999.2500  -999.2500   -67.3730    10.8760   -31.0870    86.1650     9.1830     9.3890     9.2270  -999.2500  -999.2500
  966.0000  -999.2500  -999.2500  -999.2500  -999.2500   -77.2940    10.8450   -30.9570    88.4540     9.0870     9.2390     9.1190  -999.2500  -999.2500
  966.5000  -999.2500  -999.2500  -999.2500  -999.2500   -87.2160    10.8250   -31.3470    88.6070     8.9920     9.0900     9.0110  -999.2500  -999.2500
  967.0000  -999.2500  -999.2500  -999.2500  -999.2500   -97.1370    10.8320   -31.3070    88.4810     8.9130     8.9400     8.9040  -999.2500  -999.2500
  967.5000  -999.2500  -999.2500  -999.2500  -999.2500   -97.0590    10.8380   -31.7200    89.9690     8.7160     8.7940     8.7960  -999.2500  -999.2500
  968.0000  -999.2500  -999.2500  -999.2500  -999.2500   -82.8850    10.8450   -32.0960    92.6420     8.5190     8.7940     8.6880  -999.2500  -999.2500
  968.5000  -999.2500  -999.2500  -999.2500  -999.2500   -68.7110    10.8520   -32.4840    93.3390     8.3300     8.7940     8.5810  -999.2500  -999.2500
