~VERSION INFORMATION
 VERS.                2.0:   CWLS LOG ASCII STANDARD - VERSION 2.0
 WRAP.                 NO:   ONE LINE PER DEPTH STEP
~WELL INFORMATION
#MNEM.UNIT      DATA TYPE    INFORMATION
#----------   ------------   ------------------------------
 STRT.F           36.0000:   START DEPTH
 STOP.F         3014.5000:   STOP DEPTH
 STEP.F            0.5000:   STEP LENGTH
 NULL.          -999.2500:   NO VALUE
 COMP.    TESRO PETROLEUM:   COMPANY
 WELL. TESORO N.P.R. "A" #6-21:   WELL
 FLD .             TEAPOT:   FIELD
 LOC .      S21 T39N R78W:   LOCATION
 CNTY.            NATRONA:   COUNTY
 STAT.            WYOMING:   STATE
 CTRY. UNITED STATES OF AMERICA:   COUNTRY
 SRVC.              WELEX:   SERVICE COMPANY
 DATE.        16-JUL-1968:   LOGDATE
 API .     49025100180000:   API NUMBER
~CURVE INFORMATION
#MNEM.UNIT       API CODE    CURVE DESCRIPTION
#----------   ------------   ------------------------------
 DEPT.F                  :   
 SPR .MV     05 010 01 00:   SPONTANEOUS POTENTIAL FROM RES.
 ASN .OHMM   05 041 18 00:   AMPLIFIED SHORT NORMAL 18"
 IL  .OHMM   05 120 00 00:   INDUCTION LOG
 GRD .GAPI   45 310 01 00:   GAMMA RAY FROM DENSITY LOG
 CALD.IN     45 280 60 00:   CALIPER FROM DENSITY LOG
 GDEN.CPS    45 350 30 00:   GAMMA DENS
~PARAMETER INFORMATION
#MNEM.UNIT          VALUE    DESCRIPTION
#----------   ------------   ------------------------------
 EKB .F         5002.0000:   Kelly bushing
 EGL .F         4991.0000:   Ground level
 EDF .F         5001.0000:   Drilling floor
 TD  .F         3025.0000:   Total depth
 DATE.        16-JUL-1968:   Date logged
 CLNT.            A2DTECH:   Client Code
 PD  .                 GL:   Permanent Datum
 EPD .F              4991:   Elevation Permanent Datum
 LMF .                 KB:   Log Measured From
 DMF .                 KB:   Drilling Measured From
 DD  .F              3025:   Depth driller
 DL  .F              3019:   Depth logger
 BLI .F              3014:   Bottom log interval
 TLI .F              2670:   Top log interval
 CS1 .IN            10.75:   Casing size
 CBD1.      10.75" @ 325':   Casing driller 1
 CBL1.F               325:   Casing logger 1
 BS1 .IN                9:   Bit size
 BSD1.F              3025:   Depth drilled with bit1
 DFT .     WATER BASE MUD:   Type fluid in hole
 DFD .                9.7:   Density
 DFV .                 60:   Viscosity
 DFL .                6.4:   Fluid loss
 MSS .              CIRC.:   Source of sample
 RMS .OHMM            2.2:   Rm
 MST .F                84:   Rm Meas. temp.
 RMF .OHMM            1.6:   Rmf
 MFST.F                70:   Rmf Meas. temp.
 RMC .OHMM            3.3:   Rmc
 MCST.F                68:   Rmc Meas. temp.
 MFSS.               MEAS:   Source Rmf.
 RMB .OHMM           1.55:   Rm. at BHT
 BHT .F               120:   BHT.
 MRT .F               120:   Maximum recorded temp.
 LUN .               6869:   Logging unit number
 LUL .                 NC:   Logging unit location
 ENGI.          H. STEITZ:   Recorded By
 WITN.                MAY:   Witnessed by
 ORIG.           5" PRINT:   Origin of data
 UWI .     49025100180000:   Unique Well ID
 DICO. A2D TECHNOLOGIES, INC.:   Digitizing Company
~OTHER INFORMATION
~A   DEPT      SPR        ASN           IL      GRD       CALD       GDEN   
# ...
 1076.0000   -34.7960     9.0990     8.0390  -999.2500  -999.2500  -999.2500
 1076.5000   -34.3270     9.0110     8.1120  -999.2500  -999.2500  -999.2500
 1077.0000   -33.8600     9.0140     8.0040  -999.2500  -999.2500  -999.2500
 1077.5000   -33.4670     9.0160     7.8760  -999.2500  -999.2500  -999.2500
 1078.0000   -33.9770     8.9020     7.7460  -999.2500  -999.2500  -999.2500
 1078.5000   -34.4940     8.7420     7.6160  -999.2500  -999.2500  -999.2500
 1079.0000   -34.5350     8.7470     7.4860  -999.2500  -999.2500  -999.2500
 1079.5000   -34.4360     8.7150     7.3560  -999.2500  -999.2500  -999.2500
 1080.0000   -34.5060     8.5800     7.2280  -999.2500  -999.2500  -999.2500
 1080.5000   -34.6150     8.6950     7.1180  -999.2500  -999.2500  -999.2500
 1081.0000   -34.7230     8.5570     7.1420  -999.2500  -999.2500  -999.2500
 1081.5000   -34.7230     8.5110     7.1960  -999.2500  -999.2500  -999.2500
 1082.0000   -34.2700     8.5460     7.2500  -999.2500  -999.2500  -999.2500
 1082.5000   -34.1010     8.5820     7.3030  -999.2500  -999.2500  -999.2500
 1083.0000   -34.4460     8.6180     7.3570  -999.2500  -999.2500  -999.2500
 1083.5000   -34.6490     8.6260     7.4100  -999.2500  -999.2500  -999.2500
 1084.0000   -34.7160     8.6070     7.4640  -999.2500  -999.2500  -999.2500
 1084.5000   -34.7850     8.5870     7.5160  -999.2500  -999.2500  -999.2500
 1085.0000   -34.6550     8.5560     7.4580  -999.2500  -999.2500  -999.2500
 1085.5000   -34.3680     8.4910     7.3930  -999.2500  -999.2500  -999.2500
 1086.0000   -34.0820     8.4440     7.3270  -999.2500  -999.2500  -999.2500
 1086.5000   -33.7960     8.6490     7.2620  -999.2500  -999.2500  -999.2500
 1087.0000   -33.6690     8.5570     7.1960  -999.2500  -999.2500  -999.2500
 1087.5000   -33.8740     8.3580     7.1300  -999.2500  -999.2500  -999.2500
 1088.0000   -34.0760     8.4450     7.1540  -999.2500  -999.2500  -999.2500
 1088.5000   -34.2770     8.3810     7.1910  -999.2500  -999.2500  -999.2500
 1089.0000   -34.4780     8.3450     7.2290  -999.2500  -999.2500  -999.2500
 1089.5000   -34.6780     8.5170     7.2660  -999.2500  -999.2500  -999.2500
 1090.0000   -34.8170     8.6860     7.3040  -999.2500  -999.2500  -999.2500
 1090.5000   -34.8160     8.6450     7.3210  -999.2500  -999.2500  -999.2500
 1091.0000   -34.7350     8.5860     7.3070  -999.2500  -999.2500  -999.2500
 1091.5000   -34.6350     8.5260     7.2890  -999.2500  -999.2500  -999.2500
 1092.0000   -34.5330     8.4660     7.2710  -999.2500  -999.2500  -999.2500
 1092.5000   -34.4300     8.4050     7.2530  -999.2500  -999.2500  -999.2500
 1093.0000   -34.5400     8.3410     7.2340  -999.2500  -999.2500  -999.2500
 1093.5000   -34.6820     8.3170     7.2160  -999.2500  -999.2500  -999.2500
 1094.0000   -34.8270     8.3610     7.1980  -999.2500  -999.2500  -999.2500
 1094.5000   -34.9790     8.4250     7.1800  -999.2500  -999.2500  -999.2500
 1095.0000   -34.8080     8.4900     7.1620  -999.2500  -999.2500  -999.2500
 1095.5000   -34.5290     8.5560     7.1430  -999.2500  -999.2500  -999.2500
 1096.0000   -34.2480     8.6220     7.1220  -999.2500  -999.2500  -999.2500
 1096.5000   -33.9640     8.6250     7.2190  -999.2500  -999.2500  -999.2500
 1097.0000   -33.6770     8.6150     7.3450  -999.2500  -999.2500  -999.2500
 1097.5000   -33.7930     8.6200     7.4730  -999.2500  -999.2500  -999.2500
 1098.0000   -33.9900     8.7310     7.5200  -999.2500  -999.2500  -999.2500
 1098.5000   -34.1910     8.7350     7.4850  -999.2500  -999.2500  -999.2500
 1099.0000   -34.3930     8.6930     7.4030  -999.2500  -999.2500  -999.2500
 1099.5000   -34.5950     8.5970     7.3220  -999.2500  -999.2500  -999.2500
 1100.0000   -34.7990     8.5010     7.2410  -999.2500  -999.2500  -999.2500
 1100.5000   -34.6190     8.4190     7.1590  -999.2500  -999.2500  -999.2500
 1101.0000   -34.4060     8.4230     7.1350  -999.2500  -999.2500  -999.2500
 1101.5000   -34.2280     8.4360     7.1610  -999.2500  -999.2500  -999.2500
 1102.0000   -34.3210     8.4500     7.1870  -999.2500  -999.2500  -999.2500
 1102.5000   -34.4110     8.4630     7.2120  -999.2500  -999.2500  -999.2500
 1103.0000   -34.5010     8.4770     7.2380  -999.2500  -999.2500  -999.2500
 1103.5000   -34.5900     8.5190     7.2640  -999.2500  -999.2500  -999.2500
 1104.0000   -34.6790     8.5610     7.2900  -999.2500  -999.2500  -999.2500
 1104.5000   -34.7680     8.6030     7.3160  -999.2500  -999.2500  -999.2500
 1105.0000   -34.7990     8.6450     7.3410  -999.2500  -999.2500  -999.2500
 1105.5000   -34.5380     8.6760     7.3670  -999.2500  -999.2500  -999.2500
 1106.0000   -34.2860     8.6750     7.3940  -999.2500  -999.2500  -999.2500
 1106.5000   -34.0370     8.6700     7.4210  -999.2500  -999.2500  -999.2500
 1107.0000   -33.8440     8.6420     7.3540  -999.2500  -999.2500  -999.2500
 1107.5000   -34.0030     8.5460     7.2660  -999.2500  -999.2500  -999.2500
 1108.0000   -34.1570     8.4500     7.1770  -999.2500  -999.2500  -999.2500
 1108.5000   -34.3100     8.3530     7.0890  -999.2500  -999.2500  -999.2500
 1109.0000   -34.4640     8.3080     7.0000  -999.2500  -999.2500  -999.2500
 1109.5000   -34.6180     8.2850     6.9110  -999.2500  -999.2500  -999.2500
 1110.0000   -34.7780     8.2620     6.8220  -999.2500  -999.2500  -999.2500
 1110.5000   -34.6410     8.2400     6.7340  -999.2500  -999.2500  -999.2500
 1111.0000   -34.4030     8.2380     6.7270  -999.2500  -999.2500  -999.2500
 1111.5000   -34.1640     8.2160     6.7990  -999.2500  -999.2500  -999.2500
 1112.0000   -33.9160     8.2490     6.8690  -999.2500  -999.2500  -999.2500
 1112.5000   -34.4340     8.2840     6.9390  -999.2500  -999.2500  -999.2500
 1113.0000   -34.8140     8.3200     7.0090  -999.2500  -999.2500  -999.2500
 1113.5000   -34.8130     8.3550     7.0790  -999.2500  -999.2500  -999.2500
 1114.0000   -34.8140     8.4010     7.1490  -999.2500  -999.2500  -999.2500
 1114.5000   -34.7160     8.4660     7.2190  -999.2500  -999.2500  -999.2500
 1115.0000   -34.5050     8.5300     7.2890  -999.2500  -999.2500  -999.2500
 1115.5000   -34.2950     8.5950     7.3590  -999.2500  -999.2500  -999.2500
 1116.0000   -34.0840     8.6590     7.4300  -999.2500  -999.2500  -999.2500
 1116.5000   -33.8730     8.7240     7.5020  -999.2500  -999.2500  -999.2500
 1117.0000   -33.7680     8.7560     7.4980  -999.2500  -999.2500  -999.2500
 1117.5000   -33.6930     8.7320     7.4690  -999.2500  -999.2500  -999.2500
 1118.0000   -33.6860     8.7000     7.4390  -999.2500  -999.2500  -999.2500
 1118.5000   -33.9880     8.6680     7.4100  -999.2500  -999.2500  -999.2500
 1119.0000   -34.2870     8.6370     7.3800  -999.2500  -999.2500  -999.2500
 1119.5000   -34.5970     8.6300     7.3500  -999.2500  -999.2500  -999.2500
 1120.0000   -34.5470     8.6230     7.3200  -999.2500  -999.2500  -999.2500
 1120.5000   -34.4700     8.6160     7.2900  -999.2500  -999.2500  -999.2500
 1121.0000   -34.3920     8.5920     7.2600  -999.2500  -999.2500  -999.2500
 1121.5000   -34.3140     8.5550     7.2280  -999.2500  -999.2500  -999.2500
 1122.0000   -34.2350     8.5360     7.2650  -999.2500  -999.2500  -999.2500
 1122.5000   -34.2880     8.5560     7.3280  -999.2500  -999.2500  -999.2500
 1123.0000   -34.3990     8.6430     7.3910  -999.2500  -999.2500  -999.2500
 1123.5000   -34.5110     8.7240     7.4540  -999.2500  -999.2500  -999.2500
 1124.0000   -34.6090     8.8040     7.5180  -999.2500  -999.2500  -999.2500
 1124.5000   -34.5200     8.8840     7.5810  -999.2500  -999.2500  -999.2500
 1125.0000   -34.4210     8.9640     7.6440  -999.2500  -999.2500  -999.2500
 1125.5000   -34.1830     9.0460     7.7080  -999.2500  -999.2500  -999.2500
 1126.0000   -33.9220     9.0890     7.7700  -999.2500  -999.2500  -999.2500
 1126.5000   -33.6610     9.0320     7.8020  -999.2500  -999.2500  -999.2500
 1127.0000   -33.3990     8.8900     7.7170  -999.2500  -999.2500  -999.2500
 1127.5000   -33.1320     8.7450     7.6340  -999.2500  -999.2500  -999.2500
