~VERSION INFORMATION
 VERS.                2.0:   CWLS LOG ASCII STANDARD - VERSION 2.0
 WRAP.                 NO:   ONE LINE PER DEPTH STEP
~WELL INFORMATION
#MNEM.UNIT      DATA TYPE    INFORMATION
#----------   ------------   ------------------------------
 STRT.F          196.5000:   START DEPTH
 STOP.F         3202.0000:   STOP DEPTH
 STEP.F            0.5000:   STEP LENGTH
 NULL.          -999.2500:   NO VALUE
 COMP.    FENIX & SCISSON:   COMPANY
 WELL.   FENIX "AX" #26-3:   WELL
 FLD .              NPR-3:   FIELD
 LOC .       S3 T38N R78W:   LOCATION
 CNTY.            NATRONA:   COUNTY
 STAT.            WYOMING:   STATE
 CTRY. UNITED STATES OF AMERICA:   COUNTRY
 SRVC.              WELEX:   SERVICE COMPANY
 DATE.        19-JUN-1977:   LOGDATE
 API .     49025103800000:   API NUMBER
~CURVE INFORMATION
#MNEM.UNIT       API CODE    CURVE DESCRIPTION
#----------   ------------   ------------------------------
 DEPT.F                  :   
 CALD.IN     45 280 60 00:   CALIPER FROM DENSITY LOG
 GRD .GAPI   45 310 01 00:   GAMMA RAY FROM DENSITY LOG
 RHOB.G/C3   45 350 01 00:   BULK DENSITY
 CORR.G/C3   45 356 01 00:   DENSITY CORRECTION
 SPR .MV     07 010 01 00:   SPONTANEOUS POTENTIAL
 ILD .OHMM   07 120 46 00:   DEEP INDUCTION RESISTIVITY
 ILM .OHMM   07 120 44 00:   INDUCTION LOG MEDIUM RESISTIVITY
 SGRD.OHMM   07 220 05 00:   SHALLOW SHORT GUARD RESISTIVITY
~PARAMETER INFORMATION
#MNEM.UNIT          VALUE    DESCRIPTION
#----------   ------------   ------------------------------
 EKB .F         5231.0000:   Kelly bushing
 EGL .F         5221.0000:   Ground level
 EDF .F            0.0000:   Drilling floor
 TD  .F         3204.0000:   Total depth
 CLNT.            A2DTECH:   Client Code
 SL  . 1320' FSL & 740' FWL:   Surface Location
 PD  .                 GL:   Permanent Datum
 EPD .F              5221:   Elevation Permanent Datum
 LMF .                 KB:   Log Measured From
 DMF .                 KB:   Drilling Measured From
 DAPD.F                10:   Feet Above Permanent Datum
 DATE.        19-JUN-1977:   Date Logged [DD-MMM-YYYY]
 DD  .F              3200:   Depth driller
 DL  .F              3204:   Depth logger
 BLI .F              3202:   Bottom log interval
 TLI .F               220:   Top log interval
 CS1 .IN            8.625:   Casing size
 CBD1.      8.625" @ 220':   Casing driller 1
 CBL1.F               220:   Casing logger 1
 BS1 .IN            7.875:   Bit size
 BSD1.F              3200:   Depth drilled with bit1
 DFT .                KCL:   Type fluid in hole
 DFD .                9.1:   Density
 RMS .OHMM           1.19:   Rm
 MST .F                65:   Rm Meas. temp.
 TCS .HRS               4:   Time Circ. stopped
 MRT .F               115:   Maximum recorded temp.
 LUN .               8766:   Logging unit number
 ENGI.          T. JOYNER:   Recorded By
 WITN.         PETTINGILL:   Witnessed by
 ORIG.           5" PRINT:   Origin of data
 UWI .     49025103800000:   Unique Well ID
 DICO. A2D TECHNOLOGIES, INC.:   Digitizing Company
 DFPH.                7.5:   pH
 DFL .                4.2:   Fluid loss
 MSS .            MUD PIT:   Source of sample
 RMF .OHMM           1.19:   Rmf
 MFST.F                65:   Rmf Meas. temp.
 MFSS.               MEAS:   Source Rmf.
 RMC .OHMM           2.01:   Rmc
 MCST.F                65:   Rmc Meas. temp.
 MCSS.               MEAS:   Source Rmc.
 RMB .OHMM            .67:   Rm. at BHT
 BHT .F               115:   BHT.
~OTHER INFORMATION
~A   DEPT     CALD         GRD      RHOB       CORR        SPR        ILD        ILM       SGRD   
# ...
  439.5000     9.5376    42.4886     2.3086     0.0125   -15.8121    14.6827    14.6552    14.4146
  440.0000     9.5990    47.5982     2.3088     0.0127   -16.0949    14.6926    14.4421    14.4263
  440.5000     9.4668    39.9108     2.3090     0.0128   -16.2297    14.6047    14.1782    14.3359
  441.0000     9.5288    45.6975     2.3092     0.0129   -16.3646    14.6161    14.0873    14.3476
  441.5000     9.5903    45.0966     2.3079     0.0123   -16.6474    14.6246    14.0977    14.2628
  442.0000     9.4883    41.5748     2.3073     0.0124   -16.7790    14.5356    14.1069    14.2752
  442.5000     9.5062    46.3876     2.3075     0.0126   -16.9171    14.4494    14.1162    14.1886
  443.0000     9.5519    47.0201     2.3070     0.0127   -17.1966    14.3620    14.1261    14.1024
  443.5000     9.5241    42.9308     2.3049     0.0121   -17.3347    14.3004    14.1347    13.9208
  444.0000     9.5112    44.4665     2.3022     0.0122   -17.6142    14.2850    14.1451    13.8341
  444.5000     9.5138    46.2990     2.3016     0.0109   -17.9003    14.1013    14.1534    13.7526
  445.0000     9.5158    43.9771     2.3026     0.0110   -18.3277    14.1123    14.1626    13.6692
  445.5000     9.5178    45.2285     2.3043     0.0111   -18.4630    13.8373    14.0694    13.5755
  446.0000     9.5199    46.4570     2.3052     0.0113   -18.7453    13.7504    13.9863    13.4113
  446.5000     9.5219    46.8168     2.3054     0.0114   -19.0281    13.5756    13.9961    13.4249
  447.0000     9.5239    47.1656     2.3056     0.0115   -19.1630    13.3978    13.9085    13.3408
  447.5000     9.5260    45.9727     2.3096     0.0117   -19.4457    13.2275    13.8617    13.2627
  448.0000     9.5131    45.4369     2.3151     0.0118   -19.7252    13.0542    13.7348    13.2735
  448.5000     9.5156    45.5112     2.3214     0.0120   -19.7122    12.9781    13.6490    13.2843
  449.0000     9.5177    45.8682     2.3267     0.0121   -19.9982    12.8975    13.5638    13.1104
  449.5000     9.5345    46.2253     2.3307     0.0122   -20.1331    12.9078    13.4791    13.0884
  450.0000     9.5366    46.2847     2.3339     0.0123   -20.1183    12.8289    13.4892    13.0026
  450.5000     9.5232    46.6418     2.3363     0.0125   -20.2516    12.7525    13.3113    12.7876
  451.0000     9.5258    46.7012     2.3350     0.0111   -20.2385    12.7191    13.3220    12.7134
  451.5000     9.5278    46.4630     2.3344     0.0105   -20.2792    12.5969    13.3306    12.6306
  452.0000     9.5150    48.9325     2.3339     0.0099   -20.5114    12.5174    13.4317    12.4624
  452.5000     9.5175    47.4896     2.3318     0.0100   -20.6435    12.4445    13.5336    12.3094
  453.0000     9.5042    46.0609     2.3290     0.0101   -21.0737    12.4189    13.6364    12.1507
  453.5000     9.4913    46.1203     2.3323     0.0102   -21.2088    12.2930    13.7399    11.9966
  454.0000     9.4939    46.4774     2.3355     0.0111   -21.5020    12.2206    13.7507    11.8419
  454.5000     9.4957    46.8344     2.3387     0.0113   -21.6262    12.1263    13.7596    11.8516
  455.0000     9.4979    47.4891     2.3419     0.0129   -21.9057    11.9871    13.7670    11.7797
  455.5000     9.4999    46.6556     2.3458     0.0138   -21.8926    11.8347    13.7774    11.7060
  456.0000     9.5020    46.0555     2.3483     0.0139   -22.1787    11.8439    13.7863    11.7989
  456.5000     9.5040    47.0721     2.3515     0.0140   -22.1623    11.7421    13.7952    11.8078
  457.0000     9.5061    44.3602     2.3539     0.0141   -22.4484    11.6979    13.8041    11.7370
  457.5000     9.5085    42.7267     2.3526     0.0128   -22.5832    11.7093    13.8130    11.7461
  458.0000     9.5106    43.9766     2.3521     0.0121   -22.7181    11.6379    13.8219    11.7561
  458.5000     9.5126    42.2503     2.3523     0.0123   -22.8497    11.6471    13.8309    11.7657
  459.0000     9.5146    42.9198     2.3517     0.0124   -22.9878    11.6563    13.8398    11.7752
  459.5000     9.5166    43.8721     2.3520     0.0133   -23.1194    11.5852    13.8487    11.7850
  460.0000     9.5187    44.8244     2.3514     0.0127   -23.2544    11.5965    13.8577    11.7947
  460.5000     9.5207    45.7767     2.3508     0.0128   -23.3891    11.5243    13.8668    11.8045
  461.0000     9.5227    46.7312     2.3503     0.0121   -23.5239    11.5349    13.8759    11.8161
  461.5000     9.5099    47.3854     2.3505     0.0123   -23.5104    11.4633    13.7889    11.7444
  462.0000     9.5124    47.1603     2.3507     0.0124   -23.7936    11.4736    13.8001    11.6709
  462.5000     9.5145    46.9072     2.3524     0.0125   -23.7773    11.4825    13.8090    11.6827
  463.0000     9.4868    47.5768     2.3534     0.0126   -23.9154    11.3321    13.8179    11.6923
  463.5000     9.4739    48.2314     2.3543     0.0128   -24.1949    11.2632    13.8268    11.5969
  464.0000     9.4760    47.9784     2.3530     0.0122   -24.3330    11.1953    13.7383    11.4716
  464.5000     9.4780    47.7551     2.3517     0.0100   -24.3167    11.2055    13.7494    11.3237
  465.0000     9.4800    47.2173     2.3497     0.0102   -24.3036    11.0606    13.7575    11.1010
  465.5000     9.4820    46.9807     2.3491     0.0103   -24.2914    11.0695    13.6723    10.9575
  466.0000     9.4990    47.0417     2.3493     0.0104   -24.2774    10.9267    13.6242    10.8166
  466.5000     9.5015    47.4124     2.3496     0.0120   -24.2644    10.8537    13.5954    10.7890
  467.0000     9.5035    47.1742     2.3528     0.0137   -24.2515    10.7940    13.6045    10.6844
  467.5000     9.5055    46.3259     2.3582     0.0146   -24.0902    10.6568    13.6133    10.7688
  468.0000     9.4922    47.5907     2.3599     0.0169   -24.0769    10.6651    13.6222    10.8526
  468.5000     9.4947    48.8406     2.3616     0.0171   -24.0636    10.6734    13.6312    10.9235
  469.0000     9.4967    47.7095     2.3625     0.0172   -24.0478    10.7543    13.6401    11.0327
  469.5000     9.4988    48.6618     2.3605     0.0166   -23.8867    10.8382    13.6491    11.1849
  470.0000     9.5156    49.3165     2.3592     0.0159   -23.8737    10.8467    13.6595    11.3494
  470.5000     9.5331    50.6028     2.3579     0.0161   -23.7127    11.0056    13.6683    11.4360
  471.0000     9.5643    53.3065     2.3573     0.0162   -23.5517    11.0903    13.6772    11.5247
  471.5000     9.5074    51.2953     2.3560     0.0159   -23.5386    11.1756    13.5896    11.5351
  472.0000     9.4940    53.1405     2.3563     0.0157   -23.5255    11.1843    13.5047    11.4652
  472.5000     9.5560    54.0779     2.3580     0.0158   -23.2166    11.1930    13.6093    11.4745
  473.0000     9.4540    50.5807     2.3612     0.0152   -23.0555    11.2017    13.7125    11.4050
  473.5000     9.4857    52.7235     2.3621     0.0153   -22.8945    11.2105    13.9123    11.4142
  474.0000     9.5175    53.6609     2.3638     0.0155   -22.8815    11.1422    14.1150    11.1897
  474.5000     9.4897    49.8662     2.3603     0.0156   -22.7187    11.1508    14.3207    10.9696
  475.0000     9.4918    49.3304     2.3590     0.0164   -22.5592    10.9336    14.4293    10.8282
  475.5000     9.4939    49.3914     2.3592     0.0166   -22.2385    10.9076    14.5389    10.6468
  476.0000     9.4667    49.7617     2.3610     0.0174   -21.7904    10.7995    14.5484    10.5513
  476.5000     9.4836    50.7140     2.3618     0.0176   -21.6294    10.8093    14.5598    10.5600
  477.0000     9.5153    51.0710     2.3591     0.0185   -21.1725    10.8184    14.7720    10.7100
  477.5000     9.5173    48.7495     2.3563     0.0193   -20.7156    10.8253    14.7799    10.7915
  478.0000     9.4599    48.1988     2.3557     0.0195   -20.4067    10.8345    14.7896    10.8736
  478.5000     9.4768    50.3564     2.3551     0.0196   -19.8019    10.8430    14.8006    11.0320
  479.0000     9.4788    51.0111     2.3538     0.0189   -19.1971    10.8514    14.7082    11.2703
  479.5000     9.4809    48.9872     2.3495     0.0191   -18.5923    10.8599    14.6140    11.5136
