~VERSION INFORMATION
 VERS.                2.0:   CWLS LOG ASCII STANDARD - VERSION 2.0
 WRAP.                 NO:   ONE LINE PER DEPTH STEP
~WELL INFORMATION
#MNEM.UNIT      DATA TYPE    INFORMATION
#----------   ------------   ------------------------------
 STRT.F          212.5000:   START DEPTH
 STOP.F         3098.0000:   STOP DEPTH
 STEP.F            0.5000:   STEP LENGTH
 NULL.          -999.2500:   NO VALUE
 COMP.    FENIX & SCISSON:   COMPANY
 WELL. FENIX NPR 77 "A" #3-33:   WELL
 FLD .                NPR:   FIELD
 LOC .      S33 T39N R78W:   LOCATION
 CNTY.            NATRONA:   COUNTY
 STAT.            WYOMING:   STATE
 CTRY. UNITED STATES OF AMERICA:   COUNTRY
 SRVC.       SCHLUMBERGER:   SERVICE COMPANY
 DATE.        07-MAY-1977:   LOGDATE
 API .     49025103700000:   API NUMBER
~CURVE INFORMATION
#MNEM.UNIT       API CODE    CURVE DESCRIPTION
#----------   ------------   ------------------------------
 DEPT.F                  :   
 SPR .MV     07 010 01 00:   SPONTANEOUS POTENTIAL
 LL8 .OHMM   11 220 08 00:   LATERALOG-8 RESISTIVITY
 ILD .OHMM   07 120 46 00:   DEEP INDUCTION RESISTIVITY
 CALD.IN     45 280 60 00:   CALIPER FROM DENSITY LOG
 GRD .GAPI   45 310 01 00:   GAMMA RAY FROM DENSITY LOG
 RHOB.G/C3   45 350 01 00:   BULK DENSITY
 CORR.G/C3   45 356 01 00:   DENSITY CORRECTION
 ILM .OHMM   07 120 44 00:   INDUCTION LOG MEDIUM RESISTIVITY
~PARAMETER INFORMATION
#MNEM.UNIT          VALUE    DESCRIPTION
#----------   ------------   ------------------------------
 EKB .F         5152.0000:   Kelly bushing
 EGL .F         5141.0000:   Ground level
 TD  .F         3097.0000:   Total depth
 DATE.        07-MAY-1977:   Date logged
 CLNT.            A2DTECH:   Client Code
 SL  . 990' FEL & 990' FSL:   Surface Location
 PD  .                 GL:   Permanent Datum
 EPD .F              5141:   Elevation Permanent Datum
 LMF .                 KB:   Log Measured From
 DMF .                 KB:   Drilling Measured From
 DAPD.F                11:   Feet Above Permanent Datum
 DD  .F              3096:   Depth driller
 DL  .F              3097:   Depth logger
 BLI .F              3091:   Bottom log interval
 TLI .F               222:   Top log interval
 CS1 .IN            8.625:   Casing size
 CBD1.      8.625" @ 200':   Casing driller 1
 CBL1.F               222:   Casing logger 1
 BS1 .IN            7.875:   Bit size
 BSD1.F              3096:   Depth drilled with bit1
 DFT .                KCL:   Type fluid in hole
 DFD .                9.2:   Density
 DFV .                 38:   Viscosity
 DFPH.                  8:   pH
 DFL .                7.6:   Fluid loss
 MSS .           FLOWLINE:   Source of sample
 RMS .OHMM           .191:   Rm
 MST .F                76:   Rm Meas. temp.
 RMF .OHMM           .185:   Rmf
 MFST.F                76:   Rmf Meas. temp.
 MFSS.               MEAS:   Source Rmf.
 RMB .OHMM           .126:   Rm. at BHT
 BHT .F               115:   BHT.
 TCS .HRS            1200:   Time Circ. stopped
 TLAB.HRS            1530:   Time logger at bottom
 MRT .F                15:   Maximum recorded temp.
 LUN .               6442:   Logging unit number
 LUL .               CSPR:   Logging unit location
 ENGI.             MARTIN:   Recorded By
 WITN.          PETTMGILL:   Witnessed by
 ORIG.      2.5" 5" PRINT:   Origin of data
 UWI .     49025103700000:   Unique Well ID
 DICO. A2D TECHNOLOGIES, INC.:   Digitizing Company
~OTHER INFORMATION
~A   DEPT      SPR        LL8        ILD       CALD         GRD      RHOB       CORR        ILM   
# ...
 1346.5000   -87.7090    10.6900     9.7770     9.5910   108.6610     2.5660     0.0940     8.3580
 1347.0000   -87.2510    10.5180     9.7490     9.5920   108.5310     2.5620     0.0890     8.4350
 1347.5000   -86.8540    10.3340     9.6960     9.6010   108.5800     2.5720     0.0980     8.3840
 1348.0000   -86.9870    10.3280     9.6430     9.6100   107.7670     2.5780     0.1050     8.3400
 1348.5000   -87.1620    10.2830     9.5900     9.6170   106.9380     2.5680     0.1120     8.2950
 1349.0000   -87.3370    10.2380     9.5380     9.6270   108.5860     2.5570     0.0950     8.2500
 1349.5000   -87.5140    10.1920     9.4850     9.6390   109.9970     2.5410     0.0640     8.2060
 1350.0000   -87.6850    10.1470     9.4320     9.6750   109.8540     2.5490     0.0500     8.1610
 1350.5000   -87.8250    10.1020     9.3790     9.6700   106.7700     2.5710     0.0700     8.1200
 1351.0000   -88.0380    10.0570     9.3260     9.6930   104.2920     2.5750     0.0880     8.0880
 1351.5000   -87.8890    10.0440     9.2740     9.7140   101.5290     2.5650     0.0920     8.0560
 1352.0000   -87.7500    10.0160     9.2210     9.7370   103.1220     2.5580     0.0830     8.0250
 1352.5000   -87.6100     9.9880     9.1680     9.7530   106.5860     2.5610     0.0770     7.9930
 1353.0000   -87.4710     9.9600     9.1150     9.7580   109.3350     2.5760     0.0840     7.9610
 1353.5000   -87.3320     9.9320     9.0630     9.7640   110.8330     2.5860     0.0950     7.9290
 1354.0000   -87.3490     9.9050     9.0100     9.7700   110.5780     2.5780     0.1030     7.8970
 1354.5000   -87.5600     9.8770     8.9570     9.7760   108.9090     2.5640     0.0890     7.8650
 1355.0000   -87.7700     9.8490     8.9040     9.7820   106.9050     2.5500     0.0770     7.8350
 1355.5000   -87.9810     9.8210     8.8510     9.7880   104.5190     2.5470     0.0730     7.8290
 1356.0000   -88.1890     9.7930     8.7990     9.7940   102.1290     2.5640     0.0860     7.8060
 1356.5000   -88.3820     9.7190     8.7460     9.8000   101.1910     2.5600     0.0860     7.7820
 1357.0000   -88.6370     9.4570     8.6930     9.8060   103.2710     2.5570     0.0800     7.7580
 1357.5000   -88.6030     9.2510     8.6400     9.8120   107.6740     2.5700     0.0730     7.7340
 1358.0000   -88.5570     9.2720     8.5870     9.8180   111.8980     2.5640     0.0700     7.7110
 1358.5000   -88.5090     9.3080     8.5350     9.8240   114.5880     2.5480     0.0730     7.6870
 1359.0000   -88.4580     9.3440     8.4250     9.8300   113.5610     2.5500     0.0770     7.6630
 1359.5000   -88.4310     9.3790     8.3980     9.8240   113.1240     2.5600     0.0820     7.6390
 1360.0000   -88.6800     9.4230     8.3710     9.8130   113.8700     2.5680     0.0830     7.6160
 1360.5000   -88.9860     9.3190     8.3450     9.8030   114.6020     2.5770     0.0790     7.5920
 1361.0000   -89.3740     9.1860     8.3180     9.7930   115.3970     2.5640     0.0710     7.5680
 1361.5000   -89.8450     9.0520     8.2920     9.7840   115.7110     2.5480     0.0640     7.5450
 1362.0000   -89.4860     8.9190     8.2650     9.7740   115.6570     2.5330     0.0610     7.5210
 1362.5000   -88.8990     8.7860     8.2380     9.7640   115.5920     2.5600     0.0880     7.4970
 1363.0000   -88.3120     8.7520     8.2120     9.7540   114.4390     2.5750     0.1010     7.4130
 1363.5000   -87.7250     8.7990     8.2050     9.7440   113.5030     2.5680     0.0870     7.3450
 1364.0000   -87.2370     8.9360     8.2050     9.7340   110.6470     2.5600     0.0690     7.2770
 1364.5000   -87.3350     9.0730     8.2050     9.7250   107.3380     2.5680     0.0870     7.2860
 1365.0000   -87.4260     9.1660     8.2000     9.7140   103.8320     2.5760     0.0880     7.3110
 1365.5000   -87.5120     9.1010     8.1900     9.7100   102.6310     2.5610     0.0800     7.3360
 1366.0000   -87.6080     8.9770     8.1800     9.7100   102.7840     2.5720     0.0730     7.3620
 1366.5000   -87.8470     8.9150     8.1700     9.7100   106.2830     2.5580     0.0680     7.3870
 1367.0000   -88.0290     9.1480     8.1600     9.7100   110.1750     2.5640     0.0820     7.4130
 1367.5000   -87.8090     9.3590     8.1500     9.7110   110.3310     2.5730     0.0960     7.4380
 1368.0000   -87.5870     9.5980     8.1410     9.7090   108.1520     2.5750     0.0940     7.4630
 1368.5000   -87.3670     9.4090     8.1310     9.7100   105.4360     2.5620     0.0840     7.4820
 1369.0000   -87.1490     9.1950     8.0850     9.7180   106.2830     2.5480     0.0740     7.4090
 1369.5000   -86.9310     9.0810     8.0340     9.7540   109.3660     2.5470     0.0660     7.3530
 1370.0000   -86.7130     9.2800     7.9840     9.7480   112.6750     2.5540     0.0610     7.2970
 1370.5000   -86.4940     9.4660     7.9330     9.7500   112.4690     2.5510     0.0780     7.2770
 1371.0000   -86.2760     9.6520     7.8830     9.7500   111.6180     2.5490     0.0760     6.9880
 1371.5000   -86.0690     9.8680     7.8320     9.7510   110.6500     2.5540     0.0740     6.7150
 1372.0000   -86.0100     9.2750     7.7810     9.7560   109.8000     2.5610     0.0800     6.4410
 1372.5000   -85.9560     8.5920     7.7630     9.7800   108.9640     2.5660     0.1000     6.2780
 1373.0000   -85.9010     8.4920     7.9370     9.7970   108.9720     2.5730     0.1150     6.8320
 1373.5000   -85.8470     8.4350     8.0780     9.8500   108.8220     2.5490     0.0970     7.4990
 1374.0000   -85.7920     9.4810     8.2190    10.0200   109.7260     2.5740     0.0730     8.0550
 1374.5000   -85.7370    10.3340     8.3600     9.6810   111.1900     2.5600     0.0580     7.9810
 1375.0000   -85.6830    10.2860     8.5010     9.5900   111.4730     2.5540     0.0550     7.8470
 1375.5000   -85.6280    10.1670     8.6430     9.5860   108.5070     2.5730     0.0620     7.7720
 1376.0000   -85.5740    10.0480     8.7520     9.6070   106.0340     2.5690     0.0730     7.6970
 1376.5000   -85.5200     9.9290     8.7520     9.5970   106.4380     2.5620     0.0790     7.6210
 1377.0000   -85.4740     9.8100     8.9150     9.6050   107.8350     2.5540     0.0680     7.6210
 1377.5000   -85.5520     9.6870     8.9150     9.6070   107.4850     2.5510     0.0600     7.8080
 1378.0000   -85.7680     9.8110     8.8830     9.6090   105.4110     2.5670     0.0660     7.9300
 1378.5000   -85.9810     9.9730     8.8420     9.6120   103.5220     2.5840     0.0780     8.0520
 1379.0000   -86.1960    10.1340     8.8000     9.6150   101.4250     2.6050     0.0900     8.1740
 1379.5000   -86.4170    10.2390     8.7580     9.6180   100.8350     2.6000     0.0960     8.2050
 1380.0000   -86.4230    10.2390     8.7160     9.6200   101.9390     2.5810     0.0810     8.1470
 1380.5000   -86.2740    10.1460     8.6720     9.6230   102.8770     2.5620     0.0640     7.9780
 1381.0000   -86.2640    10.0460     8.7070     9.6260   103.9070     2.5590     0.0800     7.8090
 1381.5000   -86.2650     9.9590     8.7550     9.6290   105.0600     2.5540     0.0740     7.7630
 1382.0000   -86.2650     9.8680     8.8030     9.6320   106.6420     2.6040     0.0550     7.7850
 1382.5000   -86.1990     9.9110     8.8510     9.6500   108.2660     2.6630     0.0840     7.8090
 1383.0000   -85.6370     9.9700     8.9000     9.6670   106.8940     2.5790     0.0760     7.8330
 1383.5000   -85.0690    10.0300     8.9480     9.6850   105.9400     2.5480     0.0580     7.8570
 1384.0000   -84.5020    10.0900     8.9960     9.7010   107.8940     2.5480     0.0610     7.8810
 1384.5000   -83.9340    10.1450     9.0440     9.7220   109.2680     2.5490     0.0660     7.9050
 1385.0000   -83.3720    10.1450     9.0920     9.7330   108.4870     2.5530     0.0720     7.9070
 1385.5000   -83.3800    10.1020     9.1400     9.7740   108.0530     2.5590     0.0770     7.9070
 1386.0000   -83.5460    10.0620     9.1660     9.7480   108.9620     2.5640     0.0830     7.9070
 1386.5000   -83.7130    10.0220     9.1660     9.7600   109.6560     2.5660     0.0830     7.9080
