~VERSION INFORMATION
 VERS.                2.0:   CWLS LOG ASCII STANDARD - VERSION 2.0
 WRAP.                 NO:   ONE LINE PER DEPTH STEP
~WELL INFORMATION
#MNEM.UNIT      DATA TYPE    INFORMATION
#----------   ------------   ------------------------------
 STRT.F           46.0000:   START DEPTH
 STOP.F         2952.5000:   STOP DEPTH
 STEP.F            0.5000:   STEP LENGTH
 NULL.          -999.2500:   NO VALUE
 COMP.    FENIX & SCISSON:   COMPANY
 WELL. FENIX NPR 3 "SHX" #11-15:   WELL
 FLD .        TEAPOT DOME:   FIELD
 LOC .      S15 T38N R78W:   LOCATION
 CNTY.            NATRONA:   COUNTY
 STAT.            WYOMING:   STATE
 CTRY. UNITED STATES OF AMERICA:   COUNTRY
 SRVC.           BIRDWELL:   SERVICE COMPANY
 DATE.        19-JAN-1979:   LOGDATE
 API .     49025107640000:   API NUMBER
~CURVE INFORMATION
#MNEM.UNIT       API CODE    CURVE DESCRIPTION
#----------   ------------   ------------------------------
 DEPT.F                  :   
 GRD .GAPI   45 310 01 00:   GAMMA RAY FROM DENSITY LOG
 CALD.IN     45 280 60 00:   CALIPER FROM DENSITY LOG
 RHOB.G/C3   45 350 01 00:   BULK DENSITY
 CORR.G/C3   45 356 01 00:   DENSITY CORRECTION
 SPR .MV     07 010 01 00:   SPONTANEOUS POTENTIAL
 SN  .OHMM   01 040 00 00:   SHORT NORMAL
 ILD .OHMM   07 120 46 00:   INDUCTION LOG DEEP RESISTIVITY
~PARAMETER INFORMATION
#MNEM.UNIT          VALUE    DESCRIPTION
#----------   ------------   ------------------------------
 EKB .F         5258.0000:   Kelly bushing
 EGL .F         5248.0000:   Ground level
 EDF .F            0.0000:   Drilling floor
 TD  .F         1300.0000:   Total depth
 DATE.        19-JAN-1979:   Date logged
 CLNT.            A2DTECH:   Client Code
 SL  . 177' FNL & 155' FWL:   Surface Location
 PD  .                 GL:   Permanent Datum
 EPD .F              5248:   Elevation Permanent Datum
 LMF .                 KB:   Log Measured From
 DMF .                 KB:   Drilling Measured From
 DAPD.F                10:   Feet Above Permanent Datum
 DD  .F              1300:   Depth driller
 DL  .F              1283:   Depth logger
 BLI .F              1277:   Bottom log interval
 TLI .F               100:   Top log interval
 CBD1.F                40:   Casing driller 1
 CBL1.F                40:   Casing logger 1
 BS1 .IN            7.875:   Bit size
 BSD1.F              1300:   Depth drilled with bit1
 DFT .           CHEM/GEL:   Type fluid in hole
 DFD .                8.8:   Density
 DFV .                 37:   Viscosity
 DFL .               15.4:   Fluid loss
 MSS .           FLOWLINE:   Source of sample
 RMS .OHMM            .75:   Rm
 MST .F                68:   Rm Meas. temp.
 RMF .OHMM            .75:   Rmf
 MFST.F                64:   Rmf Meas. temp.
 RMC .OHMM            1.3:   Rmc
 MCST.F                68:   Rmc Meas. temp.
 MFSS.               MEAS:   Source Rmf.
 MCSS.               MEAS:   Source Rmc.
 RMB .OHMM            .73:   Rm. at BHT
 BHT .F                70:   BHT.
 TCS .HRS               2:   Time Circ. stopped
 MRT .F                70:   Maximum recorded temp.
 LUN .               3029:   Logging unit number
 LUL .               CSPR:   Logging unit location
 ENGI.            ROLLINS:   Recorded By
 WITN.           DINSMORE:   Witnessed by
 ORIG.           5" PRINT:   Origin of data
 UWI .     49025107640000:   Unique Well ID
 DICO. A2D TECHNOLOGIES, INC.:   Digitizing Company
~OTHER INFORMATION
~A   DEPT      GRD       CALD       RHOB       CORR        SPR           SN        ILD 
# ...
 2776.0000    99.6070     9.1470     2.5170     0.0520  -999.2500  -999.2500  -999.2500
 2776.5000   109.5670     9.1650     2.5170     0.0520  -999.2500  -999.2500  -999.2500
 2777.0000   108.1410     9.1820     2.5160     0.0520  -999.2500  -999.2500  -999.2500
 2777.5000   101.1500     9.1990     2.5140     0.0520  -999.2500  -999.2500  -999.2500
 2778.0000    98.1970     9.2160     2.5130     0.0520  -999.2500  -999.2500  -999.2500
 2778.5000    97.5680     9.2340     2.5120     0.0520  -999.2500  -999.2500  -999.2500
 2779.0000    97.2900     9.2510     2.5240     0.0520  -999.2500  -999.2500  -999.2500
 2779.5000    96.8300     9.2670     2.5460     0.0520  -999.2500  -999.2500  -999.2500
 2780.0000    91.5590     9.2880     2.5610     0.0520  -999.2500  -999.2500  -999.2500
 2780.5000    87.9340     9.2760     2.5620     0.0520  -999.2500  -999.2500  -999.2500
 2781.0000    86.2550     9.2590     2.5640     0.0520  -999.2500  -999.2500  -999.2500
 2781.5000    84.2850     9.2750     2.5650     0.0520  -999.2500  -999.2500  -999.2500
 2782.0000    81.4640     9.2840     2.5670     0.0520  -999.2500  -999.2500  -999.2500
 2782.5000    82.3190     9.2910     2.5680     0.0520  -999.2500  -999.2500  -999.2500
 2783.0000    83.0010     9.2450     2.5740     0.0520  -999.2500  -999.2500  -999.2500
 2783.5000    83.0370     9.2000     2.5800     0.0520  -999.2500  -999.2500  -999.2500
 2784.0000    80.6400     9.1360     2.5850     0.0520  -999.2500  -999.2500  -999.2500
 2784.5000    74.1780     9.0590     2.5860     0.0520  -999.2500  -999.2500  -999.2500
 2785.0000    73.3080     8.9820     2.5710     0.0500  -999.2500  -999.2500  -999.2500
 2785.5000    78.1430     8.9230     2.5440     0.0490  -999.2500  -999.2500  -999.2500
 2786.0000    84.0090     8.8840     2.5420     0.0480  -999.2500  -999.2500  -999.2500
 2786.5000    89.7300     8.8630     2.5430     0.0450  -999.2500  -999.2500  -999.2500
 2787.0000    91.1940     8.8740     2.5440     0.0420  -999.2500  -999.2500  -999.2500
 2787.5000    92.3740     8.8820     2.5260     0.0400  -999.2500  -999.2500  -999.2500
 2788.0000    92.8840     8.8890     2.5200     0.0420  -999.2500  -999.2500  -999.2500
 2788.5000    90.3640     8.9000     2.5200     0.0660  -999.2500  -999.2500  -999.2500
 2789.0000    88.9260     8.8890     2.5200     0.0860  -999.2500  -999.2500  -999.2500
 2789.5000    90.1740     8.8640     2.5170     0.1080  -999.2500  -999.2500  -999.2500
 2790.0000    99.2110     8.8410     2.4950     0.1240  -999.2500  -999.2500  -999.2500
 2790.5000   108.1630     8.8190     2.4720     0.1240  -999.2500  -999.2500  -999.2500
 2791.0000   108.7670     8.7940     2.4680     0.1240  -999.2500  -999.2500  -999.2500
 2791.5000   105.1480     8.7730     2.4650     0.1210  -999.2500  -999.2500  -999.2500
 2792.0000   101.3230     8.7470     2.4690     0.1180  -999.2500  -999.2500  -999.2500
 2792.5000    99.7340     8.7700     2.4760     0.1160  -999.2500  -999.2500  -999.2500
 2793.0000    98.1060     8.8030     2.4790     0.1170  -999.2500  -999.2500  -999.2500
 2793.5000    94.9140     8.8360     2.4780     0.1160  -999.2500  -999.2500  -999.2500
 2794.0000    97.9860     8.8680     2.4830     0.1150  -999.2500  -999.2500  -999.2500
 2794.5000   102.3920     8.9020     2.4920     0.1000  -999.2500  -999.2500  -999.2500
 2795.0000   106.6670     8.9340     2.5000     0.0860  -999.2500  -999.2500  -999.2500
 2795.5000   112.5670     8.9670     2.5100     0.0730  -999.2500  -999.2500  -999.2500
 2796.0000   109.9390     9.0030     2.5210     0.0740  -999.2500  -999.2500  -999.2500
 2796.5000   100.0250     9.0130     2.5310     0.0970  -999.2500  -999.2500  -999.2500
 2797.0000    93.0570     8.9930     2.5440     0.1030  -999.2500  -999.2500  -999.2500
 2797.5000    94.2440     8.9700     2.5450     0.0850  -999.2500  -999.2500  -999.2500
 2798.0000    97.6910     8.9530     2.5450     0.0710  -999.2500  -999.2500  -999.2500
 2798.5000   104.2570     8.9410     2.5340     0.0650  -999.2500  -999.2500  -999.2500
 2799.0000   112.4590     8.8860     2.5210     0.0640  -999.2500  -999.2500  -999.2500
 2799.5000   120.5180     9.0900     2.5080     0.0690  -999.2500  -999.2500  -999.2500
 2800.0000   126.5490     9.1500     2.5070     0.0830  -999.2500  -999.2500  -999.2500
 2800.5000   131.4840     8.7960     2.5070     0.0840  -999.2500  -999.2500  -999.2500
 2801.0000   133.1730     9.1590     2.5070     0.0820  -999.2500  -999.2500  -999.2500
 2801.5000   131.8700     9.0660     2.5060     0.0680  -999.2500  -999.2500  -999.2500
 2802.0000   130.5320     9.0040     2.5060     0.0560  -999.2500  -999.2500  -999.2500
 2802.5000   126.7650     9.1530     2.5060     0.0510  -999.2500  -999.2500  -999.2500
 2803.0000   123.2530     9.2360     2.5050     0.0620  -999.2500  -999.2500  -999.2500
 2803.5000   124.0560     9.0940     2.5050     0.0740  -999.2500  -999.2500  -999.2500
 2804.0000   124.6530     9.5350     2.5050     0.0700  -999.2500  -999.2500  -999.2500
 2804.5000   120.4210     9.0940     2.5070     0.0620  -999.2500  -999.2500  -999.2500
 2805.0000   116.9890     9.0750     2.5100     0.0530  -999.2500  -999.2500  -999.2500
 2805.5000   116.7880     9.0680     2.5130     0.0520  -999.2500  -999.2500  -999.2500
 2806.0000   119.1180     9.1180     2.5170     0.0520  -999.2500  -999.2500  -999.2500
 2806.5000   122.1280     9.1370     2.5160     0.0520  -999.2500  -999.2500  -999.2500
 2807.0000   125.6810     9.1680     2.5150     0.0520  -999.2500  -999.2500  -999.2500
 2807.5000   118.7940     9.1970     2.5130     0.0510  -999.2500  -999.2500  -999.2500
 2808.0000   114.7010     9.2260     2.5110     0.0500  -999.2500  -999.2500  -999.2500
 2808.5000   116.8100     9.2530     2.5120     0.0500  -999.2500  -999.2500  -999.2500
 2809.0000   120.9950     9.2840     2.5170     0.0490  -999.2500  -999.2500  -999.2500
 2809.5000   121.0300     9.3120     2.5200     0.0480  -999.2500  -999.2500  -999.2500
 2810.0000   120.9610     9.3190     2.5250     0.0510  -999.2500  -999.2500  -999.2500
 2810.5000   119.8890     9.1760     2.5240     0.0560  -999.2500  -999.2500  -999.2500
 2811.0000   118.8520     9.0360     2.5210     0.0600  -999.2500  -999.2500  -999.2500
 2811.5000   120.0640     9.0190     2.5180     0.0650  -999.2500  -999.2500  -999.2500
 2812.0000   121.3840     9.0120     2.5150     0.0700  -999.2500  -999.2500  -999.2500
 2812.5000   120.5150     8.9290     2.5140     0.0720  -999.2500  -999.2500  -999.2500
 2813.0000   120.7680     8.8960     2.5110     0.0710  -999.2500  -999.2500  -999.2500
 2813.5000   121.5800     8.8890     2.5110     0.0700  -999.2500  -999.2500  -999.2500
 2814.0000   121.7780     8.8800     2.5110     0.0680  -999.2500  -999.2500  -999.2500
 2814.5000   116.9430     8.8720     2.5140     0.0710  -999.2500  -999.2500  -999.2500
 2815.0000   112.5770     8.8630     2.5150     0.0800  -999.2500  -999.2500  -999.2500
 2815.5000   109.4240     8.8610     2.5130     0.0830  -999.2500  -999.2500  -999.2500
 2816.0000   113.3080     8.8730     2.4910     0.0750  -999.2500  -999.2500  -999.2500
 2816.5000   116.6190     8.8950     2.4920     0.0710  -999.2500  -999.2500  -999.2500
 2817.0000   116.3880     8.9120     2.4930     0.0620  -999.2500  -999.2500  -999.2500
 2817.5000   116.9860     8.9350     2.4960     0.0540  -999.2500  -999.2500  -999.2500
 2818.0000   119.9930     8.9530     2.4980     0.0480  -999.2500  -999.2500  -999.2500
 2818.5000   123.2960     8.9670     2.5010     0.0490  -999.2500  -999.2500  -999.2500
 2819.0000   117.7710     9.0110     2.5040     0.0550  -999.2500  -999.2500  -999.2500
 2819.5000   113.6130     8.9700     2.5030     0.0630  -999.2500  -999.2500  -999.2500
 2820.0000   115.4640     9.3450     2.4970     0.0680  -999.2500  -999.2500  -999.2500
 2820.5000   115.7170     9.0860     2.4910     0.0650  -999.2500  -999.2500  -999.2500
 2821.0000   122.4610     8.9170     2.4910     0.0730  -999.2500  -999.2500  -999.2500
