~VERSION INFORMATION
 VERS.                2.0:   CWLS LOG ASCII STANDARD - VERSION 2.0
 WRAP.                 NO:   ONE LINE PER DEPTH STEP
~WELL INFORMATION
#MNEM.UNIT      DATA TYPE    INFORMATION
#----------   ------------   ------------------------------
 STRT.F           36.0000:   START DEPTH
 STOP.F         4960.0000:   STOP DEPTH
 STEP.F            0.5000:   STEP LENGTH
 NULL.          -999.2500:   NO VALUE
 COMP.   TESORO PETROLEUM:   COMPANY
 WELL. TESORO NPR 3 "DX" #55-23:   WELL
 FLD .        TEAPOT DOME:   FIELD
 LOC .      S23 T38N R78W:   LOCATION
 CNTY.            NATRONA:   COUNTY
 STAT.            WYOMING:   STATE
 CTRY. UNITED STATES OF AMERICA:   COUNTRY
 SRVC.           BIRDWELL:   SERVICE COMPANY
 DATE.        17-AUG-1975:   LOGDATE
 API .     49025102510000:   API NUMBER
~CURVE INFORMATION
#MNEM.UNIT       API CODE    CURVE DESCRIPTION
#----------   ------------   ------------------------------
 DEPT.F                  :   
 TEND.LBS    45 635 01 00:   TENSION FROM DENSITY LOG
 CALD.IN     45 280 60 00:   CALIPER FROM DENSITY LOG
 CORR.G/C3   45 356 01 00:   DENSITY CORRECTION
 GRD .GAPI   45 310 01 00:   GAMMA RAY FROM DENSITY LOG
 RHOB.G/C3   45 350 01 00:   BULK DENSITY
 SPR .MV     07 010 01 00:   SPONTANEOUS POTENTIAL
 ILM .OHMM   07 120 44 00:   INDUCTION LOG MEDIUM RESISTIVITY
 ILD .OHMM   07 120 46 00:   DEEP INDUCTION RESISTIVITY
 SFL .OHMM   07 220 01 00:   SHALLOW FOCUSED LOG RESISTIVITY
~PARAMETER INFORMATION
#MNEM.UNIT          VALUE    DESCRIPTION
#----------   ------------   ------------------------------
 EKB .F         5371.0000:   Kelly bushing
 EGL .F         5360.0000:   Ground level
 EDF .F            0.0000:   Drilling floor
 TD  .F         4955.0000:   Total depth
 DATE.        17-AUG-1975:   Date logged
 CLNT.            A2DTECH:   Client Code
 SL  . 1980' FSL & 2030' FEL:   Surface Location
 PD  .                 GL:   Permanent Datum
 DD  .F              4955:   Depth driller
 DL  .F              4945:   Depth logger
 BLI .F              4943:   Bottom log interval
 CS1 .IN            8.625:   Casing size
 CBD1.     8.625" @ 1450':   Casing driller 1
 CBL1.F              1457:   Casing logger 1
 BS1 .IN            7.875:   Bit size
 DFT .            KCL/GEL:   Type fluid in hole
 DFD .                9.5:   Density
 DFV .                 53:   Viscosity
 DFPH.                8.5:   pH
 DFL .                7.4:   Fluid loss
 MSS .           FLOWLINE:   Source of sample
 RMS .OHMM            1.2:   Rm
 MST .F                72:   Rm Meas. temp.
 RMF .OHMM            .94:   Rmf
 MFST.F                74:   Rmf Meas. temp.
 MFSS.               MEAS:   Source Rmf.
 RMB .OHMM            .71:   Rm. at BHT
 BHT .F               121:   BHT.
 TCS .HRS               4:   Time Circ. stopped
 MRT .F               121:   Maximum recorded temp.
 LUN .               6078:   Logging unit number
 LUL .              GLTTE:   Logging unit location
 ENGI.      NORDEN/SUTTON:   Recorded By
 WITN.          UNDERWOOD:   Witnessed by
 ORIG.           5" PRINT:   Origin of data
 UWI .     49025102510000:   Unique Well ID
 DICO. A2D TECHNOLOGIES, INC.:   Digitizing Company
 DAPD.F                11:   Feet Above Permanent Datum
 BSD1.F              5360:   Depth drilled with bit1
 EPD .F              5360:   Elevation Permanent Datum
 LMF .                 KB:   Log Measured From
 DMF .                 KB:   Drilling Measured From
 TLI .F              1457:   Top log interval
~OTHER INFORMATION
~A   DEPT     TEND       CALD       CORR        GRD       RHOB        SPR        ILM        ILD          SFL 
# ...
 3321.0000  3290.0000     8.7650     0.0210    48.4410     2.5530   -32.3720     4.9850     5.2190     5.5710
 3321.5000  3275.2439     8.7580     0.0230    49.4360     2.5530   -32.3650     4.9020     5.1060     5.8290
 3322.0000  3229.7329     8.7520     0.0280    49.3690     2.5560   -32.1720     4.7000     4.9610     5.9370
 3322.5000  3219.6670     8.7460     0.0330    48.2120     2.5640   -31.9680     4.4980     4.8150     5.4980
 3323.0000  3236.7329     8.7390     0.0380    47.3370     2.5730   -31.7650     4.3420     4.5880     4.9550
 3323.5000  3240.8799     8.7350     0.0400    46.4760     2.5850   -31.5610     4.3680     4.6230     4.7610
 3324.0000  3199.9199     8.7350     0.0390    45.6200     2.5870   -31.3860     4.4230     4.7020     4.9150
 3324.5000  3178.2800     8.7350     0.0210    44.9370     2.5840   -31.5880     4.6650     4.7800     5.0830
 3325.0000  3209.0000     8.7350     0.0160    44.7870     2.5820   -31.7930     4.8920     5.0250     5.2680
 3325.5000  3239.7200     8.7350     0.0140    44.3220     2.5810   -31.9950     5.1190     5.4730     6.1190
 3326.0000  3270.4399     8.7280     0.0130    43.8210     2.5790   -32.1980     5.3600     5.9220     6.6000
 3326.5000  3293.3821     8.7210     0.0160    44.2990     2.5780   -32.3740     5.6980     6.2910     6.6930
 3327.0000  3302.6909     8.7140     0.0180    44.8280     2.5780   -32.2580     6.0470     6.5110     6.7530
 3327.5000  3304.9231     8.7070     0.0200    45.9620     2.5780   -32.1080     6.1590     6.6910     7.0030
 3328.0000  3281.2920     8.7010     0.0160    46.8840     2.5740   -31.9580     6.0040     6.4510     7.2020
 3328.5000  3257.6621     8.6940     0.0150    46.3890     2.5710   -31.8090     5.8450     6.2060     6.8110
 3329.0000  3240.7749     8.6870     0.0150    46.0390     2.5710   -31.6610     5.7220     5.9610     6.3220
 3329.5000  3221.5750     8.6800     0.0170    46.1770     2.5730   -31.6950     5.6700     5.7750     6.0470
 3330.0000  3202.3750     8.6750     0.0190    46.6350     2.5750   -31.9770     5.6700     5.7850     6.0760
 3330.5000  3198.5649     8.6810     0.0210    46.8520     2.5750   -32.3310     5.6700     5.7940     6.0990
 3331.0000  3222.6589     8.6880     0.0210    46.2840     2.5700   -32.4150     5.6700     5.8020     6.1220
 3331.5000  3246.7529     8.6940     0.0210    45.7370     2.5660   -32.9230     5.6700     5.8100     6.1460
 3332.0000  3270.0000     8.7010     0.0210    45.5310     2.5620   -33.3880     5.6700     5.8180     6.1690
 3332.5000  3281.8821     8.7080     0.0210    45.9490     2.5580   -33.5470     5.6700     5.8270     6.1920
 3333.0000  3263.8120     8.7140     0.0210    46.3610     2.5550   -33.5270     5.6700     5.8350     6.2160
 3333.5000  3245.7410     8.7210     0.0210    46.4610     2.5590   -33.5010     5.6700     5.8430     6.1920
 3334.0000  3233.3000     8.7270     0.0210    46.4130     2.5630   -33.4740     5.6700     5.8520     6.1670
 3334.5000  3258.8999     8.7340     0.0140    47.2530     2.5620   -33.4480     5.6700     5.8600     6.1420
 3335.0000  3277.7329     8.7410     0.0090    47.2950     2.5670   -33.4220     5.6700     5.8680     6.1160
 3335.5000  3291.3870     8.7470     0.0090    46.8740     2.5710   -33.3970     5.6700     5.8760     6.0910
 3336.0000  3305.0400     8.7540     0.0100    46.6540     2.5730   -33.3710     5.6690     5.9230     6.0660
 3336.5000  3290.0000     8.7510     0.0110    46.8950     2.5760   -32.9890     5.6700     6.0860     6.0470
 3337.0000  3273.0110     8.7440     0.0110    47.1270     2.5790   -32.5470     5.9010     6.2490     6.3540
 3337.5000  3256.8420     8.7380     0.0120    47.3650     2.5820   -32.0870     6.0580     6.4130     6.5960
 3338.0000  3240.6741     8.7310     0.0130    47.0020     2.5830   -32.1060     6.2160     6.5760     6.8390
 3338.5000  3239.9431     8.7250     0.0140    46.5250     2.5840   -32.2850     6.3740     6.7390     7.0810
 3339.0000  3270.0000     8.7180     0.0160    46.0330     2.5860   -32.3690     6.5090     6.8680     7.3360
 3339.5000  3260.9451     8.7120     0.0180    46.6800     2.5890   -32.3700     6.4640     6.7920     7.3000
 3340.0000  3251.6360     8.7050     0.0190    47.4450     2.5910   -32.3710     6.3840     6.7170     7.2330
 3340.5000  3254.6001     8.6980     0.0200    47.8400     2.5940   -32.3710     6.3030     6.6420     7.0300
 3341.0000  3261.9141     8.6940     0.0190    47.1980     2.5940   -32.3710     6.2220     6.5670     6.8270
 3341.5000  3269.2290     8.6900     0.0180    46.5840     2.5940   -32.3710     6.1590     6.5090     6.6300
 3342.0000  3276.5430     8.6860     0.0170    45.9730     2.5920   -32.3710     6.2710     6.6490     6.8390
 3342.5000  3283.8569     8.6830     0.0160    46.0810     2.5910   -32.3710     6.4460     6.8170     7.0430
 3343.0000  3285.8999     8.6790     0.0150    47.3900     2.5890   -32.3710     6.6210     6.9850     7.3200
 3343.5000  3260.3000     8.6760     0.0150    48.6890     2.5870   -32.3710     6.8150     7.1530     7.6080
 3344.0000  3234.7000     8.6720     0.0150    50.0360     2.5850   -32.3710     6.7930     7.3360     7.8240
 3344.5000  3245.6750     8.6690     0.0150    49.9780     2.5820   -32.3710     6.7620     7.1540     7.6980
 3345.0000  3264.8750     8.6650     0.0150    49.7170     2.5810   -32.3700     6.6310     6.9540     7.4530
 3345.5000  3284.0750     8.6620     0.0140    49.8040     2.5790   -32.3680     6.4620     6.7550     7.2070
 3346.0000  3280.7649     8.6580     0.0140    50.2120     2.5770   -32.2100     6.2940     6.5550     6.9620
 3346.5000  3267.4089     8.6550     0.0130    50.2260     2.5690   -31.7560     6.1260     6.3550     6.7170
 3347.0000  3254.0520     8.6520     0.0120    49.6350     2.5640   -31.3050     5.9920     6.2580     6.5690
 3347.5000  3240.6960     8.6490     0.0100    49.0650     2.5590   -30.8580     5.9920     6.2320     6.6870
 3348.0000  3232.2671     8.6460     0.0090    48.5030     2.5560   -30.6620     5.9450     6.2080     6.7850
 3348.5000  3243.6440     8.6420     0.0090    48.1370     2.5530   -30.5220     5.8880     6.1690     6.8780
 3349.0000  3243.0471     8.6390     0.0100    47.8220     2.5530   -30.3830     5.8310     6.1310     6.8780
 3349.5000  3227.2939     8.6360     0.0120    47.5070     2.5530   -30.2420     5.7740     6.0930     6.6690
 3350.0000  3210.0000     8.6380     0.0140    47.1910     2.5580   -30.1030     5.7220     6.0550     6.4290
 3350.5000  3226.7639     8.6430     0.0190    46.8670     2.5650   -30.0460     5.7750     6.0170     6.2410
 3351.0000  3245.3450     8.6470     0.0240    46.7830     2.5670   -30.5840     5.8230     5.9920     6.4510
 3351.5000  3228.1140     8.6510     0.0270    47.3220     2.5640   -31.1330     5.8820     6.0190     6.6610
 3352.0000  3213.8799     8.6550     0.0290    48.2130     2.5590   -31.4010     5.7910     6.0470     6.7530
 3352.5000  3224.1001     8.6510     0.0290    49.2840     2.5550   -31.4880     5.6700     5.9900     6.5320
 3353.0000  3234.3201     8.6460     0.0240    49.4220     2.5520   -31.5730     5.5440     5.8910     6.3430
 3353.5000  3244.5400     8.6420     0.0230    49.1990     2.5500   -31.6570     5.4160     5.7920     6.1540
 3354.0000  3248.6201     8.6370     0.0240    49.6290     2.5490   -31.7510     5.2190     5.6940     5.9920
 3354.5000  3243.5100     8.6370     0.0260    50.5040     2.5480   -31.1940     5.2440     5.5950     5.9320
 3355.0000  3238.3999     8.6420     0.0320    51.3440     2.5470   -30.3050     5.3000     5.4650     5.9230
 3355.5000  3233.2900     8.6460     0.0380    50.8760     2.5430   -30.6510     5.3550     5.5050     5.9150
 3356.0000  3225.4500     8.6500     0.0470    51.6940     2.5370   -31.1900     5.4150     5.5630     5.9070
 3356.5000  3212.6750     8.6540     0.0560    52.7820     2.5020   -31.5800     5.3390     5.6210     5.8990
 3357.0000  3199.8999     8.6700     0.0630    53.6990     2.4570   -31.4450     5.2560     5.6700     5.8910
