~VERSION INFORMATION
 VERS.                2.0:   CWLS LOG ASCII STANDARD - VERSION 2.0
 WRAP.                 NO:   ONE LINE PER DEPTH STEP
~WELL INFORMATION
#MNEM.UNIT      DATA TYPE    INFORMATION
#----------   ------------   ------------------------------
 STRT.F          600.0000:   START DEPTH
 STOP.F         3201.0000:   STOP DEPTH
 STEP.F            0.5000:   STEP LENGTH
 NULL.          -999.2500:   NO VALUE
 COMP.    FENIX & SCISSON:   COMPANY
 WELL. FENIX & SCISSON 38 "AX" #3-34:   WELL
 FLD .              NPR 3:   FIELD
 LOC .      S34 T39N R78W:   LOCATION
 CNTY.            NATRONA:   COUNTY
 STAT.            WYOMING:   STATE
 CTRY. UNITED STATES OF AMERICA:   COUNTRY
 SRVC.              WELEX:   SERVICE COMPANY
 DATE.        16-SEP-1980:   LOGDATE
 API .     49025108560000:   API NUMBER
~CURVE INFORMATION
#MNEM.UNIT       API CODE    CURVE DESCRIPTION
#----------   ------------   ------------------------------
 DEPT.F                  :   
 CORR.G/C3   45 356 01 00:   DENSITY CORRECTION
 GRD .GAPI   45 310 01 00:   GAMMA RAY FROM DENSITY LOG
 RHOB.G/C3   45 350 01 00:   BULK DENSITY
 TEND.LBS    45 635 01 00:   TENSION FORM DENSITY LOG
 CALD.IN     45 280 60 00:   CALIPER FROM DENSITY LOG
 SPR .MV     07 010 01 00:   SPONTANEOUS POTENTIAL FROM RES.
 ILD .OHMM   07 120 46 00:   DEEP INDUCTION RESISTIVITY
 ILM .OHMM   07 120 44 00:   INDUCTION LOG MEDIUM RESISTIVITY
 GURD.OHMM   07 220 05 00:   GUARD LOG RESISTIVITY
~PARAMETER INFORMATION
#MNEM.UNIT          VALUE    DESCRIPTION
#----------   ------------   ------------------------------
 EKB .F         5205.0000:   Kelly bushing
 EGL .F         5195.0000:   Ground level
 TD  .F         3202.0000:   Total depth
 CLNT.            A2DTECH:   Client Code
 SL  . 582' FSL & 1600' FWL:   Surface Location
 PD  .                 GL:   Permanent Datum
 EPD .F              5195:   Elevation Permanent Datum
 LMF .                 KB:   Log Measured From
 DMF .                 KB:   Drilling Measured From
 DAPD.F                10:   Feet Above Permanent Datum
 DATE.        16-SEP-1980:   Date Logged [DD-MMM-YYYY]
 DD  .F              3200:   Depth driller
 DL  .F              3203:   Depth logger
 BLI .F              3201:   Bottom log interval
 TLI .F               600:   Top log interval
 CS1 .IN            8.625:   Casing size
 CBD1.      8.625" @ 580':   Casing driller 1
 CBL1.F               600:   Casing logger 1
 BS1 .IN            7.875:   Bit size
 BSD1.F              3200:   Depth drilled with bit1
 DFT .          DISPERSED:   Type fluid in hole
 DFD .                8.8:   Density
 DFV .                 40:   Viscosity
 DFPH.                 11:   pH
 DFL .                  8:   Fluid loss
 MSS .           FLOWLINE:   Source of sample
 RMS .OHMM           1.33:   Rm
 MST .F                65:   Rm Meas. temp.
 RMF .OHMM           1.15:   Rmf
 MFST.F                65:   Rmf Meas. temp.
 MFSS.               MEAS:   Source Rmf.
 RMC .OHMM           1.50:   Rmc
 MCST.F                65:   Rmc Meas. temp.
 MCSS.               MEAS:   Source Rmc.
 RMB .OHMM            .75:   Rm. at BHT
 BHT .F               115:   BHT.
 TCS .HRS               8:   Time Circ. stopped
 MRT .F               115:   Maximum recorded temp.
 LUN .               1892:   Logging unit number
 LUL .             CASPER:   Logging unit location
 ENGI.    PERIMMER / REIN:   Recorded By
 WITN.              FIVAS:   Witnessed by
 ORIG.         2.5" PRINT:   Origin of data
 UWI .     49025108560000:   Unique Well ID
 DICO. A2D TECHNOLOGIES, INC.:   Digitizing Company
~OTHER INFORMATION
~A   DEPT       CORR       GRD        RHOB      TEND       CALD       SPR          ILD        ILM       GURD 
# ...
 1950.5000     0.0468   114.4378     2.4556   482.2289     9.2931   -28.7786     4.4177     4.4297     5.0078
 1951.0000     0.0451   120.2621     2.4725   482.5301     9.1730   -28.7936     4.4154     4.3843     5.6173
 1951.5000     0.0451   120.4812     2.4782   461.0137     9.1428   -28.8084     4.4379     4.4430     5.2458
 1952.0000     0.0451   116.6478     2.4682   483.1325     9.1724   -28.5177     4.4726     4.4402     4.6932
 1952.5000     0.0480   112.5895     2.4652   483.4608     9.3244   -28.5316     4.4701     4.4379     4.6907
 1953.0000     0.0542   110.7834     2.4700   483.7439     9.3815   -28.5452     4.5306     4.4975     4.7537
 1953.5000     0.0606   112.1305     2.4811   484.0741     9.1716   -28.5587     4.5916     4.4950     5.1209
 1954.0000     0.0639   115.7299     2.4766   484.3373     9.1713   -28.5748     4.5894     4.4925     5.4542
 1954.5000     0.0672   112.7132     2.4675   484.6385     9.1994   -28.5875     4.7291     4.4900     5.3758
 1955.0000     0.0720   108.9036     2.4569   484.9398     9.3802   -28.9013     4.8465     4.4875     5.2989
 1955.5000     0.0689   106.1729     2.4433   485.2409     9.2601   -28.9206     4.8437     4.4229     5.4443
 1956.0000     0.0629   104.4444     2.3998   485.5421     9.0802   -29.2289     4.7744     4.2407     5.6723
 1956.5000     0.0541   101.7424     2.3719   485.8667     9.0500   -29.2425     4.7066     4.1802     5.5914
 1957.0000     0.0447   100.3868     2.3360   486.1446     9.0801   -29.5572     4.5759     4.1780     5.3458
 1957.5000     0.0417   100.3825     2.3411   486.4458     9.2141   -29.5735     4.4489     4.1757     5.0193
 1958.0000     0.0598   100.3783     2.4013   486.7470     9.2887   -29.5862     4.3775     4.1734     4.6624
 1958.5000     0.0883   100.3739     2.4494   487.0482     9.1780   -29.2976     4.2480     4.1478     4.6598
 1959.0000     0.0974   100.8995     2.4854   487.3494     9.1114   -29.3103     4.0435     4.0250     4.7218
 1959.5000     0.0928   102.4267     2.4736   487.7065     9.0614   -29.3238     3.8376     3.7291     4.7851
 1960.0000     0.1018   101.1704     2.4400   487.9895     9.0479   -29.3374     3.6555     3.5263     4.7827
 1960.5000     0.1138    96.5219     2.3879   488.2726     9.1374   -29.2289     3.5052     3.3811     4.2248
 1961.0000     0.0987    96.7469     2.3640   488.5556     9.3467   -29.0633     3.5004     3.3792     3.1008
 1961.5000     0.0557    97.6436     2.3507   490.6318     9.1368   -29.0788     3.5574     3.4246     3.2861
 1962.0000     0.0305    97.1889     2.3666   519.2770     9.0766   -28.7903     3.7723     3.5510     4.2416
 1962.5000     0.0203    96.2837     2.4207   519.5784     9.1187   -28.8030     3.8550     3.7930     5.4775
 1963.0000     0.0466    98.1758     2.3801   519.8795     9.2352   -28.5144     3.8528     3.9267     5.3251
 1963.5000     0.0275   100.7797     2.3695   520.2328     9.2554   -28.2259     3.9047     3.8702     4.8979
 1964.0000     0.0082   100.3250     2.3715   490.3954     9.1932   -28.2410     3.8489     3.8150     4.6215
 1964.5000     0.0082   103.7516     2.4425   490.6626     9.1050   -28.2545     3.8471     3.8130     4.1414
 1965.0000     0.0202   106.1860     2.4793   490.9638     9.0449   -28.5715     3.8990     3.8109     3.3531
 1965.5000     0.0232   108.8686     2.4619   491.2650     9.0745   -28.8854     3.8971     3.8088     3.7183
 1966.0000     0.0226   105.2607     2.4537   491.5663     9.2539   -28.8981     3.9097     3.8067     5.2342
 1966.5000     0.0201   105.1899     2.4558   500.9412     9.1571   -29.5136     3.9697     3.8317     4.1916
 1967.0000     0.0201   107.5044     2.4612   522.2891     9.0382   -29.8896     4.0867     3.9093     3.4510
 1967.5000     0.0246   110.2029     2.4822   522.5904     9.0135   -30.2460     4.1685     4.0166     3.5986
 1968.0000     0.0411   107.4114     2.4957   522.9218     9.0132   -30.7590     4.3430     4.3024     4.3478
 1968.5000     0.0621   107.0412     2.5137   523.2048     9.0129   -30.7750     4.4016     4.6160     5.0609
 1969.0000     0.0651   107.9045     2.5107   523.4940     9.0125   -30.7877     4.3995     5.1702     5.7029
 1969.5000     0.0591   108.6609     2.4966   523.7952     9.0122   -30.8004     4.4712     5.4818     5.9530
 1970.0000     0.0594   110.6299     2.4908   524.0964     9.0419   -30.5118     4.6030     5.6190     5.9030
 1970.5000     0.0696   113.7787     2.4957   524.3976     9.1314   -30.5256     4.7698     5.7390     5.8999
 1971.0000     0.0763   115.5763     2.5009   524.6987     9.0683   -30.5392     4.9055     5.7353     5.8158
 1971.5000     0.0845   115.5720     2.4896   525.0446     8.9764   -30.5527     5.0408     5.7324     5.8938
 1972.0000     0.0800   114.5942     2.4745   525.3276     8.9210   -30.2651     5.1087     5.7294     5.8904
 1972.5000     0.0739   112.6876     2.4610   525.6107     8.9843   -30.2804     5.1062     5.5698     5.8061
 1973.0000     0.0739   110.3305     2.4309   525.9036     9.1145   -29.9918     5.1037     5.4733     5.8029
 1973.5000     0.0769   109.2477     2.4203   526.2048     9.1596   -29.7028     5.1012     5.3112     5.8806
 1974.0000     0.0832   113.6063     2.4206   526.5060     9.0395   -29.4148     5.0707     5.1885     5.8770
 1974.5000     0.0865   117.3468     2.4223   526.8072     8.9494   -29.1262     4.9530     5.1138     6.3830
 1975.0000     0.0919   116.4409     2.4233   527.1084     8.9491   -29.1416     4.6228     5.1112     6.3510
 1975.5000     0.0918   117.3375     2.3967   527.4096     8.9496   -29.1551     4.4327     5.1085     5.5947
 1976.0000     0.0918   120.9369     2.3737   527.7335     9.0084   -29.1706     4.3096     5.1049     5.4725
 1976.5000     0.0888   124.5744     2.3661   528.0165     9.0897   -29.3075     4.3677     5.0328     6.0260
 1977.0000     0.0857   126.0598     2.3556   528.3467     9.1875   -29.4972     4.3655     4.9609     5.8573
 1977.5000     0.0797   134.6501     2.3435   528.6145     8.9638   -29.5214     4.4246     4.8354     4.3166
 1978.0000     0.0796   143.3692     2.3494   528.9156     8.9004   -29.7497     4.3937     4.6535     4.3745
 1978.5000     0.0831   145.9573     2.3961   529.2169     8.9170   -29.8389     4.2988     4.4328     4.5677
 1979.0000     0.0886   150.1884     2.3863   529.5732     9.0365   -30.3113     4.2378     4.3094     4.9898
 1979.5000     0.0856   151.9860     2.3624   529.8563     9.0395   -30.4705     4.1201     4.1895     5.5010
 1980.0000     0.0809   153.7838     2.3564   530.1393     8.8563   -30.7844     4.0616     4.0692     5.2451
 1980.5000     0.0855   150.6261     2.3705   530.4224     8.7662   -31.0983     4.0038     3.9486     4.0702
 1981.0000     0.0945   152.5790     2.3840   530.7229     8.8946   -31.1114     4.0019     3.8851     3.7437
 1981.5000     0.1005   163.1424     2.3795   531.0240     9.0351   -31.1896     3.9999     3.8470     3.4434
 1982.0000     0.0914   161.9547     2.3402   531.3253     8.8760   -31.6436     3.9980     3.8981     3.4614
 1982.5000     0.0747   156.5992     2.3163   531.6265     8.7650   -31.7545     4.0515     3.8960     6.0261
 1983.0000     0.0477   153.0316     2.3186   531.9277     8.7946   -31.8630     4.1634     3.9485     5.5393
 1983.5000     0.0360   151.9497     2.3451   532.2621     8.8542   -32.0828     4.2784     4.1137     4.0026
 1984.0000     0.0311   151.9454     2.3692   532.5302     8.8239   -32.0970     4.4047     4.3003     3.5666
 1984.5000     0.0491   152.3919     2.3749   532.8314     8.7937   -32.1099     4.5936     4.5595     5.1281
 1985.0000     0.0672   153.7387     2.3794   533.1325     8.7285   -32.1244     4.8175     4.8872     6.6684
 1985.5000     0.0852   157.7553     2.3839   533.4337     8.6434   -32.1370     5.1421     5.6473     7.3435
 1986.0000     0.1002   163.1112     2.3792   533.7349     8.7389   -32.1506     5.9505     6.2150     9.1926
 1986.5000     0.1125   168.0988     2.3574   534.0361     8.9068   -32.1667     6.5533     8.0817     9.8845
