~VERSION INFORMATION
 VERS.                2.0:   CWLS LOG ASCII STANDARD - VERSION 2.0
 WRAP.                 NO:   ONE LINE PER DEPTH STEP
~WELL INFORMATION
#MNEM.UNIT      DATA TYPE    INFORMATION
#----------   ------------   ------------------------------
 STRT.F          450.5000:   START DEPTH
 STOP.F         3173.5000:   STOP DEPTH
 STEP.F            0.5000:   STEP LENGTH
 NULL.          -999.2500:   NO VALUE
 COMP.    FENIX & SCISSON:   COMPANY
 WELL. FENIX & SCISSONNPR #72-TX-33:   WELL
 FLD .              N.P.R:   FIELD
 LOC .      S33 T39N R78W:   LOCATION
 CNTY.            NATRONA:   COUNTY
 STAT.            WYOMING:   STATE
 CTRY. UNITED STATES OF AMERICA:   COUNTRY
 SRVC.       SCHLUMBERGER:   SERVICE COMPANY
 DATE.        03-SEP-1981:   LOGDATE
 API .     49025108810000:   API NUMBER
~CURVE INFORMATION
#MNEM.UNIT       API CODE    CURVE DESCRIPTION
#----------   ------------   ------------------------------
 DEPT.F                  :   
 CALD.IN     45 280 60 00:   CALIPER FROM DENSITY LOG
 GRD .GAPI   45 310 01 00:   GAMMA RAY FROM DENSITY LOG
 DPHI.DEC    45 890 03 00:   
 RHOB.G/C3   45 350 01 00:   BULK DENSITY
 CORR.G/C3   45 356 01 00:   DENSITY CORRECTION
 SPR .MV     07 010 01 00:   SPONTANEOUS POTENTIAL
 SFL .OHMM   07 220 01 00:   SHALLOW FOCUSED LOG RESISTIVITY
 ILD .OHMM   07 120 46 00:   DEEP INDUCTION RESISTIVITY
 ILM .OHMM   07 120 44 00:   INDUCTION LOG MEDIUM RESISTIVITY
 TENR.LBS    07 635 01 00:   TENSION FROM RESISTIVITY
~PARAMETER INFORMATION
#MNEM.UNIT          VALUE    DESCRIPTION
#----------   ------------   ------------------------------
 EKB .F         5115.0000:   Kelly bushing
 EGL .F         5105.0000:   Ground level
 EDF .F            0.0000:   Drilling floor
 TD  .F         3162.0000:   Total depth
 DATE.        03-SEP-1981:   Date logged
 CLNT.            A2DTECH:   Client Code
 CTRY.                USA:   Country
 SL  . 808' FNL & 954' FEL:   Surface Location
 PD  .                 GL:   Permanent Datum
 EPD .F              5105:   Elevation Permanent Datum
 LMF .                 KB:   Log Measured From
 DMF .                 KB:   Drilling Measured From
 DAPD.F                10:   Feet Above Permanent Datum
 DD  .F              3162:   Depth driller
 DL  .F              3162:   Depth logger
 BLI .F              3158:   Bottom log interval
 TLI .F              1612:   Top log interval
 CS1 .IN            9.625:   Casing size
 CBD1.      9.625" @ 480':   Casing driller 1
 BS1 .IN            7.875:   Bit size
 BSD1.F              3162:   Depth drilled with bit1
 DFT .              WATER:   Type fluid in hole
 MSS .               TANK:   Source of sample
 RMS .OHMM            6.3:   Rm
 MST .F                73:   Rm Meas. temp.
 RMF .OHMM            6.3:   Rmf
 MFST.F                73:   Rmf Meas. temp.
 TCS .HRS            2200:   Time Circ. stopped
 TLAB.HRS            0300:   Time logger at bottom
 MRT .F               100:   Maximum recorded temp.
 LUN .               8039:   Logging unit number
 LUL .               CSPR:   Logging unit location
 ENGI.           C. PEARR:   Recorded By
 WITN.           R. SCOTT:   Witnessed by
 ORIG.         2.5" PRINT:   Origin of data
 UWI .     49025108810000:   Unique Well ID
 DICO. A2D TECHNOLOGIES, INC.:   Digitizing Company
~OTHER INFORMATION
~A   DEPT     CALD         GRD      DPHI       RHOB       CORR        SPR        SFL        ILD        ILM       TENR   
# ...
 2058.5000     8.8230   121.6472     0.1188     2.4743     0.0680   -34.7179     8.6705     6.1264     5.9460   516.9017
 2059.0000     8.8236   123.9848     0.1212     2.4744     0.0797   -34.0327     8.5128     6.0149     5.7325   517.2080
 2059.5000     8.8244   128.6551     0.1204     2.4881     0.0895   -34.0217     8.2069     5.7987     5.5266   517.6674
 2060.0000     8.8249   134.4893     0.1149     2.5096     0.1618   -34.0107     8.0576     5.6939     5.4261   517.8205
 2060.5000     8.8252   138.5731     0.1149     2.4999     0.1638   -33.9997     7.4916     5.7959     5.3269   518.4330
 2061.0000     8.8651   135.6807     0.1235     2.4559     0.1067   -33.9887     7.0936     5.7934     5.3262   499.0390
 2061.5000     8.8271   132.7825     0.1734     2.4119     0.0604   -33.9778     7.6240     5.7917     5.3237   515.5115
 2062.0000     8.8277   131.0533     0.1750     2.3887    -0.0060   -33.9668     8.3447     5.7903     5.3230   519.5049
 2062.5000     8.7897   132.8100     0.1625     2.4096    -0.0001   -33.9558     8.8075     5.5829     5.4183   519.9643
 2063.0000     8.7900   133.9904     0.1468     2.4337     0.0332   -33.9448     8.6473     5.8927     5.5153   520.4070
 2063.5000     8.7910   133.4195     0.1544     2.4376     0.0215   -33.9338     8.1869     6.1080     5.6154   501.0305
 2064.0000     8.7916   131.1081     0.1620     2.4194    -0.0039   -33.9228     8.1849     6.1065     5.6134   521.1891
 2064.5000     8.7536   130.5371     0.1686     2.4007     0.0020   -33.9118     8.7968     6.2152     5.6107   521.5885
 2065.0000     8.7542   130.5535     0.1686     2.4007     0.0255   -33.9008     9.8032     6.2145     5.7567   521.9547
 2065.5000     8.7938   129.4003     0.1300     2.4464     0.0548   -33.8898     9.8008     6.2130     5.8148   522.2612
 2066.0000     8.7940   127.6705     0.1077     2.4925     0.0568   -33.8788     9.6213     6.2100     5.9182   522.4143
 2066.5000     8.7952   127.6813     0.1092     2.4847     0.0587   -33.8678     9.6189     6.2085     5.9164   523.0267
 2067.0000     8.7569   129.4439     0.1209     2.4770     0.0646   -33.8569     9.1069     6.4361     5.9145   523.4860
 2067.5000     8.7965   130.6191     0.1232     2.4672     0.0783   -33.8459     8.9412     6.4345     6.1312   523.9111
 2068.0000     8.7973   131.2177     0.1264     2.4380     0.0530   -33.8349     8.6200     6.4322     6.1297   504.5538
 2068.5000     8.7979   131.8108     0.1552     2.4205     0.0281   -33.8239     8.6179     6.6672     6.2402   524.5576
 2069.0000     8.7981   133.5739     0.1560     2.4244     0.0082   -33.8129     9.4313     6.7867     6.4664   525.0387
 2069.5000     8.7993   134.1727     0.1421     2.4479     0.0101   -33.8019    10.5089     6.9091     6.4656   525.4760
 2070.0000     8.8001   134.7660     0.1278     2.4636     0.0205   -33.7909    10.5076     7.0329     6.7016   506.0853
 2070.5000     8.8006   134.2003     0.1294     2.4636     0.0317   -33.7799    10.8925     7.1598     6.6992   506.5252
 2071.0000     8.8014   133.6291     0.1302     2.4617     0.0317   -33.7689    11.4965     7.4213     6.8199   506.8511
 2071.5000     8.8020   133.0633     0.1302     2.4598     0.0220   -33.7579    11.9147     7.4195     6.8182   507.3105
 2072.0000     8.8025   130.1627     0.1340     2.4559     0.0103   -33.7469    11.9133     7.5524     6.6935   507.7154
 2072.5000     8.8034   127.8496     0.1348     2.4540     0.0025   -33.7359    10.8778     7.1502     6.2237   488.5335
 2073.0000     8.8042   127.2781     0.1340     2.4579     0.0046   -33.7250    10.1152     6.7703     6.0010   508.3824
 2073.5000     8.8047   127.2944     0.1337     2.4619     0.0026   -33.7140     9.7518     6.2946     5.6824   508.5355
 2074.0000     8.8055   125.5580     0.1262     2.4678     0.0085   -33.7030     9.2338     6.1801     5.3801   509.2709
 2074.5000     8.8061   122.0794     0.1536     2.4405     0.1042   -33.6920     7.4274     5.9580     5.0933   509.6074
 2075.0000     8.8066   120.9252     0.1740     2.4093     0.1022   -33.6810     6.9067     5.7445     5.1864   509.7605
 2075.5000     8.8077   122.1061     0.1944     2.3469     0.0359   -33.6700     5.9730     5.7425     5.3750   510.4034
 2076.0000     8.8471   125.0294     0.2197     2.3138     0.0183   -33.6590     7.2879     5.7406     5.4725   510.8327
 2076.5000     8.8476   127.9583     0.1628     2.3490     0.0067   -33.6494     9.3876     5.8439     5.6729   510.9858
 2077.0000     8.8485   129.7168     0.1387     2.3704     0.0087   -33.6528    10.5613     5.8432     5.8799   511.5564
 2077.5000     8.8493   130.8984     0.1112     2.4739     0.0048   -33.6630    10.5592     6.0560     5.8770   511.9044
 2078.0000     8.8110   133.2398     0.1112     2.4759     0.0029   -33.6731    10.5574     6.0545     5.8756   512.2106
 2078.5000     8.8683   133.8390     0.1112     2.4759     0.0069   -33.6799    10.3638     6.0523     5.8742   512.7237
 2079.0000     8.8900   132.6847     0.1127     2.4799     0.0069   -33.6900     9.6362     5.7307     5.8721   513.1292
 2079.5000     8.8132   129.2052     0.1104     2.4897     0.0422   -33.6968     9.1225     5.6258     5.6613   513.4354
 2080.0000     8.9691   125.7199     0.1049     2.5112     0.0775   -33.7103     8.4810     5.2306     5.0769   513.9259
 2080.5000     9.0476   126.3189     0.0971     2.5346     0.1202   -33.7188     7.4670     5.0433     4.8958   514.2008
 2081.0000     9.1259   128.6607     0.1344     2.4343     0.0890   -33.7272     5.8461     4.9509     4.5518   514.6601
 2081.5000     9.2044   130.4253     0.1717     2.3455     0.0578   -33.7359     5.7398     4.8609     4.5512   515.1171
 2082.0000     9.1273   128.6879     0.2109     2.3318     0.0266   -33.7373     6.0580     4.8597     4.5490   515.4255
 2082.5000     8.9727   126.3730     0.2117     2.3260     0.0032   -33.7509     6.6305     4.8580     4.7156   515.7316
 2083.0000     8.9733   128.1378     0.1617     2.4465     0.0570   -33.7595     6.9982     4.7696     4.6294   516.2043
 2083.5000     8.9741   129.3144     0.1117     2.5602     0.1008   -33.7682     7.1243     4.7679     4.5452   516.6500
 2084.0000     8.9746   128.7478     0.0751     2.5283     0.0736   -33.7768     7.1217     4.8533     4.5436   516.9562
 2084.5000     9.0066   128.7587     0.0970     2.4920     0.0775   -33.7855     7.3808     4.8528     4.5425   517.1092
 2085.0000     9.0149   128.7751     0.1125     2.5003     0.1307   -33.7941     7.3799     4.7634     4.5409   517.8097
 2085.5000     9.0546   128.7860     0.1024     2.5086     0.1593   -33.0146     7.1140     4.6803     4.5398   518.1810
 2086.0000     9.0551   127.6364     0.0977     2.5155     0.2005   -33.0214     5.8285     4.5911     4.3774   518.3341
 2086.5000     9.0560   127.6472     0.1110     2.4947     0.2005   -33.0281     5.4200     4.5906     4.1441   518.9495
 2087.0000     9.0568   128.2466     0.1243     2.4739     0.1627   -33.4385     5.1316     4.5884     3.9959   519.2524
 2087.5000     9.0185   128.8405     0.1376     2.4531     0.1248   -33.4419     5.5151     4.5878     3.9954   519.5585
 2088.0000     8.9416   130.0230     0.1546     2.4221     0.0562   -33.8422     6.1465     4.5862     4.2168   520.1075
 2088.5000     8.9418   130.6280     0.1553     2.4240     0.0680   -33.8523     7.1019     4.5840     4.3706   520.4767
 2089.0000     9.0207   128.8841     0.1171     2.4565     0.0641   -33.8625     7.7730     4.5529     4.4489   520.7828
 2089.5000     9.1768   127.1457     0.0952     2.4890     0.1324   -34.2594     8.2028     4.6345     4.4473   521.2783
 2090.0000     9.2553   125.9956     0.1095     2.5139     0.1520   -34.2729     6.4818     4.7182     4.2877   521.7009
 2090.5000     9.3335   124.8401     0.1237     2.4714     0.1100   -34.2831     5.8124     4.8028     4.2866   522.0070
 2091.0000     9.4123   120.1907     0.1379     2.4282     0.0680   -34.2917     5.8110     4.8895     4.3639   522.4467
 2091.5000     9.4514   120.2013     0.1583     2.4184     0.0312   -34.2966     6.0231     5.0683     4.6057   522.8864
