~VERSION INFORMATION
 VERS.                2.0:   CWLS LOG ASCII STANDARD - VERSION 2.0
 WRAP.                 NO:   ONE LINE PER DEPTH STEP
~WELL INFORMATION
#MNEM.UNIT      DATA TYPE    INFORMATION
#----------   ------------   ------------------------------
 STRT.F           30.0000:   START DEPTH
 STOP.F         3240.0000:   STOP DEPTH
 STEP.F            0.5000:   STEP LENGTH
 NULL.          -999.2500:   NO VALUE
 COMP. LAWRENCE-ALLISON ASSOCIATES WES:   COMPANY
 WELL. LAWRENCE "AX" #87AX28:   WELL
 FLD .   TEAPOT N.P.R. #3:   FIELD
 LOC .      S28 T39N R78W:   LOCATION
 CNTY.            NATRONA:   COUNTY
 STAT.            WYOMING:   STATE
 CTRY. UNITED STATES OF AMERICA:   COUNTRY
 SRVC.       SCHLUMBERGER:   SERVICE COMPANY
 DATE.        28-MAY-1982:   LOGDATE
 API .     49025108860000:   API NUMBER
~CURVE INFORMATION
#MNEM.UNIT       API CODE    CURVE DESCRIPTION
#----------   ------------   ------------------------------
 DEPT.F                  :   
 TENR.LBS    07 635 01 00:   TENSION FROM RESISTIVITY
 GRR .GAPI   07 310 01 00:   GAMMA RAY FROM RESISTIVITY
 SPR .MV     07 010 01 00:   SPONTANEOUS POTENTIAL FROM RES.
 ILD .OHMM   07 120 46 00:   DEEP INDUCTION RESISTIVITY
 ILM .OHMM   07 120 44 00:   INDUCTION LOG MEDIUM RESISTIVITY
 SFL .OHMM   07 220 01 00:   SHALLOW FOCUSED LOG RESISITIVITY
 TEND.LBS    45 635 01 00:   TENSION FORM DENSITY LOG
 NPHI.DEC    42 890 03 00:   NEUTRON POROSITY SANDSTONE
 CALD.IN     45 280 60 00:   CALIPER FROM DENSITY LOG
 CORR.G/C3   45 356 01 00:   DENSITY CORRECTION
 RHOB.G/C3   45 350 01 00:   BULK DENSITY
~PARAMETER INFORMATION
#MNEM.UNIT          VALUE    DESCRIPTION
#----------   ------------   ------------------------------
 EKB .F         5070.0000:   Kelly bushing
 EGL .F         5060.0000:   Ground level
 TD  .F         3220.0000:   Total depth
 CLNT.            A2DTECH:   Client Code
 SL  . 1341' FSL & 162' FEL:   Surface Location
 PD  .                 GL:   Permanent Datum
 EPD .F              5060:   Elevation Permanent Datum
 LMF .                 KB:   Log Measured From
 DMF .                 KB:   Drilling Measured From
 DAPD.F                10:   Feet Above Permanent Datum
 DATE.        28-MAY-1982:   Date Logged [DD-MMM-YYYY]
 DD  .F              3220:   Depth driller
 DL  .F              3215:   Depth logger
 BLI .F              3212:   Bottom log interval
 TLI .F               489:   Top log interval
 CS1 .IN            9.625:   Casing size
 CBD1.      9.625" @ 461':   Casing driller 1
 CBL1.F               489:   Casing logger 1
 BS1 .IN            9.750:   Bit size
 BSD1.F              3220:   Depth drilled with bit1
 DFT .          POLY./KCL:   Type fluid in hole
 DFD .                8.8:   Density
 DFV .                 44:   Viscosity
 DFPH.                7.0:   pH
 DFL .                8.0:   Fluid loss
 MSS .           MUD TANK:   Source of sample
 RMS .OHMM          0.778:   Rm
 MST .F                65:   Rm Meas. temp.
 RMF .OHMM          0.710:   Rmf
 MFST.F                67:   Rmf Meas. temp.
 MFSS.               MEAS:   Source Rmf.
 RMB .OHMM          0.447:   Rm. at BHT
 BHT .F               118:   BHT.
 TCS .HRS            2000:   Time Circ. stopped
 TLAB.HRS            2430:   Time logger at bottom
 MRT .F               118:   Maximum recorded temp.
 LUN .               8043:   Logging unit number
 LUL .               CSPR:   Logging unit location
 ENGI.             DENNIS:   Recorded By
 WITN.             STRONG:   Witnessed by
 ORIG.           5" PRINT:   Origin of data
 UWI .     49025108860000:   Unique Well ID
 DICO. A2D TECHNOLOGIES, INC.:   Digitizing Company
~OTHER INFORMATION
~A   DEPT     TENR         GRR       SPR        ILD        ILM        SFL       TEND       NPHI       CALD       CORR       RHOB   
# ...
 2805.5000  1483.3370   129.8619   -31.7850     4.4675     4.4352     5.4686  1624.7638    -0.0509    10.9813    -0.0044     2.5006
 2806.0000  1484.1692   125.8000   -31.7791     4.5024     4.4690     5.4724  1622.4618    -0.0430    10.9963    -0.0019     2.5038
 2806.5000  1485.0015   117.5520   -32.2326     4.5702     4.5029     5.5162  1620.1387    -0.0439    10.9960     0.0043     2.5069
 2807.0000  1485.8337   117.3293   -32.3798     4.6389     4.5382     5.6393  1633.2897    -0.0464    10.9957     0.0098     2.5070
 2807.5000  1486.6659   119.8633   -32.5269     4.6752     4.6049     5.7243  1630.4133    -0.0573    10.9954     0.0153     2.5093
 2808.0000  1487.4982   121.7071   -32.6741     4.7118     4.6399     5.8520  1628.1113    -0.0741    11.0104     0.0185     2.5194
 2808.5000  1488.3303   122.8628   -32.5135     4.7523     4.6752     5.8979  1625.8093    -0.0766    11.0140     0.0170     2.5257
 2809.0000  1489.1626   123.3304   -32.5076     4.8555     4.7445     5.9020  1623.5073    -0.0720    11.0251     0.0108     2.5227
 2809.5000  1489.9949   123.7982   -32.5016     4.9638     4.8148     5.9062  1621.2053    -0.0615    11.0248     0.0045     2.5188
 2810.0000  1490.8270   124.0385   -32.3430     5.0385     4.8861     5.9960  1634.3354    -0.0547    11.0244    -0.0022     2.5127
 2810.5000  1491.6593   123.8158   -32.3366     5.1143     4.9940     6.0431  1631.4590    -0.0544    11.0242    -0.0036     2.5081
 2811.0000  1492.4915   120.8453   -32.1775     5.1913     5.0685     6.0472  1645.1647    -0.0572    11.0239    -0.0020     2.5074
 2811.5000  1493.3237   116.7257   -32.1691     5.2694     5.1436     6.1383  1642.2871    -0.0689    11.0235    -0.0011     2.5113
 2812.0000  1494.1560   113.9823   -31.8591     5.3488     5.2197     6.3654  1639.9851    -0.0815    11.0385    -0.0010     2.5129
 2812.5000  1494.9882   113.0734   -31.5456     5.4301     5.2971     6.6009  1653.1152    -0.0873    11.0452     0.0006     2.5104
 2813.0000  1495.8204   112.8533   -31.2334     5.3566     5.3749     6.9446  1666.2463    -0.0950    11.0690     0.0022     2.5045
 2813.5000  1496.6526   112.1741   -31.2274     5.2841     5.2641     7.1504  1663.3689    -0.1024    11.0835     0.0031     2.5015
 2814.0000  1497.4849   113.1027   -31.0683     5.2117     5.1185     7.0039  1661.0669    -0.1073    11.0985     0.0016     2.4953
 2814.5000  1498.3170   115.6345   -30.9092     5.0691     5.0124     6.5265  1674.7725    -0.0792    11.1135     0.0001     2.4892
 2815.0000  1499.1493   117.0195   -30.7501     4.9650     4.8396     6.0816  1672.0677    -0.0459    11.1131    -0.0046     2.4854
 2815.5000  1499.9816   112.9000   -30.7442     4.8246     4.7056     5.5868  1685.1079    -0.0329    11.1128    -0.0052     2.4870
 2816.0000  1500.8137   108.3217   -30.7381     4.7291     4.6411     5.3156  1682.7161    -0.0345    11.1125    -0.0020     2.4959
 2816.5000  1501.6460   105.8077   -30.8854     4.6651     4.6432     5.2844  1679.8467    -0.0568    11.1122    -0.0058     2.5010
 2817.0000  1502.4781   105.8181   -31.1843     4.7361     4.7119     5.4033  1677.5447    -0.0792    11.1119    -0.0081     2.5018
 2817.5000  1503.3104   106.5150   -31.4861     4.8418     4.7844     5.6032  1675.2427    -0.0881    11.1116    -0.0080     2.5034
 2818.0000  1504.1427   107.6707   -31.7849     4.9499     4.9228     5.7692  1672.9407    -0.0908    11.1266    -0.0072     2.5051
 2818.5000  1504.9749   109.5145   -31.7790     5.0603     5.0675     6.0255  1686.6462    -0.0912    11.1416    -0.0048     2.5082
 2819.0000  1505.8071   111.3582   -31.9276     5.1042     5.1793     6.2931  1683.7699    -0.0939    11.1566    -0.0008     2.5144
 2819.5000  1506.6393   113.4313   -32.2266     5.2146     5.2937     6.4852  1681.4048    -0.0995    11.1563     0.0000     2.5209
 2820.0000  1507.4716   114.8165   -32.3737     5.3517     5.2600     6.5772  1678.5903    -0.1179    11.1723    -0.0007     2.5238
 2820.5000  1508.3038   113.2220   -32.3675     5.4365     5.4156     6.4424  1676.6208    -0.1180    11.1863    -0.0014     2.5239
 2821.0000  1509.1360   108.8731   -32.3603     5.4748     5.4586     6.3104  1673.9863    -0.1146    11.2012     0.0002     2.5255
 2821.5000  1509.9683   104.9829   -32.2012     5.5568     5.5011     6.3159  1687.1174    -0.1068    11.2162     0.0050     2.5294
 2822.0000  1510.8004   103.3840   -32.1952     5.5999     5.5440     6.3202  1684.8154    -0.1004    11.2312     0.0097     2.5357
 2822.5000  1511.6327   105.6887   -32.1893     5.6031     5.5873     6.4613  1682.4843    -0.0964    11.2615     0.0098     2.5326
 2823.0000  1512.4650   108.6793   -32.0302     5.6466     5.5908     6.5194  1695.0680    -0.0937    11.2612     0.0091     2.5304
 2823.5000  1513.2971   111.4405   -31.8711     5.6499     5.5945     6.7061  1692.7660    -0.0950    11.2762     0.0084     2.5312
 2824.0000  1514.1294   113.7985   -31.4057     5.6128     5.5592     6.7107  1690.4640    -0.0975    11.2758     0.0053     2.5336
 2824.5000  1514.9615   116.2770   -31.2389     5.5345     5.5224     6.5254  1704.1708    -0.0981    11.2909     0.0007     2.5305
 2825.0000  1515.7938   117.4327   -30.9341     5.3773     5.2580     6.3474  1701.2932    -0.0884    11.3211    -0.0016     2.5143
 2825.5000  1516.6261   117.4416   -30.6207     4.9095     4.7620     6.1732  1698.9912    -0.0811    11.3361    -0.0038     2.5028
 2826.0000  1517.4583   117.2189   -30.3084     4.5087     4.5011     5.8293  1696.6052    -0.0821    11.3511    -0.0045     2.4974
 2826.5000  1518.2905   121.8172   -30.1494     4.2002     4.2239     5.0640  1693.8118    -0.0843    11.3508    -0.0029     2.4935
 2827.0000  1519.1227   130.0829   -29.9903     3.8026     3.7203     4.5862  1691.5096    -0.0864    11.3658    -0.0013     2.4882
 2827.5000  1519.9550   147.8190   -30.1375     3.5172     3.1816     4.0655  1689.2089    -0.0761    11.3654     0.0035     2.4767
 2828.0000  1520.7872   150.0699   -30.1315     3.3715     2.8407     3.1029  1686.9069     0.0171    11.3805     0.0113     2.4535
 2828.5000  1521.6194   148.2303   -30.1255     3.2089     2.7622     2.7117  1669.1727     0.0442    11.3801     0.0192     2.4381
 2829.0000  1522.4517   134.9365   -29.9663     3.1203     2.8242     2.5608  1666.8204     0.0482    11.3798     0.0169     2.4420
 2829.5000  1523.2838   120.7252   -30.1136     3.2131     3.0563     2.8009  1663.9932     0.0322    11.3489     0.0122     2.4568
 2830.0000  1524.1161   109.0368   -30.1062     3.3798     3.3851     4.0512  1661.6923    -0.0418    11.2875     0.0069     2.4733
 2830.5000  1524.9484   105.1191   -29.9471     3.6323     3.7900     4.9145  1659.3903    -0.0996    11.2095     0.0062     2.5041
 2831.0000  1525.7805   104.0088   -30.0958     4.0746     4.1015     5.5912  1673.0959    -0.1149    11.1645     0.0125     2.5343
 2831.5000  1526.6128   104.9373   -30.2415     4.5059     4.5024     5.7981  1670.2184    -0.1192    11.1336     0.0134     2.5375
 2832.0000  1527.4449   107.6985   -30.3902     4.8424     4.8035     5.8854  1667.9011    -0.1113    11.0874     0.0134     2.5275
 2832.5000  1528.2772   112.0652   -30.5359     5.1670     5.0524     6.0598  1665.0388    -0.1013    11.0565     0.0135     2.5205
 2833.0000  1529.1094   116.4319   -30.3767     5.3581     5.2764     6.1566  1678.1702    -0.0991    11.0563     0.0144     2.5222
 2833.5000  1529.9417   119.6518   -30.3706     5.3613     5.2423     6.2894  1676.1573    -0.0983    11.0560     0.0176     2.5253
 2834.0000  1530.7739   118.7432   -30.2102     5.2882     5.1723     6.1605  1673.5660    -0.0886    11.0404     0.0192     2.5261
 2834.5000  1531.3026   115.7207   -30.2043     5.2535     5.1016     5.9489  1671.3730    -0.0776    11.0094     0.0208     2.5254
 2835.0000  1531.1622   113.4858   -30.0452     5.1085     5.0686     5.7445  1668.9813    -0.0779    10.9633     0.0224     2.5216
 2835.5000  1531.0220   114.1850   -29.8867     5.0037     5.0359     5.5472  1666.5898    -0.0813    10.8865     0.0256     2.5186
