~VERSION INFORMATION
 VERS.                2.0:   CWLS LOG ASCII STANDARD - VERSION 2.0
 WRAP.                 NO:   ONE LINE PER DEPTH STEP
~WELL INFORMATION
#MNEM.UNIT      DATA TYPE    INFORMATION
#----------   ------------   ------------------------------
 STRT.F            0.0000:   START DEPTH
 STOP.F         1071.5000:   STOP DEPTH
 STEP.F            0.5000:   STEP LENGTH
 NULL.          -999.2500:   NO VALUE
 COMP.       FLUOR DANIEL:   COMPANY
 WELL.     FLUOR X #82-22:   WELL
 FLD .                NPR:   FIELD
 LOC .      S22 T38N R78W:   LOCATION
 CNTY.            NATRONA:   COUNTY
 STAT.            WYOMING:   STATE
 CTRY. UNITED STATES OF AMERICA:   COUNTRY
 SRVC.      WESTERN ATLAS:   SERVICE COMPANY
 DATE.        19-SEP-1994:   LOGDATE
 API .     49025226520000:   API NUMBER
~CURVE INFORMATION
#MNEM.UNIT       API CODE    CURVE DESCRIPTION
#----------   ------------   ------------------------------
 DEPT.F                  :   
 GRR .GAPI   07 310 01 00:   GAMMA RAY FROM RESISTIVITY
 TENR.LBS    07 635 01 00:   TENSION
 ILD .OHMM   07 120 46 00:   INDUCTION LOG DEEP RESISTIVITY
 ILM .OHMM   07 120 44 00:   INDUCTION LOG MEDIUM RESISTIVITY
~PARAMETER INFORMATION
#MNEM.UNIT          VALUE    DESCRIPTION
#----------   ------------   ------------------------------
 EKB .F         5288.0000:   Kelly bushing
 EGL .F         5278.0000:   Ground level
 EDF .F         5287.0000:   Drilling floor
 EPD .F         5278.0000:   Permanent datum
 TD  .F         1062.0000:   Total depth
 DATE.        19-SEP-1994:   Date logged
 CLNT.            A2DTECH:   Client Code
 SL  . 937' FNL & 347' FEL:   Surface Location
 PD  .                 GL:   Permanent Datum
 LMF .                 KB:   Log Measured From
 DMF .                 KB:   Drilling Measured From
 DAPD.F                10:   Feet Above Permanent Datum
 DD  .F              1060:   Depth driller
 DL  .F              1062:   Depth logger
 BLI .F              1054:   Bottom log interval
 CS1 .IN            9.625:   Casing size
 CBD1.       9.625" @ 77':   Casing driller 1
 CBL1.F                78:   Casing logger 1
 BS1 .IN             8.75:   Bit size
 BSD1.F              1060:   Depth drilled with bit1
 DFT .                AIR:   Type fluid in hole
 LUN .            HL 6530:   Logging unit number
 LUL .             CASPER:   Logging unit location
 ENGI.      PAT RASMUSSEN:   Recorded By
 WITN.        GARY STRONG:   Witnessed by
 ORIG.           5" PRINT:   Origin of data
 UWI .     49025226520000:   Unique Well ID
 DICO. A2D TECHNOLOGIES, INC.:   Digitizing Company
~OTHER INFORMATION
~A    DEPT      GRR      TENR        ILD        ILM   
# ...
  365.0000   123.7950     0.8380     4.0740     4.0630
  365.5000   126.2240   -16.3980     3.9340     3.9700
  366.0000   129.0980   -33.7020     4.0820     4.0550
  366.5000   132.2570   -32.1870     4.1170     4.2760
  367.0000   132.1480   -30.6660     4.1520     4.4970
  367.5000   127.3480   -29.1450     4.1860     4.7180
  368.0000   123.5010   -27.6250     4.3670     4.9590
  368.5000   120.5140   -26.1040     4.7500     5.1710
  369.0000   120.8150   -24.5830     5.1870     5.4040
  369.5000   121.4980   -24.0800     5.5720     5.6190
  370.0000   123.3840   -25.2290     5.8590     5.7560
  370.5000   122.6090   -26.3780     5.8200     5.8590
  371.0000   121.8700   -27.5270     5.7590     5.8010
  371.5000   122.8240   -28.6770     5.7160     5.7540
  372.0000   123.7900   -29.8260     5.6650     5.7070
  372.5000   122.5280   -30.9750     5.6140     5.6600
  373.0000   119.0880   -32.1240     5.5630     5.6130
  373.5000   116.5370   -33.2730     5.3490     5.4240
  374.0000   116.3500   -26.5030     5.0250     5.1410
  374.5000   116.2850   -15.0120     4.5200     4.8580
  375.0000   114.4310   -15.2580     3.9190     4.2400
  375.5000   112.5830   -17.1730     3.3170     3.5740
  376.0000   110.7360   -19.0890     2.8400     3.0250
  376.5000   110.7700   -21.0040     2.4980     2.5690
  377.0000   111.7920   -22.9190     2.5090     2.5450
  377.5000   115.3850   -23.6420     2.5280     2.5450
  378.0000   119.3590   -23.6420     2.5480     2.5860
  378.5000   120.2550   -26.5590     2.5670     2.9100
  379.0000   117.2640   -30.8690     2.7160     3.2750
  379.5000   114.6120   -35.1780     3.0160     3.6330
  380.0000   115.9480   -39.4870     3.4320     3.9560
  380.5000   120.0150   -43.7630     3.8480     4.2760
  381.0000   121.4390   -37.6320     4.2490     4.5970
  381.5000   122.7260   -31.5480     4.6390     4.9170
  382.0000   124.0510   -25.4650     4.8680     5.0030
  382.5000   123.7320   -25.7720     5.1010     5.0530
  383.0000   121.9490   -28.8140     5.1180     5.1030
  383.5000   118.7130   -31.8560     5.1360     5.1540
  384.0000   115.4850   -33.0010     5.1460     5.1940
  384.5000   114.8780   -31.2180     5.1150     5.1080
  385.0000   116.1140   -29.4350     5.0400     5.0350
  385.5000   117.9930   -27.6520     4.9650     4.9630
  386.0000   119.3990   -25.8690     4.8630     4.8580
  386.5000   117.9470   -24.0860     4.6990     4.6790
  387.0000   114.9330   -25.9260     4.5150     4.5000
  387.5000   112.6950   -28.9680     4.2290     4.3090
  388.0000   114.3580   -32.0100     3.9440     4.0680
  388.5000   115.1570   -35.0510     3.6590     3.7610
  389.0000   114.6610   -38.0930     3.2920     3.3710
  389.5000   114.9200   -41.1350     2.9130     2.9810
  390.0000   116.6090   -42.3540     2.5330     2.5910
  390.5000   117.7850   -32.0120     2.3410     2.3410
  391.0000   117.2190   -21.6700     2.3410     2.4270
  391.5000   116.1490   -11.3280     2.4630     2.4980
  392.0000   116.3270    -3.5210     2.6140     2.9280
  392.5000   117.1700   -13.7070     2.7520     3.3480
  393.0000   117.6540   -23.4030     2.9430     3.7680
  393.5000   116.3470   -33.7020     3.2750     4.1880
  394.0000   113.9210   -30.1100     3.6550     4.6080
  394.5000   109.7790   -26.2800     4.1970     5.0280
  395.0000   108.5250   -22.4500     5.0860     5.3520
  395.5000   111.9430   -18.6190     5.5370     5.6140
  396.0000   116.5180   -14.7890     5.7280     5.8050
  396.5000   114.9510   -18.6400     5.7520     5.7820
  397.0000   112.5570   -26.0280     5.7520     5.7630
  397.5000   110.3150   -33.4150     5.6670     5.7120
  398.0000   109.8610   -40.8020     5.5550     5.6010
  398.5000   111.8220   -38.9960     5.2860     5.4910
  399.0000   114.4990   -31.0400     4.9590     5.0730
  399.5000   114.9390   -23.6420     4.4750     4.6910
  400.0000   115.3560   -23.6420     4.0110     3.9610
  400.5000   119.1970   -23.6420     3.5460     3.3400
  401.0000   123.4560   -23.6420     3.2710     3.1650
  401.5000   127.8340   -23.6420     3.1600     2.9520
  402.0000   132.2030   -23.6420     3.0910     3.1190
  402.5000   134.8730   -23.6420     3.1080     3.3350
  403.0000   132.0560   -23.6420     3.1200     3.5520
  403.5000   123.8710   -24.1970     3.2800     3.7690
  404.0000   120.0230   -26.4330     3.3920     3.9860
  404.5000   118.1710   -28.6680     3.7600     4.2020
  405.0000   118.1810   -30.9030     4.1030     4.4190
  405.5000   117.8190   -33.1380     4.3890     4.5600
  406.0000   117.3710   -35.3730     4.6520     4.7130
  406.5000   116.9380   -37.6080     4.8770     4.8670
  407.0000   116.1960   -39.8430     4.9270     4.9970
  407.5000   115.9440   -42.0790     4.9770     5.0910
  408.0000   117.2530   -42.8780     5.0760     5.1850
  408.5000   119.7350   -39.2920     5.1940     5.2910
  409.0000   121.0090   -35.7050     5.1600     5.2000
  409.5000   120.9720   -32.1180     5.0550     5.0950
  410.0000   122.8650   -28.5320     4.9730     4.9740
  410.5000   125.3980   -24.9450     4.7380     4.7430
  411.0000   127.3290   -21.3580     4.5030     4.5130
  411.5000   125.7580   -17.7720     4.2630     4.2820
  412.0000   120.9500   -14.1850     4.0020     4.0520
  412.5000   116.0730   -19.9950     3.7420     3.8220
  413.0000   115.1930   -27.7060     3.6260     3.6450
  413.5000   118.3130   -35.4180     3.5860     3.6140
  414.0000   119.5480   -43.7630     3.5460     3.5840
  414.5000   116.4270   -37.3290     3.5050     3.5520
  415.0000   112.7570   -30.3180     3.3610     3.3910
  415.5000   110.4320   -23.3080     3.1290     3.2180
  416.0000   111.2910   -16.2980     3.0140     3.0460
  416.5000   113.8990   -13.5810     2.8580     2.8750
  417.0000   117.1280   -13.5810     2.6740     2.7050
  417.5000   119.4760   -13.5810     2.4900     2.5350
  418.0000   120.8530   -13.5810     2.3060     2.3650
  418.5000   122.0570   -13.5810     2.1740     2.2150
  419.0000   122.4070   -13.5810     2.2560     2.2760
  419.5000   120.9120   -13.5810     2.3690     2.4100
  420.0000   118.5050   -13.5810     2.4830     2.6680
  420.5000   115.6750   -13.5810     2.5970     2.9260
  421.0000   110.9210   -13.5810     2.8000     3.1840
  421.5000   106.5680   -13.5810     3.0590     3.4690
  422.0000   107.7290   -13.5810     3.4100     3.7900
  422.5000   110.5400   -13.5810     3.8080     4.0820
  423.0000   112.5460   -13.5810     4.1200     4.1120
  423.5000   112.0760   -13.5810     4.1070     4.1400
  424.0000   111.0250   -15.1510     4.0900     4.1590
  424.5000   112.4710   -24.0900     3.9730     3.9540
  425.0000   115.1650   -26.6600     3.7790     3.7740
  425.5000   118.8360   -29.2300     3.5860     3.5500
  426.0000   123.0550   -31.8010     3.3510     3.3260
  426.5000   127.5960   -30.8350     3.1070     3.1020
  427.0000   133.0610   -19.8190     2.8630     2.8780
  427.5000   137.8560    -8.8030     2.7250     2.7560
  428.0000   140.7400    -3.5210     2.6900     2.7150
  428.5000   142.7540    -4.4890     2.7670     2.7630
  429.0000   144.8870   -10.9150     2.8700     2.9970
  429.5000   144.7570   -17.3420     2.9740     3.3620
  430.0000   136.0780   -23.7680     3.1400     3.7270
  430.5000   125.4160   -30.1940     3.3960     4.0910
  431.0000   119.1120   -29.5830     3.7070     4.4560
  431.5000   117.8210   -20.5110     4.1760     4.8200
  432.0000   117.9870   -11.4390     4.6450     5.1560
  432.5000   118.1680    -4.3060     5.1460     5.2460
  433.0000   118.3420   -10.4750     5.3050     5.3410
  433.5000   118.5130   -16.6440     5.4760     5.5050
  434.0000   118.6800   -22.8130     5.6460     5.6770
  434.5000   118.8570   -28.9820     5.8160     5.8490
  435.0000   119.4490   -33.7020     5.9870     6.0620
  435.5000   121.7210   -33.7020     6.2170     6.2990
  436.0000   123.9340   -33.7020     6.5200     6.5360
  436.5000   124.8770   -33.7020     6.7690     6.7950
  437.0000   123.9380   -33.7020     6.8900     6.8590
  437.5000   121.6100   -33.7020     6.9630     6.9290
