~VERSION INFORMATION
 VERS.                2.0:   CWLS LOG ASCII STANDARD - VERSION 2.0
 WRAP.                 NO:   ONE LINE PER DEPTH STEP
~WELL INFORMATION
#MNEM.UNIT      DATA TYPE    INFORMATION
#----------   ------------   ------------------------------
 STRT.F           76.0000:   START DEPTH
 STOP.F         4972.0000:   STOP DEPTH
 STEP.F            0.5000:   STEP LENGTH
 NULL.          -999.2500:   NO VALUE
 COMP.    PENIX & SCISSON:   COMPANY
 WELL. FENIX NPR 3 "LX" #85-9:   WELL
 FLD .                NPR:   FIELD
 LOC .       S9 T38N R78W:   LOCATION
 CNTY.            NATRONA:   COUNTY
 STAT.            WYOMING:   STATE
 CTRY. UNITED STATES OF AMERICA:   COUNTRY
 SRVC.       SCHLUMBERGER:   SERVICE COMPANY
 DATE.        10-OCT-1978:   LOGDATE
 API .     49025107250000:   API NUMBER
~CURVE INFORMATION
#MNEM.UNIT       API CODE    CURVE DESCRIPTION
#----------   ------------   ------------------------------
 DEPT.F                  :   
 TENR.LBS    07 635 01 00:   TENSION FROM RESISTIVITY
 SPR .MV     07 010 01 00:   SPONTANEOUS POTENTIAL
 SFL .OHMM   07 220 01 00:   SHALLOW FOCUSED LOG RESISTIVITY
 ILD .OHMM   07 120 46 00:   DEEP INDUCTION RESISTIVITY
 ILM .OHMM   07 120 44 00:   INDUCTION LOG MEDIUM RESISTIVITY
 CALD.IN     45 280 60 00:   CALIPER FROM DENSITY LOG
 GRD .GAPI   45 310 01 00:   GAMMA RAY FROM DENSITY LOG
 CORR.G/C3   45 356 01 00:   DENSITY CORRECTION
 TEND.LBS    45 635 01 00:   TENSION FROM DENSITY LOG
 RHOB.G/C3   45 350 01 00:   BULK DENSITY
 NPHI.DEC    42 890 03 00:   NEUTRON POROSITY SANDSTONE
~PARAMETER INFORMATION
#MNEM.UNIT          VALUE    DESCRIPTION
#----------   ------------   ------------------------------
 EKB .F         5288.0000:   Kelly bushing
 EGL .F         5278.0000:   Ground level
 EDF .F            0.0000:   Drilling floor
 TD  .F         4950.0000:   Total depth
 DATE.        10-OCT-1978:   Date logged
 CLNT.            A2DTECH:   Client Code
 SL  . 2310' FSL & 230' FEL:   Surface Location
 PD  .                 GL:   Permanent Datum
 EPD .F              5278:   Elevation Permanent Datum
 LMF .                 KB:   Log Measured From
 DMF .                 KB:   Drilling Measured From
 DAPD.F                10:   Feet Above Permanent Datum
 DD  .F              4950:   Depth driller
 DL  .F              4950:   Depth logger
 BLI .F              4947:   Bottom log interval
 TLI .F               499:   Top log interval
 CS1 .IN            8.625:   Casing size
 CBD1.      8.625" @ 489':   Casing driller 1
 CBL1.F               499:   Casing logger 1
 BS1 .IN            7.875:   Bit size
 BSD1.F              4950:   Depth drilled with bit1
 DFT .            GEL/MUD:   Type fluid in hole
 DFD .                9.3:   Density
 DFV .                175:   Viscosity
 DFPH.                 12:   pH
 DFL .                  4:   Fluid loss
 MSS .               TANK:   Source of sample
 RMS .OHMM           .600:   Rm
 MST .F                71:   Rm Meas. temp.
 RMF .OHMM           .804:   Rmf
 MFST.F                71:   Rmf Meas. temp.
 MFSS.               MEAS:   Source Rmf.
 RMB .OHMM           .308:   Rm. at BHT
 BHT .F               138:   BHT.
 TCS .HRS            1200:   Time Circ. stopped
 TLAB.HRS            0330:   Time logger at bottom
 MRT .F               138:   Maximum recorded temp.
 LUN .               8035:   Logging unit number
 LUL .               CSPR:   Logging unit location
 ENGI.        CRAIG/DFARR:   Recorded By
 WITN.              AMEND:   Witnessed by
 ORIG.           5" PRINT:   Origin of data
 UWI .     49025107250000:   Unique Well ID
 DICO. A2D TECHNOLOGIES, INC.:   Digitizing Company
~OTHER INFORMATION
~A   DEPT     TENR        SPR        SFL        ILD        ILM       CALD         GRD      CORR       TEND       RHOB         NPHI 
# ...
 2851.5000  1411.0410   -20.4250     5.7890     5.8060     5.5800     9.5240   145.3900     0.0690  1540.6780     2.5360     0.2760
 2852.0000  1411.4160   -20.7010     5.7890     5.5880     5.3310     9.5590   141.7000     0.0610  1540.9200     2.5090     0.3120
 2852.5000  1411.7920   -20.7870     5.8400     5.3700     5.1760     9.5940   140.0350     0.0510  1541.1630     2.4900     0.3090
 2853.0000  1412.1670   -20.5220     5.8970     5.2470     5.1200     9.6110   140.0570     0.0510  1541.4050     2.4810     0.3280
 2853.5000  1412.5430   -20.6320     6.0920     5.1990     5.0610     9.6190   136.4010     0.0510  1541.6479     2.4750     0.3310
 2854.0000  1412.9180   -21.3140     6.2370     5.1510     5.0020     9.6270   132.3540     0.0520  1541.8900     2.4670     0.3200
 2854.5000  1413.2939   -21.5030     5.8780     5.0800     5.0690     9.6340   129.0610     0.0490  1542.1320     2.4550     0.3070
 2855.0000  1413.6689   -21.0060     5.4740     5.1570     5.1820     9.6430   131.1680     0.0420  1542.3750     2.4390     0.3130
 2855.5000  1414.0450   -20.5780     5.6590     5.3030     5.2940     9.6350   133.0210     0.0350  1542.6169     2.4190     0.3320
 2856.0000  1414.4200   -20.1350     6.2490     5.4500     5.4070     9.6140   133.2250     0.0280  1542.8590     2.4120     0.3500
 2856.5000  1414.7960   -19.6810     6.8390     5.5960     5.5190     9.5930   132.6790     0.0340  1543.1021     2.4290     0.3580
 2857.0000  1415.1720   -19.2450     7.3760     5.7420     5.6680     9.5730   132.1360     0.0470  1543.3440     2.4590     0.3400
 2857.5000  1415.5470   -18.8000     7.2550     5.9330     5.8530     9.5530   131.6360     0.0570  1543.5870     2.4880     0.3300
 2858.0000  1415.9230   -18.3180     7.1060     6.1430     6.0390     9.5320   131.0670     0.0690  1543.8290     2.4890     0.3330
 2858.5000  1416.2980   -18.0280     7.2670     6.3530     6.2240     9.5330   129.5160     0.0310  1544.0710     2.4810     0.3430
 2859.0000  1416.6740   -18.0620     7.8710     6.5630     6.4090     9.5480   125.4580     0.0260  1544.3140     2.4760     0.3410
 2859.5000  1417.0490   -18.0520     8.4750     6.7730     6.5470     9.5620   121.5590     0.0230  1544.5560     2.4750     0.3330
 2860.0000  1417.4250   -18.0540     9.0550     6.9750     6.6590     9.5750   118.5110     0.0230  1544.7980     2.4760     0.3260
 2860.5000  1417.8000   -18.0560     9.2260     6.9750     6.7710     9.5890   120.2170     0.0320  1545.0410     2.4780     0.3190
 2861.0000  1418.1760   -18.0430     8.8490     6.9750     6.8830     9.6020   124.9650     0.0480  1545.2830     2.4820     0.3150
 2861.5000  1418.5510   -18.2190     8.3970     7.1020     6.9950     9.6160   129.7100     0.0630  1545.5260     2.4900     0.3180
 2862.0000  1418.9270   -18.7630     7.9470     7.2270     7.1060     9.6290   133.3610     0.0700  1545.7679     2.4930     0.3310
 2862.5000  1419.3030   -19.3060     8.1890     7.3760     7.3760     9.6430   131.9530     0.0550  1546.0100     2.4930     0.3460
 2863.0000  1419.6780   -19.8280     8.4290     7.3760     7.2950     9.6570   131.0250     0.0430  1546.2531     2.4900     0.3460
 2863.5000  1420.0540   -20.4000     8.6690     7.3760     7.1930     9.6690   129.8260     0.0290  1546.4950     2.4830     0.3470
 2864.0000  1420.4290   -20.5110     8.9090     7.3760     7.0910     9.6840   128.8490     0.0250  1546.7371     2.4760     0.3400
 2864.5000  1420.8051   -20.6140     9.1500     7.2480     6.9890     9.6760   128.8130     0.0220  1546.9800     2.4730     0.3320
 2865.0000  1421.1801   -20.6930     9.3990     7.1160     6.8870     9.6660   124.3160     0.0200  1547.2220     2.4750     0.3260
 2865.5000  1421.5560   -20.7920     9.1280     6.9850     6.7860     9.6540   116.5980     0.0180  1547.4650     2.4970     0.3150
 2866.0000  1421.9310   -20.8390     8.6420     6.8460     6.6840     9.6440   112.1650     0.0260  1547.7070     2.5120     0.3060
 2866.5000  1422.3070   -20.8320     8.1550     6.7780     6.5820     9.6330   112.3570     0.0350  1547.9490     2.5280     0.2910
 2867.0000  1422.6820   -20.8350     7.6680     6.7060     6.4800     9.6220   116.9460     0.0440  1548.1920     2.5270     0.2990
 2867.5000  1423.0580   -20.8340     7.1060     6.6340     6.3780     9.6110   124.0990     0.0530  1548.4340     2.5200     0.3130
 2868.0000  1423.4340   -20.8310     7.2320     6.5620     6.2760     9.6000   127.5120     0.0620  1548.6760     2.5100     0.3240
 2868.5000  1423.8090   -20.8450     7.6340     6.4900     6.1740     9.5890   129.4660     0.0650  1548.9189     2.5010     0.3500
 2869.0000  1424.1851   -20.7030     8.0350     6.4180     6.0720     9.5780   130.1010     0.0590  1549.1610     2.4890     0.3430
 2869.5000  1424.5601   -20.3790     8.6360     6.3460     5.9710     9.5660   129.0320     0.0540  1549.4041     2.4790     0.3330
 2870.0000  1424.9360   -20.0690     8.4750     6.2370     5.8970     9.5410   127.1810     0.0540  1549.6460     2.4820     0.3220
 2870.5000  1425.3110   -19.7570     7.5940     6.2520     5.9460     9.5090   125.3110     0.0690  1549.8879     2.4940     0.3280
 2871.0000  1425.6870   -19.4460     6.2370     6.2840     6.0000     9.4780   123.9230     0.0830  1550.1310     2.5010     0.3360
 2871.5000  1426.0620   -19.1280     6.4740     6.3150     6.0550     9.4470   122.1640     0.0970  1550.3730     2.4990     0.3440
 2872.0000  1426.4380   -18.8260     7.1960     6.3470     6.1100     9.4160   118.8770     0.1110  1550.6160     2.4970     0.3520
 2872.5000  1426.8130   -18.4810     7.8800     6.3790     6.1640     9.3860   115.0010     0.1250  1550.8580     2.4920     0.3590
 2873.0000  1427.1890   -18.4670     8.7240     6.4110     6.2190     9.3550   111.2990     0.1070  1551.1000     2.4780     0.3410
 2873.5000  1427.5649   -18.6720     8.6300     6.4430     6.2740     9.3240   111.2070     0.0740  1551.3430     2.4600     0.3190
 2874.0000  1427.9399   -18.8940     8.5170     6.4740     6.3290     9.2930   119.4900     0.0440  1551.5850     2.4420     0.2970
 2874.5000  1428.3160   -19.1140     8.4040     6.5060     6.3830     9.2620   128.3830     0.0130  1551.8270     2.4330     0.2820
 2875.0000  1428.6910   -19.3330     8.3270     6.5380     6.4380     9.2310   131.1030     0.0050  1552.0699     2.4370     0.2990
 2875.5000  1429.0670   -19.5540     8.2490     6.5700     6.4930     9.2000   131.1330     0.0250  1552.3120     2.4600     0.3320
 2876.0000  1429.4420   -19.7730     7.7980     6.5960     6.5470     9.1690   132.2200     0.0550  1552.5551     2.4760     0.3360
 2876.5000  1429.8180   -19.9930     7.5150     6.6750     6.6020     9.1370   135.8400     0.0880  1552.7970     2.4820     0.3380
 2877.0000  1430.1930   -20.2140     7.5150     6.7420     6.6570     9.1360   139.8260     0.0880  1553.0389     2.4800     0.3410
 2877.5000  1430.5690   -20.4320     7.8810     6.8100     6.7120     9.1700   141.8630     0.0780  1553.2820     2.4540     0.3430
 2878.0000  1430.9440   -20.6520     8.3580     6.8770     6.7660     9.2040   141.3370     0.0600  1553.5240     2.4470     0.3410
 2878.5000  1431.3199   -20.8530     8.8360     6.9440     6.8210     9.1930   140.1320     0.0440  1553.7660     2.4450     0.3370
 2879.0000  1431.6960   -21.0670     9.3990     6.9910     6.8750     9.1780   139.6020     0.0300  1554.0090     2.4460     0.3330
 2879.5000  1432.0710   -21.1940     9.0370     7.0210     6.9280     9.1620   140.0220     0.0270  1554.2510     2.4630     0.3290
 2880.0000  1432.4470   -20.8010     8.2490     7.0500     6.9750     9.1470   140.2890     0.0340  1554.4940     2.4810     0.3260
 2880.5000  1432.8220   -20.4600     8.2800     7.0800     6.9160     9.1310   140.7660     0.0400  1554.7360     2.4920     0.3250
 2881.0000  1433.1980   -20.0920     8.3780     7.1060     6.8640     9.1360   139.4420     0.0470  1554.9780     2.4880     0.3240
 2881.5000  1433.5730   -19.7340     8.4760     7.0590     6.8120     9.1470   135.4800     0.0480  1555.2209     2.4740     0.3220
