~VERSION INFORMATION
 VERS.                2.0:   CWLS LOG ASCII STANDARD - VERSION 2.0
 WRAP.                 NO:   ONE LINE PER DEPTH STEP
~WELL INFORMATION
#MNEM.UNIT      DATA TYPE    INFORMATION
#----------   ------------   ------------------------------
 STRT.F          196.0000:   START DEPTH
 STOP.F         3430.0000:   STOP DEPTH
 STEP.F            0.5000:   STEP LENGTH
 NULL.          -999.2500:   NO VALUE
 COMP.    FENIX $ SCISSON:   COMPANY
 WELL.   FENIX "A" #23-10:   WELL
 FLD .              N P R:   FIELD
 LOC .      S10 T38N R78W:   LOCATION
 CNTY.            NATRONA:   COUNTY
 STAT.            WYOMING:   STATE
 CTRY. UNITED STATES OF AMERICA:   COUNTRY
 SRVC.              WELEX:   SERVICE COMPANY
 DATE.        23-JUL-1977:   LOGDATE
 API .     49025103990000:   API NUMBER
~CURVE INFORMATION
#MNEM.UNIT       API CODE    CURVE DESCRIPTION
#----------   ------------   ------------------------------
 DEPT.F                  :   
 SPR .MV     07 010 01 00:   SPONTANEOUS POTENTIAL
 GURD.OHMM   07 220 05 00:   GUARD LOG RESISTIVITY
 FORX.OHMM   07 220 00 00:   FORMATION FACTOR
 NPHI.DEC    42 890 03 00:   NEUTRON POROSITY SANDSTONE
 CALD.IN     45 280 60 00:   CALIPER FROM DENSITY LOG
 CORR.G/C3   45 356 01 00:   DENSITY CORRECTION
 GRD .GAPI   45 310 01 00:   GAMMA RAY FROM DENSITY LOG
 RHOB.G/C3   45 350 01 00:   BULK DENSITY
~PARAMETER INFORMATION
#MNEM.UNIT          VALUE    DESCRIPTION
#----------   ------------   ------------------------------
 EKB .F         5251.0000:   Kelly bushing
 EGL .F         5241.0000:   Ground level
 EDF .F            0.0000:   Drilling floor
 EPD .F         5241.0000:   Permanent datum
 TD  .F         3430.0000:   Total depth
 DATE.        23-JUL-1977:   Date logged
 CLNT.            A2DTECH:   Client Code
 SL  . 1650' FNL & 990' FWL:   Surface Location
 PD  .                 GL:   Permanent Datum
 DD  .F              3430:   Depth driller
 DL  .F              3430:   Depth logger
 BLI .F              3428:   Bottom log interval
 CS1 .IN            8.625:   Casing size
 CBD1.      8.625" @ 220':   Casing driller 1
 BS1 .IN            7.875:   Bit size
 DFT .            KCL MUD:   Type fluid in hole
 DFD .                8.9:   Density
 DFV .                 33:   Viscosity
 DFPH.                  8:   pH
 DFL .                  8:   Fluid loss
 MSS .           FLOWLINE:   Source of sample
 RMS .OHMM            .49:   Rm
 MST .F                94:   Rm Meas. temp.
 RMF .OHMM            .46:   Rmf
 MFST.F                90:   Rmf Meas. temp.
 RMC .OHMM            .40:   Rmc
 MCST.F                90:   Rmc Meas. temp.
 MFSS.               FANN:   Source Rmf.
 RMB .OHMM            .15:   Rm. at BHT
 BHT .F               122:   BHT.
 TCS .HRS               6:   Time Circ. stopped
 MRT .F               122:   Maximum recorded temp.
 LUN .               8611:   Logging unit number
 LUL .             CASPER:   Logging unit location
 ENGI.            C. DOAK:   Recorded By
 WITN.      B. HARRINGTON:   Witnessed by
 ORIG.           5" PRINT:   Origin of data
 UWI .     49025103990000:   Unique Well ID
 DICO. A2D TECHNOLOGIES, INC.:   Digitizing Company
 DAPD.                 10:   Feet Above Permanent Datum
 BSD1.               3430:   Depth drilled with bit1
 MCSS.                KIT:   Source Rmc.
 TLI .                200:   Top log interval
~OTHER INFORMATION
~A   DEPT      SPR         GURD     FORX       NPHI       CALD       CORR        GRD       RHOB   
# ...
 2950.0000   -80.5320     8.2380    17.3440     0.2380     9.0370     0.0390   100.3580     2.5120
 2950.5000   -80.5910     8.8400    20.4650     0.2330     9.0420     0.0390   100.2730     2.5200
 2951.0000   -80.6500     9.3030    22.4350     0.2290     9.0470     0.0400   100.9310     2.5200
 2951.5000   -80.7090     9.8100    21.0370     0.2240     9.0520     0.0410   101.5980     2.5190
 2952.0000   -80.7680     9.8320    21.6250     0.2230     9.0570     0.0410   102.2730     2.5170
 2952.5000   -80.8280     9.8650    21.1280     0.2230     9.0350     0.0420   102.9500     2.5220
 2953.0000   -80.8870     9.9000    20.8450     0.2220     9.0300     0.0430   102.2170     2.5210
 2953.5000   -80.9460     9.6610    21.8650     0.2190     9.0220     0.0430   101.3560     2.5160
 2954.0000   -81.0050     9.3700    19.7260     0.2140     9.0150     0.0440   100.4990     2.5140
 2954.5000   -81.0640     9.0980    17.8290     0.2100     9.0070     0.0450    99.6430     2.5190
 2955.0000   -81.1230     8.9480    23.9260     0.2090     9.0000     0.0450    98.7870     2.5200
 2955.5000   -81.1830     8.8660    24.3700     0.2080     8.9920     0.0440    97.9320     2.5140
 2956.0000   -81.2420    10.4790    15.9670     0.2070     8.9850     0.0420    97.0790     2.5080
 2956.5000   -81.3010    12.1010    20.4300     0.2060     8.9780     0.0400    96.2230     2.5060
 2957.0000   -81.3600    13.0440    25.7640     0.2030     8.9700     0.0390    95.8210     2.5100
 2957.5000   -81.4190    12.6560    30.9490     0.2020     8.9630     0.0390    95.8180     2.5150
 2958.0000   -81.4820    12.2010    23.2750     0.2010     8.9550     0.0430    95.8130     2.5190
 2958.5000   -81.0360    11.6070    39.3050     0.2050     8.9480     0.0480    95.8160     2.5260
 2959.0000   -80.4370    10.9340    24.1470     0.2090     8.9400     0.0530    96.1390     2.5340
 2959.5000   -80.3190    11.6810    22.5910     0.2150     8.9330     0.0570    98.4890     2.5360
 2960.0000   -80.4690    10.5510    21.8250     0.2200     8.9250     0.0620   100.8520     2.5360
 2960.5000   -80.6250     8.5460    33.6190     0.2210     8.9180     0.0660   103.2200     2.5380
 2961.0000   -80.7800     9.0530    32.1080     0.2200     8.9100     0.0710   105.6330     2.5460
 2961.5000   -80.8840     9.9880    34.5590     0.2190     8.9030     0.0690   107.1520     2.5510
 2962.0000   -80.8910    11.1570    23.9260     0.2160     8.9000     0.0670   108.9430     2.5470
 2962.5000   -80.9470    10.4150    20.9770     0.2130     8.8990     0.0650   110.7260     2.5390
 2963.0000   -81.0040     9.4330    19.7260     0.2130     8.8990     0.0620   112.5430     2.5280
 2963.5000   -81.0610     8.4510    23.2750     0.2170     8.8980     0.0600   113.6230     2.5180
 2964.0000   -81.1170     7.9490    20.0920     0.2250     8.8970     0.0570   115.2140     2.5070
 2964.5000   -81.1740     7.7240    21.2310     0.2330     8.8960     0.0550   116.8240     2.5000
 2965.0000   -81.2310     7.4130    20.1380     0.2370     8.8950     0.0530   118.4420     2.4910
 2965.5000   -81.2870     7.1080    18.4970     0.2400     8.8940     0.0500   120.0730     2.4820
 2966.0000   -81.3440     6.7920    19.9080     0.2470     8.8930     0.0480   121.3680     2.4720
 2966.5000   -81.4010     6.7580    13.4400     0.2550     8.8930     0.0480   129.1230     2.4630
 2967.0000   -81.4620     6.5460     7.1110     0.2640     8.8920     0.0480   136.8820     2.4540
 2967.5000   -81.3620     5.7600    12.8160     0.2760     8.8910     0.0480   147.4640     2.4480
 2968.0000   -81.2230     4.7890    13.2860     0.2880     8.8900     0.0490   146.2670     2.4420
 2968.5000   -81.0820     4.9900    11.6210     0.3000     8.8890     0.0490   143.2750     2.4360
 2969.0000   -80.9410     5.2500     9.1380     0.3040     8.8880     0.0490   145.0180     2.4270
 2969.5000   -80.8020     4.7870     7.9820     0.3080     8.8870     0.0510   149.8810     2.4150
 2970.0000   -80.6840     4.1910     7.6540     0.3110     8.8870     0.0540   154.6990     2.4020
 2970.5000   -80.6230     3.5950     4.8340     0.3150     8.8860     0.0570   159.5460     2.3900
 2971.0000   -80.5400     3.0180     4.4500     0.3190     8.8850     0.0600   162.8240     2.3750
 2971.5000   -80.4080     2.4760     3.8910     0.3200     8.8840     0.0620   166.3350     2.3590
 2972.0000   -79.9430     2.1730     3.5040     0.3200     8.8830     0.0650   169.1190     2.3290
 2972.5000   -79.4800     1.9580     3.1300     0.3190     8.8820     0.0680   165.8540     2.2990
 2973.0000   -79.0170     1.6590     2.9150     0.3190     8.8790     0.0710   161.4800     2.2690
 2973.5000   -78.5550     1.2980     7.5840     0.3190     8.9010     0.0730   152.8290     2.2380
 2974.0000   -78.0940     1.6960     5.2840     0.3170     8.9010     0.0740   144.1500     2.2080
 2974.5000   -77.6310     2.2330     3.0390     0.3130     8.8980     0.0680   135.4830     2.1780
 2975.0000   -77.1820     1.7340     0.9240     0.3100     8.8580     0.0610   126.8060     2.1040
 2975.5000   -77.3990     0.9850    21.4270     0.3050     8.7750     0.0310   118.1160     2.0180
 2976.0000   -77.6470     2.0730    14.5650     0.2990     8.8640    -0.0040   109.4150     2.0010
 2976.5000   -77.8940     3.8770    13.9110     0.2990     9.0570    -0.0210   102.3620     2.1480
 2977.0000   -78.1390     6.0270    11.0550     0.2950     9.1780     0.0370   102.3550     2.3280
 2977.5000   -78.3850     5.4680    18.4970     0.2860     8.7540     0.0450   102.1430     2.5060
 2978.0000   -78.6300     4.9230    17.1850     0.2770     8.6520     0.0420   101.9040     2.5040
 2978.5000   -78.8760     5.8320    12.4580     0.2690     8.6670     0.0400   101.6750     2.5000
 2979.0000   -79.1210     6.0820    15.3450     0.2680     8.6830     0.0430   101.4520     2.5060
 2979.5000   -79.3650     5.0150    16.8720     0.2660     8.6950     0.0460   101.2430     2.4980
 2980.0000   -79.5080     5.6830    18.4970     0.2590     8.7070     0.0460   100.8830     2.5040
 2980.5000   -79.4470     6.3410    17.8290     0.2500     8.7190     0.0420    97.1120     2.5000
 2981.0000   -79.1410     6.9980    23.2750     0.2380     8.7300     0.0380    93.2590     2.4960
 2981.5000   -78.8380     7.6550    68.2280     0.2250     8.7420     0.0350    89.4150     2.4950
 2982.0000   -78.5360     9.3870    39.6680     0.2100     8.7540     0.0310    85.5600     2.4990
 2982.5000   -78.2330    14.7680    45.5320     0.1940     8.7660     0.0280    82.2730     2.4950
 2983.0000   -77.9490    17.8290    33.2700     0.1770     8.7780     0.0220    83.7480     2.4940
 2983.5000   -78.0810    16.0620    30.9490     0.1610     8.7890     0.0240    85.6300     2.4950
 2984.0000   -78.4100    14.3490    32.4670     0.1510     8.8010     0.0270    87.4900     2.4960
 2984.5000   -78.7340    12.8060    30.9490     0.1470     8.8140     0.0290    89.3360     2.5180
 2985.0000   -78.9200    13.3690    34.5590     0.1470     8.8390     0.0320    91.1770     2.5170
 2985.5000   -78.9290    15.1100    15.6760     0.1500     8.8570     0.0340    92.4110     2.5260
 2986.0000   -78.6840    14.1130    17.3390     0.1540     8.8710     0.0370    92.8410     2.5320
 2986.5000   -78.4050    11.8630    21.8250     0.1580     8.8850     0.0370    93.2760     2.5240
 2987.0000   -78.1270     9.7200    21.3880     0.1610     8.8990     0.0360    93.7030     2.5140
 2987.5000   -77.8530     8.9820    20.6540     0.1660     8.9140     0.0350    94.1330     2.5050
 2988.0000   -77.5920     8.3140    25.9510     0.1710     8.9280     0.0350    94.5600     2.5170
 2988.5000   -77.7710     9.3840    32.4870     0.1770     8.9420     0.0350    94.1680     2.5310
 2989.0000   -77.9420    10.4010    35.5250     0.1800     8.9570     0.0350    93.6290     2.5340
 2989.5000   -78.1170    11.1120    29.0210     0.1800     8.9710     0.0350    93.1080     2.5280
 2990.0000   -78.2920    11.3330    29.2350     0.1770     8.9850     0.0340    95.2780     2.5210
