~VERSION INFORMATION
 VERS.                2.0:   CWLS LOG ASCII STANDARD - VERSION 2.0
 WRAP.                 NO:   ONE LINE PER DEPTH STEP
~WELL INFORMATION
#MNEM.UNIT      DATA TYPE    INFORMATION
#----------   ------------   ------------------------------
 STRT.F            0.0000:   START DEPTH
 STOP.F         3040.0000:   STOP DEPTH
 STEP.F            0.5000:   STEP LENGTH
 NULL.          -999.2500:   NO VALUE
 COMP. LAWRENCE ALLISON & ASSOCIATES:   COMPANY
 WELL. LAWRENCE NPR 3 "AX" #77-28:   WELL
 FLD .      NPR - WILDCAT:   FIELD
 LOC .      S28 T39N R78W:   LOCATION
 CNTY.            NATRONA:   COUNTY
 STAT.            WYOMING:   STATE
 CTRY. UNITED STATES OF AMERICA:   COUNTRY
 SRVC.      DRESSER ATLAS:   SERVICE COMPANY
 DATE.        19-OCT-1986:   LOGDATE
 API .     49025111150000:   API NUMBER
~CURVE INFORMATION
#MNEM.UNIT       API CODE    CURVE DESCRIPTION
#----------   ------------   ------------------------------
 DEPT.F                  :   
 TENR.LBS    07 635 01 00:   TENSION FROM RESISTIVITY
 RILD.OHMM   07 120 46 00:   DEEP INDUCTION RESISTIVITY
 RILM.OHMM   07 120 44 00:   INDUCTION LOG MEDIUM RESISTIVITY
 RFOC.OHMM   07 220 04 00:   RESISTIVITY FOCUSED LOG RES.
 SPR .MV     07 010 01 00:   SPONTANEOUS POTENTIAL
 GRR .GAPI   07 310 01 00:   GAMMA RAY FROM RESISTIVITY
 CNC .DEC    42 890 03 00:   NEUTRON POROSITY SANDSTONE
 RHOB.G/C3   45 350 01 00:   BULK DENSITY
 TEND.LBS    45 635 01 00:   TENSION FROM DENSITY LOG
 CORR.G/C3   45 356 01 00:   DENSITY CORRECTION
 CALD.IN     45 280 60 00:   CALIPER FROM DENSITY LOG
~PARAMETER INFORMATION
#MNEM.UNIT          VALUE    DESCRIPTION
#----------   ------------   ------------------------------
 EKB .F         5086.0000:   Kelly bushing
 EGL .F         5074.0000:   Ground level
 EDF .F            0.0000:   Drilling floor
 TD  .F         3025.0000:   Total depth
 DATE.        19-OCT-1986:   Date logged
 CLNT.            A2DTECH:   Client Code
 SL  . 967' FSL @ 763' FEL:   Surface Location
 PD  .                 GL:   Permanent Datum
 EPD .F              5074:   Elevation Permanent Datum
 LMF .                 KB:   Log Measured From
 DMF .                 KB:   Drilling Measured From
 DAPD.F                12:   Feet Above Permanent Datum
 DD  .F              3021:   Depth driller
 DL  .F              3025:   Depth logger
 BLI .F              3023:   Bottom log interval
 CS1 .IN            8.625:   Casing size
 CBD1.      8.625" @ 620':   Casing driller 1
 CBL1.F               615:   Casing logger 1
 BS1 .IN            7.875:   Bit size
 BSD1.F              3021:   Depth drilled with bit1
 DFT .        KCL/POLTMER:   Type fluid in hole
 DFD .                8.9:   Density
 DFV .                 38:   Viscosity
 DFPH.                9.5:   pH
 DFL .                 11:   Fluid loss
 MSS .           FLOWLINE:   Source of sample
 RMS .OHMM            .25:   Rm
 MST .F                65:   Rm Meas. temp.
 RMF .OHMM           .203:   Rmf
 MFST.F                65:   Rmf Meas. temp.
 RMC .OHMM            .31:   Rmc
 MCST.F                65:   Rmc Meas. temp.
 MFSS.               MEAS:   Source Rmf.
 MCSS.               CALC:   Source Rmc.
 RMB .OHMM           .136:   Rm. at BHT
 BHT .F               119:   BHT.
 TCS .HRS               5:   Time Circ. stopped
 MRT .F               119:   Maximum recorded temp.
 LUN .               6274:   Logging unit number
 LUL .               GLTE:   Logging unit location
 ENGI.             RAUTIO:   Recorded By
 WITN.             STRONG:   Witnessed by
 ORIG.         2.5" PRINT:   Origin of data
 UWI .     49025111150000:   Unique Well ID
 DICO. A2D TECHNOLOGIES, INC.:   Digitizing Company
~OTHER INFORMATION
~A    DEPT    TENR       RILD       RILM       RFOC        SPR         GRR       CNC       RHOB       TEND       CORR       CALD   
# ...
 1433.5000   -62.1080     6.4310     6.2530     7.0350   -82.6200   110.5550  -999.2500  -999.2500  -999.2500  -999.2500  -999.2500
 1434.0000   -64.6410     6.4640     6.3370     7.0610   -82.4540   111.4770  -999.2500  -999.2500  -999.2500  -999.2500  -999.2500
 1434.5000   -66.1440     6.4970     6.4220     7.0870   -82.2920   112.4260  -999.2500  -999.2500  -999.2500  -999.2500  -999.2500
 1435.0000   -67.6470     6.5300     6.5070     7.1130   -82.1260   112.0520  -999.2500  -999.2500  -999.2500  -999.2500  -999.2500
 1435.5000   -69.1500     6.5790     6.5870     7.1390   -81.9640   110.4990  -999.2500  -999.2500  -999.2500  -999.2500  -999.2500
 1436.0000   -70.6540     6.5710     6.5110     7.1650   -81.7980   108.9310  -999.2500  -999.2500  -999.2500  -999.2500  -999.2500
 1436.5000   -72.1570     6.5100     6.4380     7.1910   -81.6330   107.3230  -999.2500  -999.2500  -999.2500  -999.2500  -999.2500
 1437.0000   -73.6600     6.4490     6.3650     7.2030   -81.5220   106.2280  -999.2500  -999.2500  -999.2500  -999.2500  -999.2500
 1437.5000   -75.1630     6.3880     6.2930     7.1830   -81.6440   106.2200  -999.2500  -999.2500  -999.2500  -999.2500  -999.2500
 1438.0000   -76.6670     6.3260     6.2200     7.1630   -81.7810   106.5380  -999.2500  -999.2500  -999.2500  -999.2500  -999.2500
 1438.5000   -78.1700     6.2650     6.1470     7.1430   -81.9250   107.6060  -999.2500  -999.2500  -999.2500  -999.2500  -999.2500
 1439.0000   -79.6730     6.2040     6.1890     7.1220   -82.0630   108.6530  -999.2500  -999.2500  -999.2500  -999.2500  -999.2500
 1439.5000   -81.1760     6.1430     6.2740     7.1010   -82.2070   109.6950  -999.2500  -999.2500  -999.2500  -999.2500  -999.2500
 1440.0000   -82.6800     6.1890     6.3580     7.0800   -82.3460   110.7350  -999.2500  -999.2500  -999.2500  -999.2500  -999.2500
 1440.5000   -82.3320     6.2700     6.4430     7.1280   -82.4810   111.8840  -999.2500  -999.2500  -999.2500  -999.2500  -999.2500
 1441.0000   -80.5600     6.3520     6.5270     7.2120   -82.6470   112.2770  -999.2500  -999.2500  -999.2500  -999.2500  -999.2500
 1441.5000   -78.7890     6.4330     6.6120     7.2950   -82.5150   111.5100  -999.2500  -999.2500  -999.2500  -999.2500  -999.2500
 1442.0000   -77.0170     6.5140     6.6960     7.3790   -82.1610   110.9140  -999.2500  -999.2500  -999.2500  -999.2500  -999.2500
 1442.5000   -75.2450     6.5960     6.7810     7.4630   -81.8290   110.1880  -999.2500  -999.2500  -999.2500  -999.2500  -999.2500
 1443.0000   -73.4730     6.6770     6.8330     7.5470   -81.5160   110.3960  -999.2500  -999.2500  -999.2500  -999.2500  -999.2500
 1443.5000   -71.7020     6.7070     6.8410     7.6110   -81.1560   110.6780  -999.2500  -999.2500  -999.2500  -999.2500  -999.2500
 1444.0000   -69.9300     6.7070     6.8500     7.6110   -81.1390   111.2190  -999.2500  -999.2500  -999.2500  -999.2500  -999.2500
 1444.5000   -68.1580     6.7070     6.8580     7.5790   -81.2310   111.8490  -999.2500  -999.2500  -999.2500  -999.2500  -999.2500
 1445.0000   -66.3870     6.7070     6.8670     7.5300   -81.3370   112.2120  -999.2500  -999.2500  -999.2500  -999.2500  -999.2500
 1445.5000   -64.6150     6.7070     6.8750     7.4820   -81.4360   109.8820  -999.2500  -999.2500  -999.2500  -999.2500  -999.2500
 1446.0000   -65.4870     6.7070     6.8840     7.4340   -81.5370   107.9610  -999.2500  -999.2500  -999.2500  -999.2500  -999.2500
 1446.5000   -69.0240     6.7070     6.8920     7.3850   -81.6380   108.1720  -999.2500  -999.2500  -999.2500  -999.2500  -999.2500
 1447.0000   -72.5610     6.7070     6.9010     7.3370   -81.7390   110.4010  -999.2500  -999.2500  -999.2500  -999.2500  -999.2500
 1447.5000   -76.0980     6.7070     6.9090     7.2890   -81.8400   112.1620  -999.2500  -999.2500  -999.2500  -999.2500  -999.2500
 1448.0000   -79.6340     6.7070     6.9180     7.2090   -81.9410   110.2730  -999.2500  -999.2500  -999.2500  -999.2500  -999.2500
 1448.5000   -83.1710     6.7070     6.9270     7.3410   -82.0420   108.7930  -999.2500  -999.2500  -999.2500  -999.2500  -999.2500
 1449.0000   -86.7080     6.7090     6.9350     7.4830   -82.1430   107.1000  -999.2500  -999.2500  -999.2500  -999.2500  -999.2500
 1449.5000   -90.2450     6.7040     6.9430     7.6310   -82.2440   106.3580  -999.2500  -999.2500  -999.2500  -999.2500  -999.2500
 1450.0000   -93.7820     6.6450     6.9530     7.7490   -82.3450   107.1800  -999.2500  -999.2500  -999.2500  -999.2500  -999.2500
 1450.5000   -97.3190     6.5850     6.8730     7.7490   -82.4450   107.7680  -999.2500  -999.2500  -999.2500  -999.2500  -999.2500
 1451.0000  -100.8560     6.5220     6.7730     7.5790   -82.5460   108.5110  -999.2500  -999.2500  -999.2500  -999.2500  -999.2500
 1451.5000  -101.4260     6.4600     6.6720     7.4100   -82.6510   109.3880  -999.2500  -999.2500  -999.2500  -999.2500  -999.2500
 1452.0000   -97.7350     6.3990     6.5720     7.2090   -82.6490   110.9560  -999.2500  -999.2500  -999.2500  -999.2500  -999.2500
 1452.5000   -94.0440     6.3370     6.4710     7.0800   -82.4810   112.3270  -999.2500  -999.2500  -999.2500  -999.2500  -999.2500
 1453.0000   -90.3530     6.2390     6.3530     7.0530   -82.3210   112.0270  -999.2500  -999.2500  -999.2500  -999.2500  -999.2500
 1453.5000   -86.6620     6.2610     6.4120     7.0270   -82.1590   111.8170  -999.2500  -999.2500  -999.2500  -999.2500  -999.2500
 1454.0000   -82.9710     6.3130     6.4840     7.0000   -81.9860   112.9040  -999.2500  -999.2500  -999.2500  -999.2500  -999.2500
 1454.5000   -79.2790     6.3640     6.5560     6.9600   -81.8990   113.8400  -999.2500  -999.2500  -999.2500  -999.2500  -999.2500
 1455.0000   -75.5880     6.4150     6.6280     7.0180   -81.9080   111.7660  -999.2500  -999.2500  -999.2500  -999.2500  -999.2500
 1455.5000   -71.8970     6.4660     6.6990     7.2900   -81.9070   111.1190  -999.2500  -999.2500  -999.2500  -999.2500  -999.2500
 1456.0000   -68.2060     6.5180     6.7710     7.5610   -81.9050   111.9140  -999.2500  -999.2500  -999.2500  -999.2500  -999.2500
 1456.5000   -64.5150     6.5690     6.8430     7.8320   -81.9070   112.4920  -999.2500  -999.2500  -999.2500  -999.2500  -999.2500
 1457.0000   -60.8240     6.5960     6.9540     8.0070   -81.9070   113.0030  -999.2500  -999.2500  -999.2500  -999.2500  -999.2500
 1457.5000   -57.1320     6.6110     6.9450     7.8980   -81.9010   109.8620  -999.2500  -999.2500  -999.2500  -999.2500  -999.2500
 1458.0000   -53.4410     6.6250     6.9250     7.7890   -81.9780   106.2250  -999.2500  -999.2500  -999.2500  -999.2500  -999.2500
 1458.5000   -49.7500     6.6400     6.9050     7.6800   -82.2100   102.0810  -999.2500  -999.2500  -999.2500  -999.2500  -999.2500
 1459.0000   -46.0590     6.6540     6.8860     7.5710   -82.4310   101.0420  -999.2500  -999.2500  -999.2500  -999.2500  -999.2500
 1459.5000   -43.7940     6.6690     6.8670     7.4630   -82.6590   105.3250  -999.2500  -999.2500  -999.2500  -999.2500  -999.2500
 1460.0000   -43.1100     6.6830     6.8470     7.3410   -82.8890   105.8030  -999.2500  -999.2500  -999.2500  -999.2500  -999.2500
 1460.5000   -42.4260     6.6980     6.8270     7.3410   -83.0670   104.9890  -999.2500  -999.2500  -999.2500  -999.2500  -999.2500
 1461.0000   -41.7430     6.7120     6.8070     7.4920   -83.0620   105.2070  -999.2500  -999.2500  -999.2500  -999.2500  -999.2500
 1461.5000   -41.0590     6.7270     6.7880     7.5540   -82.8830   108.5930  -999.2500  -999.2500  -999.2500  -999.2500  -999.2500
 1462.0000   -40.3760     6.7410     6.7680     7.6150   -82.6870   113.0630  -999.2500  -999.2500  -999.2500  -999.2500  -999.2500
 1462.5000   -39.6920     6.7560     6.7490     7.6760   -82.4910   114.1770  -999.2500  -999.2500  -999.2500  -999.2500  -999.2500
 1463.0000   -39.0090     6.7700     6.7290     7.7380   -82.2920   114.7770  -999.2500  -999.2500  -999.2500  -999.2500  -999.2500
 1463.5000   -38.3250     6.7840     6.7100     7.7990   -82.1000   112.6410  -999.2500  -999.2500  -999.2500  -999.2500  -999.2500
