~VERSION INFORMATION
 VERS.                2.0:   CWLS LOG ASCII STANDARD - VERSION 2.0
 WRAP.                 NO:   ONE LINE PER DEPTH STEP
~WELL INFORMATION
#MNEM.UNIT      DATA TYPE    INFORMATION
#----------   ------------   ------------------------------
 STRT.F           32.0000:   START DEPTH
 STOP.F         5116.0000:   STOP DEPTH
 STEP.F            0.5000:   STEP LENGTH
 NULL.          -999.2500:   NO VALUE
 COMP. LAWRENCE ALLISON AND ASSOCIATES:   COMPANY
 WELL. LAWRENCE "X" #11-26:   WELL
 FLD .       N.P.R. NO. 3:   FIELD
 LOC .      S26 T38N R78W:   LOCATION
 CNTY.            NATRONA:   COUNTY
 STAT.            WYOMING:   STATE
 CTRY. UNITED STATES OF AMERICA:   COUNTRY
 SRVC.      DRESSER ATLAS:   SERVICE COMPANY
 DATE.        03-DEC-1984:   LOGDATE
 API .     49025110120000:   API NUMBER
~CURVE INFORMATION
#MNEM.UNIT       API CODE    CURVE DESCRIPTION
#----------   ------------   ------------------------------
 DEPT.F                  :   
 CALD.IN     45 280 60 00:   CALIPER FROM DENSITY LOG
 TEND.LBS    45 635 01 00:   TENSION FORM DENSITY LOG
 CORR.G/C3   45 356 01 00:   DENSITY CORRECTION
 DEN .G/C3   45 350 01 00:   BULK DENSITY
 NPHI.DEC    42 890 03 00:   NEUTRON POROSITY SANDSTONE
 GRR .GAPI   07 310 01 00:   GAMMA RAY FROM RESISTIVITY
 SPR .MV     07 010 01 00:   SPONTANEOUS POTENTIAL
 CALR.IN     07 280 01 00:   CALIPER FROM RESISTIVITY
 TENR.LBS    07 635 01 00:   TENSION FROM RESISTIVITY
 RILD.OHMM   07 120 46 00:   INDUCTION LOG DEEP RESISTIVITY
 RILM.OHMM   07 120 44 00:   INDUCTION LOG MEDIUM RESISTIVITY
 RFOC.OHMM   07 220 04 00:   RESISTIVITY FOCUSED LOG RES.
 TENS.LBS    60 635 01 00:   TENSION FROM SONIC
 DT  .US/F   60 520 00 00:   DELTA TIME
~PARAMETER INFORMATION
#MNEM.UNIT          VALUE    DESCRIPTION
#----------   ------------   ------------------------------
 EKB .F         5321.0000:   Kelly bushing
 EGL .F         5309.0000:   Ground level
 EDF .F         5320.0000:   Drilling floor
 TD  .F         5104.0000:   Total depth
 CLNT.            A2DTECH:   Client Code
 SL  . 509' FWL & 22' FNL:   Surface Location
 PD  .                 GL:   Permanent Datum
 EPD .F              5309:   Elevation Permanent Datum
 LMF .                 KB:   Log Measured From
 DMF .                 KB:   Drilling Measured From
 DAPD.F                12:   Feet Above Permanent Datum
 DATE.        03-DEC-1984:   Date Logged [DD-MMM-YYYY]
 DD  .F              5100:   Depth driller
 DL  .F              5104:   Depth logger
 BLI .F              5102:   Bottom log interval
 TLI .F              1400:   Top log interval
 CS1 .IN            9.625:   Casing size
 CBD1.     9.625' @ 1657':   Casing driller 1
 CBL1.F              1652:   Casing logger 1
 BS1 .IN            7.875:   Bit size
 DFT .            KCL GEL:   Type fluid in hole
 DFD .                90.:   Density
 DFV .                 41:   Viscosity
 DFPH.                8.9:   pH
 DFL .               12.6:   Fluid loss
 MSS .           FLOWLINE:   Source of sample
 RMS .OHMM           .327:   Rm
 MST .F                84:   Rm Meas. temp.
 RMF .OHMM            .29:   Rmf
 MFST.F                84:   Rmf Meas. temp.
 MFSS.               CALC:   Source Rmf.
 RMC .OHMM            .42:   Rmc
 MCST.F                84:   Rmc Meas. temp.
 MCSS.               CALC:   Source Rmc.
 RMB .OHMM            .23:   Rm. at BHT
 BHT .F               142:   BHT.
 TCS .HRS               4:   Time Circ. stopped
 MRT .F               142:   Maximum recorded temp.
 LUN .               6307:   Logging unit number
 LUL .               CLTE:   Logging unit location
 WITN.             STRONG:   Witnessed by
 ORIG.           5" PRINT:   Origin of data
 UWI .     49025110120000:   Unique Well ID
 DICO. A2D TECHNOLOGIES, INC.:   Digitizing Company
~OTHER INFORMATION
~A  DEPTH     CALD       TEND       CORR        DEN       NPHI        GRR        SPR       CALR       TENR       RILD       RILM       RFOC       TENS         DT
# ...
 1698.0000  -999.2500  -230.9236  -999.2500  -999.2500  -999.2500    85.3579   -76.8193    13.0013   -51.7719     6.8232     5.9349     6.3796  -999.2500  -999.2500
 1698.5000  -999.2500  -239.4738  -999.2500  -999.2500  -999.2500    85.0584   -76.8158    13.0017   -52.3263     6.7285     6.0003     6.2651  -999.2500  -999.2500
 1699.0000  -999.2500  -248.0237  -999.2500  -999.2500  -999.2500    80.5184   -38.2701    13.0172   -52.8807     6.6811     5.9527     6.1793  -999.2500  -999.2500
 1699.5000  -999.2500  -999.2500  -999.2500  -999.2500  -999.2500    80.5326   -37.9604    13.0327   -53.4351     6.6342     5.9527     6.1482  -999.2500  -999.2500
 1700.0000  -999.2500  -999.2500  -999.2500  -999.2500  -999.2500    82.0522   -37.9518    13.0331   -53.9895     6.5422     5.9527     6.0721  -999.2500  -999.2500
 1700.5000  -999.2500  -999.2500  -999.2500  -999.2500  -999.2500    81.7617   -37.7905    13.0337   -54.5421     6.5414     5.8708     6.0733  -999.2500  -999.2500
 1701.0000  -999.2500  -999.2500  -999.2500  -999.2500  -999.2500    83.2844   -37.9326    13.0341   -55.0563     6.6317     5.8708     6.0743  -999.2500  -999.2500
 1701.5000  -999.2500  -999.2500  -999.2500  -999.2500  -999.2500    84.2007   -37.9240    13.0345   -55.5704     6.6310     5.7901     6.0755  -999.2500  -999.2500
 1702.0000  -999.2500  -999.2500  -999.2500  -999.2500  -999.2500    81.7988   -38.2169    13.0198   -56.0846     6.6301     5.7104     6.0346  -999.2500  -999.2500
 1702.5000  -999.2500  -999.2500  -999.2500  -999.2500  -999.2500    78.1902   -38.3785    13.0053   -56.5988     6.6293     5.6710     5.9936  -999.2500  -999.2500
 1703.0000  -999.2500  -999.2500  -999.2500  -999.2500  -999.2500    77.2966   -38.7998    12.9456   -57.1130     6.6285     5.6319     5.9123  -999.2500  -999.2500
 1703.5000  -999.2500  -999.2500  -999.2500  -999.2500  -999.2500    80.0257   -38.7913    12.7954   -57.6272     6.6275     5.7104     5.9135  -999.2500  -999.2500
 1704.0000  -999.2500  -999.2500  -999.2500  -999.2500  -999.2500    84.5620   -39.0861    12.6002   -58.1414     6.5356     5.6710     5.8734  -999.2500  -999.2500
 1704.5000  -999.2500  -999.2500  -999.2500  -999.2500  -999.2500    90.6065   -39.3766    12.3753   -58.6556     6.4449     5.5544     5.8746  -999.2500  -999.2500
 1705.0000  -999.2500  -999.2500  -999.2500  -999.2500  -999.2500    98.1621   -39.6671    12.1800   -59.1698     6.3116     5.5544     5.8350  -999.2500  -999.2500
 1705.5000  -999.2500  -999.2500  -999.2500  -999.2500  -999.2500   102.6984   -39.6586    12.0600   -59.6840     6.1811     5.5544     5.7959  -999.2500  -999.2500
 1706.0000  -999.2500  -999.2500  -999.2500  -999.2500  -999.2500   103.9135   -39.9512    11.9552   -60.1982     6.0113     5.6319     5.6383  -999.2500  -999.2500
 1706.5000  -999.2500  -999.2500  -999.2500  -999.2500  -999.2500    97.2912   -39.9428    11.8654   -60.7124     5.8870     5.6710     5.5230  -999.2500  -999.2500
 1707.0000  -999.2500  -999.2500  -999.2500  -999.2500  -999.2500    92.7805   -39.9320    11.8055   -61.2266     5.7653     5.7104     5.5654  -999.2500  -999.2500
 1707.5000  -999.2500  -999.2500  -999.2500  -999.2500  -999.2500    92.1857   -39.9234    11.7459   -61.7408     5.6853     5.7104     5.6084  -999.2500  -999.2500
 1708.0000  -999.2500  -999.2500  -999.2500  -999.2500  -999.2500    94.9148   -40.0676    11.7163   -62.2550     5.6452     5.6228     5.6422  -999.2500  -999.2500
 1708.5000  -999.2500  -999.2500  -999.2500  -999.2500  -999.2500    97.9428   -39.9063    11.6866   -62.7692     5.6056     5.5161     5.6432  -999.2500  -999.2500
 1709.0000  -999.2500  -999.2500  -999.2500  -999.2500  -999.2500   100.6719   -39.8976    11.6872   -63.2834     5.6049     5.3284     5.6027  -999.2500  -999.2500
 1709.5000  -999.2500  -999.2500  -999.2500  -999.2500  -999.2500   102.1915   -39.8871    11.6726   -63.7976     5.5272     5.1115     5.4153  -999.2500  -999.2500
 1710.0000  -999.2500  -999.2500  -999.2500  -999.2500  -999.2500   101.2979   -39.8785    11.6732   -64.3118     5.4117     4.9719     5.2681  -999.2500  -999.2500
 1710.5000  -999.2500  -999.2500  -999.2500  -999.2500  -999.2500    98.2926   -40.1733    11.6737   -64.8260     5.3008     4.9719     5.1249  -999.2500  -999.2500
 1711.0000  -999.2500  -999.2500  -999.2500  -999.2500  -999.2500    96.7957   -40.4638    11.6743   -65.3402     5.2273     4.9719     4.9839  -999.2500  -999.2500
 1711.5000  -999.2500  -999.2500  -999.2500  -999.2500  -999.2500    99.2232   -40.7543    11.6898   -65.8544     5.0839     4.9719     4.9178  -999.2500  -999.2500
 1712.0000  -999.2500  -999.2500  -999.2500  -999.2500  -999.2500   101.3461   -41.0470    11.6904   -66.3686     5.0832     4.9375     4.9623  -999.2500  -999.2500
 1712.5000  -999.2500  -999.2500  -999.2500  -999.2500  -999.2500   102.2624   -41.0894    11.6909   -66.8828     5.0826     4.8360     5.0229  -999.2500  -999.2500
 1713.0000  -999.2500  -999.2500  -999.2500  -999.2500  -999.2500   102.5754   -41.3313    11.6915   -67.3969     5.0820     4.8360     5.0587  -999.2500  -999.2500
 1713.5000  -999.2500  -999.2500  -999.2500  -999.2500  -999.2500   101.0813   -41.4909    11.7139   -67.9111     5.0813     4.8360     5.0597  -999.2500  -999.2500
 1714.0000  -999.2500  -999.2500  -999.2500  -999.2500  -999.2500   101.9977   -41.6152    11.7226   -68.4253     5.0807     4.8360     5.0606  -999.2500  -999.2500
 1714.5000  -999.2500  -999.2500  -999.2500  -999.2500  -999.2500   103.5214   -41.6045    11.7231   -68.9395     5.0801     4.8360     5.0615  -999.2500  -999.2500
 1715.0000  -999.2500  -999.2500  -999.2500  -999.2500  -999.2500   105.3415   -41.6868    11.7236   -69.4476     5.0794     4.8819     5.0623  -999.2500  -999.2500
 1715.5000  -999.2500  -999.2500  -999.2500  -999.2500  -999.2500   105.9561   -41.7380    11.7393   -61.6274     5.0788     4.9093     5.0631  -999.2500  -999.2500
 1716.0000  -999.2500  -999.2500  -999.2500  -999.2500  -999.2500   100.5376   -41.7273    11.7398   -46.3622     5.1134     4.9719     5.0290  -999.2500  -999.2500
 1716.5000  -999.2500  -999.2500  -999.2500  -999.2500  -999.2500    91.4748   -41.5682    11.7554   -46.1121     5.1128     4.9719     5.0300  -999.2500  -999.2500
 1717.0000  -999.2500  -999.2500  -999.2500  -999.2500  -999.2500    89.4017   -41.5596    11.7559   -45.8619     5.1477     4.9719     4.9616  -999.2500  -999.2500
 1717.5000  -999.2500  -999.2500  -999.2500  -999.2500  -999.2500    89.1086   -41.5511    11.7564   -60.6268     5.1469     4.9483     4.8941  -999.2500  -999.2500
 1718.0000  -999.2500  -999.2500  -999.2500  -999.2500  -999.2500    90.3294   -41.5404    11.7570   -60.3141     5.1464     4.9035     4.8277  -999.2500  -999.2500
 1718.5000  -999.2500  -999.2500  -999.2500  -999.2500  -999.2500    92.1753   -41.5318    11.7575   -60.0639     5.1457     4.8360     4.7949  -999.2500  -999.2500
 1719.0000  -999.2500  -999.2500  -999.2500  -999.2500  -999.2500    93.0699   -41.5233    11.7580   -59.8138     5.1450     4.7366     4.7958  -999.2500  -999.2500
 1719.5000  -999.2500  -999.2500  -999.2500  -999.2500  -999.2500    93.3801   -41.2135    11.7585   -59.5637     5.1444     4.7039     4.7967  -999.2500  -999.2500
 1720.0000  -999.2500  -999.2500  -999.2500  -999.2500  -999.2500    90.9810   -41.0443    11.7570   -74.3285     5.1437     4.7039     4.8646  -999.2500  -999.2500
 1720.5000  -999.2500  -999.2500  -999.2500  -999.2500  -999.2500    86.7367   -40.5919    11.7295   -74.0158     5.0724     4.7039     4.9333  -999.2500  -999.2500
 1721.0000  -999.2500  -999.2500  -999.2500  -999.2500  -999.2500    88.8949   -40.2821    11.7300   -73.7988     5.0717     4.7039     4.9684  -999.2500  -999.2500
 1721.5000  -999.2500  -999.2500  -999.2500  -999.2500  -999.2500    93.4311   -39.8217    11.7004   -73.5155     5.0014     4.7039     4.9349  -999.2500  -999.2500
 1722.0000  -999.2500  -999.2500  -999.2500  -999.2500  -999.2500    97.0624   -39.5120    11.7009   -73.2654     4.9483     4.7153     4.7678  -999.2500  -999.2500
