~VERSION INFORMATION
 VERS.                2.0:   CWLS LOG ASCII STANDARD - VERSION 2.0
 WRAP.                 NO:   ONE LINE PER DEPTH STEP
~WELL INFORMATION
#MNEM.UNIT      DATA TYPE    INFORMATION
#----------   ------------   ------------------------------
 STRT.F           22.5000:   START DEPTH
 STOP.F         4120.0000:   STOP DEPTH
 STEP.F            0.5000:   STEP LENGTH
 NULL.          -999.2500:   NO VALUE
 COMP. LAWRENCE ALLISON & ASSOCIATES:   COMPANY
 WELL. LAWRENCE-ALLISON SHX #37-10:   WELL
 FLD .              N P R:   FIELD
 LOC .      S10 T38N R78W:   LOCATION
 CNTY.            NATRONA:   COUNTY
 STAT.            WYOMING:   STATE
 CTRY. UNITED STATES OF AMERICA:   COUNTRY
 SRVC.      DRESSER ATLAS:   SERVICE COMPANY
 DATE.        29-JUN-1983:   LOGDATE
 API .     49025107370001:   API NUMBER
~CURVE INFORMATION
#MNEM.UNIT       API CODE    CURVE DESCRIPTION
#----------   ------------   ------------------------------
 DEPT.F                  :   
 TEND.LBS    45 635 01 00:   TENSION FROM DENSITY LOG
 CORR.G/C3   45 356 01 00:   DENSITY CORRECTION
 NPHI.DEC    42 890 03 00:   NEUTRON POROSITY SANDSTONE
 CALD.IN     45 280 60 00:   CALIPER FROM DENSITY LOG
 GRR .GAPI   07 310 01 00:   GAMMA RAY FROM RESISTIVITY
 SPR .MV     07 010 01 00:   SPONTANEOUS POTENTIAL
 TENR.LBS    07 635 01 00:   TENSION FROM RESISTIVITY
 RILD.OHMM   07 120 46 00:   DEEP INDUCTION RESISTIVITY
 RILM.OHMM   07 120 44 00:   INDUCTION LOG MEDIUM RESISTIVITY
 RFOC.OHMM   07 220 04 00:   RESISTIVITY FOCUSED LOG RES.
 RHOB.G/C3   45 350 01 00:   BULK DENSITY
~PARAMETER INFORMATION
#MNEM.UNIT          VALUE    DESCRIPTION
#----------   ------------   ------------------------------
 EKB .F         5228.0000:   Kelly bushing
 EGL .F         5218.0000:   Ground level
 EDF .F            0.0000:   Drilling floor
 EPD .F         5218.0000:   Permanent datum
 TD  .F         4125.0000:   Total depth
 DATE.        29-JUN-1983:   Date logged
 CLNT.            A2DTECH:   Client Code
 SL  . 984' FWL & 1620' FEL:   Surface Location
 PD  .                 GL:   Permanent Datum
 DD  .F              4125:   Depth driller
 DL  .F              4107:   Depth logger
 BLI .F              4105:   Bottom log interval
 CS1 .IN              4.5:   Casing size
 CBD1.       4.5" @ 2213':   Casing driller 1
 CBL1.F              2213:   Casing logger 1
 BS1 .IN             6.25:   Bit size
 DFT .                KCL:   Type fluid in hole
 DFD .                8.8:   Density
 DFV .                 45:   Viscosity
 DFPH.                  9:   pH
 DFL .               10.8:   Fluid loss
 MSS .            MUDTANK:   Source of sample
 RMS .OHMM            .44:   Rm
 MST .F               108:   Rm Meas. temp.
 RMF .OHMM            .37:   Rmf
 MFST.F               108:   Rmf Meas. temp.
 RMC .OHMM            .55:   Rmc
 MCST.F               108:   Rmc Meas. temp.
 MFSS.               MEAS:   Source Rmf.
 RMB .OHMM            .36:   Rm. at BHT
 BHT .F               126:   BHT.
 TCS .HRS               2:   Time Circ. stopped
 MRT .F               126:   Maximum recorded temp.
 LUN .               6343:   Logging unit number
 LUL .                 FM:   Logging unit location
 ENGI.          I. GOVETT:   Recorded By
 WITN.          G. STRONG:   Witnessed by
 ORIG.     2.5", 5" PRINT:   Origin of data
 UWI .     49025107370001:   Unique Well ID
 DICO. A2D TECHNOLOGIES, INC.:   Digitizing Company
 DAPD.                 10:   Feet Above Permanent Datum
 BSD1.               4125:   Depth drilled with bit1
 MCSS.               CALC:   Source Rmc.
 TLI .               2213:   Top log interval
~OTHER INFORMATION
~A   DEPT     TEND       CORR       NPHI       CALD         GRR       SPR       TENR       RILD       RILM       RFOC       RHOB   
# ...
 2218.5000  -999.2500  -999.2500  -999.2500  -999.2500    77.5690   -31.2570    23.0769     7.0280     8.0430     6.8400  -999.2500
 2219.0000  -999.2500  -999.2500  -999.2500  -999.2500    82.1710   -32.4470    23.0769     6.7150     9.1000     7.0540  -999.2500
 2219.5000  -999.2500  -999.2500  -999.2500  -999.2500    84.1350   -32.7630    23.0769     7.1610     8.2470     7.4610  -999.2500
 2220.0000  -999.2500  -999.2500  -999.2500  -999.2500    81.4930   -32.7750    23.0769     7.6410     7.0790     7.8690  -999.2500
 2220.5000  -999.2500  -999.2500  -999.2500  -999.2500    78.8600   -32.7730    23.0769     8.1480     6.5410     8.2990  -999.2500
 2221.0000  -999.2500  -999.2500  -999.2500  -999.2500    78.3720   -32.7710    23.0769     7.6600     6.2220     7.4760  -999.2500
 2221.5000  -999.2500  -999.2500  -999.2500  -999.2500    78.6740   -32.7770    23.0769     7.1450     5.9030     6.6070  -999.2500
 2222.0000  -999.2500  -999.2500  -999.2500  -999.2500    83.4750   -33.0390    23.0769     6.6290     5.5850     5.7380  -999.2500
 2222.5000  -999.2500  -999.2500  -999.2500  -999.2500    88.7150   -33.3220    23.0769     6.1140     5.3830     5.0800  -999.2500
 2223.0000  -999.2500  -999.2500  -999.2500  -999.2500    93.9610   -33.5370    23.0769     5.6890     5.7120     4.6380  -999.2500
 2223.5000  -999.2500  -999.2500  -999.2500  -999.2500    99.2990   -33.2980    23.0769     5.6520     6.1240     4.8050  -999.2500
 2224.0000  -999.2500  -999.2500  -999.2500  -999.2500    99.9210   -33.0650    23.0769     5.6280     5.9470     5.3360  -999.2500
 2224.5000  -999.2500  -999.2500  -999.2500  -999.2500    97.5390   -32.9710    23.0769     5.6140     5.7210     5.8670  -999.2500
 2225.0000  -999.2500  -999.2500  -999.2500  -999.2500    94.9140   -32.9710    23.0769     5.5990     5.5580     6.7150  -999.2500
 2225.5000  -999.2500  -999.2500  -999.2500  -999.2500    93.6220   -32.9700     4.1590     5.5850     5.4900     6.4570  -999.2500
 2226.0000  -999.2500  -999.2500  -999.2500  -999.2500    97.2820   -32.9700     4.4260     5.7250     5.3830     5.8170  -999.2500
 2226.5000  -999.2500  -999.2500  -999.2500  -999.2500    99.9530   -32.9700     4.6940     5.8650     5.4380     5.1880  -999.2500
 2227.0000  -999.2500  -999.2500  -999.2500  -999.2500    99.5110   -32.9700     4.9500     6.0040     5.5710     5.3520  -999.2500
 2227.5000  -999.2500  -999.2500  -999.2500  -999.2500    98.9580   -32.9700     4.9500     6.1430     5.7050     5.5130  -999.2500
 2228.0000  -999.2500  -999.2500  -999.2500  -999.2500    96.0630   -32.9700     4.9500     6.2830     5.8380     5.6370  -999.2500
 2228.5000  -999.2500  -999.2500  -999.2500  -999.2500    93.9770   -32.9700     4.9500     6.4670     5.9710     5.3780  -999.2500
 2229.0000  -999.2500  -999.2500  -999.2500  -999.2500    92.8430   -32.9700     4.9500     6.4490     6.1240     5.1410  -999.2500
 2229.5000  -999.2500  -999.2500  -999.2500  -999.2500    91.7380   -32.9700     4.9500     6.4140     5.9460     5.9060  -999.2500
 2230.0000  -999.2500  -999.2500  -999.2500  -999.2500    90.6280   -32.9700     4.9500     6.3790     5.7360     6.6980  -999.2500
 2230.5000  -999.2500  -999.2500  -999.2500  -999.2500    89.0120   -32.9700     4.9500     6.3320     5.5260     7.9260  -999.2500
 2231.0000  -999.2500  -999.2500  -999.2500  -999.2500    88.6290   -32.9700     4.9500     6.2490     5.3160     7.3460  -999.2500
 2231.5000  -999.2500  -999.2500  -999.2500  -999.2500    91.8640   -32.9710     4.9500     6.1670     5.1060     6.1100  -999.2500
 2232.0000  -999.2500  -999.2500  -999.2500  -999.2500    97.3540   -32.9870     4.9500     6.0050     4.9090     4.7360  -999.2500
 2232.5000  -999.2500  -999.2500  -999.2500  -999.2500   104.7620   -32.3250     4.9500     5.7590     4.9420     4.7560  -999.2500
 2233.0000  -999.2500  -999.2500  -999.2500  -999.2500   111.6120   -31.1740     4.9500     5.5130     4.9720     4.8130  -999.2500
 2233.5000  -999.2500  -999.2500  -999.2500  -999.2500   113.1330   -29.4320     4.9500     5.2670     5.0020     5.0010  -999.2500
 2234.0000  -999.2500  -999.2500  -999.2500  -999.2500   113.0700   -27.7070     4.9500     5.0500     5.0320     4.9250  -999.2500
 2234.5000  -999.2500  -999.2500  -999.2500  -999.2500   113.0210   -26.6730     4.9500     5.0780     5.0570     4.7320  -999.2500
 2235.0000  -999.2500  -999.2500  -999.2500  -999.2500   111.3780   -26.8230     4.9500     5.1050     5.0780     4.9670  -999.2500
 2235.5000  -999.2500  -999.2500  -999.2500  -999.2500   109.6680   -26.9550     4.9500     5.1330     5.0980     5.1880  -999.2500
 2236.0000  -999.2500  -999.2500  -999.2500  -999.2500   108.2560   -27.0890     4.9500     5.1630     5.1180     4.8340  -999.2500
 2236.5000  -999.2500  -999.2500  -999.2500  -999.2500   108.9000   -27.2240     4.9500     5.1930     5.1390     4.3960  -999.2500
 2237.0000  -999.2500  -999.2500  -999.2500  -999.2500   109.6000   -27.3590     4.9500     5.2230     5.1590     4.6280  -999.2500
 2237.5000  -999.2500  -999.2500  -999.2500  -999.2500   110.2990   -27.4930     4.9500     5.2530     5.1790     5.0580  -999.2500
 2238.0000  -999.2500  -999.2500  -999.2500  -999.2500   110.7100   -27.6280     4.9500     5.2850     5.3120     5.4880  -999.2500
 2238.5000  -999.2500  -999.2500  -999.2500  -999.2500   111.2040   -27.7620     4.9500     5.5960     5.5360     5.8520  -999.2500
 2239.0000  -999.2500  -999.2500  -999.2500  -999.2500   111.1480   -27.8950     4.9500     5.9220     5.7600     5.8770  -999.2500
 2239.5000  -999.2500  -999.2500  -999.2500  -999.2500   109.7680   -28.0330     4.9500     6.2470     5.9840     5.9020  -999.2500
 2240.0000  -999.2500  -999.2500  -999.2500  -999.2500   108.3400   -28.3670     4.9500     6.5730     6.1610     6.3660  -999.2500
 2240.5000  -999.2500  -999.2500  -999.2500  -999.2500   109.9280   -28.6910     4.9500     6.8980     6.2580     6.8430  -999.2500
 2241.0000  -999.2500  -999.2500  -999.2500  -999.2500   112.2380   -29.0130     4.9500     7.1620     6.3550     7.2280  -999.2500
 2241.5000  -999.2500  -999.2500  -999.2500  -999.2500   114.5210   -29.3340     4.9500     6.9950     6.4530     7.0230  -999.2500
 2242.0000  -999.2500  -999.2500  -999.2500  -999.2500   111.7570   -29.6560     4.9500     6.8540     6.5500     6.8510  -999.2500
 2242.5000  -999.2500  -999.2500  -999.2500  -999.2500   110.4110   -29.8310     4.9500     6.7150     6.6470     6.7150  -999.2500
 2243.0000  -999.2500  -999.2500  -999.2500  -999.2500   110.7030   -29.8860     4.9500     7.0960     6.7440     7.2280  -999.2500
 2243.5000  -999.2500  -999.2500  -999.2500  -999.2500   110.9920   -29.9410     4.9500     7.0790     6.8400     7.1590  -999.2500
 2244.0000  -999.2500  -999.2500  -999.2500  -999.2500   111.2880   -29.9950     4.9500     7.0370     6.6710     7.0310  -999.2500
 2244.5000  -999.2500  -999.2500  -999.2500  -999.2500   111.5830   -30.0500     4.9500     6.9960     6.5050     7.6290  -999.2500
 2245.0000  -999.2500  -999.2500  -999.2500  -999.2500   111.8860   -30.1040     4.9500     6.9540     6.3400     7.8030  -999.2500
 2245.5000  -999.2500  -999.2500  -999.2500  -999.2500   110.5060   -30.1590     4.9500     6.9120     6.1750     7.9150  -999.2500
 2246.0000  -999.2500  -999.2500  -999.2500  -999.2500   108.2540   -30.2130     4.9500     6.8710     6.0090     7.9990  -999.2500
 2246.5000  -999.2500  -999.2500  -999.2500  -999.2500   105.9900   -30.2680     4.9500     6.8100     5.8440     7.8840  -999.2500
 2247.0000  -999.2500  -999.2500  -999.2500  -999.2500   103.7120   -30.3230     4.9500     6.6940     5.6890     7.4100  -999.2500
 2247.5000  -999.2500  -999.2500  -999.2500  -999.2500   101.6940   -30.3780     4.9500     6.5790     5.8680     6.7400  -999.2500
 2248.0000  -999.2500  -999.2500  -999.2500  -999.2500   103.5260   -30.4940     4.9500     6.4720     6.0750     6.4890  -999.2500
 2248.5000  -999.2500  -999.2500  -999.2500  -999.2500   105.4260   -30.6440     4.9500     6.3540     6.2830     6.3540  -999.2500
