~VERSION INFORMATION
 VERS.                2.0:   CWLS LOG ASCII STANDARD - VERSION 2.0
 WRAP.                 NO:   ONE LINE PER DEPTH STEP
~WELL INFORMATION
#MNEM.UNIT      DATA TYPE    INFORMATION
#----------   ------------   ------------------------------
 STRT.F            0.0000:   START DEPTH
 STOP.F         3205.0000:   STOP DEPTH
 STEP.F            0.5000:   STEP LENGTH
 NULL.          -999.2500:   NO VALUE
 COMP. LAWRENCE-ALLISON AND ASSOCIATES:   COMPANY
 WELL. LAWRENCE "X" #64-28:   WELL
 FLD .          N.P.R. #3:   FIELD
 LOC .      S28 T39N R78W:   LOCATION
 CNTY.            NATRONA:   COUNTY
 STAT.            WYOMING:   STATE
 CTRY. UNITED STATES OF AMERICA:   COUNTRY
 SRVC.      DRESSER ATLAS:   SERVICE COMPANY
 DATE.        25-MAY-1986:   LOGDATE
 API .     49025110730000:   API NUMBER
~CURVE INFORMATION
#MNEM.UNIT       API CODE    CURVE DESCRIPTION
#----------   ------------   ------------------------------
 DEPT.F                  :   
 GRR .GAPI   07 310 01 00:   GAMMA RAY FROM RESISTIVITY
 SPR .MV     07 010 01 00:   SPONTANEOUS POTENTIAL
 RILD.OHMM   07 120 46 00:   DEEP INDUCTION RESISTIVITY
 RILM.OHMM   07 120 44 00:   INDUCTION LOG MEDIUM RESISTIVITY
 RSFL.OHMM   07 221 01 00:   AMPPLIFIED SHALLOW FOCUSED LOG RESISTIVITY
 TENR.LBS    07 635 01 00:   TENSION FROM RESISTIVITY
 CNC .DEC    42 890 03 00:   NEUTRON POROSITY SANDSTONE
 CALD.IN     45 280 60 00:   CALIPER FROM DENSITY LOG
 DEN .G/C3   45 350 01 00:   BULK DENSITY
 CORR.G/C3   45 356 01 00:   DENSITY CORRECTION
 TEND.LBS    45 635 01 00:   TENSION FROM DENSITY LOG
~PARAMETER INFORMATION
#MNEM.UNIT          VALUE    DESCRIPTION
#----------   ------------   ------------------------------
 EKB .F         5070.0000:   Kelly bushing
 EGL .F         5058.0000:   Ground level
 TD  .F         3205.0000:   Total depth
 DATE.        25-MAY-1986:   Date logged
 CLNT.            A2DTECH:   Client Code
 SL  . 2248' FNL & 1636' FEL:   Surface Location
 PD  .                 GL:   Permanent Datum
 EPD .F              5058:   Elevation Permanent Datum
 LMF .                 KB:   Log Measured From
 DMF .                 KB:   Drilling Measured From
 DAPD.F                12:   Feet Above Permanent Datum
 DD  .F              3205:   Depth driller
 DL  .F              3203:   Depth logger
 BLI .F              3201:   Bottom log interval
 CS1 .IN            8.625:   Casing size
 CBD1.      8.625" @ 476':   Casing driller 1
 CBL1.F               478:   Casing logger 1
 BS1 .IN            7.875:   Bit size
 BSD1.F              3205:   Depth drilled with bit1
 DFT .        POLYMER-KCL:   Type fluid in hole
 DFD .                  9:   Density
 DFV .                 37:   Viscosity
 DFPH.                8.5:   pH
 DFL .                 10:   Fluid loss
 MSS .           FLOWLINE:   Source of sample
 RMS .OHMM           0.31:   Rm
 MST .F                69:   Rm Meas. temp.
 RMF .OHMM           0.25:   Rmf
 MFST.F                69:   Rmf Meas. temp.
 RMC .OHMM           0.39:   Rmc
 MCST.F                69:   Rmc Meas. temp.
 MFSS.               MEAS:   Source Rmf.
 MCSS.               CALC:   Source Rmc.
 RMB .OHMM           0.19:   Rm. at BHT
 BHT .F               115:   BHT.
 TCS .HRS               4:   Time Circ. stopped
 MRT .F               115:   Maximum recorded temp.
 LUN .            HL-6274:   Logging unit number
 LUL .           GILLETTE:   Logging unit location
 ENGI.             RAUTIO:   Recorded By
 WITN.             STRONG:   Witnessed by
 ORIG.           5" PRINT:   Origin of data
 UWI .     49025110730000:   Unique Well ID
 DICO. A2D TECHNOLOGIES, INC.:   Digitizing Company
~OTHER INFORMATION
~A    DEPT     GRR        SPR       RILD       RILM       RSFL       TENR        CNC       CALD        DEN       CORR       TEND   
# ...
  671.0000    98.8260   -50.8150     4.9430     4.5850     5.7430   -19.5470  -999.2500  -999.2500  -999.2500  -999.2500  -999.2500
  671.5000    98.8700   -51.0000     4.8340     4.4500     5.3970   -21.3540  -999.2500  -999.2500  -999.2500  -999.2500  -999.2500
  672.0000   100.5290   -51.2650     4.8490     4.5350     5.2050   -23.1610  -999.2500  -999.2500  -999.2500  -999.2500  -999.2500
  672.5000   103.5040   -51.4840     4.8610     4.6290     5.0150   -25.4490  -999.2500  -999.2500  -999.2500  -999.2500  -999.2500
  673.0000   106.0470   -51.5210     4.8730     4.7240     5.2060   -27.2170  -999.2500  -999.2500  -999.2500  -999.2500  -999.2500
  673.5000   103.1120   -51.3580     4.9240     4.8180     5.5620   -29.6260  -999.2500  -999.2500  -999.2500  -999.2500  -999.2500
  674.0000    99.2840   -51.2030     5.0550     4.9110     5.9180   -32.0360  -999.2500  -999.2500  -999.2500  -999.2500  -999.2500
  674.5000    99.8050   -51.0350     5.1850     5.0010     6.1170   -34.4450  -999.2500  -999.2500  -999.2500  -999.2500  -999.2500
  675.0000   101.0950   -50.8960     5.3160     5.0910     6.0410   -33.0650  -999.2500  -999.2500  -999.2500  -999.2500  -999.2500
  675.5000    99.3350   -50.7060     5.4470     5.1810     5.9170   -29.0710  -999.2500  -999.2500  -999.2500  -999.2500  -999.2500
  676.0000    98.7760   -50.6210     5.5990     5.2500     5.9440   -25.0760  -999.2500  -999.2500  -999.2500  -999.2500  -999.2500
  676.5000   103.2240   -50.9080     5.5890     5.2590     5.9780   -21.0820  -999.2500  -999.2500  -999.2500  -999.2500  -999.2500
  677.0000   107.8540   -51.2040     5.5760     5.2660     6.0110   -17.0870  -999.2500  -999.2500  -999.2500  -999.2500  -999.2500
  677.5000   108.5350   -51.4500     5.5630     5.2720     6.0450   -13.0920  -999.2500  -999.2500  -999.2500  -999.2500  -999.2500
  678.0000   105.2670   -51.7210     5.5500     5.2790     6.0820    -9.0980  -999.2500  -999.2500  -999.2500  -999.2500  -999.2500
  678.5000   102.5500   -51.7490     5.5370     5.2860     6.0690    -5.4890  -999.2500  -999.2500  -999.2500  -999.2500  -999.2500
  679.0000   102.1960   -51.6540     5.5240     5.2930     6.0540   -11.2290  -999.2500  -999.2500  -999.2500  -999.2500  -999.2500
  679.5000   100.9920   -51.5810     5.5110     5.2990     6.0400   -16.4640  -999.2500  -999.2500  -999.2500  -999.2500  -999.2500
  680.0000    99.1820   -51.4890     5.4970     5.3340     6.0250   -21.6980  -999.2500  -999.2500  -999.2500  -999.2500  -999.2500
  680.5000    98.3500   -51.4000     5.5490     5.3640     6.0100   -26.9320  -999.2500  -999.2500  -999.2500  -999.2500  -999.2500
  681.0000   100.4920   -51.1770     5.6030     5.3950     5.9950   -32.1670  -999.2500  -999.2500  -999.2500  -999.2500  -999.2500
  681.5000   101.6970   -50.8440     5.6580     5.4260     5.9800   -32.4970  -999.2500  -999.2500  -999.2500  -999.2500  -999.2500
  682.0000    99.6540   -50.5720     5.7120     5.4570     6.0200   -24.7120  -999.2500  -999.2500  -999.2500  -999.2500  -999.2500
  682.5000   100.5400   -50.2150     5.7670     5.4880     6.1440   -16.9280  -999.2500  -999.2500  -999.2500  -999.2500  -999.2500
  683.0000   103.0570   -50.0310     5.8210     5.5180     6.2680    -9.1430  -999.2500  -999.2500  -999.2500  -999.2500  -999.2500
  683.5000   103.5780   -50.3820     5.8630     5.5480     6.3920    -1.3590  -999.2500  -999.2500  -999.2500  -999.2500  -999.2500
  684.0000   102.2790   -50.8030     5.8630     5.5220     6.5150     4.4910  -999.2500  -999.2500  -999.2500  -999.2500  -999.2500
  684.5000    99.4310   -51.1220     5.8630     5.4910     6.6070    -2.2780  -999.2500  -999.2500  -999.2500  -999.2500  -999.2500
  685.0000    96.3250   -51.5600     5.8630     5.4610     6.5300    -7.6990  -999.2500  -999.2500  -999.2500  -999.2500  -999.2500
  685.5000    95.0800   -51.7820     5.8870     5.4300     6.4860   -13.1200  -999.2500  -999.2500  -999.2500  -999.2500  -999.2500
  686.0000    97.3350   -51.6870     5.8270     5.3990     6.3360   -18.5410  -999.2500  -999.2500  -999.2500  -999.2500  -999.2500
  686.5000    99.7900   -51.5370     5.7670     5.3680     6.2200   -25.4490  -999.2500  -999.2500  -999.2500  -999.2500  -999.2500
  687.0000   101.1730   -51.3430     5.7070     5.3370     6.1030   -24.5070  -999.2500  -999.2500  -999.2500  -999.2500  -999.2500
  687.5000   101.8330   -51.1690     5.6460     5.2990     6.0430   -23.2100  -999.2500  -999.2500  -999.2500  -999.2500  -999.2500
  688.0000    99.4790   -50.9410     5.5860     5.3130     6.0900   -21.9130  -999.2500  -999.2500  -999.2500  -999.2500  -999.2500
  688.5000    98.2320   -50.8230     5.5560     5.3310     6.1380   -20.6150  -999.2500  -999.2500  -999.2500  -999.2500  -999.2500
  689.0000   101.8160   -51.0840     5.5780     5.3500     6.1950   -19.3180  -999.2500  -999.2500  -999.2500  -999.2500  -999.2500
  689.5000   104.6150   -51.3620     5.6000     5.3680     6.1540   -18.0200  -999.2500  -999.2500  -999.2500  -999.2500  -999.2500
  690.0000   101.6790   -51.6120     5.6220     5.3870     6.1020   -16.7230  -999.2500  -999.2500  -999.2500  -999.2500  -999.2500
  690.5000    98.2520   -51.7890     5.6440     5.3920     6.0780   -15.4690  -999.2500  -999.2500  -999.2500  -999.2500  -999.2500
  691.0000    99.8460   -51.5860     5.6650     5.3790     6.0720   -20.4500  -999.2500  -999.2500  -999.2500  -999.2500  -999.2500
  691.5000   102.1520   -51.3400     5.6870     5.3660     6.0660   -25.2690  -999.2500  -999.2500  -999.2500  -999.2500  -999.2500
  692.0000   101.7610   -51.2010     5.7030     5.3530     6.0600   -30.0870  -999.2500  -999.2500  -999.2500  -999.2500  -999.2500
  692.5000    99.4440   -50.9520     5.6560     5.3400     6.0530   -35.4290  -999.2500  -999.2500  -999.2500  -999.2500  -999.2500
  693.0000    97.3610   -50.8210     5.6190     5.3280     6.0470   -29.2780  -999.2500  -999.2500  -999.2500  -999.2500  -999.2500
  693.5000    99.8150   -50.9940     5.5820     5.3150     6.0410   -22.3780  -999.2500  -999.2500  -999.2500  -999.2500  -999.2500
  694.0000   101.5180   -51.2370     5.5450     5.3020     6.0340   -15.4780  -999.2500  -999.2500  -999.2500  -999.2500  -999.2500
  694.5000    99.5420   -51.4570     5.5080     5.2890     6.0270    -8.5780  -999.2500  -999.2500  -999.2500  -999.2500  -999.2500
  695.0000   102.1350   -51.5270     5.4700     5.2760     6.0330    -8.8760  -999.2500  -999.2500  -999.2500  -999.2500  -999.2500
  695.5000   102.8760   -51.3170     5.4540     5.2630     6.0410   -15.0090  -999.2500  -999.2500  -999.2500  -999.2500  -999.2500
  696.0000    98.3740   -51.1060     5.4720     5.2500     6.0490   -21.1430  -999.2500  -999.2500  -999.2500  -999.2500  -999.2500
  696.5000    98.4590   -50.8900     5.4900     5.2500     6.0580   -27.2760  -999.2500  -999.2500  -999.2500  -999.2500  -999.2500
  697.0000    99.8190   -50.6850     5.5080     5.2500     6.0660   -33.4090  -999.2500  -999.2500  -999.2500  -999.2500  -999.2500
  697.5000    99.7730   -50.7810     5.5250     5.2500     6.0740   -39.5420  -999.2500  -999.2500  -999.2500  -999.2500  -999.2500
  698.0000    98.8820   -51.0680     5.5430     5.2500     6.0820   -45.4090  -999.2500  -999.2500  -999.2500  -999.2500  -999.2500
  698.5000    97.3760   -51.3740     5.5610     5.2500     6.0580   -40.6250  -999.2500  -999.2500  -999.2500  -999.2500  -999.2500
  699.0000   100.6570   -51.6350     5.5790     5.2500     6.0340   -36.0400  -999.2500  -999.2500  -999.2500  -999.2500  -999.2500
  699.5000   103.0130   -51.9630     5.5990     5.2500     6.0110   -31.4540  -999.2500  -999.2500  -999.2500  -999.2500  -999.2500
  700.0000   100.2170   -52.1830     5.5990     5.2500     5.9880   -26.8690  -999.2500  -999.2500  -999.2500  -999.2500  -999.2500
  700.5000    98.5320   -51.8180     5.5990     5.2500     5.9710   -22.2840  -999.2500  -999.2500  -999.2500  -999.2500  -999.2500
  701.0000    97.8320   -51.3900     5.5990     5.2500     6.0060   -17.6980  -999.2500  -999.2500  -999.2500  -999.2500  -999.2500
