~VERSION INFORMATION
 VERS.                2.0:   CWLS LOG ASCII STANDARD - VERSION 2.0
 WRAP.                 NO:   ONE LINE PER DEPTH STEP
~WELL INFORMATION
#MNEM.UNIT      DATA TYPE    INFORMATION
#----------   ------------   ------------------------------
 STRT.F          213.5000:   START DEPTH
 STOP.F         3198.0000:   STOP DEPTH
 STEP.F            0.5000:   STEP LENGTH
 NULL.          -999.2500:   NO VALUE
 COMP.    FENIX & SCISSON:   COMPANY
 WELL.   FENIX "AX" #14-2:   WELL
 FLD .              NPR-3:   FIELD
 LOC .       S2 T38N R78W:   LOCATION
 CNTY.            NATRONA:   COUNTY
 STAT.            WYOMING:   STATE
 CTRY. UNITED STATES OF AMERICA:   COUNTRY
 SRVC.              WELEX:   SERVICE COMPANY
 DATE.        14-MAY-1977:   LOGDATE
 API .     49025103620000:   API NUMBER
~CURVE INFORMATION
#MNEM.UNIT       API CODE    CURVE DESCRIPTION
#----------   ------------   ------------------------------
 DEPT.F                  :   
 GRD .GAPI   45 310 01 00:   GAMMA RAY FROM DENSITY LOG
 CALD.IN     45 280 60 00:   CALIPER FROM DENSITY LOG
 CORR.G/C3   45 356 01 00:   DENSITY CORRECTION
 RHOB.G/C3   45 350 01 00:   BULK DENSITY
 SPR .MV     07 010 01 00:   SPONTANEOUS POTENTIAL FROM RES.
 ILD .OHMM   07 120 46 00:   DEEP INDUCTION RESISTIVITY
 ILM .OHMM   07 120 44 00:   INDUCTION LOG MEDIUM RESISTIVITY
 SGRD.OHMM   07 220 05 00:   SHALLOW SHORT GUARD RESISTIVITY
~PARAMETER INFORMATION
#MNEM.UNIT          VALUE    DESCRIPTION
#----------   ------------   ------------------------------
 EKB .F         5119.0000:   Kelly bushing
 EGL .F         5110.0000:   Ground level
 TD  .F         3200.0000:   Total depth
 CLNT.            A2DTECH:   Client Code
 SL  . 2400' FNL & 150' FWL:   Surface Location
 PD  .                 GL:   Permanent Datum
 EPD .F              5110:   Elevation Permanent Datum
 LMF .                 KB:   Log Measured From
 DMF .                 KB:   Drilling Measured From
 DAPD.F                 9:   Feet Above Permanent Datum
 DATE.        14-MAY-1977:   Date Logged [DD-MMM-YYYY]
 DD  .F              3200:   Depth driller
 DL  .F              3199:   Depth logger
 BLI .F              3197:   Bottom log interval
 TLI .F               217:   Top log interval
 CS1 .IN            8.625:   Casing size
 BS1 .IN            7.875:   Bit size
 BSD1.F              3200:   Depth drilled with bit1
 DFT .            KCL MUD:   Type fluid in hole
 DFD .                8.8:   Density
 TCS .HRS             2.5:   Time Circ. stopped
 MRT .F               130:   Maximum recorded temp.
 ENGI.          T. JOYNER:   Recorded By
 WITN.      W. PETTINGILL:   Witnessed by
 ORIG.           5" PRINT:   Origin of data
 UWI .     49025103620000:   Unique Well ID
 DICO. A2D TECHNOLOGIES, INC.:   Digitizing Company
 DFV .                 31:   Viscosity
 DFPH.                7.5:   pH
 DFL .                6.4:   Fluid loss
 MSS .          FLOW LINE:   Source of sample
 RMS .OHMM            .13:   Rm
 MST .F               62.:   Rm Meas. temp.
 RMF .OHMM            .12:   Rmf
 MFST.F                62:   Rmf Meas. temp.
 MFSS.           FANN KIT:   Source Rmf.
 RMC .OHMM            .28:   Rmc
 MCST.F                62:   Rmc Meas. temp.
 RMB .OHMM            .06:   Rm. at BHT
 BHT .F               130:   BHT.
~OTHER INFORMATION
~A   DEPT      GRD       CALD       CORR       RHOB        SPR        ILD        ILM       SGRD   
# ...
  821.0000   125.7315     8.2009    -0.0048     2.4320   -45.8500     5.1785     4.7696     6.2518
  821.5000   126.0597     8.1881    -0.0047     2.4396   -45.8327     5.2199     4.6434     6.2111
  822.0000   126.7303     8.1901    -0.0045     2.4358   -45.8154     5.1888     4.5843     6.1357
  822.5000   126.7147     8.1768    -0.0029     2.4323   -45.7988     5.1937     4.5241     6.0968
  823.0000   125.8557     8.1793    -0.0028     2.4278   -45.7811     5.0918     4.4358     6.0593
  823.5000   124.6909     8.1812    -0.0054     2.4212   -45.7633     5.0250     4.4702     6.0232
  824.0000   123.2276     8.1833    -0.0266     2.4167   -45.7456     4.9085     4.4738     6.0277
  824.5000   120.8687     8.1854    -0.0264     2.4273   -45.7245     4.7657     4.4457     5.9905
  825.0000   119.1069     8.1875    -0.0248     2.4341   -45.7072     4.6079     4.2695     5.9950
  825.5000   119.1361     8.1900    -0.0230     2.4326   -45.6899     4.5478     4.1279     6.0412
  826.0000   120.3594     8.1920    -0.0170     2.4410   -45.6725     4.7147     4.1024     6.0949
  826.5000   118.0005     8.1791    -0.0123     2.4508   -45.6568     5.0039     4.0778     6.2205
  827.0000   115.9363     8.1812    -0.0047     2.4652   -45.6379     5.2759     4.0820     6.4884
  827.5000   113.8210     8.1678    -0.0016     2.4771   -45.6206     5.5817     4.0292     7.0056
  828.0000   109.1403     8.1703    -0.0014     2.4764   -45.6033     5.7838     5.3902     7.6163
  828.5000   104.9904     8.1724    -0.0013     2.4705   -45.5858     5.8700     5.3574     8.5712
  829.0000   101.1390     8.1595     0.0003     2.4623   -45.5680     5.8757     5.1086     9.6457
  829.5000   100.2654     8.1616     0.0005     2.4519   -45.5470     5.8814     4.7385     9.8549
  830.0000   108.6601     8.1641    -0.0009     2.4370   -45.5297     5.8475     4.4565     7.2829
  830.5000   118.2416     8.1810    -0.0083     2.4258   -45.5123     5.8517     4.4910     6.2155
  831.0000   121.2559     8.2128    -0.0126     2.4297   -45.6430     5.7749     4.5888     6.0506
  831.5000   124.2702     8.2297    -0.0125     2.4350   -45.6256     5.7430     4.4363     6.0123
  832.0000   126.0904     8.2466    -0.0108     2.4358   -45.4604     5.6787     4.4710     5.9760
  832.5000   126.4182     8.2784    -0.0062     2.4299   -45.5917     5.5943     4.5378     5.9809
  833.0000   124.5502     8.2953    -0.0031     2.4277   -45.5737     5.4652     4.6046     5.9851
  833.5000   120.5089     8.3122     0.0016     2.4337   -45.4083     5.3827     4.6084     5.9897
  834.0000   122.6276     8.3292     0.0047     2.4398   -45.3905     5.2010     4.6121     5.9662
  834.5000   123.8509     8.3461     0.0078     2.4474   -45.5217     5.0957     4.6158     5.9573
  835.0000   122.6469     8.3486     0.0110     2.4542   -45.5001     4.9992     4.5239     5.9628
  835.5000   120.8796     8.3506     0.0111     2.4535   -45.4828     4.9648     4.4964     5.9672
  836.0000   119.7594     8.3527     0.0097     2.4483   -45.4654     4.9398     4.5010     5.9779
  836.5000   117.4079     8.3547     0.0051     2.4424   -45.4481     4.9116     4.5046     6.0174
  837.0000   115.0418     8.3567    -0.0020     2.4365   -45.2829     4.9162     4.5395     6.0734
  837.5000   118.0633     8.3588    -0.0079     2.4358   -45.2656     4.9547     4.5748     6.1528
  838.0000   120.7791     8.3608    -0.0077     2.4389   -45.1003     5.0289     4.6103     6.2032
  838.5000   120.2113     8.3628    -0.0046     2.4434   -45.0828     5.1122     4.6790     6.2473
  839.0000   118.7480     8.3649     0.0000     2.4472   -44.9172     5.2522     4.7809     6.3415
  839.5000   118.0876     8.3670     0.0047     2.4503   -44.7482     5.4064     4.8180     6.4329
  840.0000   119.4035     8.3545     0.0078     2.4533   -44.7308     5.5288     4.8219     6.5236
  840.5000   119.9400     8.3417     0.0064     2.4557   -44.5656     5.6462     4.8593     6.5766
  841.0000   121.1394     8.3140     0.0066     2.4587   -44.5483     5.6516     4.8969     6.6277
  841.5000   122.6387     8.3006     0.0067     2.4618   -44.3830     5.6569     4.9009     6.6785
  842.0000   124.4378     8.2585     0.0053     2.4641   -44.2178     5.6623     4.9389     6.6833
  842.5000   125.9370     8.2605     0.0055     2.4657   -44.0525     5.6272     4.9771     6.7347
  843.0000   127.1465     8.2626     0.0056     2.4620   -44.0352     5.6339     4.9813     6.7398
  843.5000   125.4127     8.2497     0.0043     2.4581   -44.0177     5.6392     5.0200     6.7449
  844.0000   120.2399     8.2518     0.0044     2.4554   -43.8521     5.6838     5.0249     6.7572
  844.5000   120.2399     8.2543     0.0030     2.4547   -43.8310     5.7287     5.0638     6.8027
  845.0000   118.7406     8.2563     0.0032     2.4540   -43.6658     5.8573     5.1031     6.9754
  845.5000   115.7421     8.2583     0.0018     2.4548   -43.5005     5.9901     5.1072     7.2997
  846.0000   113.9430     8.2604    -0.0026     2.4541   -43.3353     6.2168     5.1468     7.7735
  846.5000   112.7436     8.2624    -0.0055     2.4520   -43.3179     6.4930     5.3320     8.2289
  847.0000   110.6447     8.2793    -0.0100     2.4475   -43.3006     6.7982     5.7181     8.6039
  847.5000   108.7705     8.2813    -0.0142     2.4431   -43.2833     6.9468     6.1321     8.8342
  848.0000   104.3478     8.2834    -0.0125     2.4402   -43.2660     7.0018     6.4859     9.2670
  848.5000   100.4498     8.3006    -0.0079     2.4441   -43.2485     7.0086     6.8159     9.5336
  849.0000   102.8486     8.3191    -0.0048     2.4502   -43.2308     7.0645     7.0171     9.6067
  849.5000   106.4468     8.3346    -0.0001     2.4561   -43.2097     7.2196     7.1635     9.6138
  850.0000   109.8532     8.3515     0.0030     2.4554   -43.1924     7.6381     7.2691     9.5470
  850.5000   112.5690     8.3536     0.0032     2.4540   -43.1751     7.8243     7.2750     9.5323
  851.0000   114.4458     8.3556     0.0033     2.4533   -43.1578     8.0106     7.2809     9.5176
  851.5000   113.1806     8.3576     0.0035     2.4526   -42.9926     8.1525     7.2351     9.5029
  852.0000   114.6841     8.3597     0.0037     2.4542   -42.8274     8.1715     7.2912     9.4882
  852.5000   110.2248     8.3617     0.0038     2.4565   -42.8101     8.2235     7.2469     9.4735
  853.0000   111.1349     8.3637     0.0040     2.4573   -42.9408     8.2313     7.3045     9.4588
  853.5000   111.7466     8.3658     0.0042     2.4581   -43.0715     8.1583     7.3104     9.4441
  854.0000   109.3731     8.3679     0.0044     2.4582   -43.0499     8.0100     7.3699     9.4294
  854.5000   108.7907     8.3703     0.0045     2.4568   -43.0326     7.9165     7.4759     9.4147
  855.0000   107.8607     8.3723     0.0032     2.4524   -43.0153     7.8687     7.6400     9.4000
  855.5000   104.3460     8.3744     0.0018     2.4464   -42.9980     7.8760     7.8063     9.3853
  856.0000   102.5659     8.3764    -0.0010     2.4398   -42.9808     7.9379     7.8668     9.3707
  856.5000   104.9723     8.3784    -0.0053     2.4338   -42.9635     8.0012     7.8732     9.3560
  857.0000   107.0765     8.3805    -0.0127     2.4290   -42.9462     8.0639     7.8238     9.3413
  857.5000   105.5985     8.3825    -0.0171     2.4242   -42.7810     8.1848     7.7762     9.3266
  858.0000   103.2251     8.3845    -0.0214     2.4176   -42.7633     8.3626     7.7305     9.3119
  858.5000   107.4188     8.3866    -0.0212     2.4155   -42.8900     8.5456     7.7368     9.3057
  859.0000   107.7812     8.3886    -0.0210     2.4156   -43.0207     8.7750     7.7430     9.3804
  859.5000   108.9406     8.3876    -0.0209     2.4179   -43.0034     9.1845     7.6960     9.4221
  860.0000   111.6418     8.3866    -0.0207     2.4210   -42.9862     9.5244     7.7024     9.5282
  860.5000   112.8756     8.3856    -0.0190     2.4248   -42.8209     9.8083     7.7100     9.6326
  861.0000   113.4621     8.3706    -0.0159     2.4294   -42.8037    10.0488     7.7163     9.6892
