~VERSION INFORMATION
 VERS.                2.0:   CWLS LOG ASCII STANDARD - VERSION 2.0
 WRAP.                 NO:   ONE LINE PER DEPTH STEP
~WELL INFORMATION
#MNEM.UNIT      DATA TYPE    INFORMATION
#----------   ------------   ------------------------------
 STRT.F          637.0000:   START DEPTH
 STOP.F         3158.0000:   STOP DEPTH
 STEP.F            0.5000:   STEP LENGTH
 NULL.          -999.2500:   NO VALUE
 COMP.    FENIX & SCISSON:   COMPANY
 WELL.  FENIX "AX" #34-33:   WELL
 FLD .             NPR #3:   FIELD
 LOC .      S33 T39N R78W:   LOCATION
 CNTY.            NATRONA:   COUNTY
 STAT.            WYOMING:   STATE
 CTRY. UNITED STATES OF AMERICA:   COUNTRY
 SRVC.       SCHLUMBERGER:   SERVICE COMPANY
 DATE.        15-APR-1977:   LOGDATE
 API .     49025103450000:   API NUMBER
~CURVE INFORMATION
#MNEM.UNIT       API CODE    CURVE DESCRIPTION
#----------   ------------   ------------------------------
 DEPT.F                  :   
 CALD.IN     45 280 60 00:   CALIPER FROM DENSITY LOG
 GRD .GAPI   45 310 01 00:   GAMMA RAY FROM DENSITY LOG
 RHOB.G/C3   45 350 01 00:   BULK DENSITY
 CORR.G/C3   45 356 01 00:   DENSITY CORRECTION
 SPR .MV     07 010 01 00:   SPONTANEOUS POTENTIAL
 SFLU.OHMM   07 220 01 00:   SPHERICALLY FOCUSED LOG UNAVERAGED RESISTIVITY
 ILD .OHMM   07 120 46 00:   INDUCTION LOG DEEP RESISTIVITY
 ILM .OHMM   07 120 44 00:   INDUCTION LOG MEDIUM RESISTIVITY
~PARAMETER INFORMATION
#MNEM.UNIT          VALUE    DESCRIPTION
#----------   ------------   ------------------------------
 EKB .F         5196.0000:   Kelly bushing
 EGL .F         5185.0000:   Ground level
 EDF .F            0.0000:   Drilling floor
 TD  .F         3159.0000:   Total depth
 DATE.        15-APR-1977:   Date logged
 CLNT.            A2DTECH:   Client Code
 SL  . 2132' FNL & 1750' FWL:   Surface Location
 PD  .                 GL:   Permanent Datum
 EPD .F              5185:   Elevation Permanent Datum
 LMF .                 KB:   Log Measured From
 DMF .                 KB:   Drilling Measured From
 DAPD.F                11:   Feet Above Permanent Datum
 DD  .F              3156:   Depth driller
 DL  .F              3159:   Depth logger
 BLI .F              3153:   Bottom log interval
 TLI .F               637:   Top log interval
 CS1 .IN            8.625:   Casing size
 CBD1.      8.625" @ 637':   Casing driller 1
 CBL1.F               637:   Casing logger 1
 BS1 .IN            7.875:   Bit size
 BSD1.F              3156:   Depth drilled with bit1
 DFT .                FGM:   Type fluid in hole
 DFD .                7.5:   Density
 DFV .                 35:   Viscosity
 DFPH.                8.5:   pH
 DFL .                  9:   Fluid loss
 MSS .                PIT:   Source of sample
 RMS .OHMM            .48:   Rm
 MST .F                60:   Rm Meas. temp.
 RMF .OHMM            .28:   Rmf
 MFST.F                60:   Rmf Meas. temp.
 MFSS.               MEAS:   Source Rmf.
 RMB .OHMM            .24:   Rm. at BHT
 BHT .F               120:   BHT.
 TCS .HRS            0200:   Time Circ. stopped
 MRT .F               120:   Maximum recorded temp.
 LUN .               7680:   Logging unit number
 LUL .               CSPR:   Logging unit location
 ENGI.             TAYLOR:   Recorded By
 WITN.         PETTINGILL:   Witnessed by
 ORIG.           5" PRINT:   Origin of data
 UWI .     49025103450000:   Unique Well ID
 DICO. A2D TECHNOLOGIES, INC.:   Digitizing Company
 TLAB.               0530:   Time logger at bottom
~OTHER INFORMATION
~A   DEPT       CALD      GRD       RHOB       CORR        SPR         SFLU        ILD        ILM 
# ...
 2945.5000     7.8195   102.1439     2.5788     0.0354   -33.5738     7.2428     5.5641     5.6156
 2946.0000     7.8169   103.9357     2.5729     0.0444   -32.9754     7.2431     5.4129     5.6159
 2946.5000     7.8311   108.7115     2.6008     0.0574   -32.9744     7.4471     5.3145     5.6161
 2947.0000     7.8311   111.2983     2.5948     0.0684   -33.1726     7.0457     4.9376     5.4635
 2947.5000     7.8302   117.4671     2.5878     0.0803   -33.5701     6.6660     4.6726     5.2663
 2948.0000     7.8294   119.6555     2.5739     0.0514   -33.7683     6.2488     4.1843     5.1706
 2948.5000     7.8285   117.8628     2.5639     0.0554   -33.7673     5.9120     3.8875     4.9839
 2949.0000     7.8277   120.6492     2.5788     0.0783   -33.7663     5.5420     3.3555     4.8485
 2949.5000     7.8268   126.0217     2.5868     0.0883   -33.5661     5.3908     3.0607     4.6735
 2950.0000     7.8260   133.3841     2.5758     0.0694   -33.5651     5.2924     2.8436     4.3822
 2950.5000     7.8251   140.3484     2.5659     0.0843   -33.3649     5.2439     2.5465     3.8174
 2951.0000     7.8243   174.6761     2.5669     0.0923   -33.1647     4.6505     2.4098     2.7920
 2951.5000     7.8234   199.3516     2.5649     0.0923   -32.5661     3.8660     2.4099     2.5467
 2952.0000     7.8226   205.5200     2.5040     0.1302   -31.9675     2.8238     2.5468     2.5468
 2952.5000     7.8217   200.1470     2.5020     0.1302   -30.9705     2.0802     2.7669     2.5705
 2953.0000     7.8209   141.3389     2.5200     0.1243   -31.3679     2.1190     2.9784     2.6670
 2953.5000     7.8200   129.5975     2.5299     0.0374   -30.7693     2.6427     3.1766     2.8446
 2954.0000     7.8192    99.3503     2.5459     0.0384   -30.9675     5.4937     3.5477     3.0620
 2954.5000     7.8183    91.7873     2.6238     0.0923   -30.9665     7.9505     4.1868     3.3883
 2955.0000     7.8175    95.3697     2.6277     0.0764   -30.9655     7.6624     4.7151     3.7493
 2955.5000     7.8166    96.5631     2.6048     0.0614   -31.5621     7.0512     5.5184     4.5071
 2956.0000     7.8158    96.3637     2.6058     0.0684   -32.1586     6.8588     5.5696     4.8964
 2956.5000     7.8149    96.1643     2.5978     0.0764   -32.1576     6.5495     5.4683     5.3686
 2957.0000     7.8141    96.1638     2.5739     0.0783   -32.3558     6.3707     5.2709     5.5191
 2957.5000     7.8132    97.5562     2.5539     0.0594   -32.3548     6.1398     5.0800     5.3690
 2958.0000     7.8124    97.9526     2.5459     0.0434   -32.3538     6.0276     4.8525     5.1753
 2958.5000     7.8115   100.1418     2.5519     0.0544   -32.5520     5.9175     4.5920     4.9885
 2959.0000     7.8107   103.5238     2.5599     0.0664   -32.9495     5.8634     4.3857     4.9431
 2959.5000     7.8098   106.5066     2.5689     0.0664   -33.1477     5.8097     3.9879     4.8531
 2960.0000     7.8090   112.0783     2.5848     0.0704   -32.9475     5.5717     3.6263     4.7649
 2960.5000     7.8081   115.0621     2.5569     0.0584   -32.9465     5.4202     3.2974     4.6353
 2961.0000     7.8073   117.6480     2.5549     0.0564   -32.7463     5.1767     3.0923     4.4272
 2961.5000     7.8064   123.6161     2.5549     0.0684   -32.5461     4.8540     2.7265     4.1131
 2962.0000     7.8056   135.1549     2.5479     0.0684   -32.3459     4.7221     2.5027     3.7174
 2962.5000     7.8047   145.4998     2.5739     0.0504   -32.3449     4.5100     2.2412     3.4857
 2963.0000     7.8039   162.5340     2.5349     0.0744   -32.7423     3.7992     2.1603     2.9267
 2963.5000     7.8030   172.6804     2.4980     0.0764   -32.1437     3.4641     2.1210     2.6695
 2964.0000     7.8022   179.0467     2.4511     0.0823   -31.9435     3.0159     2.1407     2.0071
 2964.5000     7.8013   188.1980     2.4261     0.0923   -30.9465     2.2440     2.2832     1.8821
 2965.0000     7.8005   175.4650     2.4721     0.1462   -30.7463     1.9718     2.3908     1.9527
 2965.5000     7.7996   150.2687     2.5060     0.1742   -30.7453     1.9901     2.5974     2.2215
 2966.0000     7.7988   127.7873     2.5090     0.1562   -30.7443     2.8275     2.8741     2.5274
 2966.5000     7.7979   111.4726     2.5270     0.0254   -31.5402     5.3004     3.1224     2.8218
 2967.0000     7.7971   104.1121     2.5529     0.0440   -31.7384     5.9222     3.7535     3.2100
 2967.5000     7.7962   102.9167     2.5639     0.0535   -32.1358     5.9224     4.3490     3.5195
 2968.0000     7.7954   105.1055     2.5669     0.0604   -32.1348     5.9777     4.9018     4.1537
 2968.5000     7.7945   105.5033     2.5579     0.0584   -32.5322     5.9780     4.9931     4.3897
 2969.0000     7.7937   107.4906     2.5629     0.0664   -32.5312     5.9782     4.9933     4.7251
 2969.5000     7.7929   110.2072     2.5559     0.0704   -32.5303     6.0340     4.9477     4.8576
 2970.0000     7.7920   113.2597     2.5579     0.0704   -32.5293     6.0343     4.9027     4.9938
 2970.5000     7.7912   116.6406     2.5419     0.0454   -33.1259     5.9791     4.9030     4.9940
 2971.0000     7.7904   116.4410     2.5619     0.0581   -33.3239     5.9794     4.9032     4.9942
 2971.5000     7.8103   116.4404     2.5759     0.0813   -33.3229     5.9797     4.9034     5.0406
 2972.0000     7.8103   117.2354     2.5759     0.0724   -33.3219     6.2051     4.9036     5.1345
 2972.5000     7.8102   116.2402     2.5719     0.0534   -33.3209     6.3211     4.9206     5.1822
 2973.0000     7.7903   115.4424     2.5898     0.0783   -33.3200     6.4991     4.9376     5.1349
 2973.5000     7.8102   116.2388     2.6018     0.0823   -33.3190     6.4994     4.9548     5.1352
 2974.0000     7.8102   117.0329     2.6018     0.0943   -33.5172     6.5601     4.9719     5.2309
 2974.5000     7.8102   119.8178     2.5998     0.0714   -33.7154     6.4402     4.9892     5.2311
 2975.0000     7.8102   122.6018     2.5958     0.0544   -33.5152     6.4405     5.0064     5.2796
 2975.5000     7.8101   124.1924     2.5888     0.0524   -33.9126     6.4408     5.0238     5.3286
 2976.0000     7.8101   124.7884     2.5828     0.0564   -34.1108     6.4411     5.0428     5.3782
 2976.5000     7.8101   124.7877     2.5739     0.0404   -34.5083     6.6225     5.0429     5.3785
 2977.0000     7.7902   124.9858     2.5609     0.0604   -34.5073     6.8722     4.9969     5.3787
 2977.5000     7.7902   125.3818     2.5878     0.0564   -34.5063     6.9363     4.9522     5.3790
 2978.0000     7.7902   123.1932     2.5928     0.0564   -34.5053     7.2646     4.9079     5.3299
 2978.5000     7.7901   121.6011     2.5788     0.0454   -34.1059     7.0663     4.8617     5.2813
 2979.0000     7.7901   126.7729     2.5709     0.0544   -34.1049     6.7476     4.8618     5.2332
 2979.5000     7.7702   127.3688     2.5629     0.0664   -34.1039     6.2094     4.7732     5.1380
 2980.0000     7.8100   126.3734     2.5938     0.0763   -34.1029     5.9843     4.6930     4.9984
 2980.5000     7.8100   125.1794     2.6018     0.0704   -33.9027     5.9296     4.6439     4.8625
 2981.0000     7.8099   121.3999     2.5948     0.0783   -33.9017     5.9299     4.6015     4.7303
 2981.5000     7.7900   118.0183     2.5798     0.0604   -33.9007     6.0407     4.6443     4.6018
 2982.0000     7.7900   118.0176     2.5709     0.0544   -33.8997     6.0410     4.6445     4.6020
 2982.5000     7.7900   119.6079     2.5918     0.0664   -34.2972     6.0974     4.7747     4.6022
 2983.0000     7.7701   120.2039     2.5988     0.0544   -34.4954     6.0416     5.0461     4.6024
 2983.5000     7.7900   120.7998     2.5948     0.0524   -34.4944     6.0979     5.1874     4.7315
 2984.0000     7.7899   121.3944     2.5868     0.0684   -34.2942     6.4460     5.5328     4.9090
 2984.5000     7.7700   118.8097     2.6188     0.0783   -34.0940     6.8371     5.7936     5.0467
 2985.0000     7.7700   113.6384     2.5998     0.0544   -34.0930     7.3597     6.0110     5.4827
 2985.5000     7.7700   110.4560     2.5948     0.0434   -34.0920     7.7778     6.2367     5.4326
