~VERSION INFORMATION
 VERS.                2.0:   CWLS LOG ASCII STANDARD - VERSION 2.0
 WRAP.                 NO:   ONE LINE PER DEPTH STEP
~WELL INFORMATION
#MNEM.UNIT      DATA TYPE    INFORMATION
#----------   ------------   ------------------------------
 STRT.F          200.0000:   START DEPTH
 STOP.F         3098.0000:   STOP DEPTH
 STEP.F            0.5000:   STEP LENGTH
 NULL.          -999.2500:   NO VALUE
 COMP.    FENIX & SCISSON:   COMPANY
 WELL.   FENIX "AX" #74-3:   WELL
 FLD .              N P R:   FIELD
 LOC .       S3 T38N R78W:   LOCATION
 CNTY.            NATRONA:   COUNTY
 STAT.            WYOMING:   STATE
 CTRY. UNITED STATES OF AMERICA:   COUNTRY
 SRVC.              WELEX:   SERVICE COMPANY
 DATE.        17-AUG-1977:   LOGDATE
 API .     49025104120000:   API NUMBER
~CURVE INFORMATION
#MNEM.UNIT       API CODE    CURVE DESCRIPTION
#----------   ------------   ------------------------------
 DEPT.F                  :   
 CALD.IN     45 280 60 00:   CALIPER FROM DENSITY LOG
 SPR .MV     07 010 01 00:   SPONTANEOUS POTENTIAL
 NPHI.DEC    42 890 00 00:   NEUTRON POROSITY
 GRD .GAPI   45 310 01 00:   GAMMA RAY FROM DENSITY LOG
 CORR.G/C3   45 356 01 00:   DENSITY CORRECTION
 RHOB.G/C3   45 350 01 00:   BULK DENSITY
 SGRD.OHMM   07 220 05 00:   SHALLOW SHORT GUARD RESISTIVITY
 ILD .OHMM   07 120 46 00:   DEEP INDUCTION RESISTIVITY
 ILM .OHMM   07 120 44 00:   INDUCTION LOG MEDIUM RESISTIVITY
~PARAMETER INFORMATION
#MNEM.UNIT          VALUE    DESCRIPTION
#----------   ------------   ------------------------------
 EKB .F         5141.0000:   Kelly bushing
 EGL .F         5131.0000:   Ground level
 EDF .F            0.0000:   Drilling floor
 TD  .F         3100.0000:   Total depth
 DATE.        17-AUG-1977:   Date logged
 CLNT.            A2DTECH:   Client Code
 SL  . 2272' FNL & 1060' FEL:   Surface Location
 PD  .                 GL:   Permanent Datum
 EPD .F              5131:   Elevation Permanent Datum
 LMF .                 KB:   Log Measured From
 DMF .                 KB:   Drilling Measured From
 DD  .F              3100:   Depth driller
 DL  .F              3100:   Depth logger
 BLI .F              3098:   Bottom log interval
 TLI .F               200:   Top log interval
 CS1 .IN            8.625:   Casing size
 CBD1.      8.625" @ 215':   Casing driller 1
 CBL1.F               218:   Casing logger 1
 BS1 .IN            7.875:   Bit size
 DFT .            KCL MUD:   Type fluid in hole
 DFD .                8.8:   Density
 DFV .                 33:   Viscosity
 DFPH.                9.5:   pH
 DFL .               10.6:   Fluid loss
 MSS .           FLOWLINE:   Source of sample
 RMS .OHMM            .67:   Rm
 MST .F                98:   Rm Meas. temp.
 RMF .OHMM            .64:   Rmf
 MFST.F                98:   Rmf Meas. temp.
 RMC .OHMM            .31:   Rmc
 MCST.F                98:   Rmc Meas. temp.
 MFSS.           MEASURED:   Source Rmf.
 RMB .OHMM            .57:   Rm. at BHT
 BHT .F               115:   BHT.
 TCS .HRS               3:   Time Circ. stopped
 MRT .F               115:   Maximum recorded temp.
 LUN .               8611:   Logging unit number
 LUL .             CASPER:   Logging unit location
 ENGI.            C. DOAK:   Recorded By
 WITN.     MR. PETTINGILL:   Witnessed by
 ORIG.           5" PRINT:   Origin of data
 UWI .     49025104120000:   Unique Well ID
 DICO. A2D TECHNOLOGIES, INC.:   Digitizing Company
 BSD1.               3100:   Depth drilled with bit1
~OTHER INFORMATION
~A   DEPT       CALD      SPR       NPHI          GRD      CORR        RHOB     SGRD        ILD        ILM   
# ...
 1514.0000    10.0750   -70.8470     0.3160   101.2910     0.0710     2.5380     7.0940     5.7840     6.1110
 1514.5000    10.0580   -70.8190     0.3180   102.5920     0.0740     2.5310     7.0360     5.8730     6.1110
 1515.0000    10.0410   -71.0390     0.3220   103.8840     0.0700     2.5250     6.9780     5.9540     6.2150
 1515.5000    10.0250   -71.0170     0.3250   105.1740     0.0660     2.5190     6.9200     6.0350     6.2810
 1516.0000    10.0080   -71.0050     0.3290   106.2670     0.0620     2.5160     6.8840     6.0550     6.3390
 1516.5000     9.9920   -70.9900     0.3290   106.2370     0.0600     2.5200     6.8840     6.1240     6.3970
 1517.0000     9.9750   -70.9750     0.3280   106.2060     0.0600     2.5190     6.9920     6.1470     6.4210
 1517.5000     9.9590   -70.9610     0.3260   107.4000     0.0600     2.5120     7.1240     6.1690     6.4750
 1518.0000     9.9500   -70.9460     0.3250   108.7650     0.0590     2.5100     7.2560     6.1920     6.5290
 1518.5000     9.9580   -70.9310     0.3230   108.6100     0.0570     2.5130     7.3880     6.2140     6.5820
 1519.0000     9.9660   -70.9170     0.3220   107.3080     0.0560     2.5160     7.5190     6.2360     6.6360
 1519.5000     9.9740   -70.9020     0.3200   106.0070     0.0540     2.5160     7.6510     6.2590     6.6900
 1520.0000     9.9820   -70.8870     0.3190   105.4370     0.0530     2.5120     7.7830     6.2810     6.7430
 1520.5000     9.9900   -70.8730     0.3190   107.1000     0.0500     2.5090     7.9220     6.3030     6.7970
 1521.0000     9.9980   -70.8580     0.3180   108.6870     0.0500     2.5050     7.9690     6.3260     6.8210
 1521.5000    10.0060   -70.8430     0.3160   110.3320     0.0510     2.5030     8.1170     6.3390     6.8210
 1522.0000    10.0140   -70.8290     0.3140   108.4920     0.0530     2.5100     8.1910     6.2810     6.7690
 1522.5000    10.0220   -70.8140     0.3130   106.0360     0.0550     2.5170     8.3430     6.2120     6.7050
 1523.0000    10.0250   -70.7990     0.3130   103.8660     0.0570     2.5240     8.2640     6.1860     6.6420
 1523.5000    10.0250   -70.7850     0.3120   103.5170     0.0600     2.5310     8.1770     6.1610     6.5790
 1524.0000    10.0250   -70.7700     0.3110   103.4390     0.0620     2.5310     8.0900     6.1350     6.5160
 1524.5000    10.0250   -70.7550     0.3140   102.8640     0.0640     2.5290     8.0030     6.1110     6.4560
 1525.0000    10.0250   -70.7410     0.3180   103.5900     0.0640     2.5270     7.9160     6.1110     6.4560
 1525.5000    10.0250   -70.7260     0.3210   104.2780     0.0640     2.5310     7.8300     6.1110     6.4560
 1526.0000    10.0250   -70.7110     0.3230   104.9670     0.0640     2.5350     7.7430     6.1440     6.5360
 1526.5000    10.0250   -70.6970     0.3220   105.6550     0.0640     2.5300     7.6560     6.2030     6.5910
 1527.0000    10.0260   -70.6820     0.3200   106.3440     0.0640     2.5250     7.5690     6.2630     6.6460
 1527.5000    10.0200   -70.6670     0.3160   107.0320     0.0630     2.5240     7.4820     6.3220     6.7000
 1528.0000     9.9690   -70.6530     0.3130   107.7210     0.0610     2.5290     7.4070     6.3970     6.7590
 1528.5000     9.9680   -70.6380     0.3100   108.4100     0.0600     2.5410     7.4070     6.3970     6.7590
 1529.0000     9.9690   -70.6230     0.3060   109.1030     0.0620     2.5540     7.5100     6.3970     6.8290
 1529.5000     9.9700   -70.6090     0.3050   109.7450     0.0640     2.5560     7.6790     6.3970     6.8440
 1530.0000     9.9710   -70.5940     0.3060   109.7030     0.0660     2.5570     7.8480     6.3940     6.8580
 1530.5000     9.9710   -70.5790     0.3030   108.7460     0.0690     2.5640     7.8970     6.3900     6.8720
 1531.0000     9.9720   -70.5650     0.3010   107.8150     0.0740     2.5730     7.8970     6.3860     6.8860
 1531.5000     9.9730   -70.5500     0.3010   106.8930     0.0790     2.5810     7.8970     6.3810     6.9010
 1532.0000     9.9740   -70.5350     0.3000   105.9720     0.0840     2.5900     7.9670     6.3770     6.9150
 1532.5000     9.9750   -70.5210     0.2990   105.0500     0.0900     2.5990     8.0520     6.3730     6.9290
 1533.0000     9.9750   -70.5060     0.2980   104.0980     0.0870     2.6030     8.1370     6.3680     6.9440
 1533.5000     9.9760   -70.4910     0.2970   103.9020     0.0840     2.5900     8.2220     6.3640     6.9470
 1534.0000     9.9770   -70.4760     0.2950   103.6150     0.0810     2.5800     8.3070     6.3600     6.9450
 1534.5000     9.9780   -70.4620     0.2960   103.1500     0.0780     2.5700     8.3920     6.3550     6.9330
 1535.0000     9.9790   -70.4470     0.2980   103.6750     0.0750     2.5630     8.4190     6.3510     6.9210
 1535.5000     9.9790   -70.4450     0.2990   104.4550     0.0720     2.5580     8.3720     6.3460     6.9090
 1536.0000     9.9800   -70.4390     0.3000   105.1990     0.0690     2.5490     8.2810     6.3420     6.8970
 1536.5000     9.9810   -70.2380     0.3010   105.9410     0.0660     2.5380     8.1900     6.3390     6.8850
 1537.0000     9.9820   -70.2490     0.3020   106.5980     0.0640     2.5260     8.0990     6.3970     6.8830
 1537.5000     9.9830   -70.2520     0.3080   106.1400     0.0630     2.5230     8.0080     6.3150     6.8990
 1538.0000     9.9840   -70.2520     0.3130   105.6620     0.0620     2.5240     7.9170     6.2570     6.9230
 1538.5000     9.9840   -70.2590     0.3160   105.4690     0.0620     2.5190     7.8260     6.2000     6.9470
 1539.0000     9.9850   -70.2680     0.3190   105.9700     0.0600     2.5130     7.7340     6.1430     6.9700
 1539.5000     9.9860   -70.2770     0.3260   107.2700     0.0580     2.5060     7.6430     6.0850     6.9930
 1540.0000     9.9870   -70.2860     0.3340   108.5620     0.0570     2.5000     7.5430     6.0280     7.0110
 1540.5000     9.9950   -70.2950     0.3400   109.8550     0.0540     2.5010     7.5430     5.9710     7.0750
 1541.0000    10.0040   -70.3040     0.3430   110.9470     0.0530     2.5040     7.5430     5.9460     7.1400
 1541.5000    10.0120   -70.3130     0.3440   110.7290     0.0520     2.5070     7.6520     5.9960     7.1400
 1542.0000    10.0200   -70.3230     0.3400   109.6880     0.0510     2.5080     7.8340     6.0820     7.1400
 1542.5000    10.0280   -70.3320     0.3350   108.6740     0.0490     2.5040     8.0170     6.1670     7.1400
 1543.0000    10.0370   -70.3410     0.3290   107.7720     0.0470     2.5020     8.1990     6.2440     7.1400
 1543.5000    10.0450   -70.3500     0.3240   107.5940     0.0460     2.5030     8.3810     6.2810     7.1410
 1544.0000    10.0450   -70.3590     0.3190   106.2940     0.0440     2.5030     8.4190     6.2810     7.1220
 1544.5000    10.0380   -70.3680     0.3170   106.5050     0.0470     2.4990     8.3120     6.2810     7.0790
 1545.0000    10.0220   -70.3770     0.3170   107.5010     0.0510     2.4970     8.1430     6.2240     7.0350
 1545.5000    10.0060   -70.3860     0.3190   108.5170     0.0540     2.4970     7.9730     6.1930     6.9910
 1546.0000     9.9900   -70.3960     0.3200   109.5360     0.0520     2.4980     7.8040     6.1670     6.9480
 1546.5000     9.9740   -70.4050     0.3220   110.5540     0.0500     2.5000     7.6340     6.1530     6.9040
 1547.0000     9.9590   -70.4140     0.3250   111.2810     0.0540     2.5050     7.4750     6.1290     6.8600
 1547.5000     9.9470   -70.4230     0.3280   110.2430     0.0590     2.5100     7.7170     6.1040     6.8210
 1548.0000     9.9520   -70.4320     0.3300   109.2140     0.0630     2.5180     7.9460     6.0800     6.8210
 1548.5000     9.9570   -70.4410     0.3270   108.2060     0.0670     2.5290     8.1740     6.0550     6.8210
 1549.0000     9.9610   -70.4500     0.3250   107.7580     0.0710     2.5400     8.2670     6.1110     6.8210
 1549.5000     9.9660   -70.4590     0.3210   109.6170     0.0750     2.5510     8.2150     6.1920     6.8210
 1550.0000     9.9670   -70.4680     0.3140   110.5280     0.0800     2.5580     8.0100     6.2240     6.8210
