~VERSION INFORMATION
 VERS.                2.0:   CWLS LOG ASCII STANDARD - VERSION 2.0
 WRAP.                 NO:   ONE LINE PER DEPTH STEP
~WELL INFORMATION
#MNEM.UNIT      DATA TYPE    INFORMATION
#----------   ------------   ------------------------------
 STRT.F            0.0000:   START DEPTH
 STOP.F         4022.0000:   STOP DEPTH
 STEP.F            0.5000:   STEP LENGTH
 NULL.          -999.2500:   NO VALUE
 COMP. LAWRENCE - ALLISON:   COMPANY
 WELL. LAWRENCE NPR 3 "MX" #58-10:   WELL
 FLD .                MPR:   FIELD
 LOC .      S10 T38N R78W:   LOCATION
 CNTY.            NATRONA:   COUNTY
 STAT.            WYOMING:   STATE
 CTRY. UNITED STATES OF AMERICA:   COUNTRY
 SRVC.      DRESSER ATLAS:   SERVICE COMPANY
 DATE.        12-FEB-1984:   LOGDATE
 API .     49025109610000:   API NUMBER
~CURVE INFORMATION
#MNEM.UNIT       API CODE    CURVE DESCRIPTION
#----------   ------------   ------------------------------
 DEPT.F                  :   
 GRR .GAPI   07 310 01 00:   GAMMA RAY FROM RESISTIVITY
 SPR .MV     07 010 01 00:   SPONTANEOUS POTENTIAL
 TENR.LBS    07 635 01 00:   TENSION FROM RESISTIVITY
 ILD .OHMM   07 120 46 00:   DEEP INDUCTION RESISTIVITY
 ILM .OHMM   07 120 44 00:   INDUCTION LOG MEDIUM RESISTIVITY
 SFL .OHMM   07 220 01 00:   SHALLOW FOCUSED LOG RESISTIVITY
 DT  .US/F   60 520 00 00:   DELTA TIME
 TENS.LBS    60 635 01 00:   TENSION FROM SONIC LOG
 CNC .DEC    42 890 03 00:   NEUTRON PORISITY SANDSTONE
 CALD.IN     45 280 60 00:   CALIPER FROM DENSITY LOG
 RHOB.G/C3   45 350 01 00:   BULK DENSITY
 CORR.G/C3   45 356 01 00:   DENSITY CORRECTION
 TEND.LBS    45 635 01 00:   TENSION FROM DENSITY LOG
~PARAMETER INFORMATION
#MNEM.UNIT          VALUE    DESCRIPTION
#----------   ------------   ------------------------------
 EKB .F         5218.0000:   Kelly bushing
 EGL .F         5208.0000:   Ground level
 EDF .F         5217.0000:   Drilling floor
 TD  .F         4014.0000:   Total depth
 DATE.        12-FEB-1984:   Date logged
 CLNT.            A2DTECH:   Client Code
 SL  . 500' FSL & 2150' FEL:   Surface Location
 PD  .                 GL:   Permanent Datum
 EPD .F              5208:   Elevation Permanent Datum
 LMF .                 KB:   Log Measured From
 DMF .                 KB:   Drilling Measured From
 DD  .F              4014:   Depth driller
 DL  .F              4011:   Depth logger
 BLI .F              4009:   Bottom log interval
 CS1 .IN            8.625:   Casing size
 CBD1.      8.625" @ 526':   Casing driller 1
 CBL1.F               525:   Casing logger 1
 BS1 .IN            7.875:   Bit size
 DFT .            GEL/KCL:   Type fluid in hole
 DFD .                8.9:   Density
 DFV .                 48:   Viscosity
 DFPH.                  8:   pH
 DFL .                1.3:   Fluid loss
 MSS .           MUD/TANK:   Source of sample
 RMS .OHMM           .556:   Rm
 MST .F                61:   Rm Meas. temp.
 RMF .OHMM           .423:   Rmf
 MFST.F                61:   Rmf Meas. temp.
 RMC .OHMM           .662:   Rmc
 MCST.F                61:   Rmc Meas. temp.
 MFSS.           MUD/TANK:   Source Rmf.
 RMB .OHMM            .80:   Rm. at BHT
 BHT .F               119:   BHT.
 TCS .HRS               5:   Time Circ. stopped
 MRT .F               119:   Maximum recorded temp.
 LUN .               6302:   Logging unit number
 ENGI.              GETTY:   Recorded By
 ORIG.           5" PRINT:   Origin of data
 UWI .     49025109610000:   Unique Well ID
 DICO. A2D TECHNOLOGIES, INC.:   Digitizing Company
 TLI .F                 0:   Top log interval
~OTHER INFORMATION
~A    DEPT      GRR       SPR       TENR        ILD        ILM        SFL         DT       TENS        CNC       CALD       RHOB       CORR       TEND   
# ...
  754.0000    85.2980   -17.8000  -130.0530     6.6720     6.4680     6.3320  -999.2500  -999.2500     0.2580    10.0570     2.4940     0.0380   -98.0400
  754.5000    82.7330   -17.6880  -123.3270     6.6230     6.4320     6.2590  -999.2500  -999.2500     0.2680    10.0180     2.4920     0.0450   -98.4860
  755.0000    84.5770   -17.6660  -116.6000     6.5690     6.3970     6.2210  -999.2500  -999.2500     0.2760     9.9920     2.4940     0.0600   -98.9310
  755.5000    88.4070   -18.2840  -117.2070     6.5160     6.3610     6.2040  -999.2500  -999.2500     0.2660     9.9830     2.5000     0.0810   -99.3760
  756.0000    95.7560   -18.9750  -119.4000     6.4620     6.3260     6.1880  -999.2500  -999.2500     0.2570     9.9730     2.5050     0.0850   -99.8210
  756.5000    96.6700   -19.0130  -121.5940     6.4080     6.2910     6.1710  -999.2500  -999.2500     0.2620     9.9640     2.5040     0.0590  -100.2670
  757.0000    94.9880   -18.7740  -123.7870     6.3550     6.2550     6.1550  -999.2500  -999.2500     0.2700     9.9540     2.4980     0.0670  -100.7120
  757.5000    93.6970   -18.5390  -124.3000     6.3010     6.2200     6.1380  -999.2500  -999.2500     0.2700     9.9450     2.4920     0.0810  -101.1570
  758.0000    93.3500   -18.3050  -120.4200     6.2310     6.1840     6.1220  -999.2500  -999.2500     0.2710     9.9350     2.4870     0.0740  -101.6020
  758.5000    92.1320   -18.0710  -116.5390     6.2440     6.1490     6.1050  -999.2500  -999.2500     0.2710     9.9090     2.4860     0.0630  -102.0480
  759.0000    91.8020   -17.8360  -112.1590     6.2620     6.1200     6.0890  -999.2500  -999.2500     0.2690     9.9030     2.4840     0.0510  -102.4930
  759.5000    94.0810   -17.5380  -107.5730     6.2880     6.1380     6.0720  -999.2500  -999.2500     0.2640     9.9200     2.4790     0.0490  -102.9380
  760.0000    96.1170   -17.1160  -106.5550     6.2810     6.1570     6.0620  -999.2500  -999.2500     0.2600     9.9370     2.4760     0.0510  -103.3830
  760.5000    97.5240   -16.7110  -108.6570     6.2660     6.1750     6.0850  -999.2500  -999.2500     0.2570     9.9530     2.4800     0.0520  -103.8290
  761.0000    93.2770   -16.7000  -110.7590     6.2520     6.1940     6.1020  -999.2500  -999.2500     0.2580     9.9710     2.4850     0.0480  -104.2740
  761.5000    88.2370   -17.0390  -112.8610     6.2310     6.2120     6.1190  -999.2500  -999.2500     0.2670     9.9700     2.4880     0.0370  -104.7190
  762.0000    85.1320   -17.8710  -114.9630     6.2760     6.2310     6.1360  -999.2500  -999.2500     0.2760     9.9650     2.4850     0.0290  -105.1640
  762.5000    88.3430   -18.6980  -114.2960     6.3540     6.2950     6.1530  -999.2500  -999.2500     0.2810     9.9600     2.4810     0.0340  -106.3400
  763.0000    88.7800   -19.4530  -112.8950     6.4310     6.3590     6.1710  -999.2500  -999.2500     0.2730     9.9570     2.4870     0.0510  -108.6330
  763.5000    88.9590   -19.3670  -111.4930     6.5090     6.4230     6.2500  -999.2500  -999.2500     0.2600     9.9100     2.4920     0.0800  -110.9260
  764.0000    91.4520   -18.9300  -110.0920     6.5840     6.4880     6.3430  -999.2500  -999.2500     0.2460     9.8570     2.4930     0.0810  -113.2190
  764.5000    94.7870   -18.5010  -108.6910     6.7370     6.6160     6.4360  -999.2500  -999.2500     0.2510     9.8030     2.4800     0.0730  -115.4040
  765.0000    94.0130   -18.8100  -107.2890     6.8840     6.8260     6.5240  -999.2500  -999.2500     0.2610     9.8080     2.4780     0.0650  -102.9710
  765.5000    92.6560   -18.9380  -105.8880     7.0210     7.0210     6.6820  -999.2500  -999.2500     0.2600     9.8270     2.4790     0.0570   -91.1000
  766.0000    91.1420   -18.4480  -106.1750     7.5040     7.4350     6.8320  -999.2500  -999.2500     0.2500     9.8470     2.4850     0.0490   -79.2300
  766.5000    89.4820   -17.9820  -107.2720     7.9560     7.8220     6.9820  -999.2500  -999.2500     0.2410     9.8660     2.4900     0.0370   -76.3120
  767.0000    87.8090   -17.5630  -108.3680     8.4170     8.2080     7.2430  -999.2500  -999.2500     0.2340     9.8860     2.4950     0.0240   -77.4590
  767.5000    86.1460   -17.2280  -109.4650     8.9960     8.5950     7.7590  -999.2500  -999.2500     0.2350     9.9050     2.4990     0.0110   -78.6050
  768.0000    86.1930   -17.0960  -110.5620     9.3390     8.9820     8.2820  -999.2500  -999.2500     0.2390     9.9110     2.4970     0.0040   -79.7520
  768.5000    89.9130   -17.0850  -111.6590     9.7110     9.3680     8.8520  -999.2500  -999.2500     0.2430     9.9040     2.4970     0.0080   -80.8980
  769.0000    91.0240   -17.7840  -112.7550    10.0830     9.7720     9.0090  -999.2500  -999.2500     0.2470     9.8970     2.5000     0.0430   -82.0450
  769.5000    91.3220   -18.8640  -113.8520    10.4550     9.9940     9.0260  -999.2500  -999.2500     0.2470     9.8900     2.5010     0.0450   -83.1910
  770.0000    90.6200   -20.7100  -114.9490    10.7210    10.2310     9.0430  -999.2500  -999.2500     0.2450     9.8830     2.4930     0.0250   -84.3380
  770.5000    89.3210   -22.2480  -114.6660    10.9100    10.2310     9.0590  -999.2500  -999.2500     0.2400     9.8760     2.4860    -0.0040   -85.4840
  771.0000    86.9720   -20.9970  -113.4050    10.8320    10.2310     9.0790  -999.2500  -999.2500     0.2390     9.8690     2.4870    -0.0120   -86.6310
  771.5000    85.4390   -19.2110  -112.1440    10.7530    10.2310     9.0130  -999.2500  -999.2500     0.2500     9.8630     2.4890    -0.0120   -87.7780
  772.0000    86.4110   -17.3550  -110.8820    10.6740    10.2310     8.9300  -999.2500  -999.2500     0.2650     9.8560     2.4910    -0.0080   -88.9240
  772.5000    88.2490   -16.9660  -109.6210    10.6040    10.2310     8.8470  -999.2500  -999.2500     0.2720     9.8550     2.4880    -0.0050   -90.0710
  773.0000    90.2540   -17.4100  -108.3600    10.5670    10.2310     8.7640  -999.2500  -999.2500     0.2600     9.8550     2.4830    -0.0010   -91.2170
  773.5000    90.7090   -17.8630  -107.0990    10.5160    10.2400     8.9140  -999.2500  -999.2500     0.2480     9.8550     2.4800    -0.0010   -92.3640
  774.0000    84.7160   -17.6060  -105.8370    10.6410    10.2600     9.0170  -999.2500  -999.2500     0.2460     9.8550     2.4780    -0.0040   -93.5100
  774.5000    78.2080   -17.3050  -104.5760    10.8100    10.2800     9.1140  -999.2500  -999.2500     0.2440     9.8550     2.4750    -0.0080   -94.6570
  775.0000    77.3970   -17.0070  -103.3150    10.6490    10.3000     9.1630  -999.2500  -999.2500     0.2400     9.8550     2.4740    -0.0010   -95.4640
  775.5000    80.5860   -16.7100  -102.0540    10.5370    10.3180     9.1240  -999.2500  -999.2500     0.2350     9.8550     2.4780     0.0240   -95.4640
  776.0000    83.4680   -16.4100  -100.7930    10.8250    10.4120     8.9950  -999.2500  -999.2500     0.2350     9.8550     2.4940     0.0350   -95.4640
  776.5000    84.3220   -16.3050   -99.5310    11.0110    10.5340     8.8330  -999.2500  -999.2500     0.2350     9.8550     2.5120     0.0420   -95.4640
  777.0000    83.7100   -16.3050   -98.2700    10.8830    10.6130     8.9700  -999.2500  -999.2500     0.2340     9.8660     2.5160     0.0490   -95.4640
  777.5000    82.3060   -16.3960   -97.0090    10.7470    10.4580     9.1550  -999.2500  -999.2500     0.2330     9.8860     2.5090     0.0480   -95.4640
  778.0000    80.9060   -16.6090   -95.7480    10.6100    10.3430     9.4190  -999.2500  -999.2500     0.2320     9.9060     2.4990     0.0260   -95.4640
  778.5000    80.0730   -17.4770  -100.5610    10.4740    10.2280     9.3660  -999.2500  -999.2500     0.2330     9.8960     2.4890     0.0030   -95.4640
  779.0000    80.0690   -18.7840  -107.1420    10.3380    10.1130     9.2250  -999.2500  -999.2500     0.2420     9.8650     2.4860    -0.0120   -95.4640
  779.5000    80.7790   -21.4510  -113.7220    10.2010     9.9970     9.0840  -999.2500  -999.2500     0.2520     9.8360     2.4870    -0.0100   -95.4640
