~VERSION INFORMATION
 VERS.                2.0:   CWLS LOG ASCII STANDARD - VERSION 2.0
 WRAP.                 NO:   ONE LINE PER DEPTH STEP
~WELL INFORMATION
#MNEM.UNIT      DATA TYPE    INFORMATION
#----------   ------------   ------------------------------
 STRT.F          740.0000:   START DEPTH
 STOP.F         2749.0000:   STOP DEPTH
 STEP.F            0.5000:   STEP LENGTH
 NULL.          -999.2500:   NO VALUE
 COMP.    FENIX & SCISSON:   COMPANY
 WELL.   FENIX SHX #11-10:   WELL
 FLD .                NPR:   FIELD
 LOC .      S10 T38N R78W:   LOCATION
 CNTY.            NATRONA:   COUNTY
 STAT.            WYOMING:   STATE
 CTRY. UNITED STATES OF AMERICA:   COUNTRY
 SRVC.              WELEX:   SERVICE COMPANY
 DATE.        09-APR-1980:   LOGDATE
 API .     49025108060000:   API NUMBER
~CURVE INFORMATION
#MNEM.UNIT       API CODE    CURVE DESCRIPTION
#----------   ------------   ------------------------------
 DEPT.F                  :   
 GRD .GAPI   45 310 01 00:   GAMMA RAY FROM DENSITY LOG
 CALD.IN     45 280 60 00:   CALIPER FROM DENSITY LOG
 TEND.LBS    45 635 01 00:   TENSION FROM DENSITY LOG
 RHOB.G/C3   45 350 01 00:   BULK DENSITY
 CORR.G/C3   45 356 01 00:   DENSITY CORRECTION
~PARAMETER INFORMATION
#MNEM.UNIT          VALUE    DESCRIPTION
#----------   ------------   ------------------------------
 EKB .F         5287.0000:   Kelly bushing
 EGL .F         5277.0000:   Ground level
 EDF .F            0.0000:   Drilling floor
 EPD .F         5277.0000:   Permanent datum
 TD  .F         2762.0000:   Total depth
 DATE.        09-APR-1980:   Date logged
 CLNT.            A2DTECH:   Client Code
 SL  . 474' FNL & 644' FWL:   Surface Location
 PD  .                 GL:   Permanent Datum
 LMF .                 KB:   Log Measured From
 DMF .                 KB:   Drilling Measured From
 DAPD.F                10:   Feet Above Permanent Datum
 DD  .F              2762:   Depth driller
 DL  .F            2751.5:   Depth logger
 BLI .F              2750:   Bottom log interval
 TLI .F               750:   Top log interval
 CS1 .IN            9.625:   Casing size
 CBD1.      9.625" @ 760':   Casing driller 1
 BS1 .IN             8.75:   Bit size
 BSD1.F              2762:   Depth drilled with bit1
 DFT .                AIR:   Type fluid in hole
 TCS .HRS               3:   Time Circ. stopped
 MRT .F               118:   Maximum recorded temp.
 ENGI.            BENTSEN:   Recorded By
 WITN.           DINSMORE:   Witnessed by
 ORIG.         2.5" PRINT:   Origin of data
 UWI .     49025108060000:   Unique Well ID
 DICO. A2D TECHNOLOGIES, INC.:   Digitizing Company
~OTHER INFORMATION
~A   DEPT       GRD      CALD       TEND       RHOB       CORR   
# ...
 1655.0000    74.6820     8.7180  1295.5081     2.5240     0.0630
 1655.5000    74.6550     8.7180  1295.5970     2.5380     0.0770
 1656.0000    74.6310     8.7180  1295.6870     2.5400     0.0840
 1656.5000    74.5900     8.7180  1295.7760     2.5330     0.0780
 1657.0000    74.5560     8.7180  1295.8660     2.5520     0.0880
 1657.5000    74.5220     8.7180  1295.9550     2.5680     0.1050
 1658.0000    74.4850     8.7180  1296.0450     2.5840     0.1160
 1658.5000    74.4500     8.7180  1296.1340     2.5800     0.1130
 1659.0000    74.4140     8.7180  1296.2240     2.5660     0.0980
 1659.5000    74.3790     8.7180  1296.3130     2.5400     0.0840
 1660.0000    74.3450     8.7180  1296.4020     2.5090     0.0670
 1660.5000    74.3100     8.7180  1296.4919     2.5140     0.0740
 1661.0000    74.2740     8.7180  1296.5811     2.5220     0.0840
 1661.5000    74.2420     8.7180  1296.6710     2.5320     0.0950
 1662.0000    74.2000     8.7180  1296.7600     2.5250     0.0920
 1662.5000    74.1690     8.7180  1296.8500     2.5200     0.0860
 1663.0000    74.1500     8.7180  1296.9390     2.5140     0.0790
 1663.5000    73.8870     8.7180  1297.0291     2.5120     0.0720
 1664.0000    73.1310     8.7180  1297.1180     2.5190     0.0740
 1664.5000    72.3810     8.7000  1297.2080     2.5260     0.0850
 1665.0000    72.4970     8.6740  1297.2970     2.5330     0.0940
 1665.5000    72.6410     8.6470  1297.3860     2.5400     0.1030
 1666.0000    72.8650     8.6220  1297.4760     2.5360     0.1120
 1666.5000    72.6840     8.6010  1297.5649     2.5330     0.1110
 1667.0000    72.1360     8.6220  1297.6550     2.5210     0.1020
 1667.5000    71.6240     8.6400  1297.7440     2.4910     0.0760
 1668.0000    71.1070     8.6610  1297.8340     2.4820     0.0720
 1668.5000    70.6030     8.6810  1297.9230     2.4970     0.0910
 1669.0000    70.0780     8.7010  1298.0129     2.5050     0.1030
 1669.5000    70.3340     8.7210  1298.1021     2.4960     0.0880
 1670.0000    70.9100     8.7400  1298.1920     2.4830     0.0800
 1670.5000    71.4750     8.7610  1298.2810     2.4980     0.1050
 1671.0000    72.0620     8.7800  1298.3700     2.5120     0.1270
 1671.5000    72.3200     8.7970  1298.4600     2.5150     0.1300
 1672.0000    72.2340     8.7610  1298.5490     2.5130     0.1200
 1672.5000    72.1830     8.7090  1298.6390     2.5240     0.1350
 1673.0000    72.1330     8.6550  1298.7280     2.5370     0.1450
 1673.5000    72.0730     8.6480  1298.8180     2.5280     0.1350
 1674.0000    72.0200     8.6690  1298.9070     2.5200     0.1170
 1674.5000    71.9630     8.6870  1298.9969     2.5260     0.1230
 1675.0000    71.9080     8.7040  1299.0861     2.5160     0.1120
 1675.5000    71.8540     8.7220  1299.1760     2.5110     0.1030
 1676.0000    71.7930     8.7400  1299.2650     2.5060     0.0930
 1676.5000    71.7370     8.7590  1299.3540     2.5020     0.0850
 1677.0000    71.1660     8.7750  1299.4440     2.5040     0.0860
 1677.5000    70.5470     8.7960  1299.5330     2.5180     0.0990
 1678.0000    70.5380     8.7750  1299.6230     2.5300     0.1130
 1678.5000    70.5340     8.7470  1299.7120     2.5430     0.1280
 1679.0000    70.5310     8.7190  1299.8020     2.5410     0.1270
 1679.5000    70.5350     8.6880  1299.8910     2.5390     0.1210
 1680.0000    70.5500     8.6940  1299.9810     2.5360     0.1060
 1680.5000    70.4840     8.7250  1300.0699     2.5330     0.0910
 1681.0000    71.0630     8.7570  1300.1591     2.5370     0.0840
 1681.5000    72.0960     8.7490  1300.2490     2.5440     0.0950
 1682.0000    72.0680     8.7330  1300.3380     2.5290     0.0850
 1682.5000    71.1170     8.7140  1300.4280     2.5120     0.0720
 1683.0000    70.3380     8.6980  1300.5170     2.5090     0.0640
 1683.5000    69.5030     8.6800  1300.6071     2.5090     0.0630
 1684.0000    71.2350     8.6850  1300.6960     2.5140     0.0670
 1684.5000    73.3610     8.6910  1300.7860     2.5160     0.0750
 1685.0000    73.5610     8.6980  1300.8750     2.5490     0.0960
 1685.5000    73.6570     8.7050  1300.9650     2.5420     0.0990
 1686.0000    73.6820     8.7120  1301.0540     2.5340     0.0780
 1686.5000    73.7610     8.7170  1301.1429     2.5240     0.0610
 1687.0000    73.8230     8.7070  1301.2330     2.5090     0.0460
 1687.5000    73.8800     8.6970  1301.3220     2.4960     0.0350
 1688.0000    73.9450     8.6870  1301.4120     2.5150     0.0600
 1688.5000    74.0040     8.6770  1301.5010     2.5340     0.0830
 1689.0000    74.0610     8.6670  1301.5909     2.5560     0.0930
 1689.5000    74.2530     8.6570  1301.6801     2.5700     0.1030
 1690.0000    74.6750     8.6470  1301.7700     2.5700     0.1120
 1690.5000    75.1070     8.6370  1301.8590     2.5720     0.1230
 1691.0000    75.5160     8.6270  1301.9490     2.5690     0.1200
 1691.5000    75.8550     8.6170  1302.0380     2.5590     0.1100
 1692.0000    75.4470     8.6070  1302.1270     2.5540     0.1010
 1692.5000    75.0840     8.6000  1302.2170     2.5470     0.0940
 1693.0000    74.6890     8.6090  1302.3060     2.5490     0.1000
 1693.5000    74.2880     8.6160  1302.3960     2.5370     0.0980
 1694.0000    73.9280     8.6250  1302.4850     2.5240     0.0850
 1694.5000    73.5620     8.6320  1302.5750     2.5100     0.0730
 1695.0000    74.1110     8.6370  1302.6639     2.4990     0.0590
 1695.5000    74.7250     8.6070  1302.7540     2.4950     0.0550
 1696.0000    75.3450     8.5830  1302.8430     2.4980     0.0630
 1696.5000    75.8470     8.5600  1302.9330     2.4990     0.0670
 1697.0000    75.4430     8.5630  1303.0220     2.4800     0.0480
 1697.5000    75.0880     8.5660  1303.1110     2.4770     0.0400
 1698.0000    74.6880     8.5690  1303.2010     2.5000     0.0660
 1698.5000    74.2800     8.5720  1303.2900     2.5290     0.0910
 1699.0000    74.1460     8.5750  1303.3800     2.5490     0.1030
 1699.5000    74.2840     8.5780  1303.4690     2.5610     0.1150
 1700.0000    74.3970     8.5810  1303.5590     2.5730     0.1260
 1700.5000    74.5100     8.5840  1303.6479     2.5890     0.1380
 1701.0000    74.6290     8.5870  1303.7380     2.5830     0.1360
 1701.5000    74.7440     8.5900  1303.8270     2.5690     0.1240
 1702.0000    74.8610     8.5930  1303.9160     2.5590     0.1130
 1702.5000    74.9780     8.5960  1304.0060     2.5540     0.1040
 1703.0000    75.0950     8.5990  1304.0950     2.5470     0.0980
 1703.5000    75.2100     8.6070  1304.1851     2.5410     0.0910
 1704.0000    75.3290     8.6140  1304.2740     2.5350     0.0940
 1704.5000    75.4460     8.6220  1304.3640     2.5280     0.0850
 1705.0000    75.5550     8.6300  1304.4530     2.5350     0.0760
 1705.5000    75.6910     8.6340  1304.5430     2.5560     0.0900
 1706.0000    75.7820     8.6660  1304.6320     2.5620     0.0940
 1706.5000    75.8310     8.7160  1304.7220     2.5430     0.0800
 1707.0000    74.9360     8.7610  1304.8110     2.5400     0.0720
 1707.5000    74.1130     8.7940  1304.9000     2.5410     0.0730
 1708.0000    73.2750     8.7620  1304.9900     2.5550     0.0750
 1708.5000    72.3700     8.7360  1305.0790     2.5720     0.0940
 1709.0000    72.0160     8.7060  1305.1689     2.5890     0.1080
 1709.5000    71.6370     8.6780  1305.2581     2.5880     0.1000
 1710.0000    71.2830     8.6490  1305.3480     2.5760     0.0920
 1710.5000    70.9390     8.6190  1305.4370     2.5650     0.0840
 1711.0000    70.5610     8.6000  1305.5270     2.5540     0.0760
 1711.5000    70.7050     8.6050  1305.6160     2.5410     0.0690
 1712.0000    70.8930     8.6090  1305.7061     2.5360     0.0630
 1712.5000    71.1270     8.6140  1305.7950     2.5420     0.0820
 1713.0000    71.8030     8.6180  1305.8840     2.5650     0.1020
 1713.5000    72.6560     8.6230  1305.9740     2.5870     0.1220
 1714.0000    73.4960     8.6270  1306.0630     2.5990     0.1320
 1714.5000    74.3680     8.6320  1306.1530     2.5730     0.1140
 1715.0000    74.7340     8.6360  1306.2419     2.5790     0.1150
 1715.5000    74.7010     8.6410  1306.3320     2.5880     0.1160
