~VERSION INFORMATION
 VERS.                2.0:   CWLS LOG ASCII STANDARD - VERSION 2.0
 WRAP.                 NO:   ONE LINE PER DEPTH STEP
~WELL INFORMATION
#MNEM.UNIT      DATA TYPE    INFORMATION
#----------   ------------   ------------------------------
 STRT.F          590.0000:   START DEPTH
 STOP.F         3428.0000:   STOP DEPTH
 STEP.F            0.5000:   STEP LENGTH
 NULL.          -999.2500:   NO VALUE
 COMP.    FENIX & SCISSON:   COMPANY
 WELL. FENIX NPR 3 "AX" #25-27:   WELL
 FLD .                NPR:   FIELD
 LOC .      S27 T39N R78W:   LOCATION
 CNTY.            NATRONA:   COUNTY
 STAT.            WYOMING:   STATE
 CTRY. UNITED STATES OF AMERICA:   COUNTRY
 SRVC.       SCHLUMBERGER:   SERVICE COMPANY
 DATE.        13-AUG-1981:   LOGDATE
 API .     49025108780000:   API NUMBER
~CURVE INFORMATION
#MNEM.UNIT       API CODE    CURVE DESCRIPTION
#----------   ------------   ------------------------------
 DEPT.F                  :   
 CALD.IN     45 280 60 00:   CALIPER FROM DENSITY LOG
 GRD .GAPI   45 310 01 00:   GAMMA RAY FROM DENSITY LOG
 CORR.G/C3   45 356 01 00:   DENSITY CORRECTION
 RHOB.G/C3   45 350 01 00:   BULK DENSITY
 NPHI.DEC    42 890 03 00:   NEUTRON POROSITY SANDSTONE
 TENR.LBS    07 635 01 00:   TENSION
 SPR .MV     07 010 01 00:   SPONTANEOUS POTENTIAL
 ILD .OHMM   07 120 46 00:   INDUCTION LOG DEEP RESISTIVITY
 ILM .OHMM   07 120 44 00:   INDUCTION LOG MEDIUM RESISTIVITY
 SFL .OHMM   07 220 01 00:   SHALLOW FOCUSED LOG RESISTIVITY
 TEND.LBS    45 635 01 00:   TENSION FROM DENSITY LOG
~PARAMETER INFORMATION
#MNEM.UNIT          VALUE    DESCRIPTION
#----------   ------------   ------------------------------
 EKB .F         5057.0000:   Kelly bushing
 EGL .F         5047.0000:   Ground level
 EDF .F            0.0000:   Drilling floor
 TD  .F         3415.0000:   Total depth
 DATE.        13-AUG-1981:   Date logged
 CLNT.            A2DTECH:   Client Code
 SL  . 2100' FSL & 1050' FWL:   Surface Location
 PD  .                 GL:   Permanent Datum
 EPD .F              5047:   Elevation Permanent Datum
 LMF .                 KB:   Log Measured From
 DMF .                 KB:   Drilling Measured From
 DAPD.F                10:   Feet Above Permanent Datum
 DD  .F              3400:   Depth driller
 DL  .F              3415:   Depth logger
 BLI .F              3409:   Bottom log interval
 TLI .F               603:   Top log interval
 CS1 .IN            9.625:   Casing size
 CBD1.      9.625" @ 607':   Casing driller 1
 CBL1.F               603:   Casing logger 1
 BS1 .IN            7.875:   Bit size
 BSD1.F              3400:   Depth drilled with bit1
 DFT .                FGM:   Type fluid in hole
 DFD .                8.7:   Density
 DFV .                 36:   Viscosity
 DFPH.                  9:   pH
 DFL .                 13:   Fluid loss
 MSS .           MUD/TANK:   Source of sample
 RMS .OHMM           1.69:   Rm
 MST .F                75:   Rm Meas. temp.
 RMF .OHMM           1.34:   Rmf
 MFST.F                75:   Rmf Meas. temp.
 MFSS.               MEAS:   Source Rmf.
 RMB .OHMM           1.09:   Rm. at BHT
 BHT .F               120:   BHT.
 TCS .HRS            2145:   Time Circ. stopped
 TLAB.HRS            0200:   Time logger at bottom
 MRT .F               120:   Maximum recorded temp.
 LUN .               8039:   Logging unit number
 LUL .               CSPR:   Logging unit location
 ENGI.            PURPICH:   Recorded By
 WITN.              FIVAS:   Witnessed by
 ORIG.           5" PRINT:   Origin of data
 UWI .     49025108780000:   Unique Well ID
 DICO. A2D TECHNOLOGIES, INC.:   Digitizing Company
~OTHER INFORMATION
~A   DEPT     CALD         GRD      CORR       RHOB         NPHI     TENR        SPR        ILD        ILM        SFL       TEND   
# ...
 2267.5000     8.4750   137.1850     0.0270     2.4780     0.3500   895.6700   -76.0230     6.6630     6.1050     9.5480   934.1360
 2268.0000     8.4750   140.5890     0.0350     2.4810     0.3430   895.7530   -75.7340     6.8070     6.2210     9.4980   934.2280
 2268.5000     8.4750   144.2900     0.0390     2.4740     0.3560   895.8360   -75.4490     6.9510     6.3130     9.1560   934.3190
 2269.0000     8.4750   146.2860     0.0330     2.4630     0.3650   895.9190   -75.1930     7.0950     6.4050     8.4800   934.4110
 2269.5000     8.4750   144.1330     0.0260     2.4590     0.3690   896.0020   -74.9590     7.2390     6.4980     8.8370   934.5020
 2270.0000     8.4750   141.6830     0.0180     2.4590     0.3600   896.0840   -75.0770     7.3830     6.6550     9.5750   934.5940
 2270.5000     8.4750   140.0210     0.0100     2.4580     0.3490   896.1670   -75.3240     7.5270     6.8210    10.3120   934.6850
 2271.0000     8.4750   140.8890     0.0070     2.4530     0.3380   896.2500   -75.5760     7.6720     6.9860    11.0490   934.7770
 2271.5000     8.4750   142.3720     0.0060     2.4510     0.3270   896.3330   -75.8450     7.8830     7.1520    11.5340   934.8680
 2272.0000     8.4960   143.6140     0.0080     2.4620     0.3310   896.4160   -76.1310     7.7650     7.3270    11.9960   934.9600
 2272.5000     8.5170   141.5270     0.0110     2.4740     0.3370   896.4990   -76.4210     7.5460     7.0000    11.9960   935.0510
 2273.0000     8.5150   139.2340     0.0220     2.4870     0.3430   896.5820   -76.5630     7.3260     6.6530    11.1090   935.1430
 2273.5000     8.5150   136.9040     0.0390     2.4870     0.3510   896.6650   -76.6600     7.1070     6.3050     9.9000   935.2340
 2274.0000     8.5150   136.8870     0.0520     2.4810     0.3690   896.7480   -76.8940     6.8870     5.9570     8.6910   935.3260
 2274.5000     8.5150   137.3970     0.0710     2.4670     0.3730   896.8310   -77.1600     6.6680     5.6230     7.4830   935.4170
 2275.0000     8.5150   137.8400     0.0630     2.4610     0.3640   896.9140   -77.4280     6.4480     5.4220     6.2740   935.5090
 2275.5000     8.5150   141.4470     0.0480     2.4670     0.3560   896.9970   -77.5380     6.2740     5.7180     6.2170   935.6000
 2276.0000     8.5150   145.5090     0.0350     2.4780     0.3480   897.0790   -77.6140     6.2640     5.8320     8.1500   935.6920
 2276.5000     8.5150   150.7140     0.0340     2.4900     0.3400   897.1620   -77.6580     6.2190     5.9400     9.7500   935.7830
 2277.0000     8.5150   150.8840     0.0320     2.4990     0.3320   897.2450   -77.0660     6.1740     5.9400    10.6530   935.8750
 2277.5000     8.5150   145.9960     0.0290     2.5060     0.3240   897.3280   -76.4800     6.1290     5.9400     9.9700   935.9660
 2278.0000     8.5150   140.7270     0.0250     2.5140     0.3200   897.4110   -75.9620     6.0490     5.7490     9.4170   936.0570
 2278.5000     8.5150   135.7520     0.0310     2.5170     0.3300   897.4940   -75.5010     5.8380     5.4770     8.5930   936.1490
 2279.0000     8.5150   136.0580     0.0420     2.5160     0.3520   897.5770   -75.4350     5.6380     5.1630     7.4570   936.2400
 2279.5000     8.5150   136.6510     0.0550     2.5070     0.3750   897.6600   -75.3800     5.4390     4.8490     6.3200   936.3320
 2280.0000     8.5150   137.1150     0.0590     2.4950     0.3770   897.7430   -75.3250     5.2390     4.7710     5.4220   936.4230
 2280.5000     8.5150   137.6850     0.0310     2.4870     0.3550   897.8260   -75.2510     5.1250     4.7560     5.9500   936.5150
 2281.0000     8.5150   136.7890     0.0210     2.5020     0.3380   897.9090   -75.1620     5.0580     4.7420     6.5360   936.6060
 2281.5000     8.5150   135.0040     0.0190     2.5170     0.3520   897.9910   -75.1400     4.9490     4.7280     7.1220   936.6980
 2282.0000     8.5150   133.9660     0.0270     2.5190     0.3740   898.0740   -75.2890     4.8590     4.7140     7.3950   936.7890
 2282.5000     8.5150   135.3290     0.0370     2.5230     0.3670   898.1570   -75.4330     4.8630     4.7000     7.1950   936.8810
 2283.0000     8.5150   136.6000     0.0530     2.5330     0.3540   898.2400   -75.5290     4.8710     4.6850     6.8570   936.9720
 2283.5000     8.5150   138.0390     0.0700     2.5380     0.3410   898.3230   -75.5880     4.8790     4.4280     6.3550   937.0640
 2284.0000     8.5150   143.1360     0.0780     2.5270     0.3410   898.4060   -75.6460     4.8870     4.1600     5.8530   937.1550
 2284.5000     8.5150   146.9620     0.0800     2.4980     0.3550   898.4890   -75.6960     4.8940     4.0480     5.3510   937.2470
 2285.0000     8.5150   148.2040     0.0670     2.4650     0.3690   898.5720   -75.6940     4.9040     4.3540     4.8590   937.3380
 2285.5000     8.5150   142.5820     0.0370     2.4460     0.3750   898.6550   -75.6960     4.8470     4.5580     5.4270   937.4300
 2286.0000     8.5150   140.3430     0.0100     2.4340     0.3580   898.7380   -75.7500     4.7520     4.4990     6.4410   937.5210
 2286.5000     8.5150   138.0480     0.0050     2.4480     0.3380   898.8210   -75.8060     4.6580     4.4410     7.4560   937.6130
 2287.0000     8.5150   137.0990     0.0210     2.4630     0.3220   898.9040   -75.8610     4.6000     4.3830     8.1010   937.7040
 2287.5000     8.5150   136.0970     0.0370     2.4780     0.3400   898.9860   -75.8610     4.7150     4.3150     7.1210   937.7960
 2288.0000     8.5150   135.1060     0.0510     2.4900     0.3660   899.0690   -75.7890     4.8770     4.5480     6.0430   937.8870
 2288.5000     8.5150   134.1010     0.0560     2.4880     0.3710   899.1520   -75.7150     5.0400     4.8210     5.0400   937.9780
 2289.0000     8.5150   133.8030     0.0370     2.4810     0.3610   899.2350   -75.7330     5.2020     5.0930     6.0250   938.0700
 2289.5000     8.5150   134.0290     0.0210     2.4760     0.3550   899.3180   -75.7870     5.3640     5.2000     7.1570   938.1610
 2290.0000     8.5150   134.2590     0.0190     2.4810     0.3540   899.4010   -75.8430     5.5270     5.2270     8.1760   938.2530
 2290.5000     8.5150   134.4890     0.0220     2.4950     0.3470   899.4840   -75.8920     5.6890     5.3100     8.1760   938.3440
 2291.0000     8.5150   134.7110     0.0290     2.5040     0.3290   899.5670   -75.8930     5.8860     5.3860     8.3260   938.4360
 2291.5000     8.5150   134.0830     0.0390     2.5100     0.3290   899.6500   -75.8970     5.9720     5.4710     9.0390   938.5270
 2292.0000     8.5150   131.8100     0.0500     2.5070     0.3450   899.7330   -75.7340     6.0490     5.6230     8.3980   938.6190
 2292.5000     8.5150   128.6430     0.0400     2.5010     0.3590   899.8160   -75.5190     5.8970     5.6230     7.8110   938.7100
 2293.0000     8.5150   125.4480     0.0350     2.4960     0.3630   899.8990   -75.3060     5.6920     5.3790     7.9340   938.8020
 2293.5000     8.5150   126.1520     0.0350     2.4900     0.3480   899.9810   -75.3640     5.5220     5.1660     8.1010   938.8930
 2294.0000     8.5150   130.1700     0.0380     2.4820     0.3490   900.0640   -75.4380     5.5320     4.9490     7.4810   938.9850
 2294.5000     8.5150   134.1300     0.0260     2.4720     0.3490   900.1470   -75.5800     5.5940     4.9490     5.7270   939.0760
 2295.0000     8.5150   136.0150     0.0180     2.4750     0.3350   900.2300   -76.0390     5.6550     5.1900     6.3590   939.1680
 2295.5000     8.5150   130.5910     0.0190     2.4900     0.3220   900.3130   -76.4770     5.7160     5.3930     7.8230   939.2590
 2296.0000     8.5150   122.3370     0.0250     2.5030     0.3170   900.3960   -76.4910     5.7780     5.4850     9.5480   939.3510
 2296.5000     8.5150   119.3380     0.0270     2.4880     0.3260   900.4790   -76.4880     5.8390     5.5160     9.4590   939.4420
 2297.0000     8.5150   121.8620     0.0180     2.4730     0.3400   900.5620   -76.4480     5.8860     5.5720     9.3150   939.5340
 2297.5000     8.5150   127.0970     0.0210     2.4670     0.3480   900.6450   -76.3590     5.5530     5.3110     9.1720   939.6250
