~VERSION INFORMATION
 VERS.                2.0:   CWLS LOG ASCII STANDARD - VERSION 2.0
 WRAP.                 NO:   ONE LINE PER DEPTH STEP
~WELL INFORMATION
#MNEM.UNIT      DATA TYPE    INFORMATION
#----------   ------------   ------------------------------
 STRT.F           10.5000:   START DEPTH
 STOP.F         5650.0000:   STOP DEPTH
 STEP.F            0.5000:   STEP LENGTH
 NULL.          -999.2500:   NO VALUE
 COMP.    FENIX & SCISSON:   COMPANY
 WELL. FENIX NPR 3 "LX" #56-3:   WELL
 FLD .              N P R:   FIELD
 LOC .       S3 T38N R78W:   LOCATION
 CNTY.            NATRONA:   COUNTY
 STAT.            WYOMING:   STATE
 CTRY. UNITED STATES OF AMERICA:   COUNTRY
 SRVC.              WELEX:   SERVICE COMPANY
 DATE.        13-JUN-1978:   LOGDATE
 API .     49025109250000:   API NUMBER
~CURVE INFORMATION
#MNEM.UNIT       API CODE    CURVE DESCRIPTION
#----------   ------------   ------------------------------
 DEPT.F                  :   
 NPHI.DEC    42 890 03 00:   NEUTRON POROSITY SANDSTONE
 SPR .MV     07 010 01 00:   SPONTANEOUS POTENTIAL
 ILD .OHMM   07 120 46 00:   DEEP INDUCTION RESISTIVITY
 ILM .OHMM   07 120 44 00:   INDUCTION LOG MEDIUM RESISTIVITY
 SFL .OHMM   07 220 01 00:   SHALLOW FOCUSED LOG RESISTIVITY
 GRD .GAPI   45 310 01 00:   GAMMA RAY FROM DENSITY LOG
 CALD.IN     45 280 60 00:   CALIPER FROM DENSITY LOG
 RHOB.G/C3   45 350 01 00:   BULK DENSITY
 CORR.G/C3   45 356 01 00:   DENSITY CORRECTION
~PARAMETER INFORMATION
#MNEM.UNIT          VALUE    DESCRIPTION
#----------   ------------   ------------------------------
 EKB .F         5181.0000:   Kelly bushing
 EGL .F         5171.0000:   Ground level
 EDF .F         5180.0000:   Drilling floor
 TD  .F         5644.0000:   Total depth
 DATE.        13-JUN-1978:   Date logged
 CLNT.            A2DTECH:   Client Code
 SL  . 1980' FSL & 2080' FEL:   Surface Location
 PD  .                 GL:   Permanent Datum
 EPD .F              5171:   Elevation Permanent Datum
 LMF .                 KB:   Log Measured From
 DMF .                 KB:   Drilling Measured From
 DD  .F              5640:   Depth driller
 DL  .F              5644:   Depth logger
 BLI .F              5638:   Bottom log interval
 TLI .F              3093:   Top log interval
 CS1 .IN            8.625:   Casing size
 CBD1.      8.625" @ 545':   Casing driller 1
 BS1 .IN            7.875:   Bit size
 DFT .                FGM:   Type fluid in hole
 DFD .                9.2:   Density
 DFV .                 52:   Viscosity
 DFPH.                 11:   pH
 DFL .                5.2:   Fluid loss
 MSS .           MUD/TANK:   Source of sample
 RMS .OHMM           0.59:   Rm
 MST .F                80:   Rm Meas. temp.
 RMF .OHMM           0.48:   Rmf
 MFST.F                80:   Rmf Meas. temp.
 MFSS.               MEAS:   Source Rmf.
 RMB .OHMM           0.29:   Rm. at BHT
 BHT .F               162:   BHT.
 TCS .HRS            1200:   Time Circ. stopped
 MRT .F               162:   Maximum recorded temp.
 LUN .               7675:   Logging unit number
 LUL .               CODY:   Logging unit location
 ENGI.               BOND:   Recorded By
 ORIG.           5" PRINT:   Origin of data
 UWI .     49025109250000:   Unique Well ID
 DICO. A2D TECHNOLOGIES, INC.:   Digitizing Company
 DAPD.F                10:   Feet Above Permanent Datum
 BSD1.F              5640:   Depth drilled with bit1
 TLAB.HRS            1630:   Time logger at bottom
~OTHER INFORMATION
~A  DEPTH     NPHI        SPR        ILD        ILM        SFL        GRD       CALD       RHOB       CORR
# ...
 2200.5000     0.3440   -24.5350     3.7620     3.1910     4.6470   139.1510     9.5980     2.4940     0.0290
 2201.0000     0.3430   -24.4030     4.0470     3.4670     4.2110   141.6550     9.5980     2.5040     0.0320
 2201.5000     0.3470   -24.2020     4.3330     3.8040     5.2380   141.8430     9.5980     2.5040     0.0300
 2202.0000     0.3500   -23.9990     4.6180     4.1410     6.3440   140.9720     9.5980     2.5040     0.0240
 2202.5000     0.3410   -23.7960     4.9040     4.4780     6.9890   139.4230     9.5980     2.5040     0.0140
 2203.0000     0.3340   -23.5920     5.1570     4.8150     6.3700   137.5450     9.5980     2.5080     0.0080
 2203.5000     0.3330   -23.3870     5.4010     5.1520     5.9710   135.3020     9.5980     2.5110     0.0100
 2204.0000     0.3310   -23.3470     5.6450     5.4880     6.4860   132.3320     9.5980     2.5090     0.0100
 2204.5000     0.3270   -23.3460     5.8890     5.8250     7.6180   127.6840     9.5980     2.5140     0.0100
 2205.0000     0.3240   -23.3470     6.0350     6.0820     8.7050   127.4610     9.5980     2.5120     0.0110
 2205.5000     0.3280   -23.3470     6.0550     5.9040     9.1380   129.4030     9.5980     2.5150     0.0120
 2206.0000     0.3350   -23.3470     6.0740     5.8390     9.1980   131.6440     9.5980     2.5200     0.0120
 2206.5000     0.3410   -23.3470     6.0940     5.7740     8.2240   133.3710     9.5980     2.5240     0.0130
 2207.0000     0.3440   -23.3470     6.1130     5.7090     7.4530   134.2230     9.5980     2.5290     0.0140
 2207.5000     0.3470   -23.3470     6.1330     5.6440     6.9180   133.6740     9.5980     2.5340     0.0140
 2208.0000     0.3500   -23.3470     6.3070     5.5990     7.1370   130.6680     9.5980     2.5300     0.0140
 2208.5000     0.3540   -23.3470     6.6320     5.7580     7.8680   127.4880     9.5980     2.5260     0.0130
 2209.0000     0.3530   -23.3470     6.9580     6.0580     8.0230   124.1570     9.5980     2.5180     0.0120
 2209.5000     0.3510   -23.3470     7.2830     6.3580     8.1620   121.8640     9.5950     2.5130     0.0110
 2210.0000     0.3530   -23.3470     7.6090     6.7630     8.9380   121.0730     9.5870     2.5130     0.0100
 2210.5000     0.3570   -23.3470     7.9350     7.2470     9.7400   120.2480     9.5790     2.5120     0.0090
 2211.0000     0.3540   -23.3460     8.2600     7.7310    10.5430   122.3820     9.5720     2.5060     0.0080
 2211.5000     0.3510   -23.3500     8.5860     8.1240    11.3450   123.3150     9.5650     2.5060     0.0070
 2212.0000     0.3440   -23.4910     8.9110     8.3900    12.1190   124.2140     9.5570     2.5110     0.0090
 2212.5000     0.3370   -23.6410     9.2370     8.6560    11.9680   124.4260     9.5500     2.5210     0.0130
 2213.0000     0.3340   -23.7900     9.5630     8.9210    11.9060   122.1040     9.5420     2.5300     0.0240
 2213.5000     0.3290   -23.9400     9.9920     9.1140    11.4830   122.1240     9.5350     2.5360     0.0280
 2214.0000     0.3240   -24.0900     9.9830     8.9970    10.9540   121.7130     9.5270     2.5380     0.0250
 2214.5000     0.3210   -24.2360     9.9710     8.9670    11.2630   121.4060     9.5200     2.5400     0.0230
 2215.0000     0.3180   -24.2820     9.9590     8.9360    12.2810   120.9590     9.5130     2.5360     0.0210
 2215.5000     0.3160   -23.9740     9.9460     8.9050    13.1640   122.3540     9.5050     2.5210     0.0180
 2216.0000     0.3160   -23.6740     9.9340     8.8660    12.6910   126.9600     9.4970     2.5190     0.0160
 2216.5000     0.3190   -23.3790     9.9220     8.9100    12.0490   131.3990     9.4910     2.5090     0.0130
 2217.0000     0.3220   -23.3090     9.9090     8.9690    11.7890   136.2460     9.4830     2.5040     0.0090
 2217.5000     0.3250   -23.2680     9.8970     9.0280    12.2060   138.4670     9.4740     2.5000     0.0070
 2218.0000     0.3270   -23.2270     9.8850     9.0860    12.1560   137.3250     9.4390     2.4990     0.0110
 2218.5000     0.3300   -23.1850     9.8720     9.1450    11.8980   136.5560     9.4060     2.4990     0.0140
 2219.0000     0.3320   -23.1440     9.8600     9.2040    12.4550   135.8320     9.3680     2.4920     0.0160
 2219.5000     0.3290   -23.1030     9.8480     9.2630    13.0020   134.3320     9.3570     2.4800     0.0150
 2220.0000     0.3240   -23.0610     9.8360     9.2830    13.4080   132.2110     9.3680     2.4770     0.0150
 2220.5000     0.3200   -23.0190     9.8230     9.1600    13.4080   130.1610     9.3760     2.4790     0.0140
 2221.0000     0.3200   -22.9790     9.8110     9.0630    13.1150   128.1270     9.3850     2.4860     0.0130
 2221.5000     0.3200   -22.9990     9.7990     8.9650    12.5050   125.7780     9.3950     2.4870     0.0120
 2222.0000     0.3240   -23.2750     9.7860     8.8670    11.8950   122.7290     9.4040     2.5000     0.0110
 2222.5000     0.3260   -23.5430     9.7740     8.7690    11.4130   119.6530     9.4130     2.5120     0.0110
 2223.0000     0.3220   -23.7160     9.7620     8.7050    11.7960   116.3750     9.4220     2.5270     0.0220
 2223.5000     0.3190   -23.5430     9.7490     8.8150    12.1190   113.5070     9.4310     2.5290     0.0290
 2224.0000     0.3160   -23.3790     9.7360     8.8400    12.3230   111.0970     9.4400     2.5200     0.0220
 2224.5000     0.3150   -23.2160     9.7250     8.8660    12.5360   109.0780     9.4490     2.5120     0.0140
 2225.0000     0.3130   -23.0510     9.7200     8.8920    12.7490   109.0710     9.4580     2.5070     0.0140
 2225.5000     0.3110   -22.8880     9.8990     8.9180    12.9630   109.6430     9.4670     2.5070     0.0160
 2226.0000     0.3090   -22.7930     9.9890     8.9440    13.0440   110.1170     9.4760     2.5090     0.0170
 2226.5000     0.3090   -23.1710    10.0790     8.9480    12.3050   111.1410     9.4850     2.5120     0.0180
 2227.0000     0.3160   -23.5560    10.1680     8.9480    11.7020   112.7700     9.4940     2.5220     0.0190
 2227.5000     0.3180   -23.9340    10.2580     8.9480    11.2600   115.4910     9.5030     2.5320     0.0210
 2228.0000     0.3170   -23.9030    10.3480     9.0920    12.6380   118.9640     9.5130     2.5350     0.0360
 2228.5000     0.3160   -23.8510    10.4370     9.3940    14.5650   125.2270     9.5170     2.5310     0.0420
 2229.0000     0.3160   -23.8000    10.5270     9.6950    14.2540   133.5560     9.5160     2.5160     0.0310
 2229.5000     0.3230   -23.7500    10.6170     9.9000    13.6780   139.8560     9.5160     2.5000     0.0250
 2230.0000     0.3360   -23.7010    10.7060     9.9920    13.4080   140.5710     9.5160     2.4830     0.0220
 2230.5000     0.3480   -23.6510    10.8410     9.8270    13.4080   140.3890     9.5160     2.4660     0.0180
 2231.0000     0.3460   -23.6010    10.7390     9.6520    13.1710   137.9480     9.5160     2.4540     0.0140
 2231.5000     0.3450   -23.5510    10.6490     9.4770    12.7470   135.5410     9.5160     2.4550     0.0100
 2232.0000     0.3430   -23.5010    10.5590     9.3020    12.5730   135.4950     9.5160     2.4550     0.0080
 2232.5000     0.3400   -23.4510    10.4690     9.1980    13.3250   135.5380     9.5160     2.4560     0.0070
 2233.0000     0.3360   -23.4000    10.3790     9.2210    14.3000   135.7190     9.5160     2.4540     0.0060
 2233.5000     0.3310   -23.3500    10.2900     9.2490    13.7490   135.8070     9.5160     2.4490     0.0050
 2234.0000     0.3290   -23.4440    10.2000     9.2770    13.0820   135.9380     9.5160     2.4500     0.0040
 2234.5000     0.3370   -23.5530    10.1100     9.3050    12.4580   136.0650     9.5170     2.4520     0.0040
 2235.0000     0.3430   -23.6620    10.0200     9.3330    12.4580   136.1190     9.5130     2.4570     0.0020
 2235.5000     0.3420   -23.7710     9.9920     9.3690    13.4110   136.1980     9.5000     2.4660     0.0060
 2236.0000     0.3400   -23.8800     9.9360     9.1980    13.7830   135.7300     9.4870     2.4740     0.0140
 2236.5000     0.3320   -23.9880     9.8740     8.9920    13.1700   135.1630     9.4740     2.4830     0.0170
