~VERSION INFORMATION
 VERS.                2.0:   CWLS LOG ASCII STANDARD - VERSION 2.0
 WRAP.                 NO:   ONE LINE PER DEPTH STEP
~WELL INFORMATION
#MNEM.UNIT      DATA TYPE    INFORMATION
#----------   ------------   ------------------------------
 STRT.F          388.0000:   START DEPTH
 STOP.F         3166.0000:   STOP DEPTH
 STEP.F            0.5000:   STEP LENGTH
 NULL.          -999.2500:   NO VALUE
 COMP.    PENIX & SCISSON:   COMPANY
 WELL. PENIX NPR 3 "AX" #34-28:   WELL
 FLD .                NPR:   FIELD
 LOC .      S28 T39N R78W:   LOCATION
 CNTY.            NATRONA:   COUNTY
 STAT.            WYOMING:   STATE
 CTRY. UNITED STATES OF AMERICA:   COUNTRY
 SRVC.              WELEX:   SERVICE COMPANY
 DATE.        15-DEC-1978:   LOGDATE
 API .     49025107950000:   API NUMBER
~CURVE INFORMATION
#MNEM.UNIT       API CODE    CURVE DESCRIPTION
#----------   ------------   ------------------------------
 DEPT.F                  :   
 CALD.IN     45 280 60 00:   CALIPER FROM DENSITY LOG
 GRD .GAPI   45 310 01 00:   GAMMA RAY FROM DENSITY LOG
 RHOB.G/C3   45 350 01 00:   BULK DENSITY
 CORR.G/C3   45 356 01 00:   DENSITY CORRECTION
 NPHI.DEC    42 890 03 00:   NEUTRON POROSITY SANDSTONE
 SPR .MV     07 010 01 00:   SPONTANEOUS POTENTIAL
 SGRD.OHMM   07 220 05 00:   SHALLOW GUARD
 ILD .OHMM   07 120 46 00:   DEEP INDUCTION RESISTIVITY
 ILM .OHMM   07 120 44 00:   INDUCTION LOG MEDIUM RESISTIVITY
 TENR.LBS    07 635 01 00:   TENSION FROM RESISTIVITY
~PARAMETER INFORMATION
#MNEM.UNIT          VALUE    DESCRIPTION
#----------   ------------   ------------------------------
 EKB .F         5039.0000:   Kelly bushing
 EGL .F         5029.0000:   Ground level
 EDF .F            0.0000:   Drilling floor
 TD  .F         3159.0000:   Total depth
 DATE.        15-DEC-1978:   Date logged
 CLNT.            A2DTECH:   Client Code
 SL  . 2434' FNL & 1651' FWL:   Surface Location
 PD  .                 GL:   Permanent Datum
 EPD .F              5029:   Elevation Permanent Datum
 LMF .                 KB:   Log Measured From
 DMF .                 KB:   Drilling Measured From
 DAPD.F                10:   Feet Above Permanent Datum
 DD  .F              3155:   Depth driller
 DL  .F              3159:   Depth logger
 BLI .F              3157:   Bottom log interval
 TLI .F               350:   Top log interval
 CS1 .IN            8.625:   Casing size
 CBD1.      8.625" @ 383':   Casing driller 1
 CBL1.F               398:   Casing logger 1
 BS1 .IN            7.875:   Bit size
 BSD1.F              3155:   Depth drilled with bit1
 DFT .           CHEM/GEL:   Type fluid in hole
 DFD .                8.5:   Density
 DFV .                 55:   Viscosity
 DFPH.                 10:   pH
 DFL .               10.8:   Fluid loss
 MSS .           FLOWLINE:   Source of sample
 RMS .OHMM           1.65:   Rm
 MST .F                65:   Rm Meas. temp.
 RMF .OHMM           1.32:   Rmf
 MFST.F                65:   Rmf Meas. temp.
 RMC .OHMM           1.98:   Rmc
 MCST.F                65:   Rmc Meas. temp.
 MFSS.               CALC:   Source Rmf.
 RMB .OHMM              1:   Rm. at BHT
 BHT .F               107:   BHT.
 TCS .HRS               8:   Time Circ. stopped
 MRT .F               107:   Maximum recorded temp.
 LUN .               1892:   Logging unit number
 LUL .             CASPER:   Logging unit location
 ENGI.               REIN:   Recorded By
 WITN.              AMEND:   Witnessed by
 ORIG.           5" PRINT:   Origin of data
 UWI .     49025107950000:   Unique Well ID
 DICO. A2D TECHNOLOGIES, INC.:   Digitizing Company
~OTHER INFORMATION
~A   DEPT     CALD         GRD      RHOB       CORR       NPHI        SPR       SGRD        ILD        ILM       TENR   
# ...
  555.5000    10.4920    98.7874     2.4701    -0.0207     0.2413   -27.1437     9.7726     8.8770     9.2229   963.8867
  556.0000    10.4748   106.0380     2.4670    -0.0247     0.2437   -26.9351     9.8129     8.9636     9.4872   963.2716
  556.5000    10.4743   106.0362     2.4680    -0.0146     0.2445   -26.7266     9.8533     8.9666     9.4910   962.6564
  557.0000    10.4540   104.8163     2.4892     0.0016     0.2461   -26.5166     9.8940     9.0541     9.4941   962.0413
  557.5000    10.4331   102.3839     2.5013     0.0157     0.2461   -26.1065     9.9347     8.9744     9.4954   961.4262
  558.0000    10.4326   104.3928     2.5083     0.0187     0.2425   -26.0995     9.9757     8.9750     9.4979   960.8110
  558.5000    10.4120   102.7658     2.5083     0.0167     0.2409   -25.8909    10.0168     8.9785     9.5016   960.1959
  559.0000    10.4117   101.9532     2.4992     0.0044     0.2413   -25.8840    10.0581     8.9815     9.5048   959.5808
  559.5000    10.4313   102.3478     2.4911    -0.0058     0.2421   -25.6754    10.0995     9.1552     9.5079   958.8867
  560.0000    10.4107   101.9352     2.4861    -0.0099     0.2469   -25.4668    10.1555     9.1582     9.6013   938.4276
  560.5000    10.4102   102.7315     2.4901    -0.0058     0.2477   -25.2583    10.1575     9.1613     9.6057   940.4949
  561.0000    10.4098   105.9511     2.5012     0.0104     0.2489   -25.8560    10.1602     9.2506     9.5198   942.5621
  561.5000    10.3935   105.5384     2.5032     0.0226     0.2517   -26.0506    10.1622     9.0893     9.5223   944.6294
  562.0000    10.3889   103.5116     2.4961     0.0226     0.2545   -26.2452    10.0720     9.0929     9.5261   946.6966
  562.5000    10.4085   103.0990     2.4860     0.0103     0.2553   -25.6335    10.0753     9.0953     9.5292   948.7639
  563.0000    10.3990   103.4935     2.4749     0.0012     0.2537   -25.6265    10.0799     9.0977     9.7115   950.8312
  563.5000    10.3895   104.6952     2.4638    -0.0049     0.2509   -25.2150     9.9892     9.1001     9.7134   952.8984
  564.0000    10.3870   106.3003     2.4769     0.0072     0.2489   -25.4110     9.9931     9.1031     9.8088   954.9657
  564.5000    10.3684   107.9054     2.4849     0.0153     0.2457   -25.2011     9.9951     9.3595     9.7230   957.0330
  565.0000    10.3497   108.2999     2.4889     0.0153     0.2444   -24.9925    10.0919     9.5398     9.7237   959.1002
  565.5000    10.3454   103.8519     2.4899     0.0152     0.2448   -24.7839    10.3818     9.6374     9.8179   961.1675
  566.0000    10.3246    99.0005     2.4778     0.0030     0.2464   -24.5754    10.5817     9.7301     9.9123   963.2347
  566.5000    10.3242    97.7810     2.4738     0.0010     0.2476   -24.1652    10.5845     9.9162    10.0076   965.3020
  567.0000    10.3038   101.4037     2.4758    -0.0011     0.2468   -23.9567    10.8878    10.1065    10.3927   967.3693
  567.5000    10.2830   105.4299     2.4848     0.0151     0.2456   -23.9497    10.9940    10.0148    10.6912   989.4396
  568.0000    10.2623   106.2278     2.4939     0.0293     0.2444   -23.9427    11.0997    10.0181    10.4975   988.9519
  568.5000    10.2621   106.2188     2.5090     0.0455     0.2456   -23.9358    11.1040    10.0214    10.4995   988.3422
  569.0000    10.2512   101.3677     2.5372     0.0637     0.2484   -24.1304    11.1077    10.0248    10.5037   987.8545
  569.5000    10.2408   100.5517     2.5382     0.0616     0.2508   -24.3250    11.1099    10.2178    10.5071   967.1553
  570.0000    10.2202   100.5427     2.5241     0.0555     0.2508   -24.3180    11.1150    10.2218    10.5106   971.2033
  570.5000    10.2401   102.1476     2.5351     0.0515     0.2492   -24.1094    11.1172    10.2245    10.5134   975.2513
  571.0000    10.2193   103.7508     2.5311     0.0514     0.2484   -24.3040    11.2263    10.2272    10.5161   979.2993
  571.5000    10.2393   106.1626     2.5250     0.0433     0.2480   -24.0955    11.2300    10.2292    10.5189  1004.8952
  572.0000    10.2587   107.7675     2.5059     0.0250     0.2508   -23.8855    11.2336    10.2353    10.5251   963.8647
  572.5000    10.2381   107.7584     2.4917    -0.0014     0.2540   -23.8785    11.2373    10.2380    10.5286   963.3772
  573.0000    10.2380   103.7110     2.4605    -0.0177     0.2540   -23.6700    11.2403    10.2414    10.5306   982.8560
  573.5000    10.2976   103.7074     2.4524    -0.0177     0.2520   -23.2598    11.0381    10.1555    10.5355   982.6122
  574.0000    10.3175   103.6984     2.4635    -0.0076     0.2548   -23.0513    10.8395    10.1532    10.5383   981.6370
  574.5000    10.3372   103.6876     2.4705    -0.0036     0.2548   -23.0443    10.6403     9.7867    10.4434   960.9399
  575.0000    10.3367   104.0820     2.4725    -0.0076     0.2568   -22.8357    10.5452     9.6032    10.4468   960.0869
  575.5000    10.3363   105.6867     2.4755    -0.0056     0.2584   -22.6272    10.5493     9.7024    10.3555   959.4777
  576.0000    10.3560   102.4501     2.4805    -0.0097     0.2608   -22.6202    10.4544     9.7050    10.2623   958.8684
  576.5000    10.3555   100.8273     2.4846    -0.0057     0.2632   -22.6132    10.3616     9.7069    10.1712   958.3810
  577.0000    10.3755   103.6424     2.4896    -0.0057     0.2681   -22.4047    10.3657     9.6195     9.9863   968.0666
  577.5000    10.3547   108.8726     2.4966     0.0003     0.2701   -22.3977    10.0180     9.5354     9.8957   947.2489
  578.0000    10.3744   104.8346     2.5087     0.0094     0.2705   -21.9876    10.0213     9.4496     9.7177   966.8474
  578.5000    10.3742   101.5982     2.5117     0.0287     0.2700   -21.9806     9.8408     9.3658     9.5423   966.2378
  579.0000    10.3736   104.8148     2.5026     0.0266     0.2692   -21.7706     9.8440     9.1121     9.5455   965.6282
  579.5000    10.3932   108.0312     2.5016     0.0266     0.2676   -21.1589     9.8472     9.1139     9.4596   965.0186
  580.0000    10.3525   112.4631     2.4976     0.0245     0.2660   -20.7488     9.7597     9.0325     9.3744   984.6162
  580.5000    10.3925   108.4201     2.4925     0.0184     0.2632   -20.5402     9.6730     8.9512     9.2058   963.7995
  581.0000    10.3919   106.3940     2.4905     0.0123     0.2632   -20.5332     9.4988     8.7896     9.2082   963.1900
  581.5000    10.4119   100.7373     2.4895     0.0122     0.2648   -20.1231     9.2418     8.7919     8.9589   962.5805
  582.0000    10.4113    98.7060     2.4904     0.0183     0.2656   -20.1161     9.1680     8.6338     8.9612   982.1773
  582.5000    10.4107   100.7193     2.4844     0.0102     0.2632   -19.9076     9.0875     8.5550     8.8806   961.3614
  583.0000    10.4102   105.9526     2.4813     0.0101     0.2595   -20.1022     9.0893     8.4797     8.7995   980.9579
  583.5000    10.4102   108.3639     2.4702    -0.0001     0.2583   -20.4983     9.0100     8.4034     8.8047   960.1425
  584.0000    10.3893   105.5311     2.4652     0.0009     0.2563   -21.0961     8.9309     8.3294     8.8065   979.7385
  584.5000    10.4089   100.2782     2.4611    -0.0012     0.2583   -20.8875     8.9332     8.3311     8.7278   999.2122
  585.0000    10.4084   109.9501     2.4591    -0.0012     0.2615   -20.6790     8.9349     8.2577     8.7313   978.3973
  585.5000    10.4283   113.9747     2.4601    -0.0022     0.2631   -20.4704     8.9373     8.1840     8.6533   977.7877
  586.0000    10.4278   115.5809     2.4682    -0.0002     0.2635   -20.2619     8.9426     8.0352     8.5765   977.1780
  586.5000    10.4273   109.9229     2.4802     0.0099     0.2647   -20.2535     8.9455     8.0379     8.5777   996.7729
  587.0000    10.4271   107.0903     2.4923     0.0220     0.2667   -20.0449     8.9478     7.9661     8.5005   975.9589
  587.5000    10.4264   108.6946     2.5014     0.0220     0.2667   -19.8364     8.9508     7.8954     8.5055   975.3493
  588.0000    10.4061   112.7190     2.5104     0.0281     0.2667   -19.8294     8.9153     7.8975     8.5078   994.9436
  588.5000    10.3853   111.9032     2.5245     0.0341     0.2675   -20.0240     8.9170     7.8996     8.5100   994.3338
