~VERSION INFORMATION
 VERS.                2.0:   CWLS LOG ASCII STANDARD - VERSION 2.0
 WRAP.                 NO:   ONE LINE PER DEPTH STEP
~WELL INFORMATION
#MNEM.UNIT      DATA TYPE    INFORMATION
#----------   ------------   ------------------------------
 STRT.F         3288.0000:   START DEPTH
 STOP.F         4421.0000:   STOP DEPTH
 STEP.F            0.5000:   STEP LENGTH
 NULL.          -999.2500:   NO VALUE
 COMP.       FLUOR DANIEL:   COMPANY
 WELL. FLUOR 22 "X" #2-10:   WELL
 FLD . TEA POT DOME NAVAL PETROLEUM DO:   FIELD
 LOC .      S10 T38N R78W:   LOCATION
 CNTY.            NATRONA:   COUNTY
 STAT.            WYOMING:   STATE
 CTRY. UNITED STATES OF AMERICA:   COUNTRY
 SRVC.        HALLIBURTON:   SERVICE COMPANY
 DATE.        13-DEC-1996:   LOGDATE
 API .     49025228330000:   API NUMBER
~CURVE INFORMATION
#MNEM.UNIT       API CODE    CURVE DESCRIPTION
#----------   ------------   ------------------------------
 DEPT.F                  :   
 NPHI.DEC    42 890 03 00:   NEUTRON POROSITY SANDSTONE
 GRD .GAPI   45 310 01 00:   GAMMA RAY FROM DENSITY LOG
 CALD.IN     45 280 60 00:   CALIPER FROM DENSITY LOG
 PE  .B/E    45 358 01 00:   PHOTOELECTRIC FACTOR
 CORR.G/C3   45 356 01 00:   DENSITY CORRECTION
 TEND.LBS    45 635 01 00:   TENSION FORM DENSITY LOG
 RHOB.G/C3   45 350 01 00:   BULK DENSITY
 TENR.LBS    07 635 01 00:   TENSION FROM RESISTIVITY
 ILD .OHMM   07 120 46 00:   DEEP INDUCTION RESISTIVITY
 ILM .OHMM   07 120 44 00:   INDUCTION LOG MEDIUM RESISTIVITY
 SFL .OHMM   07 220 01 00:   SHALLOW FOCUSED LOG RESISTIVITY
~PARAMETER INFORMATION
#MNEM.UNIT          VALUE    DESCRIPTION
#----------   ------------   ------------------------------
 EKB .F         5268.0000:   Kelly bushing
 EGL .F         5258.0000:   Ground level
 EDF .F         5267.0000:   Drilling floor
 TD  .F         4435.0000:   Total depth
 CLNT.            A2DTECH:   Client Code
 SL  . 569' FNL & 1440' FWL:   Surface Location
 PD  .                 GL:   Permanent Datum
 EPD .F              5258:   Elevation Permanent Datum
 LMF .                 KB:   Log Measured From
 DMF .                 KB:   Drilling Measured From
 DAPD.F                10:   Feet Above Permanent Datum
 DATE.        13-DEC-1996:   Date Logged [DD-MMM-YYYY]
 DD  .F              4435:   Depth driller
 DL  .F              4412:   Depth logger
 BLI .F              4403:   Bottom log interval
 TLI .F              3308:   Top log interval
 CS1 .IN            9.625:   Casing size
 CBD1.     9.625" @ 3307':   Casing driller 1
 CBL1.F              3308:   Casing logger 1
 BS1 .IN              8.5:   Bit size
 BSD1.F              4435:   Depth drilled with bit1
 DFT .           POLY-KCL:   Type fluid in hole
 DFD .                  9:   Density
 DFV .                 50:   Viscosity
 DFPH.                  9:   pH
 DFL .                  7:   Fluid loss
 MSS .           MUD TANK:   Source of sample
 RMS .OHMM           0.47:   Rm
 MST .F                56:   Rm Meas. temp.
 RMF .OHMM           0.36:   Rmf
 MFST.F                61:   Rmf Meas. temp.
 MFSS.               MEAS:   Source Rmf.
 RMC .OHMM           0.48:   Rmc
 MCST.F                68:   Rmc Meas. temp.
 MCSS.               MEAS:   Source Rmc.
 RMB .OHMM           0.20:   Rm. at BHT
 BHT .F               138:   BHT.
 TCS .HRS              20:   Time Circ. stopped
 TLAB.HRS            0108:   Time logger at bottom
 MRT .F               138:   Maximum recorded temp.
 LUN .              52546:   Logging unit number
 LUL .              VERNI:   Logging unit location
 ENGI.        JOHN SAVAGE:   Recorded By
 WITN.          STEBBINGS:   Witnessed by
 ORIG.         2.5" PRINT:   Origin of data
 UWI .     49025228330000:   Unique Well ID
 DICO. A2D TECHNOLOGIES, INC.:   Digitizing Company
~OTHER INFORMATION
~A  DEPT        NPHI       GRD      CALD         PE       CORR       TEND       RHOB       TENR        ILD        ILM        SFL   
# ...
 4203.0000     0.3438   141.3581     9.2943     3.3057     0.1758  3169.4187     2.5166  3058.6758     3.6915     3.7891     4.1360
 4203.5000     0.3634   140.0767     9.2601     3.3819     0.1803  3229.4021     2.5091  3068.8425     3.4866     3.6373     4.5899
 4204.0000     0.3673   137.4093     9.2276     3.5371     0.1712  3289.3850     2.4728  3188.5947     2.8160     2.7753     3.9585
 4204.5000     0.3339   132.4335     9.2330     3.7101     0.1402  3258.7336     2.5151  3102.3713     2.8153     2.4901     3.6021
 4205.0000     0.3000   124.3888     9.2024     3.9290     0.1073  3137.4473     2.5816  3045.1895     3.0521     3.0876     3.7986
 4205.5000     0.2824   115.2227     9.2021     4.0500     0.0746  3106.6150     2.6458  3104.8528     4.1628     3.9620     4.3413
 4206.0000     0.2540   109.6403     9.1716     4.0634     0.0432  3260.6841     2.6873  3224.1230     5.5485     5.4077     5.5863
 4206.5000     0.2368   103.3111     9.1256     3.7482     0.0171  3347.6082     2.6196  3253.1069     8.7443     8.8221     7.6783
 4207.0000     0.2222    93.3237     9.0502     3.2650     0.0398  3276.1509     2.5618  3217.2925    10.2801     9.6873    10.1937
 4207.5000     0.2048    82.3774     9.0196     2.9026     0.0580  3158.3562     2.5186  3145.5974    12.1409     8.6047    12.5962
 4208.0000     0.1785    68.8822     9.0193     2.6562     0.0535  3065.4451     2.4786  2979.6326    13.8346     8.5863    21.0647
 4208.5000     0.1709    59.8187     9.0190     2.4736     0.0537  3105.9626     2.4448  3025.4539    15.9585     9.9751    29.4916
 4209.0000     0.1682    51.9637     9.0187     2.3490     0.0554  3473.5183     2.4022  3322.9705    18.2688    11.0839    29.8769
 4209.5000     0.1664    47.7341     8.9882     2.2687     0.0586  3437.0757     2.3836  3497.1099    21.3537    14.4081    27.4930
 4210.0000     0.1664    48.9426     8.9879     2.3082     0.0637  3326.2959     2.4169  3342.9124    24.3580    21.5144    25.0174
 4210.5000     0.1689    61.6314     8.9876     2.4009     0.0706  3223.0222     2.4728  3111.0540    25.0192    17.2868    23.3834
 4211.0000     0.1756    79.7583     8.9873     2.4634     0.0801  3192.3711     2.5121  3093.1047    23.0653    12.7496    21.8561
 4211.5000     0.1822    87.0091     8.9870     2.5260     0.0880  3183.3621     2.5393  3134.8618    17.5927     9.9503    21.2469
 4212.0000     0.1798    85.4140     8.9867     2.5245     0.0901  3221.7021     2.5514  3183.6736    16.6715     9.7871    21.6354
 4212.5000     0.1727    77.9444     8.9864     2.4207     0.0796  3221.2622     2.5332  3214.5750    21.2264    10.8232    23.6559
 4213.0000     0.1482    71.6889     8.9861     2.3604     0.0690  3160.3994     2.5211  3245.1150    26.5263    19.3544    37.8980
 4213.5000     0.1141    64.9935     9.0160     2.3908     0.0660  3159.9595     2.5214  3188.1917    39.7188    38.9504    56.2778
 4214.0000     0.1038    60.2134     9.0459     2.4514     0.0630  3190.1536     2.5339  3131.1956    47.4891    40.7034    55.2743
 4214.5000     0.1060    64.2003     9.0925     2.5422     0.0660  3249.7139     2.5496  3074.3447    32.7055    22.6232    41.4359
 4215.0000     0.1157    76.5301     9.1057     2.6934     0.0676  3279.4854     2.5652  3139.8694    22.1015    16.8018    27.3312
 4215.5000     0.1442    86.1816     9.1356     2.8460     0.0724  3279.0029     2.5808  3164.5820    13.7731    13.5316    21.1744
 4216.0000     0.1744    93.2629     9.1051     2.9704     0.0786  3270.8904     2.5943  3136.8130    10.2034     8.4165    14.5398
 4216.5000     0.2008   101.5106     9.0746     3.0607     0.0849  3217.6738     2.6031  3162.3591     9.6897     8.3152    13.4092
 4217.0000     0.2284   106.9486     9.0441     3.1233     0.0832  3175.7253     2.6065  3256.5593     9.6480     9.0871    13.0475
 4217.5000     0.2344   108.7613     9.0740     3.1775     0.0708  3182.4832     2.6041  3229.1289     9.6849     9.6176    13.0667
 4218.0000     0.2304   110.5740     9.1341     3.1674     0.0650  3291.6301     2.5997  3113.8965     9.9567     9.6271    13.2959
 4218.5000     0.2235   109.9698     9.1641     3.1231     0.0639  3353.4238     2.6027  3086.0063    10.3549     9.0015    13.6827
 4219.0000     0.2166   108.7613     9.1940     3.0731     0.0663  3336.1689     2.6057  3204.1323    10.4930     8.8773    14.3817
 4219.5000     0.2104   106.9450     9.1634     3.0573     0.0663  3275.3054     2.6057  3205.5391    10.4903     8.8603    14.8849
 4220.0000     0.2060   106.3444     9.1631     3.0574     0.0664  3214.4429     2.6042  3206.9973    10.6302     8.9912    15.9009
 4220.5000     0.2066   106.9486     9.1326     3.0878     0.0634  3244.2144     2.5952  3172.4011    10.7720     9.5164    16.3247
 4221.0000     0.2090   106.9486     9.1021     3.1181     0.0619  3394.8318     2.5876  3151.3684    10.7690    10.0093    15.4643
 4221.5000     0.2145   107.5529     9.0716     3.1183     0.0604  3605.8723     2.5798  3208.0776    10.7153    10.1415    13.3371
 4222.0000     0.2243   108.3419     9.0713     3.1487     0.0559  3575.2207     2.5721  3364.0974    10.4763     9.5665    11.8151
 4222.5000     0.2309   109.3656     9.0407     3.1488     0.0514  3302.8774     2.5659  3438.7637    10.4729     8.3864    11.3434
 4223.0000     0.2288   106.7796     9.0404     3.1792     0.0468  3395.8477     2.5634  3303.3774    10.4703     8.0503    11.5567
 4223.5000     0.2168    99.4511     9.0099     3.1793     0.0488  3453.0549     2.5639  3300.4741    10.7542     8.3800    12.3958
 4224.0000     0.2041    90.1370     9.0096     3.1492     0.0548  3452.5684     2.5650  3335.3044    11.1960     9.7184    13.7808
 4224.5000     0.1853    79.7583     8.9791     3.0778     0.0575  3375.2793     2.5628  3278.3823    14.3912    13.9612    16.4646
 4225.0000     0.1486    76.1329     9.0091     2.9834     0.0545  3210.0916     2.5582  3211.8560    24.9305    23.4824    22.0787
 4225.5000     0.1449    77.3414     9.0088     2.9382     0.0546  3058.5457     2.5552  3090.6421    29.1844    22.6948    35.3349
 4226.0000     0.1528    80.9668     9.0387     2.9800     0.0553  3263.7727     2.5634  2951.2039    25.9838    19.9630    40.3836
 4226.5000     0.1667    84.5921     9.0384     3.0426     0.0577  3542.5173     2.5725  3019.2263    21.5129    16.9797    33.4556
 4227.0000     0.1783    88.8218     9.0381     3.1051     0.0547  3631.1177     2.5816  3328.6975    15.8794    11.7118    21.1974
 4227.5000     0.1850    92.4471     9.0378     3.1677     0.0532  3509.7380     2.5906  3491.4727    14.0584     8.4663    14.1706
 4228.0000     0.1863    95.5315     9.0677     3.2411     0.0502  3388.4521     2.5952  3405.3962    12.1146     7.8044    11.8788
 4228.5000     0.1951    99.8547     9.1089     3.2715     0.0472  3327.5894     2.5906  3261.0090    10.5815     8.0150    10.7889
 4229.0000     0.2091   104.1029     9.1275     3.2112     0.0457  3266.7263     2.5815  3233.2358    10.2969     8.6195    10.1195
 4229.5000     0.2055   101.9692     9.1574     3.0905     0.0427  3266.2861     2.5663  3234.6938    11.4029    10.1144    13.1223
 4230.0000     0.1980    99.0937     9.1571     3.0000     0.0382  3265.8462     2.5587  3236.1521    15.4009    14.0597    18.8786
 4230.5000     0.1947   102.1014     9.1567     2.9095     0.0383  3265.4062     2.5574  3237.6091    18.9850    15.8162    22.4283
 4231.0000     0.1959   106.4427     9.1565     2.8483     0.0415  3264.9543     2.5612  3239.0667    19.8192    14.8199    23.4972
 4231.5000     0.1977   109.3011     9.1562     2.7890     0.0446  3271.4312     2.5665  3240.5249    19.3980    13.0007    22.2565
 4232.0000     0.1995   111.7910     9.1559     2.7891     0.0459  3359.9104     2.5680  3300.5596    18.3733    13.1724    20.5257
 4232.5000     0.2020   112.3867     9.1556     2.7893     0.0439  3333.0752     2.5680  3301.9451    16.0481    13.1673    19.9724
 4233.0000     0.2032   112.3867     9.1553     2.7894     0.0429  3202.7190     2.5703  3245.0229    15.3933    13.1622    19.4340
