~VERSION INFORMATION
 VERS.                2.0:   CWLS LOG ASCII STANDARD - VERSION 2.0
 WRAP.                 NO:   ONE LINE PER DEPTH STEP
~WELL INFORMATION
#MNEM.UNIT      DATA TYPE    INFORMATION
#----------   ------------   ------------------------------
 STRT.F           22.0000:   START DEPTH
 STOP.F         4228.5000:   STOP DEPTH
 STEP.F            0.5000:   STEP LENGTH
 NULL.          -999.2500:   NO VALUE
 COMP. LAWRENCE ALLISON & ASSOCIATES:   COMPANY
 WELL. LAWRENCE NPR 3 "X" #25-2:   WELL
 FLD .                NPR:   FIELD
 LOC .       S2 T38N R78W:   LOCATION
 CNTY.            NATRONA:   COUNTY
 STAT.            WYOMING:   STATE
 CTRY. UNITED STATES OF AMERICA:   COUNTRY
 SRVC.      DRESSER ATLAS:   SERVICE COMPANY
 DATE.        22-DEC-1985:   LOGDATE
 API .     49025110700000:   API NUMBER
~CURVE INFORMATION
#MNEM.UNIT       API CODE    CURVE DESCRIPTION
#----------   ------------   ------------------------------
 DEPT.F                  :   
 TENS.LBS    60 635 01 00:   TENSION FROM SONIC
 DT  .US/F   60 520 00 00:   DELTA TIME
 SPHI.DEC    60 890 00 00:   SONIC POROSITY
 TENR.LBS    07 635 01 00:   TENSION FROM RESISTIVITY
 CALR.IN     07 280 01 00:   CALIPER FROM RESISTIVITY
 SPR .MV     07 010 01 00:   SPONTANEOUS POTENTIAL
 GRR .GAPI   07 310 01 00:   GAMMA RAY FROM RESISTIVITY
 SFL .OHMM   07 220 01 00:   SHALLOW FOCUSED LOG RESISTIVITY
 ILD .OHMM   07 120 46 00:   DEEP INDUCTION RESISTIVITY
 ILM .OHMM   07 120 44 00:   INDUCTION LOG MEDIUM RESISTIVITY
~PARAMETER INFORMATION
#MNEM.UNIT          VALUE    DESCRIPTION
#----------   ------------   ------------------------------
 EKB .F         5148.0000:   Kelly bushing
 EGL .F         5136.0000:   Ground level
 EDF .F            0.0000:   Drilling floor
 TD  .F         4228.0000:   Total depth
 DATE.        22-DEC-1985:   Date logged
 CLNT.            A2DTECH:   Client Code
 SL  . 1350' FWL & 1968' FSL:   Surface Location
 PD  .                 GL:   Permanent Datum
 DD  .F              4224:   Depth driller
 DL  .F              4228:   Depth logger
 BLI .F              4225:   Bottom log interval
 CS1 .IN            8.625:   Casing size
 CBD1.      8.625" @ 677':   Casing driller 1
 CBL1.F               677:   Casing logger 1
 BS1 .IN            7.875:   Bit size
 DFT .            KCL/GEL:   Type fluid in hole
 DFD .                9.2:   Density
 DFV .                 45:   Viscosity
 DFPH.                8.5:   pH
 DFL .               11.5:   Fluid loss
 MSS .               TANK:   Source of sample
 RMS .OHMM           .256:   Rm
 MST .F                63:   Rm Meas. temp.
 RMF .OHMM           .192:   Rmf
 MFST.F                64:   Rmf Meas. temp.
 RMC .OHMM           .320:   Rmc
 MCST.F                64:   Rmc Meas. temp.
 MFSS.               MEAS:   Source Rmf.
 RMB .OHMM           .119:   Rm. at BHT
 BHT .F               143:   BHT.
 TCS .HRS             4.5:   Time Circ. stopped
 MRT .F               143:   Maximum recorded temp.
 LUN .               6427:   Logging unit number
 LUL .          WILLISTON:   Logging unit location
 ENGI.             MCHUCH:   Recorded By
 WITN.             STRONG:   Witnessed by
 ORIG.           5" PRINT:   Origin of data
 UWI .     49025110700000:   Unique Well ID
 DICO. A2D TECHNOLOGIES, INC.:   Digitizing Company
 DAPD.                 12:   Feet Above Permanent Datum
 BSD1.               4224:   Depth drilled with bit1
 MCSS.               CALC:   Source Rmc.
 EPD .F              5136:   Elevation Permanent Datum
 LMF .                 KB:   Log Measured From
 DMF .                 KB:   Drilling Measured From
~OTHER INFORMATION
~A   DEPT     TENS         DT       SPHI       TENR       CALR        SPR         GRR       SFL        ILD        ILM   
# ...
  692.0000  -999.2500  -999.2500  -999.2500   -56.9780    11.4110   -50.2890    70.5660     9.7440    13.4070    10.9410
  692.5000  -999.2500  -999.2500  -999.2500   -57.3350    11.4340   -50.3730    72.4220     9.7090    13.3510    10.9100
  693.0000  -999.2500  -999.2500  -999.2500   -57.6930    11.4570   -50.4470    72.9190     9.6260    13.2960    10.6230
  693.5000  -999.2500  -999.2500  -999.2500   -58.0500    11.4770   -50.3830    72.7390     9.3920    13.2400    10.3500
  694.0000  -999.2500  -999.2500  -999.2500   -58.4080    11.4920   -50.3170    71.9450     9.1630    13.0300    10.1370
  694.5000  -999.2500  -999.2500  -999.2500   -58.7660    11.5060   -50.2510    71.2940     9.1630    12.7880    10.1370
  695.0000  -999.2500  -999.2500  -999.2500   -59.1230    11.5210   -50.1860    72.3320     9.1630    12.5460    10.1370
  695.5000  -999.2500  -999.2500  -999.2500   -59.4810    11.5250   -50.1190    73.7230     9.1630    12.3040    10.1370
  696.0000  -999.2500  -999.2500  -999.2500   -59.8390    11.5150   -50.0650    75.1330     9.1290    12.0620    10.1370
  696.5000  -999.2500  -999.2500  -999.2500   -60.1960    11.5050   -50.4080    75.1010     9.0860    11.9230    10.1070
  697.0000  -999.2500  -999.2500  -999.2500   -60.5540    11.4940   -50.1870    74.1410     9.0430    11.8590    10.0550
  697.5000  -999.2500  -999.2500  -999.2500   -60.9110    11.4780   -48.9420    73.3190     9.0000    11.7960    10.0020
  698.0000  -999.2500  -999.2500  -999.2500   -61.2690    11.4570   -48.0500    74.2820     8.9570    11.7250     9.9500
  698.5000  -999.2500  -999.2500  -999.2500   -61.6270    11.4360   -49.5220    74.5090     8.9140    11.6060     9.8980
  699.0000  -999.2500  -999.2500  -999.2500   -61.9840    11.4250   -50.9670    74.5230     8.8710    11.4880     9.8450
  699.5000  -999.2500  -999.2500  -999.2500   -62.3420    11.4170   -50.6250    74.6940     8.8270    11.3690     9.7930
  700.0000  -999.2500  -999.2500  -999.2500   -62.7000    11.4090   -50.5290    75.3680     8.7730    11.2510     9.7400
  700.5000  -999.2500  -999.2500  -999.2500   -63.0570    11.4010   -51.2360    75.0530     8.7190    11.2150     9.6880
  701.0000  -999.2500  -999.2500  -999.2500   -63.4150    11.3930   -50.6110    73.7000     8.6650    11.2150     9.7390
  701.5000  -999.2500  -999.2500  -999.2500   -63.7720    11.3850   -50.0030    73.6910     8.5930    11.2150     9.8020
  702.0000  -999.2500  -999.2500  -999.2500   -64.1300    11.3770   -48.8110    74.4170     8.6340    11.2150     9.8620
  702.5000  -999.2500  -999.2500  -999.2500   -64.4880    11.3670   -47.0970    74.1680     8.6970    11.2240     9.8740
  703.0000  -999.2500  -999.2500  -999.2500   -64.8450    11.3480   -42.5270    73.6510     8.7590    11.2360     9.8880
  703.5000  -999.2500  -999.2500  -999.2500   -65.2030    11.3290   -37.4160    73.1210     8.8330    11.2470     9.9020
  704.0000  -999.2500  -999.2500  -999.2500   -65.5530    11.3100   -35.5800    72.9070     8.8090    11.2590     9.9160
  704.5000  -999.2500  -999.2500  -999.2500   -63.2650    11.2910   -43.1220    73.7440     8.7810    11.2700     9.9300
  705.0000  -999.2500  -999.2500  -999.2500   -61.0210    11.2730   -49.3340    74.7080     8.7520    11.2810     9.9510
  705.5000  -999.2500  -999.2500  -999.2500   -58.7780    11.2830   -55.6720    75.6580     8.7240    11.2930     9.9150
  706.0000  -999.2500  -999.2500  -999.2500   -56.5350    11.2940   -57.6050    78.9560     8.6960    11.3050     9.8190
  706.5000  -999.2500  -999.2500  -999.2500   -55.9400    11.3050   -59.2240    80.8050     8.6630    11.3180     9.7240
  707.0000  -999.2500  -999.2500  -999.2500   -56.5590    11.3160   -59.8770    79.4490     8.6110    11.2070     9.6160
  707.5000  -999.2500  -999.2500  -999.2500   -57.1790    11.3270   -60.3010    78.8380     8.5590    11.0610     9.4990
  708.0000  -999.2500  -999.2500  -999.2500   -57.7980    11.3430   -60.8210    80.3380     8.5140    10.9150     9.3820
  708.5000  -999.2500  -999.2500  -999.2500   -58.4180    11.3630   -61.7500    81.3990     8.5470    10.7700     9.2650
  709.0000  -999.2500  -999.2500  -999.2500   -59.0370    11.3840   -63.9690    80.4880     8.5930    10.6240     9.1480
  709.5000  -999.2500  -999.2500  -999.2500   -59.6570    11.4050   -65.9550    77.6230     8.5460    10.4790     9.0310
  710.0000  -999.2500  -999.2500  -999.2500   -60.2760    11.4210   -67.6180    77.0740     8.3550    10.3340     8.9960
  710.5000  -999.2500  -999.2500  -999.2500   -60.8960    11.4350   -67.8330    80.3200     8.1240    10.2310     8.9960
  711.0000  -999.2500  -999.2500  -999.2500   -61.5150    11.4530   -67.8110    83.2060     8.0980    10.2570     8.9970
  711.5000  -999.2500  -999.2500  -999.2500   -62.1350    11.4740   -67.6300    82.4910     8.0580    10.2960     8.9960
  712.0000  -999.2500  -999.2500  -999.2500   -62.7540    11.4760   -67.4950    81.6300     8.0860    10.3380     8.9960
  712.5000  -999.2500  -999.2500  -999.2500   -63.3740    11.4630   -67.7790    81.6530     8.1480    10.3870     8.9960
  713.0000  -999.2500  -999.2500  -999.2500   -63.9930    11.4480   -67.9310    81.6570     8.2070    10.4360     8.9960
  713.5000  -999.2500  -999.2500  -999.2500   -64.6130    11.4320   -68.9220    81.5940     8.3780    10.4860     8.9960
  714.0000  -999.2500  -999.2500  -999.2500   -65.2320    11.4640   -70.2510    79.6220     8.5420    10.5350     8.9960
  714.5000  -999.2500  -999.2500  -999.2500   -65.8520    11.5040   -72.5500    77.0130     8.6720    10.6130     8.9960
  715.0000  -999.2500  -999.2500  -999.2500   -66.4710    11.5450   -73.0070    76.0770     8.5350    10.5800     8.9960
  715.5000  -999.2500  -999.2500  -999.2500   -67.0910    11.5770   -72.6880    75.8950     8.4000    10.4970     8.9960
  716.0000  -999.2500  -999.2500  -999.2500   -67.7100    11.5940   -71.7920    75.6790     8.2650    10.4140     8.9960
  716.5000  -999.2500  -999.2500  -999.2500   -68.3300    11.6080   -70.9030    77.3480     8.2070    10.3310     8.9960
  717.0000  -999.2500  -999.2500  -999.2500   -68.9490    11.5990   -70.7880    79.5750     8.2070    10.2490     8.9960
  717.5000  -999.2500  -999.2500  -999.2500   -69.5680    11.5900   -70.7090    80.0470     8.2070    10.1660     8.9960
  718.0000  -999.2500  -999.2500  -999.2500   -70.1880    11.5810   -69.9290    79.8440     8.2010    10.0830     8.9960
  718.5000  -999.2500  -999.2500  -999.2500   -70.8070    11.5720   -68.9500    79.0140     8.1600    10.0440     8.9960
  719.0000  -999.2500  -999.2500  -999.2500   -71.4270    11.5440   -67.8860    80.4610     8.1190    10.0440     8.9960
  719.5000  -999.2500  -999.2500  -999.2500   -72.0460    11.5100   -66.1340    82.6980     8.0580    10.0440     8.9960
  720.0000  -999.2500  -999.2500  -999.2500   -72.6660    11.4760   -62.9250    81.8190     8.0800    10.0440     8.9950
  720.5000  -999.2500  -999.2500  -999.2500   -73.2850    11.4420   -51.1680    79.8390     8.1230    10.0440     9.0010
  721.0000  -999.2500  -999.2500  -999.2500   -73.9050    11.4110   -43.7930    79.6520     8.1670    10.0440     8.8090
  721.5000  -999.2500  -999.2500  -999.2500   -74.5240    11.4030   -37.3110    81.9930     8.2070    10.0440     8.6370
  722.0000  -999.2500  -999.2500  -999.2500   -75.1440    11.3950   -38.8540    84.8360     8.0740    10.0450     8.4650
  722.5000  -999.2500  -999.2500  -999.2500   -75.7630    11.4010   -41.7890    84.2810     7.9200    10.0460     8.2920
  723.0000  -999.2500  -999.2500  -999.2500   -76.3830    11.4220   -44.5280    82.8540     7.7670    10.0440     8.1200
  723.5000  -999.2500  -999.2500  -999.2500   -77.0020    11.4430   -47.1120    81.6720     7.6130     9.7630     7.9790
  724.0000  -999.2500  -999.2500  -999.2500   -77.6220    11.4600   -48.3710    83.5460     7.4920     9.4920     7.8550
  724.5000  -999.2500  -999.2500  -999.2500   -78.2410    11.4740   -42.2220    85.8070     7.3900     9.2340     7.7300
  725.0000  -999.2500  -999.2500  -999.2500   -78.8610    11.4890   -36.2680    86.6960     7.2890     8.9960     7.6060
