~VERSION INFORMATION
 VERS.                2.0:   CWLS LOG ASCII STANDARD - VERSION 2.0
 WRAP.                 NO:   ONE LINE PER DEPTH STEP
~WELL INFORMATION
#MNEM.UNIT      DATA TYPE    INFORMATION
#----------   ------------   ------------------------------
 STRT.F            4.0000:   START DEPTH
 STOP.F         3266.0000:   STOP DEPTH
 STEP.F            0.5000:   STEP LENGTH
 NULL.          -999.2500:   NO VALUE
 COMP. LAWRENCE ALLISON & ASSOSCIATES:   COMPANY
 WELL. LAWRENCE "X" #27-11:   WELL
 FLD .          N.P.R. #3:   FIELD
 LOC .      S11 T38N R78W:   LOCATION
 CNTY.            NATRONA:   COUNTY
 STAT.            WYOMING:   STATE
 CTRY. UNITED STATES OF AMERICA:   COUNTRY
 SRVC.      DRESSER ATLAS:   SERVICE COMPANY
 DATE.        22-AUG-1986:   LOGDATE
 API .     49025111070000:   API NUMBER
~CURVE INFORMATION
#MNEM.UNIT       API CODE    CURVE DESCRIPTION
#----------   ------------   ------------------------------
 DEPT.F                  :   
 SPR .MV     07 010 01 00:   SPONTANEOUS POTENTIAL
 TENR.LBS    06 635 01 00:   TENSION FROM RESISTIVITY
 GRR .GAPI   07 310 01 00:   GAMMA RAY FROM RESISTIVITY
 RILD.OHMM   07 120 46 00:   DEEP INDUCTION RESISTIVITY
 RILM.OHMM   07 120 44 00:   INDUCTION LOG MEDIUM RESISTIVITY
 RFOC.OHMM   07 220 04 00:   RESISTIVITY FOCUSED LOG RES.
 NPHI.DEC    42 890 03 00:   NEUTRON POROSITY SANDSTONE
 CALD.IN     45 280 60 00:   CALIPER FROM DENSITY LOG
 RHOB.G/C3   45 350 01 00:   BULK DENSITY
 CORR.G/C3   45 356 01 00:   DENSITY CORRECTION
 TEND.LBS    45 635 01 00:   TENSION FORM DENSITY LOG
~PARAMETER INFORMATION
#MNEM.UNIT          VALUE    DESCRIPTION
#----------   ------------   ------------------------------
 EKB .F         5206.0000:   Kelly bushing
 EGL .F         5194.0000:   Ground level
 EDF .F         5205.0000:   Drilling floor
 EPD .F         5194.0000:   Permanent datum
 TD  .F         3250.0000:   Total depth
 CLNT.            A2DTECH:   Client Code
 SL  . 1197' FSL & 1088' FWL:   Surface Location
 PD  .                 GL:   Permanent Datum
 DAPD.F                12:   Feet Above Permanent Datum
 DATE.        22-AUG-1986:   Date Logged [DD-MMM-YYYY]
 DD  .F              3250:   Depth driller
 DL  .F              3246:   Depth logger
 BLI .F              3243:   Bottom log interval
 TLI .F               683:   Top log interval
 CS1 .IN            8.625:   Casing size
 CBD1.      8.625" @ 672':   Casing driller 1
 CBL1.F               673:   Casing logger 1
 BS1 .IN            7.875:   Bit size
 BSD1.F              3250:   Depth drilled with bit1
 DFT .            KCL-GEL:   Type fluid in hole
 DFD .                8.9:   Density
 DFV .                 35:   Viscosity
 MSS .               TANK:   Source of sample
 RMS .OHMM           0.31:   Rm
 MST .F                70:   Rm Meas. temp.
 RMF .OHMM           0.29:   Rmf
 MFST.F                67:   Rmf Meas. temp.
 MFSS.               CALC:   Source Rmf.
 RMC .OHMM           0.46:   Rmc
 MCST.F                70:   Rmc Meas. temp.
 MCSS.               CALC:   Source Rmc.
 RMB .OHMM           0.16:   Rm. at BHT
 BHT .F               136:   BHT.
 TCS .HRS               4:   Time Circ. stopped
 MRT .F               136:   Maximum recorded temp.
 LUN .            HL-6426:   Logging unit number
 LUL .          RK. SPGS.:   Logging unit location
 ENGI.               RALL:   Recorded By
 WITN.             STRONG:   Witnessed by
 ORIG.           5" PRINT:   Origin of data
 UWI .     49025111070000:   Unique Well ID
 DICO. A2D TECHNOLOGIES, INC.:   Digitizing Company
~OTHER INFORMATION
~A    DEPT     SPR       TENR         GRR      RILD       RILM       RFOC       NPHI       CALD       RHOB       CORR       TEND   
# ...
 1193.5000   -74.2035   -86.9618   104.9287     8.2990     8.6031     9.0459  -999.2500  -999.2500  -999.2500  -999.2500  -999.2500
 1194.0000   -73.8966   -87.0459   107.4839     8.2984     8.6057     9.0504  -999.2500  -999.2500  -999.2500  -999.2500  -999.2500
 1194.5000   -73.5897   -87.1300   114.3502     8.2978     8.6083     9.0541  -999.2500  -999.2500  -999.2500  -999.2500  -999.2500
 1195.0000   -73.4341   -87.2142   117.0875     8.1821     8.5511     9.0577  -999.2500  -999.2500  -999.2500  -999.2500  -999.2500
 1195.5000   -73.2792   -87.2983   115.5759     8.1816     8.4337     9.1251  -999.2500  -999.2500  -999.2500  -999.2500  -999.2500
 1196.0000   -73.2763   -87.3824   113.1538     8.1810     8.3772     9.1288  -999.2500  -999.2500  -999.2500  -999.2500  -999.2500
 1196.5000   -73.2733   -87.4666   111.9458     8.1906     8.3804     9.0688  -999.2500  -999.2500  -999.2500  -999.2500  -999.2500
 1197.0000   -73.2704   -87.5507   112.5586     8.2372     8.3830     8.8764  -999.2500  -999.2500  -999.2500  -999.2500  -999.2500
 1197.5000   -73.2674   -87.6348   113.4750     8.2366     8.3856     8.8254  -999.2500  -999.2500  -999.2500  -999.2500  -999.2500
 1198.0000   -73.7366   -87.7186   111.5388     8.2360     8.3882     8.7673  -999.2500  -999.2500  -999.2500  -999.2500  -999.2500
 1198.5000   -74.7806   -87.8021   105.9009     8.2355     8.3913     8.8334  -999.2500  -999.2500  -999.2500  -999.2500  -999.2500
 1199.0000   -75.5375   -87.8857   104.3879     8.2334     8.3939     8.9617  -999.2500  -999.2500  -999.2500  -999.2500  -999.2500
 1199.5000   -76.1425   -87.9692   108.0371     8.1770     8.3965     9.0918  -999.2500  -999.2500  -999.2500  -999.2500  -999.2500
 1200.0000   -76.5962   -88.0527   111.9883     8.1763     8.3990     9.1594  -999.2500  -999.2500  -999.2500  -999.2500  -999.2500
 1200.5000   -76.8965   -88.1363   113.5117     8.1758     8.4016     9.0991  -999.2500  -999.2500  -999.2500  -999.2500  -999.2500
 1201.0000   -77.1976   -88.2198   113.2140     8.1183     8.2869     8.9762  -999.2500  -999.2500  -999.2500  -999.2500  -999.2500
 1201.5000   -77.1945   -88.3034   113.5438     8.0612     8.2314     8.9795  -999.2500  -999.2500  -999.2500  -999.2500  -999.2500
 1202.0000   -77.3436   -88.3869   114.4412     8.0045     8.1763     8.9201  -999.2500  -999.2500  -999.2500  -999.2500  -999.2500
 1202.5000   -77.1880   -88.4704   113.8401     8.0040     8.1794     8.8612  -999.2500  -999.2500  -999.2500  -999.2500  -999.2500
 1203.0000   -76.8811   -88.5540   111.1146     7.9476     8.1819     8.8653  -999.2500  -999.2500  -999.2500  -999.2500  -999.2500
 1203.5000   -76.4222   -88.6375   108.9960     7.9471     8.1844     8.8686  -999.2500  -999.2500  -999.2500  -999.2500  -999.2500
 1204.0000   -75.9634   -88.7211   109.0019     7.9465     8.1869     8.8719  -999.2500  -999.2500  -999.2500  -999.2500  -999.2500
 1204.5000   -75.5045   -88.8046   108.7043     7.9460     8.1868     8.8132  -999.2500  -999.2500  -999.2500  -999.2500  -999.2500
 1205.0000   -75.0354   -88.8881   107.7997     7.9454     8.2468     8.7541  -999.2500  -999.2500  -999.2500  -999.2500  -999.2500
 1205.5000   -74.4341   -88.9717   108.4532     8.0006     8.2495     8.7582  -999.2500  -999.2500  -999.2500  -999.2500  -999.2500
 1206.0000   -74.1272   -89.0552   109.0254     8.0562     8.1934     8.7616  -999.2500  -999.2500  -999.2500  -999.2500  -999.2500
 1206.5000   -73.9723   -89.1388   106.6829     8.1449     8.1962     8.7655  -999.2500  -999.2500  -999.2500  -999.2500  -999.2500
 1207.0000   -73.6654   -89.2223   106.0876     8.1685     8.1984     8.8304  -999.2500  -999.2500  -999.2500  -999.2500  -999.2500
 1207.5000   -73.5105   -89.3058   110.6545     8.2252     8.2584     8.8958  -999.2500  -999.2500  -999.2500  -999.2500  -999.2500
 1208.0000   -73.3556   -89.3894   115.5221     8.2822     8.3229     8.8991  -999.2500  -999.2500  -999.2500  -999.2500  -999.2500
 1208.5000   -73.1058   -89.4729   116.7477     8.3398     8.4395     9.0280  -999.2500  -999.2500  -999.2500  -999.2500  -999.2500
 1209.0000   -73.2224   -89.5565   114.6350     8.3976     8.5612     9.0948  -999.2500  -999.2500  -999.2500  -999.2500  -999.2500
 1209.5000   -73.4551   -89.6400   111.3083     8.3970     8.6239     9.0983  -999.2500  -999.2500  -999.2500  -999.2500  -999.2500
 1210.0000   -73.7020   -89.7235   110.7130     8.3964     8.6871     9.1018  -999.2500  -999.2500  -999.2500  -999.2500  -999.2500
 1210.5000   -74.2465   -89.8071   114.0660     8.3958     8.7507     9.0423  -999.2500  -999.2500  -999.2500  -999.2500  -999.2500
 1211.0000   -74.7973   -89.8906   115.8987     8.3952     8.6918     9.0456  -999.2500  -999.2500  -999.2500  -999.2500  -999.2500
 1211.5000   -75.3466   -89.9742   116.2109     8.3946     8.6942     9.1126  -999.2500  -999.2500  -999.2500  -999.2500  -999.2500
 1212.0000   -75.8937   -90.0577   113.1906     8.3941     8.6971     9.1160  -999.2500  -999.2500  -999.2500  -999.2500  -999.2500
 1212.5000   -76.4437   -90.1412   107.7395     8.3935     8.6994     9.1194  -999.2500  -999.2500  -999.2500  -999.2500  -999.2500
 1213.0000   -76.8292   -90.2248   103.8058     8.3929     8.6409     9.1236  -999.2500  -999.2500  -999.2500  -999.2500  -999.2500
 1213.5000   -77.0730   -90.3083   103.5140     8.3923     8.6432     9.0627  -999.2500  -999.2500  -999.2500  -999.2500  -999.2500
 1214.0000   -77.3068   -90.3919   103.5286     8.3916     8.6456     9.1398  -999.2500  -999.2500  -999.2500  -999.2500  -999.2500
 1214.5000   -77.1823   -90.4754   105.3613     8.3911     8.7089     9.1982  -999.2500  -999.2500  -999.2500  -999.2500  -999.2500
 1215.0000   -77.0341   -90.5589   109.9253     8.4495     8.7113     9.2663  -999.2500  -999.2500  -999.2500  -999.2500  -999.2500
 1215.5000   -76.8882   -90.6425   113.5789     8.5082     8.7142     9.3349  -999.2500  -999.2500  -999.2500  -999.2500  -999.2500
 1216.0000   -76.7505   -90.7260   112.6801     8.5673     8.7165     9.3384  -999.2500  -999.2500  -999.2500  -999.2500  -999.2500
 1216.5000   -76.2566   -90.8096   112.7101     8.5665     8.7189     9.3419  -999.2500  -999.2500  -999.2500  -999.2500  -999.2500
 1217.0000   -75.6955   -90.8931   114.5273     8.5063     8.7213     9.3454  -999.2500  -999.2500  -999.2500  -999.2500  -999.2500
 1217.5000   -75.1328   -90.9766   114.5390     8.4464     8.7236     9.2196  -999.2500  -999.2500  -999.2500  -999.2500  -999.2500
 1218.0000   -74.5711   -91.0602   114.2472     8.3737     8.6649     9.2230  -999.2500  -999.2500  -999.2500  -999.2500  -999.2500
 1218.5000   -74.0090   -91.1437   109.4031     8.3328     8.6066     9.0973  -999.2500  -999.2500  -999.2500  -999.2500  -999.2500
 1219.0000   -73.4240   -91.2273   106.6804     8.2919     8.6091     9.1015  -999.2500  -999.2500  -999.2500  -999.2500  -999.2500
 1219.5000   -73.2872   -91.3108   110.6404     8.2510     8.6118     9.1049  -999.2500  -999.2500  -999.2500  -999.2500  -999.2500
 1220.0000   -73.2839   -91.3943   115.0223     8.2101     8.6141     9.1083  -999.2500  -999.2500  -999.2500  -999.2500  -999.2500
 1220.5000   -73.2831   -91.4779   116.7336     8.1867     8.6165     9.1117  -999.2500  -999.2500  -999.2500  -999.2500  -999.2500
 1221.0000   -73.2969   -91.5614   114.3203     8.1856     8.6188     9.1159  -999.2500  -999.2500  -999.2500  -999.2500  -999.2500
 1221.5000   -73.7577   -91.6450   113.4186     8.2418     8.6283     9.1193  -999.2500  -999.2500  -999.2500  -999.2500  -999.2500
 1222.0000   -74.2476   -91.7285   113.1268     8.2983     8.6849     9.1868  -999.2500  -999.2500  -999.2500  -999.2500  -999.2500
 1222.5000   -74.7360   -91.8120   114.6589     8.3553     8.7485     9.1902  -999.2500  -999.2500  -999.2500  -999.2500  -999.2500
 1223.0000   -75.2237   -91.8956   115.5810     8.3542     8.7508     9.2582  -999.2500  -999.2500  -999.2500  -999.2500  -999.2500
 1223.5000   -75.7114   -91.9791   113.7747     8.3531     8.7532     9.2617  -999.2500  -999.2500  -999.2500  -999.2500  -999.2500
