~VERSION INFORMATION
 VERS.                2.0:   CWLS LOG ASCII STANDARD - VERSION 2.0
 WRAP.                 NO:   ONE LINE PER DEPTH STEP
~WELL INFORMATION
#MNEM.UNIT      DATA TYPE    INFORMATION
#----------   ------------   ------------------------------
 STRT.F           80.0000:   START DEPTH
 STOP.F         2730.0000:   STOP DEPTH
 STEP.F            0.5000:   STEP LENGTH
 NULL.          -999.2500:   NO VALUE
 COMP.          U.S. NAVY:   COMPANY
 WELL. US NPR 3 "AX" #57-20:   WELL
 FLD .             TEAPOT:   FIELD
 LOC .      S20 T39N R78W:   LOCATION
 CNTY.            NATRONA:   COUNTY
 STAT.            WYOMING:   STATE
 CTRY. UNITED STATES OF AMERICA:   COUNTRY
 SRVC.       SCHLUMBERGER:   SERVICE COMPANY
 DATE.        31-JUL-1964:   LOGDATE
 API .     49025066320000:   API NUMBER
~CURVE INFORMATION
#MNEM.UNIT       API CODE    CURVE DESCRIPTION
#----------   ------------   ------------------------------
 DEPT.F                  :   
 SPR .MV     01 010 01 00:   SPONTANEOUS POTENTIAL FROM RES.
 LN  .OHMM   01 060 39 00:   LONG NORMAL 39"
 ASN .OHMM   01 041 16 00:   AMPLIFIED SHORT NORMAL 16"
 LAT .OHMM   01 070 00 00:   LATERAL
 GRN .GAPI   35 310 30 00:   GAMMA RAY
 NEUT.NAPI   35 330 01 00:   NEUTRON
~PARAMETER INFORMATION
#MNEM.UNIT          VALUE    DESCRIPTION
#----------   ------------   ------------------------------
 EKB .F         5019.0000:   Kelly bushing
 EGL .F         5011.0000:   Ground level
 TD  .F         2696.0000:   Total depth
 DATE.        31-JUL-1964:   Date logged
 CLNT.            A2DTECH:   Client Code
 PD  .                 GL:   Permanent Datum
 EPD .F              5011:   Elevation Permanent Datum
 LMF .                 KB:   Log Measured From
 DMF .                 KB:   Drilling Measured From
 DAPD.F                 8:   Feet Above Permanent Datum
 DD  .F              2690:   Depth driller
 DL  .F              2696:   Depth logger
 BLI .F              2695:   Bottom log interval
 TLI .F                82:   Top log interval
 CS1 .IN            12.25:   Casing size
 CBD1.       12.25" @ 15':   Casing driller 1
 BS1 .IN               11:   Bit size
 BSD1.F              2690:   Depth drilled with bit1
 DFT .                GEL:   Type fluid in hole
 MSS .           FLOWLINE:   Source of sample
 RMS .OHMM           2.48:   Rm
 MST .F                83:   Rm Meas. temp.
 RMF .OHMM           1.87:   Rmf
 MFST.F                83:   Rmf Meas. temp.
 MFSS.                 FP:   Source Rmf.
 MCSS.                 FP:   Source Rmc.
 TCS .HRS               4:   Time Circ. stopped
 LUN .               3527:   Logging unit number
 LUL .               CSPR:   Logging unit location
 ENGI.            WINKLER:   Recorded By
 WITN.          GORGENSEN:   Witnessed by
 ORIG.         2.5" PRINT:   Origin of data
 UWI .     49025066320000:   Unique Well ID
 DICO.   A2D TECHNOLOGIES:   Digitizing Company
~OTHER INFORMATION
~A   DEPT      SPR         LN        ASN        LAT        GRN       NEUT   
# ...
  288.0000   -49.5430     9.1780     8.9140    11.8540  -999.2500  -999.2500
  288.5000   -49.4980     8.8910     8.7320    11.8970  -999.2500  -999.2500
  289.0000   -49.4540     8.6420     8.4530    11.9400  -999.2500  -999.2500
  289.5000   -49.4090     8.2550     8.1160    11.9840  -999.2500  -999.2500
  290.0000   -49.3650     7.7740     7.7010    12.0260  -999.2500  -999.2500
  290.5000   -49.3210     7.3160     7.3170    12.0740  -999.2500  -999.2500
  291.0000   -49.2760     7.0360     6.9250    12.1060  -999.2500  -999.2500
  291.5000   -49.2320     6.8960     6.5340    12.1770  -999.2500  -999.2500
  292.0000   -49.1870     6.7500     6.1440    11.9930  -999.2500  -999.2500
  292.5000   -49.1430     6.5930     5.7530    11.6070  -999.2500  -999.2500
  293.0000   -49.0980     6.5570     5.3620    11.2630  -999.2500  -999.2500
  293.5000   -49.0540     6.6160     4.9720    10.9060  -999.2500  -999.2500
  294.0000   -49.0100     6.6610     4.5830    10.5520  -999.2500  -999.2500
  294.5000   -48.9650     6.7110     4.1880    10.1980  -999.2500  -999.2500
  295.0000   -48.9210     6.7590     3.8080     9.8430  -999.2500  -999.2500
  295.5000   -48.8760     6.8100     3.3950     9.4890  -999.2500  -999.2500
  296.0000   -48.8320     6.8550     3.2220     9.1350  -999.2500  -999.2500
  296.5000   -48.7880     6.9150     3.2250     8.7800  -999.2500  -999.2500
  297.0000   -48.7430     6.8690     3.3920     8.4260  -999.2500  -999.2500
  297.5000   -48.7010     6.7270     3.8370     8.0730  -999.2500  -999.2500
  298.0000   -48.6510     6.6010     4.3170     7.7140  -999.2500  -999.2500
  298.5000   -48.6540     6.4640     4.7920     7.3730  -999.2500  -999.2500
  299.0000   -48.7080     6.3450     5.2690     6.9870  -999.2500  -999.2500
  299.5000   -48.7540     6.1850     5.7480     6.9010  -999.2500  -999.2500
  300.0000   -48.8030     6.2960     6.2170     7.1080  -999.2500  -999.2500
  300.5000   -48.8520     6.6760     6.7150     7.2710  -999.2500  -999.2500
  301.0000   -48.9000     7.0180     7.0430     7.4510  -999.2500  -999.2500
  301.5000   -48.9480     7.3660     7.1880     7.6250  -999.2500  -999.2500
  302.0000   -48.9960     7.7360     7.3590     7.8000  -999.2500  -999.2500
  302.5000   -49.0450     8.0000     7.5330     7.9760  -999.2500  -999.2500
  303.0000   -49.0930     8.1390     7.6480     8.1520  -999.2500  -999.2500
  303.5000   -49.1420     8.3020     7.6810     8.3240  -999.2500  -999.2500
  304.0000   -49.1900     8.4510     7.7290     8.5130  -999.2500  -999.2500
  304.5000   -49.2380     8.6220     7.7710     8.6490  -999.2500  -999.2500
  305.0000   -49.2870     8.7330     7.8150     8.7100  -999.2500  -999.2500
  305.5000   -49.3350     8.7580     7.8580     8.7880  -999.2500  -999.2500
  306.0000   -49.3830     8.8000     7.9020     8.8590  -999.2500  -999.2500
  306.5000   -49.4320     8.8350     7.9440     8.9330  -999.2500  -999.2500
  307.0000   -49.4800     8.8720     7.9930     9.0060  -999.2500  -999.2500
  307.5000   -49.5290     8.9090     8.0100     9.0780  -999.2500  -999.2500
  308.0000   -49.5770     8.9450     7.9790     9.1560  -999.2500  -999.2500
  308.5000   -49.6250     8.9820     7.9730     9.1790  -999.2500  -999.2500
  309.0000   -49.6740     9.0180     7.9430     9.0750  -999.2500  -999.2500
  309.5000   -49.7210     9.0550     7.9150     8.9740  -999.2500  -999.2500
  310.0000   -49.7750     9.0920     7.8850     8.8690  -999.2500  -999.2500
  310.5000   -49.8040     9.1280     7.8560     8.7660  -999.2500  -999.2500
  311.0000   -49.7900     9.1650     7.8270     8.6610  -999.2500  -999.2500
  311.5000   -49.7830     9.2000     7.7970     8.5580  -999.2500  -999.2500
  312.0000   -49.7720     9.2380     7.7680     8.4540  -999.2500  -999.2500
  312.5000   -49.7630     9.2740     7.7490     8.3500  -999.2500  -999.2500
  313.0000   -49.7530     9.3000     7.8000     8.2460  -999.2500  -999.2500
  313.5000   -49.7430     9.2480     7.8480     8.1420  -999.2500  -999.2500
  314.0000   -49.7330     9.1980     7.9000     8.0380  -999.2500  -999.2500
  314.5000   -49.7230     9.1440     7.9480     7.9350  -999.2500  -999.2500
  315.0000   -49.7140     9.0930     8.0000     7.8290  -999.2500  -999.2500
  315.5000   -49.7040     9.0410     8.0490     7.7270  -999.2500  -999.2500
  316.0000   -49.6940     8.9890     8.0910     7.6300  -999.2500  -999.2500
  316.5000   -49.6840     8.9370     8.0280     7.6250  -999.2500  -999.2500
  317.0000   -49.6750     8.8850     7.9610     7.6310  -999.2500  -999.2500
  317.5000   -49.6650     8.8330     7.8910     7.7330  -999.2500  -999.2500
  318.0000   -49.6550     8.7810     7.8250     7.8390  -999.2500  -999.2500
  318.5000   -49.6450     8.7290     7.7550     7.9490  -999.2500  -999.2500
  319.0000   -49.6350     8.6780     7.6880     8.0560  -999.2500  -999.2500
  319.5000   -49.6260     8.6240     7.6190     8.1640  -999.2500  -999.2500
  320.0000   -49.6160     8.5740     7.5410     8.2730  -999.2500  -999.2500
  320.5000   -49.6060     8.5220     7.3480     8.3790  -999.2500  -999.2500
  321.0000   -49.5960     8.5550     7.1320     8.4900  -999.2500  -999.2500
  321.5000   -49.5860     8.6000     6.9080     8.6070  -999.2500  -999.2500
  322.0000   -49.5770     8.6450     6.6980     8.7870  -999.2500  -999.2500
  322.5000   -49.5670     8.6900     6.4580     8.8050  -999.2500  -999.2500
  323.0000   -49.5570     8.7350     6.3890     8.6020  -999.2500  -999.2500
  323.5000   -49.5470     8.7800     6.3240     8.3350  -999.2500  -999.2500
  324.0000   -49.5370     8.8250     6.2910     8.0810  -999.2500  -999.2500
  324.5000   -49.5280     8.8700     6.3380     7.8150  -999.2500  -999.2500
  325.0000   -49.5180     8.9150     6.4210     7.5640  -999.2500  -999.2500
  325.5000   -49.5080     8.9600     6.6020     7.3030  -999.2500  -999.2500
  326.0000   -49.4980     9.0040     6.8330     7.3860  -999.2500  -999.2500
  326.5000   -49.4890     9.0530     7.0580     7.6270  -999.2500  -999.2500
  327.0000   -49.4790     9.0870     7.2840     7.8510  -999.2500  -999.2500
  327.5000   -49.4690     9.1930     7.5100     8.0780  -999.2500  -999.2500
  328.0000   -49.4590     9.3420     7.7360     8.3060  -999.2500  -999.2500
  328.5000   -49.4490     9.4750     7.9620     8.5320  -999.2500  -999.2500
  329.0000   -49.4400     9.6120     8.1880     8.7600  -999.2500  -999.2500
  329.5000   -49.4300     9.7490     8.4140     8.9860  -999.2500  -999.2500
  330.0000   -49.4200     9.8850     8.6380     9.2130  -999.2500  -999.2500
  330.5000   -49.4100    10.0210     8.8200     9.4430  -999.2500  -999.2500
  331.0000   -49.4000    10.1590     8.9840     9.6650  -999.2500  -999.2500
  331.5000   -49.3910    10.2920     9.0670     9.9030  -999.2500  -999.2500
  332.0000   -49.3810    10.4350     9.0880    10.0080  -999.2500  -999.2500
  332.5000   -49.3710    10.5000     9.1150     9.9950  -999.2500  -999.2500
  333.0000   -49.3610    10.4920     9.1550    10.0000  -999.2500  -999.2500
  333.5000   -49.3510    10.4950     9.2130     9.9990  -999.2500  -999.2500
  334.0000   -49.3420    10.4940     9.2680     9.9990  -999.2500  -999.2500
  334.5000   -49.3320    10.4950     9.3240    10.0000  -999.2500  -999.2500
  335.0000   -49.3220    10.4950     9.3810     9.9990  -999.2500  -999.2500
  335.5000   -49.3120    10.4950     9.4340    10.0010  -999.2500  -999.2500
  336.0000   -49.3030    10.4950     9.4970     9.9830  -999.2500  -999.2500
  336.5000   -49.2930    10.4950     9.5000     9.9400  -999.2500  -999.2500
  337.0000   -49.2830    10.4950     9.4230     9.8990  -999.2500  -999.2500
  337.5000   -49.2730    10.4950     9.3560     9.8570  -999.2500  -999.2500
  338.0000   -49.2630    10.4950     9.2840     9.8150  -999.2500  -999.2500
  338.5000   -49.2540    10.4950     9.2150     9.7730  -999.2500  -999.2500
  339.0000   -49.2440    10.4950     9.1450     9.7310  -999.2500  -999.2500
  339.5000   -49.2340    10.4950     9.0750     9.6900  -999.2500  -999.2500
