~VERSION INFORMATION
 VERS.                2.0:   CWLS LOG ASCII STANDARD - VERSION 2.0
 WRAP.                 NO:   ONE LINE PER DEPTH STEP
~WELL INFORMATION
#MNEM.UNIT      DATA TYPE    INFORMATION
#----------   ------------   ------------------------------
 STRT.F          484.0000:   START DEPTH
 STOP.F         4096.0000:   STOP DEPTH
 STEP.F            0.5000:   STEP LENGTH
 NULL.          -999.2500:   NO VALUE
 COMP.    FENIX & SCISSON:   COMPANY
 WELL. FENIX NPR "JX" #58-28:   WELL
 FLD .                NPR:   FIELD
 LOC .      S28 T39N R78W:   LOCATION
 CNTY.            NATRONA:   COUNTY
 STAT.            WYOMING:   STATE
 CTRY. UNITED STATES OF AMERICA:   COUNTRY
 SRVC.              WELEX:   SERVICE COMPANY
 DATE.        02-MAY-1978:   LOGDATE
 API .     49025107810000:   API NUMBER
~CURVE INFORMATION
#MNEM.UNIT       API CODE    CURVE DESCRIPTION
#----------   ------------   ------------------------------
 DEPT.F                  :   
 NPHI.DEC    42 890 03 00:   NEUTRON POROSITY SANDSTONE
 RHOB.G/C3   45 350 01 00:   BULK DENSITY
 CORR.G/C3   45 356 01 00:   DENSITY CORRECTION
 CALD.IN     45 280 60 00:   CALIPER FROM DENSITY LOG
 GRD .GAPI   45 310 01 00:   GAMMA RAY FROM DENSITY LOG
 SPR .MV     07 010 01 00:   SPONTANEOUS POTENTIAL
 ILD .OHMM   07 120 46 00:   DEEP INDUCTION RESISTIVITY
 SGRD.OHMM   07 220 05 00:   SHALLOW SHORT GUARD RESISTIVITY
 ILM .OHMM   07 120 44 00:   INDUCTION LOG MEDIUM RESISTIVITY
~PARAMETER INFORMATION
#MNEM.UNIT          VALUE    DESCRIPTION
#----------   ------------   ------------------------------
 EKB .F         5115.0000:   Kelly bushing
 EGL .F         5101.0000:   Ground level
 EDF .F            0.0000:   Drilling floor
 EPD .F         5101.0000:   Permanent datum
 TD  .F         4100.0000:   Total depth
 DATE.        02-MAY-1978:   Date logged
 CLNT.            A2DTECH:   Client Code
 SL  . 525' FSL & 2406' FEL:   Surface Location
 PD  .                 GL:   Permanent Datum
 DAPD.F                14:   Feet Above Permanent Datum
 DD  .F              4100:   Depth driller
 DL  .F              4098:   Depth logger
 BLI .F              4096:   Bottom log interval
 CS1 .IN            8.625:   Casing size
 CBD1.      8.625" @ 501':   Casing driller 1
 CBL1.F               500:   Casing logger 1
 BS1 .IN            7.875:   Bit size
 BSD1.F              4100:   Depth drilled with bit1
 DFT .            CHM GEL:   Type fluid in hole
 DFD .                9.4:   Density
 DFV .                 48:   Viscosity
 DFPH.                9.3:   pH
 DFL .                8.5:   Fluid loss
 MSS .           FLOWLINE:   Source of sample
 RMS .OHMM           1.24:   Rm
 MST .F                70:   Rm Meas. temp.
 RMF .OHMM            .57:   Rmf
 MFST.F                70:   Rmf Meas. temp.
 RMC .OHMM           1.48:   Rmc
 MCST.F                70:   Rmc Meas. temp.
 MFSS.               MEAS:   Source Rmf.
 MCSS.               MEAS:   Source Rmc.
 RMB .OHMM            .87:   Rm. at BHT
 BHT .F               123:   BHT.
 TCS .HRS               4:   Time Circ. stopped
 MRT .F               123:   Maximum recorded temp.
 LUN .               1892:   Logging unit number
 LUL .             CASPER:   Logging unit location
 ENGI.               REIN:   Recorded By
 WITN.           DINSMORE:   Witnessed by
 ORIG.         2.5" PRINT:   Origin of data
 UWI .     49025107810000:   Unique Well ID
 DICO. A2D TECHNOLOGIES, INC.:   Digitizing Company
 TLI .                500:   Top log interval
~OTHER INFORMATION
~A   DEPT       NPHI     RHOB       CORR       CALD         GRD       SPR        ILD       SGRD        ILM   
# ...
 4061.0000     0.1100     2.5750     0.1060     8.1250    82.1730   -16.6530     9.7610    21.3740    10.3180
 4061.5000     0.1270     2.5640     0.1060     8.1280    91.4020   -16.4330     9.5430    16.3570    10.0880
 4062.0000     0.1440     2.5560     0.1070     8.1310   113.7330   -16.5510     9.3250     8.7820     9.8570
 4062.5000     0.1570     2.5480     0.1090     8.1340   150.6440   -16.8480     9.1070     9.3670     9.6270
 4063.0000     0.1530     2.5470     0.1100     8.1380   170.3120   -17.0130     8.8890    10.5600     9.3960
 4063.5000     0.1490     2.5570     0.1110     8.1410   107.6770   -17.9580     8.6710    11.5900     9.1660
 4064.0000     0.1490     2.5650     0.1120     8.1440    71.2790   -18.2770     8.4530     8.1940     8.9350
 4064.5000     0.1490     2.5680     0.1140     8.1470    72.9570   -18.0210     8.2350     6.6550     8.7050
 4065.0000     0.1490     2.5580     0.1150     8.1500    74.9240   -17.7590     8.0170     7.0660     8.4740
 4065.5000     0.1490     2.5520     0.1160     8.1530    72.3240   -17.5080     7.7990     8.1150     8.2440
 4066.0000     0.1490     2.5570     0.1200     8.1560    64.2930   -17.3710     7.5810     9.1630     8.0130
 4066.5000  -999.2500     2.5650     0.1260     8.1590    56.3570   -16.5470     7.3630    10.2120     7.7830
 4067.0000  -999.2500     2.5740     0.1330     8.1620    52.3370   -16.4450     7.1450    11.2610     7.5520
 4067.5000  -999.2500     2.5740     0.1300     8.1650    48.3740   -16.4450     6.9050    11.5900     7.2990
 4068.0000  -999.2500     2.5680     0.1280     8.1690    47.0320   -16.5130     6.7140    11.5900     7.0970
 4068.5000  -999.2500     2.5610     0.1270     8.1720    46.6600   -16.5280     6.3400    11.3780     6.7010
 4069.0000  -999.2500     2.5610     0.1410     8.1750    52.0050   -16.5620     5.9650    10.1210     6.3050
 4069.5000  -999.2500     2.5640     0.1440     8.1780    56.9110   -16.5970     5.5900     8.2870     5.9090
 4070.0000  -999.2500     2.5660     0.1490     8.1810    66.4750   -16.6270     5.2150     5.6120     5.5130
 4070.5000  -999.2500     2.5620     0.1530     8.1840    83.7000   -16.6600     4.8410     3.8930     5.1170
 4071.0000  -999.2500     2.5500     0.1470     8.1870   101.0990   -16.6920     4.4660     3.4830     4.7210
 4071.5000  -999.2500     2.5440     0.1420     8.1900   110.8970   -16.7240     4.0910     3.5240     4.3250
 4072.0000  -999.2500     2.5480     0.1370     8.1930   115.3090   -16.7560     3.7170     3.5710     3.9290
 4072.5000  -999.2500     2.5510     0.1330     8.1960   119.1580   -16.7880     3.3420     3.6150     3.5330
 4073.0000  -999.2500     2.5560     0.1340     8.1990   119.3410   -16.8200     2.9670     3.6150     3.1360
 4073.5000  -999.2500     2.5570     0.1350     8.2030   117.9400   -16.8520     2.5920     3.7170     2.7400
 4074.0000  -999.2500     2.5700     0.1360     8.2060   118.6170   -16.8840     2.4830     3.8290     2.6250
 4074.5000  -999.2500     2.5850     0.1380     8.2090   121.1770   -16.9160     2.4510     3.9410     2.5910
 4075.0000  -999.2500     2.5930     0.1390     8.2120   123.6510   -16.9480     2.4720     3.9650     2.6130
 4075.5000  -999.2500     2.5940     0.1400     8.2150   122.2550   -16.9800     2.5250     3.9650     2.6700
 4076.0000  -999.2500     2.5970     0.1410     8.2180  -999.2500   -17.0120     2.5790     4.0720     2.7260
 4076.5000  -999.2500     2.5940     0.1360     8.2210  -999.2500   -17.0430     2.6390     4.3210     2.7900
 4077.0000  -999.2500     2.5860     0.1310     8.2240  -999.2500   -17.0750     2.7750     4.5690     2.9520
 4077.5000  -999.2500     2.5780     0.1250     8.2280  -999.2500   -17.1070     2.9310     4.8180     3.1400
 4078.0000  -999.2500     2.5710     0.1200     8.2300  -999.2500   -17.1390     3.0880     5.0670     3.3280
 4078.5000  -999.2500     2.5630     0.1140     8.2330  -999.2500   -17.1710     3.2450     5.2600     3.5160
 4079.0000  -999.2500     2.5550     0.1090     8.2380  -999.2500   -17.2030     3.4010     5.3440     3.7040
 4079.5000  -999.2500     2.5510     0.1050     8.2270  -999.2500   -17.2350     3.5580     5.4300     3.8920
 4080.0000  -999.2500     2.5470     0.1080     8.2050  -999.2500   -17.2670     3.7150     7.1660     4.1910
 4080.5000  -999.2500     2.5480     0.1100     8.1840  -999.2500   -17.2990     3.8710     6.9920     4.1750
 4081.0000  -999.2500     2.5520     0.1130     8.1640  -999.2500   -17.3310     4.1140     6.5690     4.1350
 4081.5000  -999.2500     2.5560     0.1160     8.1430  -999.2500   -17.3630     4.0760     6.1470     4.0960
 4082.0000  -999.2500     2.5600     0.1180     8.1230  -999.2500   -17.3950     3.9920     5.7240     4.0570
 4082.5000  -999.2500     2.5650     0.1210     8.1020  -999.2500   -17.4270     3.9080     5.3020     4.0170
 4083.0000  -999.2500     2.5700     0.1240     8.0810  -999.2500   -17.4590     3.8240     4.8790     3.9780
 4083.5000  -999.2500     2.5670     0.1260     8.0610  -999.2500   -17.4910     3.7400     4.4310     3.9390
 4084.0000  -999.2500     2.5620     0.1290     8.0400  -999.2500   -17.5220     3.6560     4.5980     3.8990
 4084.5000  -999.2500     2.5560     0.1320     8.0200  -999.2500   -17.5550     3.5730     4.9330     3.8600
 4085.0000  -999.2500     2.5570     0.1340     7.9980  -999.2500   -17.5880     3.4890     5.2680     3.8210
 4085.5000  -999.2500     2.5660     0.1370     7.9910  -999.2500   -17.5920     3.4050     5.5310     3.8890
 4086.0000  -999.2500     2.5670     0.1400     7.9780  -999.2500   -17.5050  -999.2500     5.0830     3.9570
 4086.5000  -999.2500     2.5610     0.1420     7.9660  -999.2500   -17.4220  -999.2500     4.5400     4.0250
 4087.0000  -999.2500     2.5550     0.1450     7.9540  -999.2500   -17.3360  -999.2500     4.0390     4.0930
 4087.5000  -999.2500     2.5490     0.1420     7.9420  -999.2500   -17.2420  -999.2500     4.2900     4.2500
 4088.0000  -999.2500     2.5430     0.1390     7.9290  -999.2500   -17.2360  -999.2500     4.5220     4.4470
 4088.5000  -999.2500     2.5440     0.1350     7.9170  -999.2500   -17.3160  -999.2500     4.7550     4.6440
 4089.0000  -999.2500     2.5470     0.1320     7.9050  -999.2500   -17.3870  -999.2500     4.9880     4.8410
 4089.5000  -999.2500     2.5520     0.1290     7.8930  -999.2500   -17.4580  -999.2500     5.7390     5.0420
 4090.0000  -999.2500     2.5550     0.1260     7.8810  -999.2500   -17.5310  -999.2500     5.6340  -999.2500
 4090.5000  -999.2500     2.5730     0.1360     7.8690  -999.2500   -17.6030  -999.2500    12.7130  -999.2500
 4091.0000  -999.2500     2.5750     0.1520     7.8560  -999.2500   -17.6750  -999.2500    14.2050  -999.2500
 4091.5000  -999.2500     2.5750     0.1690     7.8440  -999.2500   -17.7470  -999.2500    13.4790  -999.2500
 4092.0000  -999.2500     2.5700     0.1690     7.8350  -999.2500   -17.8190  -999.2500     8.9460  -999.2500
 4092.5000  -999.2500  -999.2500  -999.2500  -999.2500  -999.2500   -17.8910  -999.2500     9.2770  -999.2500
 4093.0000  -999.2500  -999.2500  -999.2500  -999.2500  -999.2500   -17.9640  -999.2500     9.6530  -999.2500
 4093.5000  -999.2500  -999.2500  -999.2500  -999.2500  -999.2500   -18.0360  -999.2500    10.0290  -999.2500
 4094.0000  -999.2500  -999.2500  -999.2500  -999.2500  -999.2500   -18.1080  -999.2500    10.5660  -999.2500
 4094.5000  -999.2500  -999.2500  -999.2500  -999.2500  -999.2500   -18.1800  -999.2500     9.7130  -999.2500
 4095.0000  -999.2500  -999.2500  -999.2500  -999.2500  -999.2500   -18.2520  -999.2500     8.2120  -999.2500
 4095.5000  -999.2500  -999.2500  -999.2500  -999.2500  -999.2500   -18.3230  -999.2500     6.9420  -999.2500
 4096.0000  -999.2500  -999.2500  -999.2500  -999.2500  -999.2500   -18.3970  -999.2500     6.5330  -999.2500
