~VERSION INFORMATION
 VERS.                2.0:   CWLS LOG ASCII STANDARD - VERSION 2.0
 WRAP.                 NO:   ONE LINE PER DEPTH STEP
~WELL INFORMATION
#MNEM.UNIT      DATA TYPE    INFORMATION
#----------   ------------   ------------------------------
 STRT.F            0.5000:   START DEPTH
 STOP.F         4256.0000:   STOP DEPTH
 STEP.F            0.5000:   STEP LENGTH
 NULL.          -999.2500:   NO VALUE
 COMP. LAWRENCE-ALLISON & ASSOC:   COMPANY
 WELL. LAWRENCE "X" #64-15:   WELL
 FLD .        N.P.R. NO.3:   FIELD
 LOC .      S15 T38N R78W:   LOCATION
 CNTY.            NATRONA:   COUNTY
 STAT.            WYOMING:   STATE
 CTRY. UNITED STATES OF AMERICA:   COUNTRY
 SRVC.      DRESSER ATLAS:   SERVICE COMPANY
 DATE.        13-SEP-1984:   LOGDATE
 API .     49025111610000:   API NUMBER
~CURVE INFORMATION
#MNEM.UNIT       API CODE    CURVE DESCRIPTION
#----------   ------------   ------------------------------
 DEPT.F                  :   
 TENR.LBS    07 635 01 00:   TENSION FROM RESISTIVITY
 GRR .GAPI   07 310 01 00:   GAMMA RAY FROM RESISTIVITY
 RFOC.OHMM   07 220 04 00:   RESISTIVITY FOCUSED LOG RES.
 RILD.OHMM   07 120 46 00:   DEEP INDUCTION RESISTIVITY
 RILM.OHMM   07 120 44 00:   INDUCTION LOG MEDIUM RESISTIVITY
 SPR .MV     07 010 01 00:   SPONTANEOUS POTENTIAL
 DT  .US/F   60 520 00 00:   DELTA TIME
 TENS.LBS    60 635 01 00:   TENSION FROM SONIC
 CALD.IN     45 280 60 00:   CALIPER FROM DENSITY LOG
 TEND.LBS    45 635 01 00:   TENSION FORM DENSITY LOG
 CORR.G/C3   45 356 01 00:   DENSITY CORRECTION
 DEN .G/C3   45 350 01 00:   BULK DENSITY
 CNC .DEC    42 890 03 00:   NEUTRON POROSITY SANDSTONE
~PARAMETER INFORMATION
#MNEM.UNIT          VALUE    DESCRIPTION
#----------   ------------   ------------------------------
 EKB .F         5294.0000:   Kelly bushing
 EGL .F         5282.0000:   Ground level
 TD  .F         4256.0000:   Total depth
 CLNT.            A2DTECH:   Client Code
 SL  . 2299' FNL & 1785' FEL:   Surface Location
 PD  .                 GL:   Permanent Datum
 EPD .F              5282:   Elevation Permanent Datum
 LMF .                 KB:   Log Measured From
 DMF .                 KB:   Drilling Measured From
 DAPD.F                12:   Feet Above Permanent Datum
 DATE.        13-SEP-1984:   Date Logged [DD-MMM-YYYY]
 DD  .F              4256:   Depth driller
 DL  .F              4248:   Depth logger
 BLI .F              4246:   Bottom log interval
 TLI .F                 0:   Top log interval
 CS1 .IN            8.625:   Casing size
 CBD1.      8.625" @ 817':   Casing driller 1
 CBL1.F               814:   Casing logger 1
 BS1 .IN            7.875:   Bit size
 BSD1.F              4256:   Depth drilled with bit1
 DFT .            KCL-GEL:   Type fluid in hole
 DFD .                  9:   Density
 DFV .                 40:   Viscosity
 DFPH.                8.6:   pH
 DFL .               11.8:   Fluid loss
 MSS .            MUDTANK:   Source of sample
 RMS .OHMM           0.38:   Rm
 MST .F                74:   Rm Meas. temp.
 RMF .OHMM           0.31:   Rmf
 MFST.F                72:   Rmf Meas. temp.
 MFSS.               MEAS:   Source Rmf.
 RMC .OHMM           0.48:   Rmc
 MCST.F                74:   Rmc Meas. temp.
 MCSS.               CALC:   Source Rmc.
 RMB .OHMM           0.22:   Rm. at BHT
 BHT .F               134:   BHT.
 TCS .HRS               4:   Time Circ. stopped
 MRT .F               134:   Maximum recorded temp.
 LUN .            HL-6274:   Logging unit number
 LUL .           GILLETTE:   Logging unit location
 ENGI.             RAUTIO:   Recorded By
 WITN.            JOHNSON:   Witnessed by
 ORIG.        2" 5" PRINT:   Origin of data
 UWI .     49025111610000:   Unique Well ID
 DICO. A2D TECHNOLOGIES, INC.:   Digitizing Company
~OTHER INFORMATION
~A    DEPT    TENR         GRR      RFOC       RILD       RILM        SPR         DT       TENS       CALD       TEND       CORR        DEN        CNC   
# ...
 3302.5000   -40.7930   123.3885     3.6193     2.6962     2.8347   -45.0007    90.3166   -45.8167     8.8078   -27.6039     0.0578     2.4832     0.2751
 3303.0000   -38.7439   120.5192     3.7171     2.6716     2.8222   -45.4452    90.4702   -35.8566     8.8056   -25.8964     0.0593     2.4757     0.2736
 3303.5000   -36.6947   125.9468     3.6407     2.6471     2.7906   -46.1923    90.3978   -45.8167     8.8033   -25.8964     0.0533     2.4705     0.2658
 3304.0000   -34.6456   127.4572     3.4925     2.6273     2.7206   -46.7888    90.1741   -45.8167     8.8011   -39.6699     0.0487     2.4697     0.2537
 3304.5000   -48.9675   125.0549     3.3503     2.6111     2.6647   -46.7829    90.1778   -45.8167     8.7988   -53.8418     0.0493     2.4774     0.2477
 3305.0000   -56.6101   123.8545     3.3272     2.5931     2.6464   -46.6265    90.4820   -45.9436     8.7966   -55.7769     0.0609     2.4864     0.2465
 3305.5000   -71.7490   126.2715     3.3971     2.5752     2.6283   -46.4605    90.7861   -45.3093     8.7943   -55.7769     0.0685     2.4910     0.2480
 3306.0000   -71.8954   128.6870     3.4684     2.5397     2.6103   -46.3133    90.7892   -56.5069     8.7921   -53.6853     0.0700     2.4880     0.2628
 3306.5000   -72.0418   129.8977     3.4721     2.5222     2.5924   -46.0049    90.4915   -45.3093     8.7900   -45.8167     0.0579     2.4760     0.2671
 3307.0000   -72.1889   127.4880     3.2810     2.4875     2.5926   -46.1511    90.1925   -45.9436     8.7887   -35.8566     0.0549     2.4730     0.2647
 3307.5000   -72.3388   125.3566     3.1672     2.4533     2.5748   -46.2958    90.0448   -45.8213     8.7859   -45.8167     0.0640     2.4760     0.2608
 3308.0000   -64.9847   127.5072     3.1698     2.4364     2.5544   -46.4406    90.1991   -45.8167     8.7831   -45.8167     0.0859     2.4866     0.2635
 3308.5000   -57.6348   131.1275     3.2588     2.4029     2.5221   -46.5853    91.1057   -45.8167     8.7804   -45.8167     0.1123     2.4981     0.2672
 3309.0000   -50.2850   134.1454     3.3272     2.3851     2.5049   -46.7300    92.9159   -45.8167     8.7776   -35.8566     0.1078     2.4988     0.2707
 3309.5000   -42.9351   134.7523     3.3043     2.3535     2.4877   -46.7227    93.2953   -45.8167     8.7749   -35.7306     0.0490     2.4905     0.2713
 3310.0000   -43.1181   133.8545     3.2363     2.3535     2.4707   -46.5662    92.7711   -45.8167     8.7713   -32.4211     0.0363     2.4853     0.2680
 3310.5000   -50.7607   134.4643     3.1262     2.3698     2.5229   -46.7109    90.9985   -45.8167     8.7673   -27.0286     0.0349     2.4868     0.2545
 3311.0000   -50.9071   135.3738     3.0619     2.3863     2.5761   -46.7048    90.4629   -45.8167     8.8087   -35.9733     0.0490     2.4959     0.2512
 3311.5000   -51.0535   133.8737     3.0198     2.4029     2.6858   -46.6977    90.8578   -45.8167     8.8097   -25.2569     0.0652     2.5065     0.2602
 3312.0000   -51.1999   129.3615     3.1479     2.4533     2.8002   -46.2400    91.7658   -45.8167     8.8101   -37.6468     0.0788     2.5119     0.2666
 3312.5000   -51.3493   124.4472     3.2588     2.5397     2.9603   -46.0835    92.2220   -45.8167     8.8100   -44.3939     0.0910     2.5089     0.2612
 3313.0000   -51.4993   119.6265     3.2815     2.6475     3.1316   -45.7764    92.3770   -45.8167     8.8100   -55.7769     0.1001     2.5081     0.2359
 3313.5000   -51.6756   120.9468     3.3503     2.7598     3.2856   -45.4693    92.2297   -45.8167     8.8100   -65.7371     0.0865     2.5157     0.2299
 3314.0000   -59.3183   121.5537     3.8480     2.8993     3.4494   -45.0116    91.9340   -45.8147     8.8100   -63.0620     0.0715     2.5248     0.2284
 3314.5000   -59.4647   119.7538     4.5125     3.0678     3.6214   -44.7045    91.4866   -45.8098     8.8101   -48.8902     0.0610     2.5279     0.2288
 3315.0000   -67.1073   119.1558     4.9375     3.3272     3.8551   -44.3974    90.6627   -45.8252     8.8007   -35.8566     0.0535     2.5091     0.2384
 3315.5000   -74.7133   124.8860     5.1470     3.5906     3.9915   -44.2410    89.9550   -47.4341     8.7866   -35.8566     0.0641     2.4555     0.2414
 3316.0000   -67.3635   147.7835     4.6714     3.8215     4.1042   -44.0843    85.1756   -50.0839     8.7724   -28.7517     0.1231     2.4050     0.2426
 3316.5000   -60.0450   158.9339     4.0113     4.0955     4.2494   -44.0771    81.5655   -52.7155     8.7581   -45.8167     0.1209     2.3997     0.2300
 3317.0000   -60.1966   159.8434     3.8748     4.3589     4.6188   -44.0712    80.6652   -55.3470     8.7437   -55.7769     0.0910     2.4526     0.2089
 3317.5000   -60.3448   150.0452     4.2989     4.5438     5.0203   -44.2160    82.1767   -45.8167     8.7307   -55.7769     0.0795     2.5342     0.2005
 3318.0000   -60.4948   132.7608     4.5627     4.7695     5.2715   -44.6619    85.1932   -42.1315     8.7292   -55.7769     0.0750     2.5583     0.1993
 3318.5000   -60.6724   116.1879     5.2551     5.1828     5.4239   -45.1078    85.9506   -35.8566     8.7726   -55.7769     0.0705     2.5674     0.1987
 3319.0000   -60.8188   112.8805     5.5930     5.5167     5.6112   -45.5552    84.7502   -36.0068     8.7702   -56.3444     0.0676     2.5720     0.1951
 3319.5000   -60.9651   110.1755     5.8303     5.7901     5.8909   -45.8491    82.7214   -35.3309     8.7693   -45.0156     0.0676     2.5735     0.1927
 3320.0000   -61.1115   107.7718     5.9941     5.9116     6.0572   -45.9940    80.2210   -41.5222     8.7684   -36.2116     0.0692     2.5626     0.1927
 3320.5000   -61.2579   106.8726     6.1624     5.9527     6.0576   -45.9879    78.2743   -35.8566     8.7674   -35.8566     0.0708     2.5495     0.1943
 3321.0000   -61.3943   109.8920     6.1624     5.9941     6.0161   -45.6807    77.8411   -35.8566     8.7665   -45.8167     0.0723     2.5435     0.1928
 3321.5000   -61.5507   106.8858     6.0357     5.9527     5.9335   -45.5006    77.3937   -45.8167     8.7655   -45.8167     0.0618     2.5360     0.1922
 3322.0000   -54.1979   100.8676     5.8708     5.9116     5.8929   -45.0652    77.3981   -46.0317     8.7645   -41.2066     0.0483     2.5236     0.1955
 3322.5000   -54.3478    99.6686     5.7901     5.7901     5.8525   -44.9096    77.5531   -45.8320     8.7635   -25.8964     0.0345     2.5119     0.1958
 3323.0000   -54.4978   105.8361     5.7456     5.7901     5.8937   -44.9028    78.0093   -45.8167     8.7625   -15.9363     0.0253     2.5104     0.1946
 3323.5000   -54.6766   110.5253     5.7104     5.8708     5.8963   -44.8969    78.6161   -45.8167     8.7616    -5.9761     0.0198     2.5105     0.1874
 3324.0000   -54.8229   112.6396     5.7104     5.9116     5.9891   -44.8910    78.6997   -45.8167     8.7606   -17.7291     0.0380     2.5138     0.1790
 3324.5000   -54.9694   113.8503     5.8708     5.9556     6.4517   -44.8852    76.1804   -45.8167     8.7596   -35.8566     0.0547     2.5302     0.1745
 3325.0000   -55.1158   116.5670     6.3355     6.0847     6.8205   -44.8793    72.8663   -45.8167     8.7586   -35.9191     0.0487     2.5453     0.1706
 3325.5000   -62.7584   119.2837     7.4810     6.1624     7.0130   -45.0240    67.6409   -45.8167     8.7576   -35.8745     0.0442     2.5514     0.1688
 3326.0000   -62.9048   116.8800     8.2427     6.1199     6.8214   -45.1687    66.7405   -49.2951     8.7567   -35.8410     0.0428     2.5529     0.1700
 3326.5000   -63.0512   114.1750     8.4157     5.9941     6.4088   -45.4640    67.8756   -53.1413     8.7557   -35.8566     0.0775     2.5484     0.1808
 3327.0000   -63.1975   117.1929     6.4685     5.7501     5.8970   -45.6088    70.8167   -55.7769     8.7547   -35.8566     0.0897     2.5439     0.2016
 3327.5000   -63.3439   119.9097     5.7104     5.4780     5.6177   -45.6014    72.8542   -55.7769     8.7537   -45.8167     0.0762     2.5409     0.2200
 3328.0000   -63.4933   116.5542     5.2159     5.2551     5.2779   -45.4449    74.4399   -61.3878     8.7528   -45.8376     0.0672     2.5318     0.2227
