~VERSION INFORMATION
 VERS.                2.0:   CWLS LOG ASCII STANDARD - VERSION 2.0
 WRAP.                 NO:   ONE LINE PER DEPTH STEP
~WELL INFORMATION
#MNEM.UNIT      DATA TYPE    INFORMATION
#----------   ------------   ------------------------------
 STRT.F            0.0000:   START DEPTH
 STOP.F         4044.0000:   STOP DEPTH
 STEP.F            0.5000:   STEP LENGTH
 NULL.          -999.2500:   NO VALUE
 COMP. LAWRENCE-ALLISON & ASSOC.:   COMPANY
 WELL. LAWRENCE "X" #24-34:   WELL
 FLD .           N P R #3:   FIELD
 LOC .      S34 T39N R78W:   LOCATION
 CNTY.            NATRONA:   COUNTY
 STAT.            WYOMING:   STATE
 CTRY. UNITED STATES OF AMERICA:   COUNTRY
 SRVC.      DRESSER ATLAS:   SERVICE COMPANY
 DATE.        29-MAR-1984:   LOGDATE
 API .     49025109660000:   API NUMBER
~CURVE INFORMATION
#MNEM.UNIT       API CODE    CURVE DESCRIPTION
#----------   ------------   ------------------------------
 DEPT.F                  :   
 DT  .US/F   60 520 00 00:   DELTA TIME
 TENS.LBS    60 635 01 00:   TENSION FROM SONIC
 GRR .GAPI   07 310 01 00:   GAMMA RAY FROM RESISTIVITY
 SPR .MV     07 010 01 00:   SPONTANEOUS POTENTIAL
 CALR.IN     07 280 01 00:   CALIPER FROM RESISTIVITY
 TENR.LBS    07 635 01 00:   TENSION FROM RESISTIVITY
 RSFL.OHMM   07 221 01 00:   AMPPLIFIED SHALLOW FOCUSED LOG RESISTIVITY
 RILD.OHMM   07 120 46 00:   DEEP INDUCTION RESISTIVITY
 RILM.OHMM   07 120 44 00:   INDUCTION LOG MEDIUM RESISTIVITY
 RHOB.G/C3   45 350 01 00:   BULK DENSITY
 DRHO.G/C3   45 356 01 00:   DENSITY CORRECTION
 TEND.LBS    45 635 01 00:   TENSION FROM DENSITY LOG
 NPHI.DEC    42 890 03 00:   NEUTRON POROSITY SANDSTONE
~PARAMETER INFORMATION
#MNEM.UNIT          VALUE    DESCRIPTION
#----------   ------------   ------------------------------
 EKB .F         5101.0000:   Kelly bushing
 EGL .F         5089.0000:   Ground level
 EDF .F         5100.0000:   Drilling floor
 TD  .F         4050.0000:   Total depth
 DATE.        29-MAR-1984:   Date logged
 CLNT.            A2DTECH:   Client Code
 SL  . 2415' FNL & 839' FWL:   Surface Location
 PD  .                 GL:   Permanent Datum
 EPD .F              5089:   Elevation Permanent Datum
 LMF .                 KB:   Log Measured From
 DMF .                 KB:   Drilling Measured From
 DD  .F              4050:   Depth driller
 DL  .F              4043:   Depth logger
 BLI .F              4041:   Bottom log interval
 CS1 .IN            8.625:   Casing size
 CBD1.       8.625 @ 673':   Casing driller 1
 CBL1.F               671:   Casing logger 1
 BS1 .IN            7.875:   Bit size
 DFT .            GEL-KCL:   Type fluid in hole
 DFD .                8.9:   Density
 DFV .                 45:   Viscosity
 DFPH.                  8:   pH
 DFL .               12.8:   Fluid loss
 MSS .           MUD TANK:   Source of sample
 RMS .OHMM           0.46:   Rm
 MST .F                71:   Rm Meas. temp.
 RMF .OHMM           0.31:   Rmf
 MFST.F                71:   Rmf Meas. temp.
 RMC .OHMM           0.55:   Rmc
 MCST.F                71:   Rmc Meas. temp.
 MFSS.               MEAS:   Source Rmf.
 RMB .OHMM           0.25:   Rm. at BHT
 BHT .F               139:   BHT.
 TCS .HRS               4:   Time Circ. stopped
 MRT .F               139:   Maximum recorded temp.
 LUN .               6302:   Logging unit number
 LUL .               CODY:   Logging unit location
 ENGI.              GETTY:   Recorded By
 WITN.           JENNINGS:   Witnessed by
 ORIG.           5" PRINT:   Origin of data
 UWI .     49025109660000:   Unique Well ID
 DICO. A2D TECHNOLOGIES, INC.:   Digitizing Company
 DAPD.                 12:   Feet Above Permanent Datum
 BSD1.               4050:   Depth drilled with bit1
 MCSS.               MEAS:   Source Rmc.
~OTHER INFORMATION
~A  DEPTH       DT       TENS        GRR        SPR       CALR       TENR       RSFL       RILD       RILM       RHOB       DRHO       TEND       NPHI
# ...
 1118.0000  -999.2500  -999.2500    92.8530   -12.3530    10.6890  -204.4070     6.9810     7.0180     6.4140  -999.2500  -999.2500  -999.2500  -999.2500
 1118.5000  -999.2500  -999.2500    92.5660   -12.4850    10.7140  -204.4070     6.9300     6.8850     6.3050  -999.2500  -999.2500  -999.2500  -999.2500
 1119.0000  -999.2500  -999.2500    92.7450   -12.6150    10.7390  -204.4070     6.8790     6.7970     6.2540  -999.2500  -999.2500  -999.2500  -999.2500
 1119.5000  -999.2500  -999.2500    96.1400   -12.7460    10.7650  -204.4070     6.8270     6.7330     6.2010  -999.2500  -999.2500  -999.2500  -999.2500
 1120.0000  -999.2500  -999.2500    99.6190   -12.8770    10.7900  -204.4070     6.7760     6.6700     6.1480  -999.2500  -999.2500  -999.2500  -999.2500
 1120.5000  -999.2500  -999.2500    99.4020   -13.0080    10.8150  -204.1730     6.7240     6.6060     6.0950  -999.2500  -999.2500  -999.2500  -999.2500
 1121.0000  -999.2500  -999.2500    98.9010   -13.1390    10.8400  -202.1860     6.6730     6.5420     6.0420  -999.2500  -999.2500  -999.2500  -999.2500
 1121.5000  -999.2500  -999.2500    98.4190   -13.2740    10.8650  -200.1990     6.5990     6.4780     5.9890  -999.2500  -999.2500  -999.2500  -999.2500
 1122.0000  -999.2500  -999.2500    97.9480   -13.2730    10.8900  -198.2110     6.5050     6.4140     5.9450  -999.2500  -999.2500  -999.2500  -999.2500
 1122.5000  -999.2500  -999.2500    97.4930   -13.2380    10.9160  -196.2240     6.4120     6.3500     5.9730  -999.2500  -999.2500  -999.2500  -999.2500
 1123.0000  -999.2500  -999.2500    96.8590   -13.2030    10.9410  -194.2760     6.3190     6.2880     6.0020  -999.2500  -999.2500  -999.2500  -999.2500
 1123.5000  -999.2500  -999.2500    92.6300   -13.1680    10.9670  -196.5660     6.2290     6.3490     6.0310  -999.2500  -999.2500  -999.2500  -999.2500
 1124.0000  -999.2500  -999.2500    88.7130   -13.1320    10.9450  -198.8130     6.2990     6.4100     6.0570  -999.2500  -999.2500  -999.2500  -999.2500
 1124.5000  -999.2500  -999.2500    89.7530   -13.1010    10.9080  -201.0590     6.3810     6.4700     6.1070  -999.2500  -999.2500  -999.2500  -999.2500
 1125.0000  -999.2500  -999.2500    90.9390   -13.0770    10.8700  -203.3060     6.4630     6.5300     6.1540  -999.2500  -999.2500  -999.2500  -999.2500
 1125.5000  -999.2500  -999.2500    91.6220   -13.0510    10.8320  -205.6050     6.5450     6.5910     6.2010  -999.2500  -999.2500  -999.2500  -999.2500
 1126.0000  -999.2500  -999.2500    92.3040   -13.0250    10.7950  -207.9530     6.6270     6.6510     6.2480  -999.2500  -999.2500  -999.2500  -999.2500
 1126.5000  -999.2500  -999.2500    92.9570   -12.9980    10.7780  -210.3020     6.7120     6.7110     6.2880  -999.2500  -999.2500  -999.2500  -999.2500
 1127.0000  -999.2500  -999.2500    92.1490   -12.9720    10.8050  -212.6510     6.7530     6.7710     6.2820  -999.2500  -999.2500  -999.2500  -999.2500
 1127.5000  -999.2500  -999.2500    91.2290   -12.9460    10.8300  -215.0000     6.7750     6.8320     6.2760  -999.2500  -999.2500  -999.2500  -999.2500
 1128.0000  -999.2500  -999.2500    90.3340   -12.9200    10.8560  -217.3480     6.9030     6.8920     6.2710  -999.2500  -999.2500  -999.2500  -999.2500
 1128.5000  -999.2500  -999.2500    92.1370   -12.8720    10.8810  -219.6970     6.7410     6.9450     6.2660  -999.2500  -999.2500  -999.2500  -999.2500
 1129.0000  -999.2500  -999.2500    99.6250   -12.7320    10.9070  -222.0460     6.5450     7.0110     6.2600  -999.2500  -999.2500  -999.2500  -999.2500
 1129.5000  -999.2500  -999.2500   101.0970   -12.5960    10.9320  -224.3940     6.3490     7.0780     6.2550  -999.2500  -999.2500  -999.2500  -999.2500
 1130.0000  -999.2500  -999.2500    98.1250   -12.4600    10.9520  -226.7430     6.2880     7.0990     6.2500  -999.2500  -999.2500  -999.2500  -999.2500
 1130.5000  -999.2500  -999.2500    94.7610   -12.3240    10.9560  -229.0920     6.7120     6.9480     6.2440  -999.2500  -999.2500  -999.2500  -999.2500
 1131.0000  -999.2500  -999.2500    93.7250   -12.1900    10.9610  -231.4410     6.6910     6.8480     6.2390  -999.2500  -999.2500  -999.2500  -999.2500
 1131.5000  -999.2500  -999.2500    92.8230   -12.1500    10.9660  -233.7890     6.6690     6.7470     6.2340  -999.2500  -999.2500  -999.2500  -999.2500
 1132.0000  -999.2500  -999.2500    91.0470   -12.3010    10.9710  -232.3540     6.6180     6.6460     6.2200  -999.2500  -999.2500  -999.2500  -999.2500
 1132.5000  -999.2500  -999.2500    89.4260   -12.4500    10.9760  -228.0480     6.4400     6.5450     6.1670  -999.2500  -999.2500  -999.2500  -999.2500
 1133.0000  -999.2500  -999.2500    88.5020   -12.5990    10.9810  -223.7420     6.2290     6.4440     6.1130  -999.2500  -999.2500  -999.2500  -999.2500
 1133.5000  -999.2500  -999.2500    87.8680   -12.7480    10.9850  -219.4360     6.2920     6.3430     6.0600  -999.2500  -999.2500  -999.2500  -999.2500
 1134.0000  -999.2500  -999.2500    88.9550   -12.8960    10.9900  -215.1300     6.3470     6.2880     6.0070  -999.2500  -999.2500  -999.2500  -999.2500
 1134.5000  -999.2500  -999.2500    92.4630   -13.0450    10.9950  -210.8240     6.3300     6.3540     5.9530  -999.2500  -999.2500  -999.2500  -999.2500
 1135.0000  -999.2500  -999.2500    95.8710   -13.1940    11.0000  -206.5180     6.3160     6.3990     5.9000  -999.2500  -999.2500  -999.2500  -999.2500
 1135.5000  -999.2500  -999.2500    99.4190   -13.3440    11.0050  -204.4480     6.3020     6.4660     5.8470  -999.2500  -999.2500  -999.2500  -999.2500
 1136.0000  -999.2500  -999.2500    99.3820   -13.4940    11.0090  -204.5770     6.2890     6.4430     5.7930  -999.2500  -999.2500  -999.2500  -999.2500
 1136.5000  -999.2500  -999.2500    98.2050   -13.5350    11.0380  -204.7060     6.2750     6.3980     5.7400  -999.2500  -999.2500  -999.2500  -999.2500
 1137.0000  -999.2500  -999.2500    95.3060   -13.5710    11.0760  -204.8350     6.2620     6.3530     5.7050  -999.2500  -999.2500  -999.2500  -999.2500
 1137.5000  -999.2500  -999.2500    89.3640   -13.6070    11.1140  -204.9640     6.2480     6.3080     5.6750  -999.2500  -999.2500  -999.2500  -999.2500
 1138.0000  -999.2500  -999.2500    87.1080   -13.6430    11.1520  -205.0930     6.2340     6.2640     5.6460  -999.2500  -999.2500  -999.2500  -999.2500
 1138.5000  -999.2500  -999.2500    89.0440   -13.6800    11.1890  -205.2220     6.1860     6.2190     5.6160  -999.2500  -999.2500  -999.2500  -999.2500
 1139.0000  -999.2500  -999.2500    91.1140   -13.7220    11.2100  -205.3510     6.1170     6.1740     5.5870  -999.2500  -999.2500  -999.2500  -999.2500
 1139.5000  -999.2500  -999.2500    93.1600   -13.8230    11.2100  -205.4800     6.0480     6.1290     5.5570  -999.2500  -999.2500  -999.2500  -999.2500
 1140.0000  -999.2500  -999.2500    95.2020   -13.9210    11.2100  -205.6090     5.9780     6.0850     5.5270  -999.2500  -999.2500  -999.2500  -999.2500
 1140.5000  -999.2500  -999.2500    97.3160   -14.0190    11.2100  -205.7380     5.9090     6.0400     5.4980  -999.2500  -999.2500  -999.2500  -999.2500
 1141.0000  -999.2500  -999.2500    98.0330   -14.1170    11.2100  -205.8670     5.8900     5.9450     5.4660  -999.2500  -999.2500  -999.2500  -999.2500
 1141.5000  -999.2500  -999.2500    98.3500   -14.2150    11.2100  -205.9960     5.9240     5.9750     5.4840  -999.2500  -999.2500  -999.2500  -999.2500
 1142.0000  -999.2500  -999.2500    98.2020   -14.3130    11.2100  -206.1250     5.9490     6.0070     5.5020  -999.2500  -999.2500  -999.2500  -999.2500
 1142.5000  -999.2500  -999.2500    95.7260   -14.4120    11.2100  -206.2540     5.9750     6.0380     5.5210  -999.2500  -999.2500  -999.2500  -999.2500
 1143.0000  -999.2500  -999.2500    94.0790   -14.5100    11.2100  -206.3830     6.0000     6.0700     5.5390  -999.2500  -999.2500  -999.2500  -999.2500
 1143.5000  -999.2500  -999.2500    95.8700   -14.6090    11.2100  -206.5130     6.0250     6.1010     5.5570  -999.2500  -999.2500  -999.2500  -999.2500
