~VERSION INFORMATION
 VERS.                2.0:   CWLS LOG ASCII STANDARD - VERSION 2.0
 WRAP.                 NO:   ONE LINE PER DEPTH STEP
~WELL INFORMATION
#MNEM.UNIT      DATA TYPE    INFORMATION
#----------   ------------   ------------------------------
 STRT.F          502.0000:   START DEPTH
 STOP.F         3068.0000:   STOP DEPTH
 STEP.F            0.5000:   STEP LENGTH
 NULL.          -999.2500:   NO VALUE
 COMP. LAWRENCE ALLISON AND ASSOCIATES:   COMPANY
 WELL. LAWRENCE NPR TX #85-33:   WELL
 FLD .              N P R:   FIELD
 LOC .      S33 T39N R78W:   LOCATION
 CNTY.            NATRONA:   COUNTY
 STAT.            WYOMING:   STATE
 CTRY. UNITED STATES OF AMERICA:   COUNTRY
 SRVC.       SCHLUMBERGER:   SERVICE COMPANY
 DATE.        20-JUN-1982:   LOGDATE
 API .     49025107990001:   API NUMBER
~CURVE INFORMATION
#MNEM.UNIT       API CODE    CURVE DESCRIPTION
#----------   ------------   ------------------------------
 DEPT.F                  :   
 RHOB.G/C3   45 350 01 00:   BULK DENSITY
 GRD .GAPI   45 310 01 00:   GAMMA RAY FROM DENSITY LOG
 CALD.IN     45 280 60 00:   CALIPER FROM DENSITY LOG
 CORR.G/C3   45 356 01 00:   DENSITY CORRECTION
 TEND.LBS    45 635 01 00:   TENSION FROM DENSITY LOG
 NPHI.DEC    42 890 03 00:   NEUTRON POROSITY SANDSTONE
 TENR.LBS    07 635 01 00:   TENSION FROM RESISTIVITY
 SPR .MV     07 010 01 00:   SPONTANEOUS POTENTIAL
 ILD .OHMM   07 120 46 00:   DEEP INDUCTION RESISTIVITY
 ILM .OHMM   07 120 44 00:   INDUCTION LOG MEDIUM RESISTIVITY
 SFL .OHMM   07 220 01 00:   SHALLOW FOCUSED LOG RESISTIVITY
~PARAMETER INFORMATION
#MNEM.UNIT          VALUE    DESCRIPTION
#----------   ------------   ------------------------------
 EKB .F         5123.0000:   Kelly bushing
 EGL .F         5113.0000:   Ground level
 EDF .F         5122.0000:   Drilling floor
 EPD .F         5113.0000:   Permanent datum
 TD  .F         3100.0000:   Total depth
 DATE.        20-JUN-1982:   Date logged
 CLNT.            A2DTECH:   Client Code
 SL  . 2263' FSL & 293' FEL:   Surface Location
 PD  .                 GL:   Permanent Datum
 DD  .F              3100:   Depth driller
 DL  .F              3056:   Depth logger
 BLI .F              3050:   Bottom log interval
 CS1 .IN            9.625:   Casing size
 CBD1.      9.625" @ 524':   Casing driller 1
 CBL1.F               520:   Casing logger 1
 BS1 .IN            7.875:   Bit size
 DFT .           POLY/KCL:   Type fluid in hole
 DFD .                8.4:   Density
 DFV .                 40:   Viscosity
 DFPH.                7.6:   pH
 DFL .                 10:   Fluid loss
 MSS .               TANK:   Source of sample
 RMS .OHMM            .92:   Rm
 MST .F                66:   Rm Meas. temp.
 RMF .OHMM           .603:   Rmf
 MFST.F                68:   Rmf Meas. temp.
 MFSS.               MEAS:   Source Rmf.
 RMB .OHMM           .515:   Rm. at BHT
 BHT .F               118:   BHT.
 TCS .HRS             815:   Time Circ. stopped
 MRT .F               118:   Maximum recorded temp.
 LUN .               8035:   Logging unit number
 LUL .               CSPR:   Logging unit location
 ENGI.              PENNY:   Recorded By
 WITN.           JENNINGS:   Witnessed by
 ORIG.           5" PRINT:   Origin of data
 UWI .     49025107990001:   Unique Well ID
 DICO. A2D TECHNOLOGIES, INC.:   Digitizing Company
 DAPD.                 10:   Feet Above Permanent Datum
 BSD1.               3100:   Depth drilled with bit1
 TLI .                520:   Top log interval
 TLAB.               1100:   Time logger at bottom
~OTHER INFORMATION
~A   DEPT     RHOB         GRD      CALD       CORR       TEND       NPHI       TENR        SPR        ILD        ILM        SFL   
# ...
 1356.0000     2.5210   108.3700     9.6420     0.0240  1047.7960     0.3000  1351.2880   -20.3460     7.6820     7.3190     8.4700
 1356.5000     2.5140   110.3810     9.6500     0.0220  1048.8350     0.3030  1355.2629   -20.8030     7.6410     7.3080     8.4360
 1357.0000     2.5110   109.8180     9.6500     0.0200  1049.8740     0.3100  1359.2380   -21.2250     7.6190     7.2970     8.3130
 1357.5000     2.5070   108.1580     9.6500     0.0180  1050.9130     0.3100  1363.2130   -21.2350     7.6070     7.2850     8.1920
 1358.0000     2.5020   108.7200     9.6500     0.0150  1051.9520     0.3060  1367.1880   -21.2010     7.5960     7.2840     8.0720
 1358.5000     2.4950   109.9800     9.6500     0.0100  1052.9910     0.3060  1371.1630   -21.0620     7.5850     7.2840     7.9840
 1359.0000     2.4910   109.3480     9.6500     0.0050  1054.0300     0.3080  1375.1379   -20.9250     7.5730     7.2840     8.1270
 1359.5000     2.4940   108.4000     9.6500     0.0040  1055.0690     0.3060  1379.1130   -20.7890     7.5560     7.2840     8.2730
 1360.0000     2.5040   106.7880     9.6530     0.0100  1056.1080     0.2990  1383.0880   -20.6530     7.5810     7.2840     8.4190
 1360.5000     2.5130   106.2500     9.7150     0.0160  1057.1470     0.2940  1384.8120   -20.5160     7.6260     7.2840     8.5650
 1361.0000     2.5180   106.4810     9.7640     0.0170  1058.1860     0.3060  1381.4561   -20.4500     7.5870     7.2840     8.7110
 1361.5000     2.5210   106.6690     9.8160     0.0160  1059.2250     0.3140  1378.0990   -20.4700     7.5440     7.2830     8.7520
 1362.0000     2.5260   105.2890     9.8690     0.0160  1060.2640     0.3220  1374.7419   -20.6210     7.5010     7.2850     8.4570
 1362.5000     2.5300   105.2480     9.9220     0.0310  1061.3030     0.3300  1371.3860   -20.7740     7.4580     7.2220     8.2030
 1363.0000     2.5250   106.8540     9.9030     0.0350  1058.5699     0.3170  1368.0291   -20.9260     7.4150     7.1770     7.9490
 1363.5000     2.5190   107.6310     9.9050     0.0390  1053.7120     0.3130  1364.6730   -21.0790     7.3720     7.1310     7.8390
 1364.0000     2.5210   105.6880     9.9020     0.0430  1048.8540     0.3180  1361.3160   -21.2290     7.3290     7.0850     7.7670
 1364.5000     2.5240   104.9640     9.8050     0.0450  1043.9960     0.3250  1357.9590   -21.2460     7.2860     7.0390     7.9840
 1365.0000     2.5180   108.0370     9.7040     0.0390  1039.1390     0.3290  1354.6030   -21.2580     7.2430     7.0210     7.9580
 1365.5000     2.4990   111.6150     9.6700     0.0240  1034.2810     0.3110  1351.2460   -21.2700     7.2100     7.0210     7.9150
 1366.0000     2.4810   113.4750     9.6690     0.0100  1029.4230     0.3070  1347.8900   -21.2830     7.1920     7.0210     7.8720
 1366.5000     2.4780   112.6170     9.6690     0.0030  1024.5649     0.3150  1345.9620   -21.2950     7.1750     7.0210     7.8390
 1367.0000     2.4910   109.2570     9.6430     0.0040  1019.7070     0.3230  1345.9620   -21.3080     7.1530     7.0640     7.8730
 1367.5000     2.5060   105.8710     9.6050     0.0090  1014.8490     0.3260  1345.9620   -21.3200     7.2600     7.1620     7.9110
 1368.0000     2.5210   105.2910     9.5660     0.0140  1009.9910     0.3170  1345.9620   -21.3330     7.4190     7.2600     8.1480
 1368.5000     2.5140   106.1420     9.5310     0.0190  1005.1330     0.3120  1345.9620   -21.3450     7.4190     7.3510     8.3740
 1369.0000     2.4990   107.7000     9.5110     0.0190  1001.9840     0.3090  1345.9620   -21.3580     7.4190     7.3180     8.6000
 1369.5000     2.4850   109.2580     9.5130     0.0130  1001.3650     0.3020  1345.9620   -21.3700     7.4190     7.2810     8.7520
 1370.0000     2.4870   109.9510     9.5210     0.0140  1000.2620     0.3010  1345.9620   -21.3830     7.4190     7.2440     8.6800
 1370.5000     2.4990   109.9230     9.5600     0.0300   999.1580     0.3070  1345.9620   -21.3950     7.4190     7.2070     8.4390
 1371.0000     2.5040   109.9640     9.5990     0.0330   998.0550     0.3120  1345.9620   -21.4080     7.4190     7.1700     8.1970
 1371.5000     2.4990   111.6580     9.6370     0.0320   996.9520     0.3180  1345.9620   -21.4190     7.4190     7.1320     7.9560
 1372.0000     2.5090   113.7310     9.6760     0.0350   995.8490     0.3210  1345.9620   -21.3930     7.4190     7.0950     7.7140
 1372.5000     2.5260   113.3540     9.7150     0.0430   994.7450     0.3240  1345.9620   -21.2700     7.3730     7.0740     7.5560
 1373.0000     2.5360   109.7750     9.7540     0.0510   993.6420     0.3280  1345.9620   -21.1510     7.3250     7.0420     7.5830
 1373.5000     2.5320   106.1860     9.7870     0.0480   992.5390     0.3300  1345.9620   -21.0290     7.2770     7.0090     7.7490
 1374.0000     2.5260   102.8380     9.7870     0.0400   991.4360     0.3270  1345.9620   -20.9140     7.2280     6.9760     7.9160
 1374.5000     2.5260   102.9720     9.7750     0.0320   990.3320     0.3180  1345.9620   -20.6250     7.1800     6.9430     8.0830
 1375.0000     2.5290   104.5000     9.7630     0.0250   989.2290     0.3180  1345.9620   -20.7000     7.1320     6.9100     8.2830
 1375.5000     2.5280   106.6650     9.7510     0.0200   988.1260     0.3210  1345.9620   -21.0000     7.0840     6.8780     8.2160
 1376.0000     2.5210   108.7040     9.7390     0.0140   987.0230     0.3210  1345.9620   -21.2400     7.0360     6.8450     8.0510
 1376.5000     2.5130   107.9150     9.7280     0.0110   985.9190     0.3170  1345.9620   -21.2330     6.9870     6.8120     7.8870
 1377.0000     2.5070   106.0760     9.7280     0.0110   984.8160     0.3140  1345.9620   -21.2330     6.9390     6.7790     7.7220
 1377.5000     2.5110   105.8340     9.7310     0.0270   983.7130     0.2980  1345.9620   -21.2330     6.8930     6.7330     7.6960
 1378.0000     2.5210   107.9050     9.7330     0.0420   982.6090     0.2950  1345.9620   -21.2330     6.9080     6.5920     7.6220
 1378.5000     2.5240   109.0500     9.7360     0.0430   983.1640     0.2940  1345.9620   -21.2330     6.9260     6.4050     7.5340
 1379.0000     2.5210   109.0050     9.7380     0.0450   984.9330     0.2990  1345.9620   -21.2330     6.9440     6.4720     7.4460
 1379.5000     2.5220   106.3650     9.7400     0.0490   986.7020     0.3050  1345.9620   -21.2370     6.9690     6.5720     7.4190
 1380.0000     2.5140   103.4530     9.7430     0.0460   988.4720     0.3120  1345.9620   -21.2560     7.0100     6.6720     7.5600
 1380.5000     2.5020   102.9410     9.7450     0.0300   990.2410     0.3180  1345.9620   -21.2730     7.0510     6.7720     7.7640
 1381.0000     2.4980   104.6640     9.7470     0.0210   992.0100     0.3250  1345.9620   -21.2910     7.0920     6.8720     7.9840
 1381.5000     2.5030   106.3850     9.7500     0.0200   993.7800     0.3320  1345.9620   -21.3090     7.1340     6.9720     8.0080
 1382.0000     2.5000   105.3100     9.6860     0.0200   995.5490     0.3320  1345.9620   -21.3260     7.1750     7.0720     8.0400
 1382.5000     2.4910   104.0860     9.6130     0.0150   997.3180     0.3160  1345.9620   -21.3440     7.2160     7.1720     8.0730
 1383.0000     2.4880   105.2340     9.5410     0.0070   999.0880     0.3060  1345.9620   -21.3610     7.2570     7.2170     8.1050
 1383.5000     2.4950   107.2510     9.5390     0.0070  1000.8570     0.3080  1345.9620   -21.3790     7.2840     7.1980     8.1330
 1384.0000     2.5060   109.2780     9.5670     0.0100  1002.6260     0.3110  1346.8330   -21.3980     7.2840     7.0860     8.1320
 1384.5000     2.5160   110.1960     9.6010     0.0220  1004.3960     0.3140  1349.1479   -21.4140     7.2840     6.9750     8.1320
 1385.0000     2.5250   108.4510     9.6760     0.0360  1006.1650     0.3140  1351.4630   -21.3630     7.2840     6.8630     8.1330
 1385.5000     2.5350   106.7820     9.7510     0.0630  1007.9340     0.3040  1353.7780   -21.0070     7.1920     6.7510     8.1320
 1386.0000     2.5420   106.1610     9.8260     0.0900  1009.7030     0.3050  1356.0930   -20.6570     7.1010     6.6390     8.1320
