~VERSION INFORMATION
 VERS.                2.0:   CWLS LOG ASCII STANDARD - VERSION 2.0
 WRAP.                 NO:   ONE LINE PER DEPTH STEP
~WELL INFORMATION
#MNEM.UNIT      DATA TYPE    INFORMATION
#----------   ------------   ------------------------------
 STRT.F          209.5000:   START DEPTH
 STOP.F         3130.0000:   STOP DEPTH
 STEP.F            0.5000:   STEP LENGTH
 NULL.          -999.2500:   NO VALUE
 COMP. FENIX & SCISSON-U.S. NAVY:   COMPANY
 WELL.   FENIX "A" #66-29:   WELL
 FLD .              NPR 3:   FIELD
 LOC .      S29 T39N R78W:   LOCATION
 CNTY.            NATRONA:   COUNTY
 STAT.            WYOMING:   STATE
 CTRY. UNITED STATES OF AMERICA:   COUNTRY
 SRVC.       SCHLUMBERGER:   SERVICE COMPANY
 DATE.        12-JUN-1977:   LOGDATE
 API .     49025103850000:   API NUMBER
~CURVE INFORMATION
#MNEM.UNIT       API CODE    CURVE DESCRIPTION
#----------   ------------   ------------------------------
 DEPT.F                  :   
 CALD.IN     45 280 60 00:   CALIPER FROM DENSITY LOG
 GRD .GAPI   45 310 01 00:   GAMMA RAY FROM DENSITY LOG
 RHOB.G/C3   45 350 01 00:   BULK DENSITY
 CORR.G/C3   45 356 01 00:   DENSITY CORRECTION
 LL8 .OHMM   07 220 08 00:   LATEROLOG-8 RES.
 ILD .OHMM   07 120 46 00:   DEEP INDUCTION RESISTIVITY
 ILM .OHMM   07 120 44 00:   INDUCTION LOG MEDIUM RESISTIVITY
 SPR .MV     07 010 01 00:   SPONTANEOUS POTENTIAL
~PARAMETER INFORMATION
#MNEM.UNIT          VALUE    DESCRIPTION
#----------   ------------   ------------------------------
 EKB .F         5058.0000:   Kelly bushing
 EGL .F         5048.0000:   Ground level
 EDF .F            0.0000:   Drilling floor
 TD  .F         3120.0000:   Total depth
 DATE.        12-JUN-1977:   Date logged
 CLNT.            A2DTECH:   Client Code
 SL  . 1650' FSL & 1650' FEL:   Surface Location
 PD  .                 GL:   Permanent Datum
 EPD .F              5048:   Elevation Permanent Datum
 LMF .                 KB:   Log Measured From
 DMF .                 KB:   Drilling Measured From
 DAPD.F                10:   Feet Above Permanent Datum
 DD  .F              3120:   Depth driller
 DL  .F              3120:   Depth logger
 BLI .F              3120:   Bottom log interval
 TLI .F               219:   Top log interval
 CS1 .IN            8.625:   Casing size
 CBD1.      8.625" @ 225':   Casing driller 1
 CBL1.F               219:   Casing logger 1
 BS1 .IN            7.875:   Bit size
 BSD1.F              3120:   Depth drilled with bit1
 DFT .            KCL MUD:   Type fluid in hole
 DFD .                8.8:   Density
 DFV .                 32:   Viscosity
 DFPH.                7.5:   pH
 DFL .                  8:   Fluid loss
 MSS .              CIRC.:   Source of sample
 RMS .OHMM           2.01:   Rm
 MST .F                72:   Rm Meas. temp.
 RMF .OHMM            1.9:   Rmf
 MFST.F                72:   Rmf Meas. temp.
 RMC .OHMM           3.02:   Rmc
 MCST.F                72:   Rmc Meas. temp.
 MFSS.               MEAS:   Source Rmf.
 MCSS.               CALC:   Source Rmc.
 RMB .OHMM           1.21:   Rm. at BHT
 BHT .F               120:   BHT.
 TCS .HRS            1400:   Time Circ. stopped
 TLAB.HRS            1730:   Time logger at bottom
 MRT .F               120:   Maximum recorded temp.
 LUN .               7711:   Logging unit number
 LUL .               CSPR:   Logging unit location
 ENGI.             SAYLER:   Recorded By
 WITN.             RHODES:   Witnessed by
 ORIG.           5" PRINT:   Origin of data
 UWI .     49025103850000:   Unique Well ID
 DICO. A2D TECHNOLOGIES, INC.:   Digitizing Company
~OTHER INFORMATION
~A   DEPT     CALD         GRD      RHOB       CORR        LL8        ILD        ILM        SPR   
# ...
 2315.5000     8.2331   108.4684     2.5022     0.0020     6.5663     5.5185     6.1028   -34.9308
 2316.0000     8.2331   108.6665     2.5182     0.0100     9.0225     5.5687     6.4466   -34.9319
 2316.5000     8.2332   105.5039     2.5062     0.0115     8.8583     5.8288     6.6863   -34.9330
 2317.0000     8.2332   101.3529     2.4993     0.0130     8.5395     6.1011     6.8091   -34.7358
 2317.5000     8.2332   100.1673     2.4853     0.0100     8.2324     6.4448     6.9342   -34.5386
 2318.0000     8.2332    98.1907     2.4814    -0.0009     7.9362     6.7459     7.1265   -33.5480
 2318.5000     8.2332   101.1567     2.5053     0.0061     7.7210     6.9329     7.3915   -33.7475
 2319.0000     8.2333   103.5297     2.5073     0.0071     7.7911     7.0603     7.6663   -33.1537
 2319.5000     8.2333   104.7163     2.5142     0.0081     8.2294     7.1246     7.8071   -32.5599
 2320.0000     8.2333   102.9375     2.5262     0.0071     9.0985     7.1894     7.8064   -32.3627
 2320.5000     8.2333    99.7747     2.5242     0.0121    10.2452     7.2548     7.8057   -31.7690
 2321.0000     8.2334    95.8211     2.5232     0.0121    10.4331     7.3208     7.8050   -31.5719
 2321.5000     8.2334    95.0307     2.5182     0.0121    10.2433     7.3874     7.8043   -30.9782
 2322.0000     8.2334    93.6471     2.5083     0.0071     9.2629     7.4547     7.8037   -30.9794
 2322.5000     8.2334    93.4498     2.5133     0.0061     8.6093     7.5225     7.9473   -31.1789
 2323.0000     8.2137    93.0548     2.5163     0.0111     8.1493     7.6607     7.9462   -31.7749
 2323.5000     8.2137    92.8575     2.5223     0.0171     8.2234     7.6600     8.0922   -31.9744
 2324.0000     8.2137    94.6375     2.5223     0.0101     8.3749     7.6593     8.2409   -31.9756
 2324.5000     8.2137    96.4174     2.5123     0.0032     9.8469     7.7290     8.7052   -32.1750
 2325.0000     8.2335    98.1976     2.5054    -0.0028    11.0130     7.7993     8.7844   -32.3744
 2325.5000     8.2138    98.1979     2.5034    -0.0028    10.8126     7.9426     8.7836   -32.7721
 2326.0000     8.2138    97.8028     2.4954    -0.0028     9.8675     7.9419     8.5450   -33.1698
 2326.5000     8.2138    96.8147     2.4737     0.0002     9.4260     7.8689     8.2372   -33.5674
 2327.0000     8.2138    92.8605     2.4576     0.0032     9.7759     7.7255     8.0134   -33.9651
 2327.5000     8.2139    90.4881     2.4606     0.0072    10.3524     7.5847     7.8674   -34.3629
 2328.0000     8.2139    89.3021     2.4835     0.0172     9.4463     7.3115     7.6537   -34.5622
 2328.5000     8.2139    90.2911     2.5064     0.0132     7.4304     7.0481     7.5143   -34.5634
 2329.0000     8.2139    94.2464     2.5034     0.0052     7.0980     6.9197     7.3102   -34.3663
 2329.5000     8.2140   100.3771     2.4875     0.0082     7.6355     6.7936     7.1116   -34.1692
 2330.0000     8.2337   103.7957     2.4790     0.0053     8.5194     6.6090     6.9184   -33.7739
 2330.5000     8.2140   108.0900     2.4577    -0.0027     9.4191     6.4885     6.7304   -33.3784
 2331.0000     8.2338   110.6614     2.4437    -0.0037     9.5920     6.2548     6.6078   -32.9831
 2331.5000     8.2338   112.6394     2.4607     0.0073     8.8340     6.1408     6.4874   -32.9843
 2332.0000     8.2338   115.4085     2.4796     0.0152     8.0620     5.9740     6.3111   -32.9854
 2332.5000     8.2339   115.8050     2.4925     0.0143     6.7766     5.8118     6.0282   -32.5902
 2333.0000     8.2339   117.3875     2.4657     0.0103     6.7760     5.5008     5.8112   -32.5914
 2333.5000     8.2339   121.7389     2.4776     0.0073     6.8375     5.3514     5.6534   -32.5925
 2334.0000     8.2339   128.4634     2.4975     0.0113     6.5916     5.3509     5.6529   -32.7921
 2334.5000     8.2142   133.2105     2.4786     0.0103     6.4128     5.4993     5.8630   -32.9914
 2335.0000     8.2142   136.9689     2.4707     0.0103     7.0901     5.7038     6.6029   -32.9926
 2335.5000     8.2142   139.3432     2.4747     0.0183     8.6681     6.1364     7.5732   -32.7956
 2336.0000     8.2142   135.7840     2.4468     0.0064    12.1526     6.7236     8.0003   -32.7967
 2336.5000     8.2143   131.8293     2.4458     0.0024    12.8364     7.3000     8.5287   -32.9961
 2337.0000     8.2143   127.0839     2.4498     0.0034    12.9531     7.9988     9.0091   -32.9972
 2337.5000     8.2143   129.0624     2.4498     0.0074    11.8209     8.6055     9.4299   -33.1965
 2338.0000     8.2143   134.0073     2.4478     0.0104    10.6897     9.0074     9.6914   -33.3958
 2338.5000     8.2143   138.3593     2.4498     0.0114    10.7868     9.1729     9.6906   -33.5951
 2339.0000     8.2144   141.1293     2.4309     0.0074    12.2575     9.1721     9.3415   -33.7943
 2339.5000     8.2144   149.6347     2.4249     0.0064    13.6765     8.5240     8.8417   -33.5973
 2340.0000     8.2342   152.1757     2.4240     0.0005    12.1438     7.9215     8.3685   -33.5985
 2340.5000     8.2342   155.3403     2.4230     0.0005     8.2914     7.5666     7.9939   -33.4015
 2341.0000     8.2145   156.7248     2.4210    -0.0015     7.6893     7.2276     7.2933   -33.4027
 2341.5000     8.2145   159.8895     2.4150    -0.0025     8.4241     6.8409     6.6541   -33.0076
 2342.0000     8.2145   162.2631     2.4130    -0.0005    10.9787     6.3575     6.0710   -32.8107
 2342.5000     8.2145   165.4279     2.4071     0.0045    10.3922     5.9083     5.5389   -32.6137
 2343.0000     8.2145   161.2744     2.3991     0.0055     7.7570     5.2452     5.1032   -32.6149
 2343.5000     8.2146   159.4943     2.3981    -0.0035     5.1417     4.6992     4.6142   -32.6161
 2344.0000     8.2146   159.0988     2.3981    -0.0104     5.3815     4.5301     4.2491   -32.8153
 2344.5000     8.2146   162.2638     2.4041    -0.0015     5.5306     4.2100     3.9851   -32.8165
 2345.0000     8.2344   159.8902     2.4210     0.0075     5.4797     3.8769     3.8066   -33.4118
 2345.5000     8.2542   150.0422     2.4449     0.0065     5.2346     3.7716     3.6360   -34.0071
 2346.0000     8.2740   139.9549     2.5216    -0.0054     4.5223     3.7369     3.5698   -34.4044
 2346.5000     8.3334   131.2521     2.5365     0.0055     4.0155     3.7025     3.6354   -34.6035
 2347.0000     8.3730   130.0661     2.5385    -0.0024     4.1698     3.6685     3.7362   -35.0007
 2347.5000     8.3730   130.0669     2.5216    -0.0054     5.4770     3.6681     3.8398   -35.3979
 2348.0000     8.3928   128.6829     2.5047    -0.0004     5.1375     3.6678     3.9104   -35.8375
 2348.5000     8.3730   127.1011     2.5057     0.0066     4.9076     3.7352     3.9822   -36.0362
 2349.0000     8.3928   125.9149     2.5256     0.0145     4.6032     3.8038     4.0554   -36.2353
 2349.5000     8.3929   125.9157     2.5336     0.0165     4.5194     3.9093     4.1299   -36.4344
 2350.0000     8.3929   126.9056     2.5396     0.0166     4.6023     3.9811     4.2058   -36.4355
 2350.5000     8.3929   126.5107     2.5476     0.0295     4.7732     4.0545     4.2440   -36.4365
 2351.0000     8.3929   125.7201     2.5635     0.0315     5.0417     4.1667     4.3220   -36.0416
 2351.5000     8.3930   125.1275     2.5635     0.0236     5.1342     4.2433     4.4014   -35.6467
 2352.0000     8.3930   123.7434     2.5506     0.0226     5.1808     4.3212     4.4823   -35.0538
 2352.5000     8.3930   122.7549     2.5496     0.0295     5.1804     4.4006     4.5647   -34.4189
 2353.0000     8.3930   120.9751     2.5575     0.0136     5.1328     4.4815     4.6062   -34.0241
 2353.5000     8.3931   119.7887     2.5605     0.0067     5.0856     4.5223     4.6481   -33.6292
 2354.0000     8.3931   119.1959     2.5476     0.0037     4.9931     4.5219     4.6477   -33.4324
 2354.5000     8.3931   119.1966     2.5377     0.0017     5.0847     4.4803     4.6473   -33.2356
 2355.0000     8.3931   119.1974     2.5317    -0.0013     5.0842     4.3986     4.6468   -32.8408
 2355.5000     8.3931   119.3959     2.5347    -0.0023     5.0838     4.3582     4.6464   -32.6440
