~VERSION INFORMATION
 VERS.                2.0:   CWLS LOG ASCII STANDARD - VERSION 2.0
 WRAP.                 NO:   ONE LINE PER DEPTH STEP
~WELL INFORMATION
#MNEM.UNIT      DATA TYPE    INFORMATION
#----------   ------------   ------------------------------
 STRT.F          404.0000:   START DEPTH
 STOP.F         2919.0000:   STOP DEPTH
 STEP.F            0.5000:   STEP LENGTH
 NULL.          -999.2500:   NO VALUE
 COMP.    FENIX & SCISSON:   COMPANY
 WELL. FENIX & SCISSON "AX" #27-21:   WELL
 FLD .             NPR #3:   FIELD
 LOC .      S21 T39N R78W:   LOCATION
 CNTY.            NATRONA:   COUNTY
 STAT.            WYOMING:   STATE
 CTRY. UNITED STATES OF AMERICA:   COUNTRY
 SRVC.       SCHLUMBERGER:   SERVICE COMPANY
 DATE.        21-APR-1977:   LOGDATE
 API .     49025103730000:   API NUMBER
~CURVE INFORMATION
#MNEM.UNIT       API CODE    CURVE DESCRIPTION
#----------   ------------   ------------------------------
 DEPT.F                  :   
 SPR .MV     07 010 01 00:   SPONTANEOUS POTENTIAL
 ILM .OHMM   07 120 44 00:   INDUCTION LOG MEDIUM RESISTIVITY
 ILD .OHMM   07 120 46 00:   DEEP INDUCTION RESISTIVITY
 LL8 .OHMM   07 220 08 00:   LATEROLOG-8 RES.
 GRN .GAPI   35 310 01 00:   GAMMA RAY
 CALD.IN     45 280 60 00:   CALIPER FROM DENSITY LOG
 GRD .GAPI   45 310 01 00:   GAMMA RAY FROM DENSITY LOG
 CORR.G/C3   45 356 01 00:   DENSITY CORRECTION
 RHOB.G/C3   45 350 01 00:   BULK DENSITY
~PARAMETER INFORMATION
#MNEM.UNIT          VALUE    DESCRIPTION
#----------   ------------   ------------------------------
 EKB .F         5004.0000:   Kelly bushing
 EGL .F         4994.0000:   Ground level
 TD  .F         2920.0000:   Total depth
 CLNT.            A2DTECH:   Client Code
 SL  . 991' FWL & 1090' FSL:   Surface Location
 DATE.        21-APR-1977:   Date Logged [DD-MMM-YYYY]
 DD  .F              2920:   Depth driller
 DL  .F              2920:   Depth logger
 BLI .F              2914:   Bottom log interval
 TLI .F               419:   Top log interval
 CS1 .              8.625:   Casing size
 CBD1.      8.625" @ 425':   Casing driller 1
 CBL1.IN              419:   Casing logger 1
 BS1 .IN            7.875:   Bit size
 BSD1.F              2920:   Depth drilled with bit1
 DFT .                FGM:   Type fluid in hole
 DFD .                9.0:   Density
 DFV .                 34:   Viscosity
 DFPH.                8.0:   pH
 DFL .                8.0:   Fluid loss
 MSS .                PIT:   Source of sample
 RMS .OHMM          0.158:   Rm
 MST .F                72:   Rm Meas. temp.
 RMF .OHMM          0.158:   Rmf
 MFST.F                72:   Rmf Meas. temp.
 MFSS.               MEAS:   Source Rmf.
 RMB .OHMM          0.102:   Rm. at BHT
 BHT .F               112:   BHT.
 TCS .HRS            0500:   Time Circ. stopped
 TLAB.HRS            0700:   Time logger at bottom
 MRT .F               112:   Maximum recorded temp.
 LUN .               5642:   Logging unit number
 LUL .               CSPR:   Logging unit location
 ENGI.             TAYLOR:   Recorded By
 WITN.          PETTINGIL:   Witnessed by
 ORIG.      2.5" 5" PRINT:   Origin of data
 UWI .     49025103730000:   Unique Well ID
 DICO. A2D TECHNOLOGIES, INC.:   Digitizing Company
 PD  .                 GL:   Permanent Datum
 EPD .F              4994:   Elevation Permanent Datum
 LMF .                 KB:   Log Measured From
 DMF .                 KB:   Drilling Measured From
 DAPD.F                10:   Feet Above Permanent Datum
~OTHER INFORMATION
~A   DEPT      SPR        ILM        ILD        LL8        GRN       CALD         GRD      CORR       RHOB   
# ...
 1061.0000   -68.5183    10.2576     8.5946    10.2629   136.7152     8.9573    68.2867     0.0220     2.5018
 1061.5000   -68.8189    10.2576     8.5922    10.2636   137.6381     8.9582    67.3997     0.0123     2.4997
 1062.0000   -69.4171    10.2576     8.5898    10.2643   134.9682     8.9591    67.7033     0.0229     2.5303
 1062.5000   -69.7177    10.2576     8.5875    10.3244   121.9689     8.9599    69.4949     0.0242     2.5243
 1063.0000   -69.7207    10.2576     8.5851    10.4083   118.6192     8.9608    70.3937     0.0197     2.5318
 1063.5000   -69.7237    10.2576     8.5828    10.4090   117.0720     8.9617    65.9353     0.0280     2.5453
 1064.0000   -69.7266    10.2576     8.5804    10.4097   117.7766     8.9626    65.2659     0.0347     2.5423
 1064.5000   -69.7296    10.2576     8.5780    10.4104   118.0258     8.9932    68.6257     0.0182     2.5154
 1065.0000   -69.7326    10.3998     8.5757    10.4111   112.4368     8.9941    71.0127     0.0107     2.4975
 1065.5000   -69.7356    10.3998     8.5733    10.4118   111.5571     8.9950    72.5067     0.0128     2.4915
 1066.0000   -69.4405    10.3998     8.5710    10.4125   118.0999     8.9958    66.5602     0.0189     2.4870
 1066.5000   -69.4440    10.5439     8.5686    10.4132   119.6965     8.9967    61.2090     0.0235     2.4945
 1067.0000   -69.4469    10.5439     8.6058    10.4612   119.7212     8.9976    61.8101     0.0258     2.5275
 1067.5000   -69.4499    10.5439     8.6828    10.5593   119.7459     9.0151    64.4947     0.0218     2.5095
 1068.0000   -69.4529    10.5712     8.6801    10.5600   120.8933     9.0291    65.9887     0.0153     2.5065
 1068.5000   -69.1578    10.6901     8.6777    10.5607   122.2653     9.0003    67.1851     0.0172     2.5080
 1069.0000   -68.8631    10.7138     8.6753    10.5615   123.6373     9.0012    64.8101     0.0202     2.5111
 1069.5000   -68.5690    10.8603     8.6729    10.5622   123.4375     9.0021    61.8398     0.0274     2.5230
 1070.0000   -68.5720    10.9885     8.7909    10.7096   120.7676     9.0030    59.7624     0.0337     2.5440
 1070.5000   -68.5750    11.0068     8.7881    10.7103   121.0168     9.0038    60.3635     0.0348     2.5444
 1071.0000   -68.5779    11.1409     8.8263    10.7478   121.7152     9.0344    62.7505     0.0233     2.5291
 1071.5000   -68.8785    11.1409     8.9460    10.8962   119.9435     9.0353    64.8397     0.0076     2.5051
 1072.0000   -69.1791    11.1409     9.0260    11.0467   117.2736     9.0362    66.3337     0.0100     2.5022
 1072.5000   -69.4798    11.2953     9.1485    11.1657   118.4210     9.0371    67.8277     0.0203     2.4992
 1073.0000   -69.4827    11.2953     9.1878    11.3215   121.1404     9.0551    68.7265     0.0243     2.5097
 1073.5000   -69.4851    11.2953     9.4412    11.3532   124.3088     9.0685    64.5658     0.0353     2.5321
 1074.0000   -69.4881    11.1409     9.5693    11.4803   125.9053     9.0694    61.2979     0.0528     2.5460
 1074.5000   -69.4911    11.1409     9.6550    11.4533   126.3729     9.0703    63.6848     0.0495     2.5292
 1075.0000   -69.3205    11.1409     9.6519    11.3246   122.8110     9.0712    66.0717     0.0324     2.5232
 1075.5000   -69.0273    11.1409     9.4315    11.3254   117.2219     9.1018    65.4823     0.0199     2.5127
 1076.0000   -68.9048    10.9885     9.1305    11.3262   116.7914     9.1027    64.0002     0.0129     2.5053
 1076.5000   -68.6102    10.9885     9.0864    11.3270   115.9240     9.1035    63.1133     0.0094     2.5203
 1077.0000   -68.3154    10.8383     8.8376    11.3278   109.4368     9.1044    64.9049     0.0120     2.5188
 1077.5000   -68.3184    10.6901     8.9165    11.3469   105.6441     9.1229    69.6727     0.0169     2.5098
 1078.0000   -68.3214    10.5439     9.1625    11.4866   107.2406     9.1359    73.2501     0.0184     2.5053
 1078.5000   -68.0268    10.5439     9.4153    11.4874   109.5109     9.1368    75.3393     0.0148     2.5024
 1079.0000   -68.0298    10.3998     9.4996    11.4882   106.1673     9.1497    71.7739     0.0154     2.5009
 1079.5000   -68.0327    10.3998     9.5404    11.4889   102.3746     9.1386    68.8036     0.0161     2.5039
 1080.0000   -68.0357    10.2576     9.6258    11.4897   104.8694     9.1396    66.1309     0.0191     2.5069
 1080.5000   -68.3363    10.2576     9.6228    11.4905   105.3370     9.1405    67.6325     0.0200     2.5054
 1081.0000   -68.3393    10.3998     9.6201    11.4913   102.4426     9.1414    69.1240     0.0179     2.5051
 1081.5000   -68.3423    10.3998     9.5737    11.4921   104.9435     9.1124    67.5774     0.0170     2.5174
 1082.0000   -68.6429    10.3998     9.4836    11.4929   107.8874     9.1135    62.8214     0.0196     2.5324
 1082.5000   -69.0947    10.5439     9.4810    11.4937   106.1156     9.1144    60.5058     0.0393     2.5384
 1083.0000   -69.5417    10.5439     9.3063    11.4945   107.7122     9.0856    61.4196     0.0274     2.5369
 1083.5000   -69.5446    10.5439     9.2188    11.4953   108.6351     9.0865    62.0233     0.0142     2.5339
 1084.0000   -69.5476    10.6901     9.2162    11.4961   104.6179     9.0577    62.6071     0.0110     2.5310
 1084.5000   -69.5506    10.6901     9.2137    11.4969   101.9480     9.0586    61.5417     0.0169     2.5235
 1085.0000   -69.5536    10.6901     9.3391    11.4977    99.0535     9.0296    59.0474     0.0200     2.5218
 1085.5000   -69.1166    10.8383     9.3361    11.4985   100.6501     9.0011    61.5709     0.0216     2.5250
 1086.0000   -68.8234    10.9885     9.4631    11.4993   107.4113     9.0019    64.5953     0.0164     2.4981
 1086.5000   -68.5302    10.9885     9.4601    11.5001   111.0288     9.0028    67.5278     0.0096     2.4921
 1087.0000   -68.3750    10.9885     9.4575    11.5009   112.1763     9.0037    69.8552     0.0103     2.4951
 1087.5000   -68.3780    10.9885     9.4549    11.3442   109.2818     9.0046    67.5594     0.0186     2.5161
 1088.0000   -68.0834    10.9885     9.4092    11.3450   108.1776     9.0055    65.5119     0.0329     2.5226
 1088.5000   -68.0863    10.9885     9.2783    11.3458   109.3312     8.9767    63.7247     0.0185     2.5027
 1089.0000   -68.3869    10.9885     9.0654    11.3466   109.1314     8.9776    62.2798     0.0149     2.4965
 1089.5000   -68.5203    10.6901     8.9408    11.3473   106.4614     8.9785    61.4817     0.0217     2.5117
 1090.0000   -69.2460    10.5439     8.3822    11.1927   103.7915     8.9794    63.7698     0.0330     2.5296
 1090.5000   -69.7138    10.3998     8.1146    11.1935   102.4689     8.9506    66.0625     0.0317     2.5207
 1091.0000   -69.8869    10.1772     8.0016    11.1943   100.4665     8.9515    67.5070     0.0185     2.5162
 1091.5000   -70.1875     9.9790     7.9994    11.0417   100.2667     8.9524    66.7490     0.0179     2.5222
 1092.0000   -70.4881     9.9044     8.1083    10.8912   101.6448     8.9533    68.1192     0.0225     2.5282
 1092.5000   -70.3695     9.8426     8.1432    10.5958   103.0168     8.9838    70.8680     0.0270     2.5282
 1093.0000   -70.1964     9.8426     8.3679    10.5966   102.3679     8.9847    72.3025     0.0268     2.5267
 1093.5000   -69.9012     9.9790     8.5987    10.4521   101.0453     8.9856    72.6086     0.0215     2.5178
 1094.0000   -69.7877    10.3988     8.9583    10.8943   101.5191     8.9865    66.4266     0.0202     2.5088
 1094.5000   -69.6095    10.6852     9.2483    11.3552   103.3402     8.9874    61.9931     0.0202     2.5133
 1095.0000   -69.4990    11.0596     9.4164    11.8356   105.8350     8.9883    60.6540     0.0142     2.5164
 1095.5000   -69.2060    11.3663     9.4134    12.1673   110.1261     8.9892    60.5838     0.0097     2.5118
 1096.0000   -69.0232    11.6107     9.4108    12.5084   111.2674     8.9901    60.3683     0.0037     2.5059
 1096.5000   -68.9172    11.7716     9.4083    12.0024   109.7202     9.0206    60.2115     0.0031     2.5074
 1097.0000   -68.7316    11.5451     9.4057    11.6767   112.2212     9.0215    59.1897     0.0142     2.5209
