~VERSION INFORMATION
 VERS.                2.0:   CWLS LOG ASCII STANDARD - VERSION 2.0
 WRAP.                 NO:   ONE LINE PER DEPTH STEP
~WELL INFORMATION
#MNEM.UNIT      DATA TYPE    INFORMATION
#----------   ------------   ------------------------------
 STRT.F          204.0000:   START DEPTH
 STOP.F         3104.0000:   STOP DEPTH
 STEP.F            0.5000:   STEP LENGTH
 NULL.          -999.2500:   NO VALUE
 COMP.    FENIX & SCISSON:   COMPANY
 WELL. FENIX NPR 83 "AX" #3-10:   WELL
 FLD .                NPR:   FIELD
 LOC .      S10 T38N R78W:   LOCATION
 CNTY.            NATRONA:   COUNTY
 STAT.            WYOMING:   STATE
 CTRY. UNITED STATES OF AMERICA:   COUNTRY
 SRVC.              WELEX:   SERVICE COMPANY
 DATE.        14-JUL-1977:   LOGDATE
 API .     49025103980000:   API NUMBER
~CURVE INFORMATION
#MNEM.UNIT       API CODE    CURVE DESCRIPTION
#----------   ------------   ------------------------------
 DEPT.F                  :   
 ILD .OHMM   07 120 46 00:   DEEP INDUCTION RESISTIVITY
 GURD.OHMM   07 220 05 00:   GUARD LOG RESISTIVITY
 ILM .OHMM   07 120 44 00:   INDUCTION LOG MEDIUM RESISTIVITY
 SPR .MV     07 010 01 00:   SPONTANEOUS POTENTIAL
 CALD.IN     45 280 60 00:   CALIPER FROM DENSITY LOG
 GRD .GAPI   45 310 01 00:   GAMMA RAY FROM DENSITY LOG
 RHOB.G/C3   45 350 01 00:   BULK DENSITY
 CORR.G/C3   45 356 01 00:   DENSITY CORRECTION
 NPHI.DEC    42 890 03 00:   NEUTRON POROSITY SANDSTONE
~PARAMETER INFORMATION
#MNEM.UNIT          VALUE    DESCRIPTION
#----------   ------------   ------------------------------
 EKB .F         5176.0000:   Kelly bushing
 EGL .F         5166.0000:   Ground level
 TD  .F         3105.0000:   Total depth
 DATE.        14-JUL-1977:   Date logged
 CLNT.            A2DTECH:   Client Code
 SL  . 1650' FNL & 100' FEL:   Surface Location
 PD  .                 GL:   Permanent Datum
 DD  .F              3094:   Depth driller
 DL  .F              3105:   Depth logger
 BLI .F              3103:   Bottom log interval
 CS1 .IN            8.625:   Casing size
 CBD1.      8.625" @ 218':   Casing driller 1
 CBL1.F               220:   Casing logger 1
 BS1 .IN            7.875:   Bit size
 DFT .            KCL/GEL:   Type fluid in hole
 DFD .                9.4:   Density
 DFV .                 36:   Viscosity
 DFPH.                  8:   pH
 DFL .                 12:   Fluid loss
 MSS .           FLOWLINE:   Source of sample
 RMS .OHMM           1.54:   Rm
 MST .F               100:   Rm Meas. temp.
 RMF .OHMM            1.5:   Rmf
 MFST.F               100:   Rmf Meas. temp.
 RMC .OHMM           3.47:   Rmc
 MCST.F               100:   Rmc Meas. temp.
 MFSS.               FANN:   Source Rmf.
 RMB .OHMM           1.36:   Rm. at BHT
 BHT .F               113:   BHT.
 TCS .HRS             2.5:   Time Circ. stopped
 MRT .F               113:   Maximum recorded temp.
 LUN .               8766:   Logging unit number
 LUL .             CASPER:   Logging unit location
 ENGI. G. BENTSEN/T. JOYNER:   Recorded By
 WITN.      B. HARRINGTON:   Witnessed by
 ORIG.           5" PRINT:   Origin of data
 UWI .     49025103980000:   Unique Well ID
 DICO. A2D TECHNOLOGIES, INC.:   Digitizing Company
 DAPD.F                10:   Feet Above Permanent Datum
 BSD1.F              3094:   Depth drilled with bit1
 MCSS.                KIT:   Source Rmc.
 TLI .F               210:   Top log interval
 EPD .F              5166:   Elevation Permanent Datum
 LMF .                 KB:   Log Measured From
 DMF .                 KB:   Drilling Measured From
~OTHER INFORMATION
~A   DEPT      ILD       GURD        ILM        SPR       CALD        GRD       RHOB       CORR       NPHI   
# ...
 1737.0000     5.2470     8.3540     4.4030   -59.3880     9.4100   132.0040     2.3820     0.0470     0.4080
 1737.5000     5.0050     8.0460     3.8990   -59.4340     9.4230   130.7070     2.3470     0.0440     0.4040
 1738.0000     4.9570     7.0420     3.8990   -59.4790     9.4370   129.3940     2.3240     0.0440     0.4000
 1738.5000     4.9570     7.6620     4.7360   -59.5250     9.4500   128.1200     2.4120     0.0490     0.3960
 1739.0000     4.9570     8.4710     5.7320   -59.5700     9.4640   129.7770     2.4930     0.0470     0.3940
 1739.5000     4.9570     8.0140     7.3070   -59.6160     9.4770   131.6790     2.5330     0.0450     0.3950
 1740.0000     5.2090     8.3030     6.3030   -59.6620     9.4900   132.0900     2.5260     0.0430     0.3970
 1740.5000     5.4570     8.6570     6.5720   -59.7070     9.4910   130.8900     2.5220     0.0410     0.3980
 1741.0000     5.7050     8.8360     6.9120   -59.7530     9.4510   129.7120     2.5210     0.0430     0.3980
 1741.5000     5.9540     8.9100     7.2390   -59.7980     9.4140   128.5350     2.5220     0.0460     0.4000
 1742.0000     6.2020     8.9850     7.1840   -59.8440     9.3760   127.3610     2.5220     0.0500     0.4010
 1742.5000     6.4500     9.0590     7.1180   -59.8890     9.3800   126.1860     2.5180     0.0530     0.4020
 1743.0000     6.7620     9.1340     6.7890   -59.9350     9.4060   125.0070     2.5120     0.0560     0.4030
 1743.5000     6.6780     9.2050     6.3960   -59.9800     9.4320   123.8000     2.4950     0.0600     0.4040
 1744.0000     6.5120     9.2050     6.0030   -60.0260     9.4580   122.9900     2.4670     0.0540     0.4020
 1744.5000     6.3450     9.2050     5.6090   -60.0710     9.4850   125.4290     2.4320     0.0460     0.4020
 1745.0000     6.1780     9.0360     5.2390   -60.1170     9.5110   127.9370     2.3950     0.0380     0.4020
 1745.5000     6.0110     7.9500     7.0270   -60.1620     9.5380   129.6570     2.3580     0.0300     0.4010
 1746.0000     5.8440     6.6870     9.3770   -60.2080     9.5000   128.2920     2.3550     0.0230     0.4000
 1746.5000     5.5890     6.0180     8.9520   -60.2530     9.4570   126.8600     2.4680     0.0230     0.3990
 1747.0000     5.6260     7.3700     8.3180   -60.2990     9.4150   125.5100     2.5070     0.0240     0.3960
 1747.5000     5.7020     9.2050     7.6840   -60.3450     9.3730   125.6420     2.5050     0.0250     0.3990
 1748.0000     5.7790     9.1860     6.9770   -60.3900     9.3450   126.0550     2.5040     0.0250     0.4030
 1748.5000     5.8550     9.1460     7.0340   -60.4350     9.3540   126.4400     2.5030     0.0240     0.4050
 1749.0000     5.9320     9.1070     7.1530   -60.4830     9.3620   125.7470     2.5020     0.0230     0.4080
 1749.5000     6.0080     9.0670     7.3070   -60.4530     9.3700   124.9910     2.5020     0.0220     0.4090
 1750.0000     6.0850     9.0280     7.2350   -60.3930     9.3780   124.2390     2.5020     0.0240     0.4090
 1750.5000     6.1610     8.9880     7.1330   -60.3330     9.3860   123.4850     2.5080     0.0280     0.4070
 1751.0000     6.2450     8.9590     7.0420   -60.2720     9.3940   122.7380     2.5190     0.0310     0.4060
 1751.5000     6.2400     9.0270     7.0750   -60.2120     9.4020   122.3310     2.5310     0.0340     0.4050
 1752.0000     6.2340     9.0940     7.1220   -60.1520     9.4100   123.3320     2.5420     0.0370     0.4020
 1752.5000     6.2290     9.1610     7.1730   -60.0910     9.4180   124.3020     2.5440     0.0350     0.4060
 1753.0000     6.2240     9.2050     7.1060   -60.0310     9.4260   125.2660     2.5310     0.0300     0.4070
 1753.5000     6.2180     9.1220     6.9800   -59.9710     9.4350   125.6290     2.5170     0.0250     0.4080
 1754.0000     6.2130     9.0480     6.8550   -59.9100     9.4430   125.9650     2.5030     0.0200     0.4080
 1754.5000     6.2080     8.9750     6.7240   -59.8500     9.4510   126.3060     2.5020     0.0180     0.4090
 1755.0000     6.2020     8.9010     6.9890   -59.7900     9.4590   126.6510     2.5030     0.0170     0.4070
 1755.5000     6.1970     8.8280     7.2670   -59.7290     9.4640   127.0040     2.5040     0.0170     0.4060
 1756.0000     6.1920     8.7180     7.5450   -59.6690     9.4680   127.1810     2.5050     0.0160     0.4010
 1756.5000     6.1870     8.7560     7.8230   -59.6090     9.4730   124.8330     2.5060     0.0150     0.4000
 1757.0000     6.1870     8.8830     7.9400   -59.5480     9.4770   124.6010     2.4990     0.0150     0.3960
 1757.5000     6.2600     9.0100     7.7880   -59.4880     9.4810   125.2610     2.4920     0.0190     0.3940
 1758.0000     6.3220     9.1370     7.5300   -59.4280     9.4850   125.9480     2.4950     0.0230     0.3920
 1758.5000     6.3840     9.2640     7.3740   -59.3670     9.4900   126.6330     2.4980     0.0270     0.3900
 1759.0000     6.4460     9.3910     7.5820   -59.3070     9.4940   127.3160     2.4930     0.0310     0.3890
 1759.5000     6.5080     9.5190     7.7890   -59.2470     9.4980   128.0020     2.4890     0.0330     0.3880
 1760.0000     6.5700     9.6460     7.9960   -59.1860     9.5020   128.6820     2.4840     0.0290     0.3890
 1760.5000     6.6310     9.7730     8.2030   -59.1260     9.5070   129.0610     2.4950     0.0220     0.3910
 1761.0000     6.6930     9.8740     8.2390   -59.0650     9.5110   128.1410     2.5080     0.0290     0.3940
 1761.5000     6.7550     9.9610     8.1350   -59.0050     9.5150   127.2520     2.5220     0.0370     0.3960
 1762.0000     6.8170    10.0480     7.9260   -58.9450     9.5190   126.3630     2.5280     0.0450     0.4010
 1762.5000     6.8790    10.0960     7.5580   -58.8840     9.5240   125.4780     2.5290     0.0490     0.4050
 1763.0000     6.9130     9.7100     7.1900   -58.8240     9.5280   124.6000     2.5300     0.0530     0.4110
 1763.5000     6.9500     9.4010     6.8230   -58.7640     9.5320   124.0200     2.5310     0.0560     0.4180
 1764.0000     6.9850     9.0930     6.4800   -58.7030     9.5370   123.7360     2.5310     0.0620     0.4250
 1764.5000     7.0200     8.7840     6.3690   -58.6430     9.5610   123.7240     2.5110     0.0680     0.4300
 1765.0000     7.0550     8.3150     6.2650   -58.5830     9.6230   123.7250     2.4780     0.0750     0.4340
 1765.5000     7.0910     8.5110     6.1610   -58.5220     9.6840   123.5550     2.4440     0.0800     0.4340
 1766.0000     7.1260     8.9160     6.0570   -58.4620     9.7460   122.7500     2.4010     0.0820     0.4340
 1766.5000     7.1610     9.1200     5.9630   -58.4020     9.8080   121.9690     2.3460     0.0730     0.4310
 1767.0000     7.1960     8.4750     5.9850   -58.3410     9.8730   121.1800     2.2990     0.0610     0.4290
 1767.5000     7.2310     7.9770     6.0050   -58.2810     9.9380   120.2660     2.2980     0.0480     0.4220
 1768.0000     7.2670     7.4790     6.0250   -58.2210    10.0020   120.8830     2.4760     0.0430     0.4160
 1768.5000     7.3020     7.2390     6.0450   -58.1600    10.0660   121.9290     2.5410     0.0570     0.4120
 1769.0000     7.3370     7.5410     6.0660   -58.1000    10.0850   122.9830     2.5420     0.0570     0.4100
 1769.5000     7.3740     7.7700     6.0860   -58.0400    10.0170   124.0330     2.5480     0.0560     0.4080
 1770.0000     7.5730     7.9980     6.1060   -57.9790     9.9510   125.0830     2.5540     0.0560     0.4070
 1770.5000     7.7850     8.2390     6.1260   -57.9230     9.8840   126.1360     2.5490     0.0550     0.4080
 1771.0000     7.9970     8.1760     6.1460   -57.9410     9.8570   127.1880     2.5420     0.0590     0.4070
 1771.5000     8.2090     8.0930     6.1660   -57.9620     9.8850   128.0490     2.5380     0.0630     0.4070
 1772.0000     8.4710     8.0090     6.1870   -57.9830     9.9140   127.5370     2.5390     0.0680     0.4050
 1772.5000     8.2750     7.9250     6.1810   -58.0030     9.9420   127.0180     2.5410     0.0720     0.4040
 1773.0000     8.0140     7.8420     6.1750   -58.0230    10.0100   126.5050     2.5350     0.0730     0.4020
