~VERSION INFORMATION
 VERS.                2.0:   CWLS LOG ASCII STANDARD - VERSION 2.0
 WRAP.                 NO:   ONE LINE PER DEPTH STEP
~WELL INFORMATION
#MNEM.UNIT      DATA TYPE    INFORMATION
#----------   ------------   ------------------------------
 STRT.F            6.0000:   START DEPTH
 STOP.F         3190.0000:   STOP DEPTH
 STEP.F            0.5000:   STEP LENGTH
 NULL.          -999.2500:   NO VALUE
 COMP. LAWRENCE ALLISON & ASSOCIATES:   COMPANY
 WELL. LAWRENCE N. P. R. 73AX #3-3:   WELL
 FLD .              N P R:   FIELD
 LOC .       S3 T38N R78W:   LOCATION
 CNTY.            NATRONA:   COUNTY
 STAT.            WYOMING:   STATE
 CTRY. UNITED STATES OF AMERICA:   COUNTRY
 SRVC.      DRESSER ATLAS:   SERVICE COMPANY
 DATE.        04-JUN-1986:   LOGDATE
 API .     49025110910000:   API NUMBER
~CURVE INFORMATION
#MNEM.UNIT       API CODE    CURVE DESCRIPTION
#----------   ------------   ------------------------------
 DEPT.F                  :   
 CALD.IN     45 280 60 00:   CALIPER FROM DENSITY LOG
 DEN .LBS    45 635 01 00:   BUCK DENSITY
 CORR.G/C3   45 356 01 00:   DENSITY CORRECTION
 TEND.LBS    45 635 01 00:   TENSION FROM DENSITY LOG
 SPR .MV     07 010 01 00:   SPONTANEOUS POTENTIAL
 GRR .GAPI   07 310 01 00:   GAMMA RAY FROM RESISTIVITY
 SFLU.OHMM   07 220 01 00:   SPHERICALLY FOCUSED LOG UNAVERAGED RESISTIVITY
 ILD .OHMM   07 120 46 00:   DEEP INDUCTION RESISTIVITY
 ILM .OHMM   07 120 44 00:   INDUCTION LOG MEDIUM RESISTIVITY
 TENR.LBS    07 635 01 00:   TENSION FROM RESISTIVITY
 CNC .DEC    42 890 01 00:   NEUTRON PORISITY LIMESTONE
~PARAMETER INFORMATION
#MNEM.UNIT          VALUE    DESCRIPTION
#----------   ------------   ------------------------------
 EKB .F         5173.0000:   Kelly bushing
 EGL .F         5161.0000:   Ground level
 TD  .F         3170.0000:   Total depth
 DATE.        04-JUN-1986:   Date logged
 CLNT.            A2DTECH:   Client Code
 PD  .                 GL:   Permanent Datum
 EPD .F              5161:   Elevation Permanent Datum
 LMF .                 KB:   Log Measured From
 DMF .                 KB:   Drilling Measured From
 DAPD.F                12:   Feet Above Permanent Datum
 DD  .F              3170:   Depth driller
 DL  .F              3168:   Depth logger
 BLI .F               8.9:   Bottom log interval
 TLI .F                38:   Top log interval
 CS1 .IN            8.625:   Casing size
 CBD1.      8.625" @ 603':   Casing driller 1
 CBL1.F               602:   Casing logger 1
 BS1 .IN            7.875:   Bit size
 BSD1.F              3170:   Depth drilled with bit1
 DFT .        KCL/POLYMER:   Type fluid in hole
 DFD .                8.9:   Density
 DFV .                 38:   Viscosity
 DFPH.                9.0:   pH
 DFL .               13.2:   Fluid loss
 MSS .           FLOWLINE:   Source of sample
 RMS .OHMM           .446:   Rm
 MST .F                64:   Rm Meas. temp.
 RMF .OHMM           .361:   Rmf
 MFST.F                64:   Rmf Meas. temp.
 RMC .OHMM            .56:   Rmc
 MCST.F                64:   Rmc Meas. temp.
 MFSS.               MEAS:   Source Rmf.
 MCSS.               CALC:   Source Rmc.
 RMB .OHMM           .242:   Rm. at BHT
 BHT .F               118:   BHT.
 TCS .HRS               3:   Time Circ. stopped
 MRT .F               118:   Maximum recorded temp.
 LUN .               6274:   Logging unit number
 LUL .           GILLETTE:   Logging unit location
 WITN.             STRONG:   Witnessed by
 ORIG.           5" PRINT:   Origin of data
 UWI .     49025110910000:   Unique Well ID
 DICO. A2D TECHNOLOGIES, INC.:   Digitizing Company
~OTHER INFORMATION
~A    DEPT    CALD        DEN       CORR       TEND        SPR         GRR      SFLU        ILD        ILM       TENR        CNC   
# ...
 1805.5000  -999.2500  -999.2500  -999.2500  -999.2500   -57.1596    96.5448     6.3946     5.9930     5.2140   -87.6972  -999.2500
 1806.0000  -999.2500  -999.2500  -999.2500  -999.2500   -57.1605   100.1632     6.2765     5.9371     5.2135   -87.5383  -999.2500
 1806.5000  -999.2500  -999.2500  -999.2500  -999.2500   -57.1619   102.9761     6.2759     5.9365     5.3104   -77.3684  -999.2500
 1807.0000  -999.2500  -999.2500  -999.2500  -999.2500   -56.5603   100.1566     6.3337     6.0470     5.3594   -77.2691  -999.2500
 1807.5000  -999.2500  -999.2500  -999.2500  -999.2500   -56.3609    98.5442     6.3921     6.0465     5.4088   -77.1698  -999.2500
 1808.0000  -999.2500  -999.2500  -999.2500  -999.2500   -56.3623    98.5413     6.4510     6.1022     5.4083   -66.9801  -999.2500
 1808.5000  -999.2500  -999.2500  -999.2500  -999.2500   -56.3637   101.3548     6.6322     5.9896     5.4078   -76.9513  -999.2500
 1809.0000  -999.2500  -999.2500  -999.2500  -999.2500   -56.3651   104.1682     6.7557     5.6130     5.2590   -76.8520  -999.2500
 1809.5000  -999.2500  -999.2500  -999.2500  -999.2500   -56.1654   108.5909     6.8179     5.3089     5.0672   -76.7527  -999.2500
 1810.0000  -999.2500  -999.2500  -999.2500  -999.2500   -55.9659   108.9902     6.8173     4.9292     4.5758   -56.5123  -999.2500
 1810.5000  -999.2500  -999.2500  -999.2500  -999.2500   -55.5647   104.1592     6.4481     4.6622     3.8725   -76.5541  -999.2500
 1811.0000  -999.2500  -999.2500  -999.2500  -999.2500   -55.5662   102.5468     5.7159     4.4508     3.6969   -76.4548  -999.2500
 1811.5000  -999.2500  -999.2500  -999.2500  -999.2500   -55.5676    98.9229     4.6184     4.3687     3.6965   -76.3555  -999.2500
 1812.0000  -999.2500  -999.2500  -999.2500  -999.2500   -55.7702    96.9084     4.0188     4.3281     3.8004   -66.1856  -999.2500
 1812.5000  -999.2500  -999.2500  -999.2500  -999.2500   -56.1739    92.4800     4.0184     4.2877     4.0173   -76.1568  -999.2500
 1813.0000  -999.2500  -999.2500  -999.2500  -999.2500   -55.9742    92.4771     4.5323     4.3272     4.2074   -76.0575  -999.2500
 1813.5000  -999.2500  -999.2500  -999.2500  -999.2500   -55.9756    88.8534     5.3544     4.5741     4.6154   -75.9582  -999.2500
 1814.0000  -999.2500  -999.2500  -999.2500  -999.2500   -55.7762    89.6546     5.9835     4.9255     4.8788   -65.7884  -999.2500
 1814.5000  -999.2500  -999.2500  -999.2500  -999.2500   -55.7776    93.2724     6.6249     5.3534     5.1572   -65.6890  -999.2500
 1815.0000  -999.2500  -999.2500  -999.2500  -999.2500   -55.5779    95.6833     6.7482     5.7647     5.4013   -55.4993  -999.2500
 1815.5000  -999.2500  -999.2500  -999.2500  -999.2500   -55.7804    95.6804     6.8103     6.3827     5.6047   -55.4000  -999.2500
 1816.0000  -999.2500  -999.2500  -999.2500  -999.2500   -55.9830    94.8729     6.8097     6.7469     5.8158   -65.3713  -999.2500
 1816.5000  -999.2500  -999.2500  -999.2500  -999.2500   -55.9844    97.2836     6.8725     6.7463     5.8694   -75.3425  -999.2500
 1817.0000  -999.2500  -999.2500  -999.2500  -999.2500   -55.9859    98.4875     6.8719     6.7457     5.8688   -75.2432  -999.2500
 1817.5000  -999.2500  -999.2500  -999.2500  -999.2500   -55.7861   100.0937     6.9997     6.6829     5.6026   -75.1439  -999.2500
 1818.0000  -999.2500  -999.2500  -999.2500  -999.2500   -56.1898   102.5044     7.0643     6.2049     5.4993   -64.9740  -999.2500
 1818.5000  -999.2500  -999.2500  -999.2500  -999.2500   -56.1913   100.0878     7.1294     6.0342     4.9201   -64.8747  -999.2500
 1819.0000  -999.2500  -999.2500  -999.2500  -999.2500   -56.3938    97.6712     6.6810     5.9228     4.7407   -64.7754  -999.2500
 1819.5000  -999.2500  -999.2500  -999.2500  -999.2500   -56.3952    95.2547     6.2031     5.7068     4.7402   -74.6870  -999.2500
 1820.0000  -999.2500  -999.2500  -999.2500  -999.2500   -56.1955    97.2625     5.7594     5.2986     4.6960   -64.5768  -999.2500
 1820.5000  -999.2500  -999.2500  -999.2500  -999.2500   -55.7950    99.2708     5.3974     5.2492     5.0857   -64.4775  -999.2500
 1821.0000  -999.2500  -999.2500  -999.2500  -999.2500   -55.5953    99.6701     5.1049     5.3469     5.1809   -74.4487  -999.2500
 1821.5000  -999.2500  -999.2500  -999.2500  -999.2500   -55.7978   100.4716     5.4464     5.3962     5.2289   -64.2788  -999.2500
 1822.0000  -999.2500  -999.2500  -999.2500  -999.2500   -55.7993   102.4798     6.0303     5.5478     5.3766   -74.2302  -999.2500
 1822.5000  -999.2500  -999.2500  -999.2500  -999.2500   -56.2029   101.6741     6.8648     5.6511     5.3440   -84.2014  -999.2500
 1823.0000  -999.2500  -999.2500  -999.2500  -999.2500   -56.2044    94.4292     6.9926     5.8639     5.3933   -74.0316  -999.2500
 1823.5000  -999.2500  -999.2500  -999.2500  -999.2500   -56.5070    92.4152     6.8636     6.0286     5.3928   -84.0028  -999.2500
 1824.0000  -999.2500  -999.2500  -999.2500  -999.2500   -56.8097    93.2167     6.7370     6.1980     5.4425   -83.9035  -999.2500
 1824.5000  -999.2500  -999.2500  -999.2500  -999.2500   -57.0131    94.8227     6.6127     6.4913     5.5954   -83.8638  -999.2500
 1825.0000  -999.2500  -999.2500  -999.2500  -999.2500   -57.4167    95.2220     6.6736     6.5511     5.7526   -83.7183  -999.2500
 1825.5000  -999.2500  -999.2500  -999.2500  -999.2500   -57.0159    93.2080     7.0543     6.6113     5.8056   -83.6056  -999.2500
 1826.0000  -999.2500  -999.2500  -999.2500  -999.2500   -57.0173    88.7809     7.2525     6.6107     5.8590   -83.5063  -999.2500
 1826.5000  -999.2500  -999.2500  -999.2500  -999.2500   -56.4154    90.7884     7.2518     6.6717     5.8044   -83.4069  -999.2500
 1827.0000  -999.2500  -999.2500  -999.2500  -999.2500   -56.0143    97.2196     7.1181     6.6710     5.7504   -83.3076  -999.2500
 1827.5000  -999.2500  -999.2500  -999.2500  -999.2500   -56.1886    99.7686     7.0521     6.4278     5.6968   -83.2083  -999.2500
 1828.0000  -999.2500  -999.2500  -999.2500  -999.2500   -56.4199   101.2368     6.7946     6.4870     5.6438   -83.1090  -999.2500
 1828.5000  -999.2500  -999.2500  -999.2500  -999.2500   -56.6225   104.4513     6.6692     6.4864     5.5396   -72.9392  -999.2500
 1829.0000  -999.2500  -999.2500  -999.2500  -999.2500   -56.8250   106.0570     6.4858     6.4260     5.4374   -62.7494  -999.2500
 1829.5000  -999.2500  -999.2500  -999.2500  -999.2500   -56.8264   105.2496     6.4852     6.3663     5.4369   -62.6501  -999.2500
 1830.0000  -999.2500  -999.2500  -999.2500  -999.2500   -56.6267   102.0292     6.3065     6.2487     5.3863   -82.6919  -999.2500
 1830.5000  -999.2500  -999.2500  -999.2500  -999.2500   -56.8292   100.4175     6.4242     6.1905     5.3858   -82.5926  -999.2500
 1831.0000  -999.2500  -999.2500  -999.2500  -999.2500   -56.8306   101.2189     6.6047     6.1328     5.3854   -82.4933  -999.2500
 1831.5000  -999.2500  -999.2500  -999.2500  -999.2500   -57.0320   104.8354     6.6041     6.1323     5.3352   -82.4337  -999.2500
 1832.0000  -999.2500  -999.2500  -999.2500  -999.2500   -56.8335   103.6259     6.6034     6.1317     5.3843   -82.2947  -999.2500
 1832.5000  -999.2500  -999.2500  -999.2500  -999.2500   -56.8349    98.3943     6.6642     6.2457     5.5355   -82.1953  -999.2500
 1833.0000  -999.2500  -999.2500  -999.2500  -999.2500   -57.0374    95.5763     6.6636     6.3033     5.8514   -82.0960  -999.2500
 1833.5000  -999.2500  -999.2500  -999.2500  -999.2500   -56.8380    94.7691     6.7876     6.5407     5.9603   -71.9262  -999.2500
 1834.0000  -999.2500  -999.2500  -999.2500  -999.2500   -56.4373    95.5704     6.9140     6.7244     6.0712   -71.8269  -999.2500
 1834.5000  -999.2500  -999.2500  -999.2500  -999.2500   -56.4387    95.1654     7.1744     6.9133     6.0707   -71.7276  -999.2500
 1835.0000  -999.2500  -999.2500  -999.2500  -999.2500   -56.4401    96.3683     7.3079     6.9127     6.0701   -71.6481  -999.2500
 1835.5000  -999.2500  -999.2500  -999.2500  -999.2500   -56.1358   100.7894     7.4439     6.9764     6.1261   -71.5289  -999.2500
