~VERSION INFORMATION
 VERS.                2.0:   CWLS LOG ASCII STANDARD - VERSION 2.0
 WRAP.                 NO:   ONE LINE PER DEPTH STEP
~WELL INFORMATION
#MNEM.UNIT      DATA TYPE    INFORMATION
#----------   ------------   ------------------------------
 STRT.F           15.0000:   START DEPTH
 STOP.F         2952.5000:   STOP DEPTH
 STEP.F            0.5000:   STEP LENGTH
 NULL.          -999.2500:   NO VALUE
 COMP.    FENIX & SCISSON:   COMPANY
 WELL.  FENIX "AX" #64-29:   WELL
 FLD .  TEAPOT DOME NPR-3:   FIELD
 LOC .      S29 T39N R78W:   LOCATION
 CNTY.            NATRONA:   COUNTY
 STAT.            WYOMING:   STATE
 CTRY. UNITED STATES OF AMERICA:   COUNTRY
 SRVC.           BIRDWELL:   SERVICE COMPANY
 DATE.        02-MAY-1978:   LOGDATE
 API .     49025106460000:   API NUMBER
~CURVE INFORMATION
#MNEM.UNIT       API CODE    CURVE DESCRIPTION
#----------   ------------   ------------------------------
 DEPT.F                  :   
 SPR .MV     05 010 01 00:   SPONTANEOUS POTENTIAL
 IL  .OHMM   05 120 00 00:   INDUCTION RESISTIVITY
 SN  .OHMM   05 040 16 00:   SHORT NORMAL 16"
 CALD.IN     45 280 60 00:   CALIPER FROM DENSITY LOG
 GRD .GAPI   45 310 01 00:   GAMMA RAY FROM DENSITY LOG
 CORR.G/C3   45 356 01 00:   DENSITY CORRECTION
 RHOB.G/C3   45 350 01 00:   BULK DENSITY
~PARAMETER INFORMATION
#MNEM.UNIT          VALUE    DESCRIPTION
#----------   ------------   ------------------------------
 EKB .F         4993.0000:   Kelly bushing
 EGL .F         4983.0000:   Ground level
 EDF .F            0.0000:   Drilling floor
 TD  .F         2952.0000:   Total depth
 DATE.        02-MAY-1978:   Date logged
 CLNT.            A2DTECH:   Client Code
 SL  . 2150' FNL & 1560' FEL:   Surface Location
 PD  .                 GL:   Permanent Datum
 DD  .F              2950:   Depth driller
 DL  .F              2952:   Depth logger
 BLI .F              2947:   Bottom log interval
 CBL1.F               150:   Casing logger 1
 BS1 .IN            7.875:   Bit size
 DFT .                GEL:   Type fluid in hole
 DFD .                8.7:   Density
 DFV .                 30:   Viscosity
 DFPH.                 10:   pH
 DFL .                7.6:   Fluid loss
 MSS .            MUD PIT:   Source of sample
 RMS .OHMM            1.3:   Rm
 MST .F                62:   Rm Meas. temp.
 RMF .OHMM            .95:   Rmf
 MFST.F                64:   Rmf Meas. temp.
 RMC .OHMM              1:   Rmc
 MCST.F                64:   Rmc Meas. temp.
 MFSS.               MEAS:   Source Rmf.
 RMB .OHMM            .73:   Rm. at BHT
 BHT .F               110:   BHT.
 TCS .HRS               3:   Time Circ. stopped
 MRT .F               110:   Maximum recorded temp.
 LUN .               2958:   Logging unit number
 LUL .               CASP:   Logging unit location
 ENGI.             MILLER:   Recorded By
 WITN.           MCGINLEY:   Witnessed by
 ORIG.         2.5" PRINT:   Origin of data
 UWI .     49025106460000:   Unique Well ID
 DICO. A2D TECHNOLOGIES, INC.:   Digitizing Company
 DAPD.                 10:   Feet Above Permanent Datum
 BSD1.F              2950:   Depth drilled with bit1
 EPD .F              4983:   Elevation Permanent Datum
 LMF .                 KB:   Log Measured From
 DMF .                 KB:   Drilling Measured From
 TLI .F               150:   Top log interval
~OTHER INFORMATION
~A   DEPT      SPR         IL         SN       CALD        GRD       CORR       RHOB   
# ...
  879.5000   -70.4280     8.4290     7.5010    11.8280    80.2770     0.1020     2.5720
  880.0000   -70.4260     8.4290     7.5110    11.8020    83.6690     0.1060     2.5440
  880.5000   -70.4240     8.4290     7.5200    11.7760    86.5940     0.1200     2.5450
  881.0000   -70.4220     8.4290     7.5300    11.7500    88.0640     0.1210     2.5450
  881.5000   -70.4200     8.4290     7.5400    11.7240    86.6400     0.1170     2.5460
  882.0000   -70.4180     8.4290     7.5490    11.6980    85.4910     0.1130     2.5420
  882.5000   -70.4160     8.4290     7.5490    11.6720    84.1190     0.1110     2.5340
  883.0000   -70.4140     8.4290     7.5490    11.6450    82.5140     0.1110     2.5220
  883.5000   -70.4120     8.4290     7.5490    11.6200    80.8940     0.1110     2.5180
  884.0000   -70.4100     8.4290     7.5490    11.5950    79.2610     0.1110     2.5270
  884.5000   -70.4080     8.4290     7.5490    11.6000    78.2710     0.1110     2.5310
  885.0000   -70.4060     8.4290     7.5460    11.6050    79.0900     0.1110     2.5380
  885.5000   -70.4040     8.4290     7.5410    11.6110    80.0210     0.1070     2.5480
  886.0000   -70.4020     8.4290     7.5370    11.6170    79.4220     0.1030     2.5510
  886.5000   -70.4000     8.4290     7.5320    11.6220    78.0450     0.0980     2.5480
  887.0000   -70.3990     8.4290     7.5280    11.6280    78.0630     0.0950     2.5450
  887.5000   -70.3970     8.4290     7.5230    11.6340    78.9990     0.0980     2.5420
  888.0000   -70.3950     8.4290     7.5190    11.6400    79.8120     0.1000     2.5400
  888.5000   -70.3930     8.4290     7.5150    11.6460    80.6320     0.1030     2.5490
  889.0000   -70.3910     8.4290     7.5100    11.6510    81.4430     0.1050     2.5540
  889.5000   -70.3890     8.4290     7.5060    11.6570    82.2650     0.1140     2.5520
  890.0000   -70.3870     8.4290     7.5010    11.6640    83.1930     0.1290     2.5430
  890.5000   -70.3850     8.4290     7.4970    11.6650    83.1350     0.1430     2.5330
  891.0000   -70.3830     8.4290     7.4920    11.7060    81.5090     0.1570     2.5240
  891.5000   -70.3810     8.4290     7.4880    11.7100    80.1080     0.1720     2.5240
  892.0000   -70.3790     8.4290     7.4830    11.7080    80.1710     0.1850     2.5290
  892.5000   -70.3770     8.4290     7.4790    11.7020    80.1910     0.1980     2.5370
  893.0000   -70.3750     8.4300     7.4740    11.7000    80.3340     0.1960     2.5500
  893.5000   -70.3730     8.4290     7.4700    11.6960    80.5110     0.1940     2.5600
  894.0000   -70.3710     8.4290     7.4660    11.6920    82.2840     0.1760     2.5680
  894.5000   -70.3700     8.3940     7.4610    11.6890    84.6150     0.1620     2.5750
  895.0000   -70.3680     8.3490     7.4570    11.6850    84.3510     0.1460     2.5800
  895.5000   -70.3660     8.3040     7.4520    11.6810    83.7850     0.1310     2.5850
  896.0000   -70.3640     8.2590     7.4480    11.6780    85.5130     0.1160     2.5800
  896.5000   -70.3620     8.2140     7.4430    11.6740    87.1890     0.1000     2.5800
  897.0000   -70.3600     8.1690     7.4390    11.6710    89.0630     0.0860     2.5870
  897.5000   -70.3580     8.1240     7.4350    11.6670    88.0270     0.0710     2.5750
  898.0000   -70.3560     8.0790     7.4300    11.6630    86.7640     0.0810     2.5570
  898.5000   -70.3540     8.0340     7.4260    11.6600    85.5670     0.1000     2.5630
  899.0000   -70.3520     7.9880     7.4220    11.6560    84.7210     0.1190     2.5760
  899.5000   -70.3500     7.9760     7.4160    11.6530    88.9310     0.1370     2.5770
  900.0000   -70.3480     7.9760     7.4110    11.6490    90.3390     0.1370     2.5750
  900.5000   -70.3460     7.9760     7.3590    11.6450    88.4780     0.1430     2.5730
  901.0000   -70.3440     7.9760     7.2950    11.6420    88.0740     0.1480     2.5680
  901.5000   -70.3420     7.8550     7.2310    11.6380    88.2280     0.1530     2.5550
  902.0000   -70.3400     7.7170     7.1660    11.6350    88.2720     0.1530     2.5690
  902.5000   -70.3390     7.5780     7.1020    11.6310    89.6290     0.1500     2.5830
  903.0000   -70.3370     7.5300     7.0370    11.6270    92.2490     0.1460     2.5950
  903.5000   -70.3350     7.5050     7.0140    11.6240    92.6760     0.1360     2.6010
  904.0000   -70.3330     7.4810     7.0140    11.6200    91.0660     0.1250     2.6090
  904.5000   -70.3310     7.4570     7.0140    11.6170    88.7050     0.1140     2.6100
  905.0000   -70.3290     7.4320     7.0140    11.6130    87.5560     0.1030     2.6050
  905.5000   -70.3270     7.4080     7.0140    11.6090    87.8200     0.0980     2.6000
  906.0000   -70.3250     7.3830     7.0140    11.6080    87.9790     0.0990     2.5990
  906.5000   -70.3230     7.3590     7.0140    11.6010    87.9400     0.0990     2.5990
  907.0000   -70.3210     7.3350     7.0140    11.5970    88.2580     0.0990     2.5920
  907.5000   -70.3190     7.3100     7.0140    11.6090    88.5210     0.1000     2.5800
  908.0000   -70.3170     7.2860     7.0140    11.4480    85.2950     0.1050     2.5700
  908.5000   -70.3150     7.2740     7.0140    11.2960    80.9010     0.1090     2.5780
  909.0000   -70.3130     7.2720     7.0140    11.2930    84.0960     0.1110     2.5830
  909.5000   -70.3110     7.2700     7.0140    11.2790    86.0630     0.1110     2.5750
  910.0000   -70.3090     7.2680     7.0140    11.2600    87.0750     0.1110     2.5670
  910.5000   -70.3070     7.2650     7.0140    11.2470    88.2260     0.1110     2.5650
  911.0000   -70.3050     7.2630     7.0140    11.2320    87.6790     0.1110     2.5640
  911.5000   -70.3030     7.2610     7.0140    11.2160    86.8720     0.1120     2.5670
  912.0000   -70.3010     7.2580     7.0140    11.2010    86.2180     0.1120     2.5750
  912.5000   -70.2990     7.2560     7.0140    11.1860    88.7020     0.1130     2.5690
  913.0000   -70.2960     7.2530     7.0140    11.1710    90.7320     0.1140     2.5590
  913.5000   -70.2940     7.2510     7.0140    11.1560    90.9830     0.1160     2.5560
  914.0000   -70.2920     7.2490     7.0140    11.1580    91.0330     0.1210     2.5520
  914.5000   -70.2900     7.2460     7.0140    11.1630    87.9830     0.1260     2.5430
  915.0000   -70.2880     7.2440     7.0140    11.1680    85.7810     0.1270     2.5340
  915.5000   -70.2860     7.2410     7.0140    11.1730    83.5630     0.1270     2.5330
  916.0000   -70.2840     7.2390     7.0140    11.1780    88.3090     0.1270     2.5310
  916.5000   -70.2820     7.2370     7.0140    11.1830    93.1800     0.1270     2.5310
  917.0000   -70.2800     7.2340     7.0140    11.1880    95.6530     0.1240     2.5280
  917.5000   -70.2780     7.2320     7.0140    11.1930    93.4190     0.1210     2.5230
  918.0000   -70.2760     7.2300     7.0140    11.1990    91.5660     0.1180     2.5200
  918.5000   -70.2740     7.2270     7.0140    11.2040    89.8120     0.1150     2.5160
  919.0000   -70.2720     7.2250     7.0140    11.2090    88.1150     0.1120     2.5110
  919.5000   -70.2700     7.2220     7.0140    11.2140    88.8980     0.1110     2.5170
  920.0000   -70.2670     7.2200     7.0140    11.2190    89.6340     0.1100     2.5290
  920.5000   -70.2650     7.2180     7.0140    11.2240    90.4580     0.1090     2.5330
  921.0000   -70.2630     7.2150     7.0140    11.2290    91.2340     0.1080     2.5380
  921.5000   -70.2610     7.2130     7.0140    11.2340    92.0920     0.1070     2.5390
  922.0000   -70.2590     7.2100     7.0140    11.2390    92.8000     0.1080     2.5390
  922.5000   -70.2570     7.2080     7.0110    11.2440    93.3790     0.1120     2.5400
  923.0000   -70.2550     7.2060     7.0070    11.2490    90.1580     0.1160     2.5350
  923.5000   -70.2530     7.2030     7.0030    11.2540    87.1560     0.1350     2.5230
  924.0000   -70.2510     7.2010     6.9990    11.2590    83.9250     0.1530     2.5230
  924.5000   -70.2490     7.1990     6.9950    11.2640    80.5400     0.1720     2.5240
