~VERSION INFORMATION
 VERS.                2.0:   CWLS LOG ASCII STANDARD - VERSION 2.0
 WRAP.                 NO:   ONE LINE PER DEPTH STEP
~WELL INFORMATION
#MNEM.UNIT      DATA TYPE    INFORMATION
#----------   ------------   ------------------------------
 STRT.F         2299.0000:   START DEPTH
 STOP.F         3387.5000:   STOP DEPTH
 STEP.F            0.5000:   STEP LENGTH
 NULL.          -999.2500:   NO VALUE
 COMP. LAWRENCE ALLISON AND ASSOCIATES:   COMPANY
 WELL. 		  62-AX-3:   WELL
 FLD .                NPR:   FIELD
 LOC .       S3 T38N R78W:   LOCATION
 CNTY.            NATRONA:   COUNTY
 STAT.            WYOMING:   STATE
 CTRY. UNITED STATES OF AMERICA:   COUNTRY
 SRVC.      DRESSER ATLAS:   SERVICE COMPANY
 DATE.        14-JUN-1985:   LOGDATE
 API .     49025110330000:   API NUMBER
~CURVE INFORMATION
#MNEM.UNIT       API CODE    CURVE DESCRIPTION
#----------   ------------   ------------------------------
 DEPT.F                  :   
 NPHI.DEC    42 890 01 00:   NEUTRON POROSITY
 TEND.LBS    45 635 01 00:   TENSION
 RHOB.G/C3   45 350 01 00:   BULK DENSITY
 CORR.DEC    45 356 01 00:   CORRECTION
~PARAMETER INFORMATION
#MNEM.UNIT          VALUE    DESCRIPTION
#----------   ------------   ------------------------------
 EKB .F         5160.0000:   Kelly bushing
 EGL .F         5148.0000:   Ground level
 EDF .F            0.0000:   Drilling floor
 EPD .F         5148.0000:   Permanent datum
 TD  .F         3380.0000:   Total depth
 DATE.        14-JUN-1985:   Date logged
 CLNT.            A2DTECH:   Client Code
 PD  .                 GL:   Permanent Datum
 LMF .                 KB:   Log Measured From
 DMF .                 KB:   Drilling Measured From
 DL  .F              3380:   Depth logger
 BLI .F              3378:   Bottom log interval
 CS1 .IN            8.625:   Casing size
 CBD1.      8.625" @ 603':   Casing driller 1
 DFT .        KCL POLYMER:   Type fluid in hole
 ENGI.               MACK:   Recorded By
 WITN.             STRONG:   Witnessed by
 ORIG.       2.5"5" PRINT:   Origin of data
 UWI .     49025110330000:   Unique Well ID
 DICO. A2D TECHNOLOGIES, INC.:   Digitizing Company
 DAPD.F                12:   Feet Above Permanent Datum
 BS1 .IN            7.875:   Bit size
 DFD .                8.9:   Density
 DFV .                 46:   Viscosity
 DFPH.                8.5:   pH
 DFL .                9.6:   Fluid loss
 MSS .           FLOWLINE:   Source of sample
 RMS .OHMM           0.38:   Rm
 MST .F                74:   Rm Meas. temp.
 RMF .OHMM           0.29:   Rmf
 MFST.F                74:   Rmf Meas. temp.
 MFSS.               MEAS:   Source Rmf.
 RMC .OHMM           0.23:   Rmc
 MCST.F               120:   Rmc Meas. temp.
 MCSS.               MEAS:   Source Rmc.
 RMB .OHMM           0.23:   Rm. at BHT
 BHT .F               120:   BHT.
 TCS .                  8:   Time Circ. stopped
 MRT .                122:   Maximum recorded temp.
 LUN .            HL-6274:   Logging unit number
 LUL .               GLTE:   Logging unit location
~OTHER INFORMATION
~A     DEPTH         CORR         NPHI         RHOB         TEND
# ...
   3229.0000      -0.0100       0.2494       2.4790       0.2185
   3229.5000      -0.0030       0.2595       2.4760       0.2174
   3230.0000       0.0010       0.2636       2.4720       0.2164
   3230.5000      -0.0050       0.2515       2.4600       0.2153
   3231.0000      -0.0110       0.2472       2.4600       0.2143
   3231.5000      -0.0180       0.2477       2.4640       0.2145
   3232.0000      -0.0240       0.2527       2.4720       0.2182
   3232.5000      -0.0200       0.2637       2.4780       0.2220
   3233.0000      -0.0150       0.2708       2.4780       0.2258
   3233.5000      -0.0100       0.2743       2.4730       0.2295
   3234.0000      -0.0020       0.2755       2.4680       0.2333
   3234.5000       0.0000       0.2820       2.4630       0.2371
   3235.0000      -0.0090       0.2987       2.4640       0.2408
   3235.5000       0.0030       0.3001       2.4740       0.2414
   3236.0000       0.0130       0.2988       2.4850       0.2358
   3236.5000       0.0180       0.2978       2.4840       0.2302
   3237.0000       0.0130       0.2962       2.4800       0.2246
   3237.5000       0.0080       0.2883       2.4750       0.2190
   3238.0000       0.0020       0.2792       2.4660       0.2135
   3238.5000       0.0040       0.2722       2.4510       0.2183
   3239.0000       0.0110       0.2674       2.4510       0.2231
   3239.5000       0.0160       0.2589       2.4550       0.2279
   3240.0000      -0.0020       0.2474       2.4630       0.2327
   3240.5000      -0.0160       0.2473       2.4740       0.2340
   3241.0000      -0.0310       0.2472       2.4860       0.2348
   3241.5000      -0.0230       0.2462       2.4930       0.2355
   3242.0000      -0.0160       0.2289       2.4910       0.2363
   3242.5000      -0.0110       0.2260       2.4880       0.2370
   3243.0000      -0.0150       0.2279       2.4880       0.2378
   3243.5000      -0.0170       0.2330       2.4890       0.2385
   3244.0000      -0.0190       0.2413       2.4890       0.2393
   3244.5000      -0.0200       0.2406       2.4880       0.2400
   3245.0000      -0.0220       0.2381       2.4820       0.2408
   3245.5000      -0.0240       0.2359       2.4780       0.2415
   3246.0000      -0.0260       0.2505       2.4760       0.2423
   3246.5000      -0.0170       0.2576       2.4760       0.2430
   3247.0000      -0.0020       0.2545       2.4790       0.2430
   3247.5000       0.0100       0.2500       2.4880       0.2424
   3248.0000       0.0040       0.2352       2.4990       0.2418
   3248.5000      -0.0120       0.2345       2.4990       0.2413
   3249.0000      -0.0170       0.2404       2.4950       0.2407
   3249.5000      -0.0160       0.2571       2.4910       0.2402
   3250.0000      -0.0110       0.2611       2.4820       0.2396
   3250.5000      -0.0060       0.2635       2.4650       0.2391
   3251.0000       0.0000       0.2685       2.4590       0.2385
   3251.5000       0.0030       0.2762       2.4520       0.2379
   3252.0000       0.0050       0.2828       2.4460       0.2374
   3252.5000      -0.0010       0.2863       2.4390       0.2368
   3253.0000      -0.0090       0.2844       2.4320       0.2363
   3253.5000      -0.0180       0.2760       2.4320       0.2357
   3254.0000      -0.0170       0.2765       2.4360       0.2352
   3254.5000      -0.0100       0.2848       2.4380       0.2346
   3255.0000       0.0040       0.2922       2.4340       0.2341
   3255.5000       0.0080       0.2975       2.4300       0.2335
   3256.0000      -0.0050       0.2983       2.4280       0.2328
   3256.5000      -0.0140       0.2989       2.4300       0.2320
   3257.0000      -0.0050       0.2991       2.4360       0.2312
   3257.5000       0.0060       0.2897       2.4430       0.2305
   3258.0000       0.0130       0.2861       2.4500       0.2297
   3258.5000       0.0070       0.2863       2.4560       0.2289
   3259.0000       0.0000       0.2906       2.4540       0.2282
   3259.5000      -0.0050       0.3005       2.4500       0.2274
   3260.0000       0.0020       0.2998       2.4450       0.2266
   3260.5000       0.0090       0.3067       2.4430       0.2259
   3261.0000       0.0080       0.3165       2.4420       0.2251
   3261.5000      -0.0030       0.3287       2.4320       0.2243
   3262.0000      -0.0060       0.3265       2.4060       0.2236
   3262.5000       0.0120       0.3288       2.3760       0.2277
   3263.0000       0.0250       0.3330       2.3700       0.2327
   3263.5000       0.0150       0.3305       2.3800       0.2299
   3264.0000       0.0020       0.3132       2.3880       0.2259
   3264.5000      -0.0030       0.2896       2.3890       0.2220
   3265.0000       0.0090       0.2625       2.3950       0.2180
   3265.5000       0.0150       0.2010       2.4110       0.2140
   3266.0000      -0.0020       0.1386       2.4470       0.2301
   3266.5000      -0.0150       0.1284       2.5020       0.2442
   3267.0000      -0.0140       0.1319       2.5110       0.2473
   3267.5000      -0.0090       0.1447       2.4940       0.2505
   3268.0000      -0.0040       0.1674       2.4800       0.2542
   3268.5000       0.0010       0.1892       2.4750       0.2632
   3269.0000       0.0020       0.1987       2.4860       0.2644
   3269.5000       0.0040       0.2016       2.4940       0.2658
   3270.0000       0.0080       0.2028       2.5020       0.2672
   3270.5000       0.0190       0.2021       2.5080       0.2686
   3271.0000       0.0250       0.2011       2.5090       0.2700
   3271.5000       0.0210       0.2001       2.5100       0.2714
   3272.0000       0.0180       0.2001       2.5210       0.2728
   3272.5000       0.0190       0.2006       2.5270       0.2742
   3273.0000       0.0150       0.2071       2.5310       0.2755
   3273.5000       0.0080       0.2418       2.5370       0.2769
   3274.0000      -0.0010       0.2615       2.5460       0.2783
   3274.5000      -0.0070       0.2695       2.5380       0.2797
   3275.0000      -0.0060       0.2757       2.5200       0.2811
   3275.5000      -0.0040       0.2813       2.5020       0.2825
   3276.0000      -0.0020       0.2828       2.4940       0.2775
   3276.5000      -0.0010       0.2821       2.4930       0.2684
   3277.0000       0.0010       0.2790       2.5010       0.2635
   3277.5000       0.0030       0.2724       2.5090       0.2641
   3278.0000       0.0110       0.2645       2.5140       0.2648
   3278.5000       0.0250       0.2599       2.5160       0.2655
   3279.0000       0.0280       0.2593       2.5160       0.2662
   3279.5000       0.0180       0.2629       2.5180       0.2669
   3280.0000       0.0050       0.2699       2.5200       0.2676
   3280.5000       0.0090       0.2662       2.5250       0.2683
   3281.0000       0.0170       0.2540       2.5250       0.2690
   3281.5000       0.0190       0.2391       2.5210       0.2697
   3282.0000       0.0180       0.2339       2.5160       0.2704
   3282.5000       0.0170       0.2376       2.5050       0.2711
   3283.0000       0.0130       0.2410       2.5090       0.2718
   3283.5000       0.0070       0.2391       2.5140       0.2725
   3284.0000      -0.0020       0.2363       2.5140       0.2732
   3284.5000      -0.0090       0.2404       2.5070       0.2739
   3285.0000      -0.0080       0.2440       2.4990       0.2746
   3285.5000      -0.0080       0.2460       2.4910       0.2752
   3286.0000      -0.0070       0.2453       2.4850       0.2759
   3286.5000      -0.0080       0.2437       2.4760       0.2766
   3287.0000      -0.0140       0.2404       2.4670       0.2773
   3287.5000      -0.0200       0.2337       2.4700       0.2780
   3288.0000      -0.0210       0.2246       2.4770       0.2787
   3288.5000      -0.0150       0.2288       2.4900       0.2794
   3289.0000      -0.0070       0.2329       2.4990       0.2801
   3289.5000       0.0120       0.2385       2.5050       0.2808
   3290.0000       0.0220       0.2399       2.4990       0.2815
   3290.5000       0.0140       0.2374       2.4940       0.2822
