~VERSION INFORMATION
 VERS.                2.0:   CWLS LOG ASCII STANDARD - VERSION 2.0
 WRAP.                 NO:   ONE LINE PER DEPTH STEP
~WELL INFORMATION
#MNEM.UNIT      DATA TYPE    INFORMATION
#----------   ------------   ------------------------------
 STRT.F           61.5000:   START DEPTH
 STOP.F         4220.0000:   STOP DEPTH
 STEP.F            0.5000:   STEP LENGTH
 NULL.          -999.2500:   NO VALUE
 COMP.   LAWRENCE ALLISON:   COMPANY
 WELL. ALLISON NPR 3 "LX" #28-34:   WELL
 FLD .                NPR:   FIELD
 LOC .      S34 T39N R78W:   LOCATION
 CNTY.            NATRONA:   COUNTY
 STAT.            WYOMING:   STATE
 CTRY. UNITED STATES OF AMERICA:   COUNTRY
 SRVC.       DRESER ATLAS:   SERVICE COMPANY
 DATE.        23-MAR-1983:   LOGDATE
 API .     49025109190000:   API NUMBER
~CURVE INFORMATION
#MNEM.UNIT       API CODE    CURVE DESCRIPTION
#----------   ------------   ------------------------------
 DEPT.F                  :   
 TEND.LBS    45 635 01 00:   TENSION FROM DENSITY LOG
 CORR.G/C3   45 356 01 00:   DENSITY CORRECTION
 RHOB.G/C3   45 350 01 00:   BULK DENSITY
 CN  .DEC    42 890 00 00:   Neutron Porosity
 SPR .MV     07 010 01 00:   SPONTANEOUS POTENTIAL
 GRR .GAPI   07 310 01 00:   GAMMA RAY FROM RESISTIVITY
 TENR.LBS    07 635 01 00:   TENSION FROM RESISTIVITY
 RILD.OHMM   07 120 46 00:   DEEP INDUCTION RESISTIVITY
 RILM.OHMM   07 120 44 00:   INDUCTION LOG MEDIUM RESISTIVITY
 RFOC.OHMM   07 220 01 00:   RESISTIVITY FOCUSED LOG RES.
 TENS.LBS    60 635 01 00:   TENSION FROM SONIC LOG
 DT  .US/F   60 520 00 00:   DELTA TIME
 CALS.IN     60 280 50 00:   CALIPER FROM SONIC LOG
~PARAMETER INFORMATION
#MNEM.UNIT          VALUE    DESCRIPTION
#----------   ------------   ------------------------------
 EKB .F         5184.0000:   Kelly bushing
 EGL .F         5174.0000:   Ground level
 EDF .F            0.0000:   Drilling floor
 TD  .F         4397.0000:   Total depth
 DATE.        23-MAR-1983:   Date logged
 CLNT.            A2DTECH:   Client Code
 SL  . 942' FWL & 645' FSL:   Surface Location
 PD  .                 GL:   Permanent Datum
 EPD .F              5174:   Elevation Permanent Datum
 LMF .                 KB:   Log Measured From
 DMF .                 KB:   Drilling Measured From
 DAPD.F                10:   Feet Above Permanent Datum
 DD  .F              4397:   Depth driller
 DL  .F              4203:   Depth logger
 BLI .F              4201:   Bottom log interval
 CS1 .IN            9.625:   Casing size
 CBD1.      9.625" @ 659':   Casing driller 1
 CBL1.F               658:   Casing logger 1
 BS1 .IN             8.75:   Bit size
 BSD1.F              4397:   Depth drilled with bit1
 DFT .   GEL/DRISPACK/KCL:   Type fluid in hole
 DFD .                8.6:   Density
 DFV .                 36:   Viscosity
 DFPH.                8.5:   pH
 DFL .                 18:   Fluid loss
 MSS .               TANK:   Source of sample
 RMS .OHMM           0.55:   Rm
 MST .F                74:   Rm Meas. temp.
 RMF .OHMM           0.43:   Rmf
 MFST.F                66:   Rmf Meas. temp.
 RMC .OHMM           0.69:   Rmc
 MCST.F                74:   Rmc Meas. temp.
 MFSS.               MEAS:   Source Rmf.
 MCSS.               CALC:   Source Rmc.
 RMB .OHMM           0.33:   Rm. at BHT
 BHT .F               122:   BHT.
 TCS .HRS             5.5:   Time Circ. stopped
 MRT .F               122:   Maximum recorded temp.
 LUN .               6270:   Logging unit number
 LUL .              WLSTN:   Logging unit location
 ENGI.             REEVES:   Recorded By
 WITN.             STRONG:   Witnessed by
 ORIG.           5" PRINT:   Origin of data
 UWI .     49025109190000:   Unique Well ID
 DICO. A2D TECHNOLOGIES, INC.:   Digitizing Company
~OTHER INFORMATION
~A   DEPT     TEND       CORR       RHOB         CN        SPR         GRR      TENR       RILD       RILM       RFOC       TENS         DT       CALS   
# ...
 3233.5000   -39.0110     0.0430     2.4940     0.2010   -54.0280   108.0930  -142.5650     3.6570     3.6920     3.6970   -83.5940    84.3540    14.2040
 3234.0000   -34.5690     0.0240     2.4940     0.1970   -54.1090   105.5790   -86.7940     3.8660     3.8840     4.1190   -54.2170    81.9350    14.2010
 3234.5000   -34.5690     0.0080     2.4940     0.1940   -54.1970   103.1000   -66.6710     4.0760     4.0760     4.5420   -87.9770    79.5160    14.1990
 3235.0000   -34.5690    -0.0090     2.4940     0.1970   -54.2680   100.2260   -95.1900     4.2860     4.2670     4.9640  -119.4780    78.1930    14.1960
 3235.5000   -34.5690    -0.0280     2.4940     0.2030   -54.3460    98.9040  -123.7100     4.4850     4.4590     5.2950  -154.6180    78.0520    14.1930
 3236.0000   -32.9390    -0.0260     2.4940     0.2080   -54.4210   100.0340  -143.3200     4.6210     4.6510     5.2950  -141.2450    80.4080    14.1910
 3236.5000   -29.5860    -0.0010     2.4910     0.2100   -54.4980   104.6760  -137.6860     4.7400     4.8280     5.2950  -124.4980    83.0730    14.1880
 3237.0000   -26.2320     0.0140     2.4890     0.2090   -54.5740   108.8930  -132.0530     4.6550     4.7280     5.0740  -128.0550    85.4820    14.1860
 3237.5000   -22.8790     0.0210     2.4940     0.2080   -54.6500   107.8020  -126.4200     4.5770     4.6350     4.8690  -135.2550    85.2810    14.1820
 3238.0000   -19.5260     0.0290     2.4940     0.2070   -54.7260   104.8320  -130.1000     4.4980     4.5420     4.6640  -142.4560    83.6170    14.1770
 3238.5000   -16.1720     0.0260     2.4870     0.2110   -54.8020   102.1310  -137.7050     4.4190     4.4490     4.4590  -149.6560    83.0260    14.1350
 3239.0000   -14.5290     0.0240     2.4800     0.2150   -54.8790   102.0620  -145.3110     4.3410     4.3560     4.4030  -156.8560    83.5300    14.0960
 3239.5000   -12.7250     0.0230     2.4760     0.2160   -54.9550   104.5860  -152.9160     4.2620     4.2630     4.3300  -164.6590    84.0340    14.0550
 3240.0000   -11.1030     0.0120     2.4790     0.2150   -55.0310   108.6800  -131.9640     4.1830     4.1700     4.2520  -130.0200    84.5380    14.0150
 3240.5000    -9.4800    -0.0100     2.4810     0.2140   -55.1070   112.8760  -101.5430     4.1050     4.0770     4.1740  -104.4180    84.9120    13.9750
 3241.0000    -7.8580    -0.0130     2.4820     0.2120   -55.1830   113.2770  -104.3090     4.0260     3.9840     4.0960  -121.0560    85.0130    13.9400
 3241.5000    -6.2350    -0.0180     2.4830     0.2100   -55.2600   111.8430  -129.6590     3.9470     3.8910     4.0180  -139.0560    85.0090    13.9280
 3242.0000    -4.6120    -0.0230     2.4840     0.2080   -55.3360   110.5070  -154.8100     3.8690     3.7980     3.9410  -154.6180    84.7930    13.9160
 3242.5000    -2.9900    -0.0270     2.4870     0.2000   -55.3980   109.7400  -144.7900     3.8690     3.8450     4.0380  -152.5550    84.5770    13.9050
 3243.0000    -1.3670    -0.0300     2.4920     0.1980   -55.3990   109.2910  -144.7900     3.8390     3.8910     4.1350  -149.7550    84.1780    13.9000
 3243.5000     0.2550    -0.0220     2.4960     0.2020   -55.4010   110.1530  -144.7900     3.8020     3.9370     4.2310  -146.9540    83.6230    13.9000
 3244.0000     1.8780    -0.0140     2.5010     0.2110   -55.4000   112.1680  -144.7900     3.7660     3.9830     4.3220  -144.5780    83.0690    13.9000
 3244.5000     3.5010    -0.0060     2.4960     0.2140   -55.4000   115.6600  -144.7900     3.7290     4.0290     4.4030  -146.6870    82.5140    13.9000
 3245.0000     5.1230     0.0020     2.4870     0.2140   -55.4000   119.0540  -144.7900     3.6920     4.0890     4.4030  -149.4870    82.3630    13.9000
 3245.5000     4.6790     0.0100     2.4770     0.2150   -55.4000   122.7690  -151.6280     3.6560     4.0520     4.3180  -152.2870    82.6530    13.9000
 3246.0000     3.5850     0.0160     2.4750     0.2200   -55.4000   123.7070  -149.7600     3.6190     3.9230     4.0260  -154.6180    84.0760    13.9000
 3246.5000     2.4920     0.0020     2.4840     0.2210   -55.4000   121.1760  -139.6190     3.5820     3.7940     3.7340  -124.4980    85.9390    13.9000
 3247.0000     1.3980    -0.0030     2.4950     0.2150   -55.4010   116.3290  -134.7700     3.5460     3.6650     3.5790  -133.2470    87.5350    13.9000
 3247.5000     0.3050     0.0160     2.5050     0.2140   -55.3990   112.8210  -140.9490     3.5090     3.5280     3.5520  -142.2480    87.8920    13.9000
 3248.0000    -0.7890     0.0360     2.5030     0.2150   -55.4030   112.8210  -149.3990     3.4720     3.6240     3.5280  -151.2480    87.8920    13.9000
 3248.5000    -1.8820     0.0250     2.5010     0.2250   -55.3990   112.4550  -157.8490     3.5420     3.8000     3.8820  -160.2480    86.5000    13.9010
 3249.0000    -2.9760     0.0170     2.4980     0.2230   -55.3870   113.1650  -164.8300     3.5810     3.9890     4.0680  -169.2480    85.3240    13.9230
 3249.5000    -4.0690     0.0270     2.4930     0.2240   -55.2140   114.0050  -156.3200     3.6200     3.9440     4.1660  -171.8530    85.3140    13.9460
 3250.0000    -3.9480     0.0520     2.4870     0.2270   -55.0660   113.4610  -149.0710     3.6590     3.8540     4.1660  -164.6390    85.6090    13.9700
 3250.5000    -3.0100     0.0850     2.4800     0.2310   -54.9060   113.0810  -146.6840     3.6990     3.7630     3.9850  -157.4240    85.9030    13.9940
 3251.0000    -2.0710     0.0660     2.4780     0.2250   -54.7510   110.8400  -151.3120     3.7520     3.7290     3.9030  -156.7870    86.1980    14.0170
 3251.5000    -1.1330     0.0300     2.4840     0.2150   -54.5950   108.3430  -155.9390     3.8540     3.7850     4.0540  -166.9080    86.4860    14.0410
 3252.0000    -0.1940     0.0100     2.4920     0.2070   -54.4390   108.3900  -160.5670     3.9550     3.9140     4.2430  -177.0280    86.0880    14.0640
 3252.5000     0.7440     0.0180     2.5010     0.2030   -54.2840   110.0140  -164.8300     4.0570     4.0420     4.2430  -187.1490    85.2320    14.0880
 3253.0000     1.6830     0.0230     2.5010     0.2000   -54.1260   111.4970  -171.6930     4.1580     4.1710     4.3990  -194.7790    84.3750    14.1110
 3253.5000     2.6210     0.0210     2.4940     0.1960   -53.9740   113.0650  -178.0560     4.2600     4.2990     4.6650  -192.4900    83.5190    14.1350
 3254.0000     3.5600     0.0210     2.4920     0.1950   -53.8070   112.7350  -184.8700     4.3610     4.4280     4.8280  -187.4300    82.6630    14.1580
 3254.5000     4.4980     0.0170     2.4930     0.2000   -53.6810   110.1120  -149.3990     4.4630     4.5560     4.8280  -184.7390    81.8670    14.1820
 3255.0000     5.5110     0.0090     2.4920     0.2060   -53.5430   111.1410  -104.4590     4.5680     4.7400     4.8280  -152.2090    81.4340    14.2050
 3255.5000     4.9550     0.0020     2.4860     0.2110   -53.4100   112.7570   -47.1940     4.5180     4.6650     4.8280  -124.4980    81.0640    14.2290
 3256.0000     4.3520    -0.0060     2.4700     0.2110   -53.2740   112.8550   -54.4090     4.4300     4.5330     4.8280   -44.1770    81.3940    14.2520
 3256.5000     3.7480     0.0090     2.4500     0.2160   -53.1390   112.3730   -84.6690     4.3410     4.4000     4.6980   -44.1770    81.6670    14.2760
 3257.0000     3.1440     0.0240     2.4310     0.2250   -53.0040   111.6590   -84.6690     4.2530     4.2680     4.4800   -74.2970    82.7830    14.3010
 3257.5000     2.5410     0.0350     2.4360     0.2310   -52.8690   112.8390   -84.6690     4.1640     4.1360     4.2620   -84.3370    83.6750    14.3550
 3258.0000     1.9370     0.0140     2.4410     0.2330   -52.7340   115.3520   -61.8240     4.0760     4.0030     4.0440   -66.0640    85.6160    14.4100
 3258.5000     1.3340    -0.0140     2.4470     0.2320   -52.6000   117.0420    -4.5090     3.9880     3.8710     3.7980   -40.7630    87.3510    14.4670
 3259.0000     0.7300    -0.0380     2.4430     0.2350   -52.4630   115.4910    -4.5090     3.8990     3.7390     3.8130   -14.0560    88.7530    14.5230
