~VERSION INFORMATION
 VERS.                2.0:   CWLS LOG ASCII STANDARD - VERSION 2.0
 WRAP.                 NO:   ONE LINE PER DEPTH STEP
~WELL INFORMATION
#MNEM.UNIT      DATA TYPE    INFORMATION
#----------   ------------   ------------------------------
 STRT.F           36.0000:   START DEPTH
 STOP.F         3014.5000:   STOP DEPTH
 STEP.F            0.5000:   STEP LENGTH
 NULL.          -999.2500:   NO VALUE
 COMP.    TESRO PETROLEUM:   COMPANY
 WELL. TESORO N.P.R. "A" #6-21:   WELL
 FLD .             TEAPOT:   FIELD
 LOC .      S21 T39N R78W:   LOCATION
 CNTY.            NATRONA:   COUNTY
 STAT.            WYOMING:   STATE
 CTRY. UNITED STATES OF AMERICA:   COUNTRY
 SRVC.              WELEX:   SERVICE COMPANY
 DATE.        16-JUL-1968:   LOGDATE
 API .     49025100180000:   API NUMBER
~CURVE INFORMATION
#MNEM.UNIT       API CODE    CURVE DESCRIPTION
#----------   ------------   ------------------------------
 DEPT.F                  :   
 SPR .MV     05 010 01 00:   SPONTANEOUS POTENTIAL FROM RES.
 ASN .OHMM   05 041 18 00:   AMPLIFIED SHORT NORMAL 18"
 IL  .OHMM   05 120 00 00:   INDUCTION LOG
 GRD .GAPI   45 310 01 00:   GAMMA RAY FROM DENSITY LOG
 CALD.IN     45 280 60 00:   CALIPER FROM DENSITY LOG
 GDEN.CPS    45 350 30 00:   GAMMA DENS
~PARAMETER INFORMATION
#MNEM.UNIT          VALUE    DESCRIPTION
#----------   ------------   ------------------------------
 EKB .F         5002.0000:   Kelly bushing
 EGL .F         4991.0000:   Ground level
 EDF .F         5001.0000:   Drilling floor
 TD  .F         3025.0000:   Total depth
 DATE.        16-JUL-1968:   Date logged
 CLNT.            A2DTECH:   Client Code
 PD  .                 GL:   Permanent Datum
 EPD .F              4991:   Elevation Permanent Datum
 LMF .                 KB:   Log Measured From
 DMF .                 KB:   Drilling Measured From
 DD  .F              3025:   Depth driller
 DL  .F              3019:   Depth logger
 BLI .F              3014:   Bottom log interval
 TLI .F              2670:   Top log interval
 CS1 .IN            10.75:   Casing size
 CBD1.      10.75" @ 325':   Casing driller 1
 CBL1.F               325:   Casing logger 1
 BS1 .IN                9:   Bit size
 BSD1.F              3025:   Depth drilled with bit1
 DFT .     WATER BASE MUD:   Type fluid in hole
 DFD .                9.7:   Density
 DFV .                 60:   Viscosity
 DFL .                6.4:   Fluid loss
 MSS .              CIRC.:   Source of sample
 RMS .OHMM            2.2:   Rm
 MST .F                84:   Rm Meas. temp.
 RMF .OHMM            1.6:   Rmf
 MFST.F                70:   Rmf Meas. temp.
 RMC .OHMM            3.3:   Rmc
 MCST.F                68:   Rmc Meas. temp.
 MFSS.               MEAS:   Source Rmf.
 RMB .OHMM           1.55:   Rm. at BHT
 BHT .F               120:   BHT.
 MRT .F               120:   Maximum recorded temp.
 LUN .               6869:   Logging unit number
 LUL .                 NC:   Logging unit location
 ENGI.          H. STEITZ:   Recorded By
 WITN.                MAY:   Witnessed by
 ORIG.           5" PRINT:   Origin of data
 UWI .     49025100180000:   Unique Well ID
 DICO. A2D TECHNOLOGIES, INC.:   Digitizing Company
~OTHER INFORMATION
~A   DEPT      SPR        ASN           IL      GRD       CALD       GDEN   
# ...
 1804.0000   -32.2890    14.7030    10.3860    97.6210     9.4280  1180.0200
 1804.5000   -32.4030    14.6900    10.6920    95.8530     9.4280  1189.4139
 1805.0000   -32.5160    14.7560    10.9970    94.0130     9.4280  1192.9750
 1805.5000   -32.6310    14.9280    11.3020    92.4120     9.4280  1183.3230
 1806.0000   -32.4890    15.2830    11.5880    93.7550     9.4280  1170.4540
 1806.5000   -32.3080    15.9700    11.7120    92.6050     9.4280  1163.4530
 1807.0000   -32.0100    16.0040    11.7160    92.6390     9.4280  1167.0970
 1807.5000   -31.6440    15.5580    11.4110    95.0130     9.4280  1151.1930
 1808.0000   -31.5240    15.0600    11.0710    95.4260     9.4280  1157.8030
 1808.5000   -31.6640    14.5570    10.7280    93.4120     9.4280  1170.0800
 1809.0000   -31.8020    14.2140    10.3830    94.4540     9.4280  1160.0040
 1809.5000   -31.9410    14.0970    10.1390    93.6450     9.4280  1148.0551
 1810.0000   -32.0810    13.9920    10.0100    90.4260     9.4280  1137.2760
 1810.5000   -32.2280    14.2840    10.1160    90.0460     9.4280  1137.4130
 1811.0000   -31.9510    14.6120    10.6600    88.1540     9.4280  1139.6310
 1811.5000   -31.5670    14.6870    11.1020    88.3550     9.4280  1141.8490
 1812.0000   -31.1830    14.6170    11.0940    91.6100     9.4280  1145.2290
 1812.5000   -30.8710    14.5380    11.0000    88.7830     9.4280  1153.0389
 1813.0000   -31.2480    14.4580    10.9040    86.8250     9.4280  1157.1570
 1813.5000   -31.3390    14.3860    10.8090    89.5040     9.4280  1156.1630
 1814.0000   -31.4170    14.4940    10.9170    92.4820     9.4280  1149.0560
 1814.5000   -31.4940    14.6230    11.1080    95.7710     9.4280  1149.3330
 1815.0000   -31.5700    14.7540    11.3000    97.2980     9.4280  1155.4880
 1815.5000   -31.6470    14.8840    11.4920    98.0180     9.4280  1162.1270
 1816.0000   -31.7240    15.0140    11.6070    95.7330     9.4280  1166.1030
 1816.5000   -31.8010    15.0890    11.5480    96.7730     9.4280  1156.1630
 1817.0000   -31.8770    15.0310    11.4600    98.6660     9.4280  1160.1390
 1817.5000   -31.9540    14.7540    11.3710    99.4150     9.4280  1155.5000
 1818.0000   -32.0320    14.4720    11.3030    98.9850     9.4280  1147.6140
 1818.5000   -32.0580    14.3960    11.3040    97.8970     9.4280  1154.8940
 1819.0000   -32.4030    14.3930    11.3050    97.6080     9.4280  1165.4230
 1819.5000   -32.6180    14.3930    11.3050    95.3210     9.4280  1173.0620
 1820.0000   -32.5130    14.3950    11.2890    92.3390     9.4280  1155.1190
 1820.5000   -32.4160    14.4450    10.9940    91.5990     9.4280  1159.8270
 1821.0000   -32.3180    14.5470    10.7080    91.3620     9.4280  1165.0280
 1821.5000   -32.2220    14.1720    10.4210    90.2260     9.4280  1157.1930
 1822.0000   -32.1270    13.7930    10.1360    87.9140     9.4280  1149.3580
 1822.5000   -32.0890    13.4150     9.8510    84.7600     9.4280  1141.5240
 1823.0000   -32.2810    13.0390     9.5250    83.2440     9.4280  1133.6890
 1823.5000   -32.4700    12.7940     9.5060    82.6090     9.4280  1135.8450
 1824.0000   -32.6430    12.8540     9.4780    82.2090     9.4280  1150.1990
 1824.5000   -32.5260    13.1920     9.6980    81.1680     9.4280  1147.2419
 1825.0000   -32.3540    13.5290    10.0500    79.0300     9.4280  1142.7440
 1825.5000   -32.1820    13.8680    10.4040    79.6870     9.4280  1146.8190
 1826.0000   -32.0090    14.0720    10.7610    84.2930     9.4280  1142.1720
 1826.5000   -31.8370    14.1970    11.0960    88.4560     9.4280  1139.4230
 1827.0000   -31.6650    14.3230    11.1040    92.5980     9.4280  1140.4370
 1827.5000   -31.6560    14.3060    11.0240    96.7560     9.4280  1141.2520
 1828.0000   -31.6560    14.1020    10.6520   100.7750     9.4280  1147.1370
 1828.5000   -31.6570    13.9010    10.3160   100.3960     9.4240  1144.5000
 1829.0000   -31.6570    13.6990    10.3070    99.3480     9.4200  1141.2520
 1829.5000   -31.6590    13.4980    10.2900    95.3490     9.4160  1147.2170
 1830.0000   -31.5140    13.2970    10.2750    91.9600     9.4130  1151.1930
 1830.5000   -31.2850    13.2390    10.2590    91.5400     9.4090  1147.2740
 1831.0000   -31.0700    13.4010    10.2430    89.9930     9.4150  1146.2230
 1831.5000   -31.0630    13.5570    10.2260    89.8820     9.4210  1158.1510
 1832.0000   -31.0640    13.7000    10.2090    90.5990     9.4280  1144.4330
 1832.5000   -31.0820    13.6580    10.1780    89.6120     9.4340  1141.1860
 1833.0000   -31.4230    13.3930     9.9650    87.6900     9.4400  1148.6219
 1833.5000   -31.7590    13.1280     9.7510    85.2610     9.4470  1156.0570
 1834.0000   -32.0980    12.8630     9.5370    83.2370     9.4430  1162.1270
 1834.5000   -32.1380    12.6660     9.3230    85.2310     9.4380  1162.1270
 1835.0000   -32.0010    12.5970     9.1070    89.7550     9.4330  1154.6100
 1835.5000   -31.8590    12.5990     8.8880    91.9700     9.4280  1153.1810
 1836.0000   -31.7150    12.5980     8.9430    91.0670     9.4220  1159.1450
 1836.5000   -31.6670    12.5990     9.1290    90.8400     9.4170  1158.1510
 1837.0000   -32.0300    12.6180     9.4180    92.1410     9.4120  1156.0040
 1837.5000   -32.4140    13.0260     9.7050    90.7990     9.4090  1153.1810
 1838.0000   -32.6460    13.4310     9.9910    88.2790     9.4110  1150.6130
 1838.5000   -32.6400    13.6700    10.2770    85.7990     9.4130  1144.9301
 1839.0000   -32.5520    13.7290    10.5660    83.8980     9.4140  1137.3260
 1839.5000   -32.1190    13.7660    10.7870    84.8830     9.4160  1129.7220
 1840.0000   -31.6880    13.7430    10.8130    88.9740     9.4180  1123.3600
 1840.5000   -31.4570    13.5360    10.5380    89.8060     9.4190  1130.5450
 1841.0000   -31.4580    13.3330    10.1610    89.5930     9.4210  1138.5120
 1841.5000   -31.5520    13.1320     9.8280    88.6750     9.4220  1146.2230
 1842.0000   -31.7430    12.9320     9.8150    87.8000     9.4240  1148.2111
 1842.5000   -31.9330    12.8200     9.7020    88.2760     9.4260  1142.2469
 1843.0000   -32.1230    12.9100     9.7830    87.0140     9.4270  1138.2700
 1843.5000   -32.2530    12.9950     9.9190    84.8320     9.4290  1133.9960
 1844.0000   -32.2500    13.0800    10.0500    82.6210     9.4310  1125.9440
 1844.5000   -32.2400    13.1660    10.2160    81.3470     9.4320  1117.6490
 1845.0000   -31.9260    13.0760    10.1900    82.2680     9.4340  1117.2850
 1845.5000   -31.5880    12.8720    10.0020    81.5710     9.4360  1125.1710
 1846.0000   -31.5680    12.6690     9.8130    79.9940     9.4370  1127.3361
 1846.5000   -31.7500    12.4650     9.6260    80.3460     9.4390  1117.2960
 1847.0000   -31.8560    12.2620     9.4400    79.0060     9.4400  1114.1980
 1847.5000   -31.8550    12.0580     9.2540    78.5640     9.4420  1111.1000
 1848.0000   -31.8550    11.8550     9.0680    79.2580     9.4440  1108.0020
 1848.5000   -31.8580    11.6510     8.8820    80.3680     9.4460  1102.6440
 1849.0000   -31.6990    11.4730     8.6960    81.3570     9.4470  1104.4360
 1849.5000   -31.4690    11.3680     8.5080    83.0750     9.4690  1110.5229
 1850.0000   -31.2380    11.2620     8.3450    84.7670     9.4680  1116.6100
 1850.5000   -31.0060    11.1550     8.1890    86.4550     9.4680  1121.5811
 1851.0000   -30.7750    11.1050     8.1640    86.8930     9.4680  1121.6100
 1851.5000   -30.7230    11.1060     8.2200    84.8120     9.4680  1116.5110
 1852.0000   -31.0810    11.1050     8.2770    83.4020     9.4680  1111.4120
 1852.5000   -31.4400    11.1050     8.3350    84.4570     9.4680  1108.1010
 1853.0000   -31.6600    11.1050     8.3940    83.9170     9.4680  1106.4611
 1853.5000   -31.6060    11.1120     8.4800    84.3090     9.4680  1102.0780
 1854.0000   -31.4790    11.2780     8.5840    84.7290     9.4680  1100.3450
 1854.5000   -31.3530    11.4470     8.6870    87.4630     9.4680  1101.4910
 1855.0000   -31.2270    11.6170     8.7900    88.3610     9.4680  1096.3220
 1855.5000   -31.0970    11.7860     8.8940    85.9210     9.4680  1090.7980
