~VERSION INFORMATION
 VERS.                2.0:   CWLS LOG ASCII STANDARD - VERSION 2.0
 WRAP.                 NO:   ONE LINE PER DEPTH STEP
~WELL INFORMATION
#MNEM.UNIT      DATA TYPE    INFORMATION
#----------   ------------   ------------------------------
 STRT.F           96.5000:   START DEPTH
 STOP.F         2720.0000:   STOP DEPTH
 STEP.F            0.5000:   STEP LENGTH
 NULL.          -999.2500:   NO VALUE
 COMP.          INTEX OIL:   COMPANY
 WELL. INTEX NPR 65 "AX" #3-20:   WELL
 FLD .             TEAPOT:   FIELD
 LOC .      S20 T39N R78W:   LOCATION
 CNTY.            NATRONA:   COUNTY
 STAT.            WYOMING:   STATE
 CTRY. UNITED STATES OF AMERICA:   COUNTRY
 SRVC.       SCHLUMBERGER:   SERVICE COMPANY
 DATE.        04-MAY-1966:   LOGDATE
 API .     49025094910000:   API NUMBER
~CURVE INFORMATION
#MNEM.UNIT       API CODE    CURVE DESCRIPTION
#----------   ------------   ------------------------------
 DEPT.F                  :   
 SPR .MV     05 010 01 00:   SPONTANEOUS POTENTIAL FROM RES.
 SN  .OHMM   05 040 16 00:   SHORT NORMAL 16"
 ILD .OHMM   05 120 46 00:   INDUCTION LOG DEEP
 CALD.IN     45 280 60 00:   CALIPER FROM DENSITY LOG
 CORR.G/C3   45 356 01 00:   DENSITY CORRECTION
 GRD .GAPI   45 310 01 00:   GAMMA RAY FROM DENSITY LOG
 RHOB.G/C3   45 350 01 00:   BULK DENSITY
~PARAMETER INFORMATION
#MNEM.UNIT          VALUE    DESCRIPTION
#----------   ------------   ------------------------------
 EKB .F         5053.3000:   Kelly bushing
 EGL .F         5043.0000:   Ground level
 EDF .F            0.0000:   Drilling floor
 TD  .F         2720.0000:   Total depth
 DATE.        04-MAY-1966:   Date logged
 CLNT.            A2DTECH:   Client Code
 PD  .                 GL:   Permanent Datum
 EPD .F              5043:   Elevation Permanent Datum
 LMF .                 KB:   Log Measured From
 DMF .                 KB:   Drilling Measured From
 DAPD.F              10.3:   Feet Above Permanent Datum
 DD  .F              2720:   Depth driller
 DL  .F              2720:   Depth logger
 BLI .F              2719:   Bottom log interval
 TLI .F                97:   Top log interval
 CS1 .IN            10.75:   Casing size
 CBD1.       10.75" @ 30':   Casing driller 1
 BS1 .IN            7.875:   Bit size
 BSD1.F              2720:   Depth drilled with bit1
 DFT . GEL/Q-BROX/OIL/DAKOLITE:   Type fluid in hole
 DFD .               10.3:   Density
 DFV .                 41:   Viscosity
 DFPH.                7.2:   pH
 DFL .                8.8:   Fluid loss
 MSS .           FLOWLINE:   Source of sample
 RMS .OHMM              2:   Rm
 MST .F                61:   Rm Meas. temp.
 RMF .OHMM           1.31:   Rmf
 MFST.F                65:   Rmf Meas. temp.
 MFSS.                 FP:   Source Rmf.
 RMB .OHMM           1.15:   Rm. at BHT
 BHT .F               110:   BHT.
 TCS .HRS               2:   Time Circ. stopped
 MRT .F               110:   Maximum recorded temp.
 LUN .               4507:   Logging unit number
 LUL .               CSPR:   Logging unit location
 ENGI.            MANGOLD:   Recorded By
 WITN.             TUTTLE:   Witnessed by
 ORIG.       2", 5" PRINT:   Origin of data
 UWI .     49025094910000:   Unique Well ID
 DICO. A2D TECHNOLOGIES, INC.:   Digitizing Company
~OTHER INFORMATION
~A   DEPT      SPR         SN         ILD      CALD       CORR        GRD       RHOB   
# ...
 2508.0000   -26.8280     7.6120     4.7970     8.0890     0.0650   136.9400     2.5100
 2508.5000   -26.8150     7.3470     4.8250     8.0900     0.0440   138.2170     2.4950
 2509.0000   -26.8020     7.0610     4.8150     8.0890     0.0260   136.0430     2.4880
 2509.5000   -26.7890     6.9120     4.7930     8.0900     0.0300   133.9560     2.4880
 2510.0000   -26.7750     6.9440     4.7960     8.0890     0.0260   133.3280     2.4930
 2510.5000   -26.7620     7.0130     4.8120     8.0900     0.0210   132.7590     2.5040
 2511.0000   -26.7490     7.0190     4.8220     8.0900     0.0200   132.2020     2.5120
 2511.5000   -26.7360     7.0010     4.8290     8.0900     0.0260   132.5210     2.5020
 2512.0000   -26.7230     7.0130     4.8400     8.0900     0.0210   133.8920     2.4910
 2512.5000   -26.7080     7.0420     4.8540     8.0900     0.0190   135.2740     2.4830
 2513.0000   -26.6950     7.0540     4.8660     8.0900     0.0290   136.6700     2.4880
 2513.5000   -26.6840     7.0550     4.8770     8.0900     0.0380   137.8260     2.4930
 2514.0000   -26.6720     7.0670     4.8880     8.0900     0.0370   137.0930     2.4980
 2514.5000   -26.6550     7.0870     4.9010     8.0900     0.0300   135.1280     2.5030
 2515.0000   -26.6390     7.1000     4.9120     8.0900     0.0220   133.2130     2.5000
 2515.5000   -26.6310     7.1020     4.9240     8.0900     0.0160   131.2920     2.4930
 2516.0000   -26.6240     7.1120     4.9360     8.0900     0.0090   129.3300     2.4940
 2516.5000   -26.6010     7.1420     4.9470     8.0900     0.0180   128.3030     2.5080
 2517.0000   -26.5730     7.1600     4.9580     8.0900     0.0280   129.0110     2.5200
 2517.5000   -26.5970     7.1130     4.9700     8.0890     0.0380   130.6760     2.5340
 2518.0000   -26.7150     6.9880     4.9820     8.0900     0.0480   135.4010     2.5330
 2518.5000   -26.8960     6.8320     4.9930     8.0890     0.0580   139.8810     2.5260
 2519.0000   -27.0730     6.6990     5.0000     8.0870     0.0680   144.2520     2.5200
 2519.5000   -27.2320     6.6160     5.0010     8.0170     0.0780   149.8100     2.5140
 2520.0000   -27.4160     6.5900     4.9990     7.9380     0.0850   148.1850     2.5070
 2520.5000   -27.6160     6.6180     4.9990     7.8550     0.0850   144.0290     2.5010
 2521.0000   -27.7180     6.6750     5.0020     7.7760     0.0860   140.4970     2.4970
 2521.5000   -27.6180     6.7280     5.0030     7.7090     0.1090   136.7310     2.5110
 2522.0000   -27.3600     6.7750     4.9980     7.7720     0.1230   134.4880     2.5180
 2522.5000   -27.1050     6.8320     4.9950     7.8350     0.1010   136.0630     2.4990
 2523.0000   -26.9750     6.8990     5.0040     7.9070     0.0800   137.9050     2.4830
 2523.5000   -26.9580     6.9620     5.0100     7.9680     0.0600   141.3370     2.4650
 2524.0000   -26.9730     7.0290     4.9930     8.0420     0.0380   144.4810     2.4460
 2524.5000   -26.9730     7.1090     4.9780     8.0040     0.0320   147.4320     2.4410
 2525.0000   -26.9660     7.1770     5.0380     7.9460     0.0370   145.0880     2.4550
 2525.5000   -26.9650     7.2110     5.2120     7.8870     0.0470   142.5650     2.4660
 2526.0000   -26.9700     7.2690     5.4550     7.8290     0.0500   139.8350     2.4800
 2526.5000   -26.9710     7.4360     5.6940     7.7720     0.0480   137.1050     2.4850
 2527.0000   -26.9680     7.7250     5.9170     7.7140     0.0500   132.6790     2.4880
 2527.5000   -26.9670     8.0800     6.1540     7.7190     0.0520   128.0160     2.4980
 2528.0000   -26.9680     8.4790     6.3860     7.7470     0.0610   125.0840     2.5070
 2528.5000   -26.9690     8.8970     6.5420     7.7740     0.0700   125.7620     2.5160
 2529.0000   -26.9690     9.2200     6.5890     7.8010     0.0570   127.0610     2.5230
 2529.5000   -26.9680     9.3130     6.5720     7.8280     0.0410   129.2810     2.5160
 2530.0000   -26.9680     9.1770     6.5590     7.8540     0.0330   133.3520     2.5110
 2530.5000   -26.9680     8.9560     6.5670     7.8820     0.0280   137.7500     2.5050
 2531.0000   -26.9690     8.7650     6.5740     7.8950     0.0200   140.8550     2.5070
 2531.5000   -26.9690     8.6340     6.5700     7.8840     0.0250   143.0190     2.5120
 2532.0000   -26.9680     8.5780     6.5640     7.8760     0.0280   139.0550     2.5070
 2532.5000   -26.9670     8.6470     6.5680     7.8670     0.0200   134.2320     2.4980
 2533.0000   -26.9700     8.8370     6.5740     7.8580     0.0220   129.7910     2.5040
 2533.5000   -26.9720     9.0380     6.5640     7.8500     0.0320   128.5270     2.5040
 2534.0000   -26.9670     9.0990     6.5310     7.8410     0.0420   128.9790     2.5150
 2534.5000   -26.9610     8.9630     6.4820     7.8320     0.0510   135.3770     2.5300
 2535.0000   -26.9700     8.7290     6.4290     7.8230     0.0600   140.7490     2.5280
 2535.5000   -26.9820     8.5630     6.3760     7.8140     0.0700   136.1960     2.5250
 2536.0000   -26.9660     8.5490     6.3230     7.8060     0.0750   131.1240     2.5210
 2536.5000   -26.9400     8.6560     6.2750     7.7970     0.0620   127.9510     2.5200
 2537.0000   -26.9960     8.8310     6.2300     7.7880     0.0500   127.0420     2.5210
 2537.5000   -27.1900     9.0250     6.1680     7.7790     0.0350   128.6780     2.5220
 2538.0000   -27.4560     9.1290     6.0670     7.7710     0.0320   131.5810     2.5230
 2538.5000   -27.6790     9.0110     5.9220     7.7620     0.0360   134.2750     2.5140
 2539.0000   -27.8060     8.6650     5.7550     7.7540     0.0380   136.9480     2.5040
 2539.5000   -27.8150     8.2360     5.5940     7.7420     0.0350   139.6300     2.4960
 2540.0000   -27.6630     7.8410     5.4500     7.7560     0.0320   140.0490     2.4910
 2540.5000   -27.3600     7.4840     5.3020     7.8090     0.0280   139.7680     2.4960
 2541.0000   -27.0500     7.1720     5.1310     7.8590     0.0290   140.6560     2.5080
 2541.5000   -26.8940     6.9920     4.9570     7.9110     0.0380   141.4980     2.5180
 2542.0000   -26.8900     6.9840     4.8410     7.9620     0.0480   142.3560     2.5340
 2542.5000   -26.9090     7.0600     4.8210     8.0120     0.0480   143.0070     2.5290
 2543.0000   -26.8760     7.1160     4.8680     8.0670     0.0400   141.2750     2.5120
 2543.5000   -26.8280     7.1550     4.9230     8.0900     0.0330   139.8290     2.5060
 2544.0000   -26.8070     7.2360     4.9590     8.0820     0.0280   139.3950     2.5040
 2544.5000   -26.7970     7.3570     4.9910     8.0790     0.0220   140.9250     2.4970
 2545.0000   -26.7710     7.4780     5.0300     8.0740     0.0160   143.0320     2.4910
 2545.5000   -26.7340     7.5970     5.0710     8.0700     0.0100   145.3650     2.5000
 2546.0000   -26.7130     7.7370     5.1140     8.0650     0.0070   144.9470     2.5040
 2546.5000   -26.7020     7.8620     5.1560     8.0610     0.0050   144.2070     2.4910
 2547.0000   -26.6730     7.8900     5.1850     8.0570     0.0030   144.5270     2.4770
 2547.5000   -26.6260     7.7920     5.1870     8.0520     0.0000   144.3830     2.4720
 2548.0000   -26.6080     7.6190     5.1690     8.0480     0.0000   142.2330     2.4790
 2548.5000   -26.6270     7.4380     5.1470     8.0440     0.0050   139.0180     2.4830
 2549.0000   -26.6010     7.2880     5.1320     8.0390     0.0120   135.6440     2.4890
 2549.5000   -26.4630     7.1930     5.1180     8.0350     0.0090   135.3100     2.4910
 2550.0000   -26.2780     7.1680     5.1010     8.0300     0.0040   135.3590     2.4860
 2550.5000   -26.1750     7.1980     5.0830     8.0260    -0.0010   135.1420     2.4810
 2551.0000   -26.1620     7.2380     5.0680     8.0210    -0.0050   137.1290     2.4770
 2551.5000   -26.1610     7.2600     5.0520     8.0170    -0.0100   139.8580     2.4730
 2552.0000   -26.1720     7.2760     5.0340     8.0130    -0.0060   141.0810     2.4810
 2552.5000   -26.2800     7.3040     5.0170     8.0100     0.0040   140.4900     2.4900
 2553.0000   -26.4680     7.3360     5.0040     8.0080     0.0130   138.1010     2.5000
