~VERSION INFORMATION
 VERS.                2.0:   CWLS LOG ASCII STANDARD - VERSION 2.0
 WRAP.                 NO:   ONE LINE PER DEPTH STEP
~WELL INFORMATION
#MNEM.UNIT      DATA TYPE    INFORMATION
#----------   ------------   ------------------------------
 STRT.F          199.5000:   START DEPTH
 STOP.F         2983.0000:   STOP DEPTH
 STEP.F            0.5000:   STEP LENGTH
 NULL.          -999.2500:   NO VALUE
 COMP.    FENIX & SCISSON:   COMPANY
 WELL. FENIX (UE-49) "AX" #52-29:   WELL
 FLD . U.S. NAVAL PETROLEUM RESERVE #3:   FIELD
 LOC .      S29 T39N R78W:   LOCATION
 CNTY.            NATRONA:   COUNTY
 STAT.            WYOMING:   STATE
 CTRY. UNITED STATES OF AMERICA:   COUNTRY
 SRVC.           BIRDWELL:   SERVICE COMPANY
 DATE.        07-AUG-1977:   LOGDATE
 API .     49025104090000:   API NUMBER
~CURVE INFORMATION
#MNEM.UNIT       API CODE    CURVE DESCRIPTION
#----------   ------------   ------------------------------
 DEPT.F                  :   
 GRD .GAPI   45 310 01 00:   GAMMA RAY FROM DENSITY LOG
 CALD.IN     45 280 60 00:   CALIPER FROM DENSITY LOG
 DEN .G/C3   45 350 01 00:   BULK DENSITY
 DCOR.G/C3   45 356 01 00:   DENSITY CORRECTION
 SN  .OHMM   05 040 16 00:   SHORT NORMAL 16"
 ILD .OHMM   05 120 46 00:   INDUCTION LOG DEEP RESISTIVITY
~PARAMETER INFORMATION
#MNEM.UNIT          VALUE    DESCRIPTION
#----------   ------------   ------------------------------
 EKB .F         4995.0000:   Kelly bushing
 EGL .F         4985.0000:   Ground level
 EDF .F            0.0000:   Drilling floor
 TD  .F         2973.0000:   Total depth
 DATE.         7-AUG-1977:   Date logged
 CLNT.            A2DTECH:   Client Code
 SL  . 1400' FNL & 2380' FEL:   Surface Location
 PD  .                 GL:   Permanent Datum
 EPD .F              4985:   Elevation Permanent Datum
 LMF .                 KB:   Log Measured From
 DMF .                 KB:   Drilling Measured From
 DAPD.F                10:   Feet Above Permanent Datum
 DD  .F              2972:   Depth driller
 DL  .F              2973:   Depth logger
 BLI .F              2968:   Bottom log interval
 TLI .F               216:   Top log interval
 CS1 .IN            8.625:   Casing size
 CBD1.      8.625" @ 216':   Casing driller 1
 CBL1.F               216:   Casing logger 1
 BS1 .IN            7.875:   Bit size
 BSD1.F              2972:   Depth drilled with bit1
 DFT .            GEL-KCL:   Type fluid in hole
 DFD .                8.9:   Density
 DFV .                 33:   Viscosity
 DFL .                  9:   Fluid loss
 MSS .            MUD PIT:   Source of sample
 RMS .OHMM           0.26:   Rm
 MST .F                73:   Rm Meas. temp.
 RMF .OHMM           0.26:   Rmf
 MFST.F                72:   Rmf Meas. temp.
 RMC .OHMM           0.96:   Rmc
 MCST.F                72:   Rmc Meas. temp.
 MFSS.              PRESS:   Source Rmf.
 RMB .OHMM           0.14:   Rm. at BHT
 BHT .F               130:   BHT.
 TCS .HRS               5:   Time Circ. stopped
 MRT .F               130:   Maximum recorded temp.
 LUN .               2958:   Logging unit number
 LUL .             CASPER:   Logging unit location
 ENGI.                LAW:   Recorded By
 WITN.             RHODES:   Witnessed by
 ORIG.           5" PRINT:   Origin of data
 UWI .     49025104090000:   Unique Well ID
 DICO. A2D TECHNOLOGIES, INC.:   Digitizing Company
~OTHER INFORMATION
~A   DEPT       GRD      CALD        DEN       DCOR         SN        ILD   
# ...
 2227.5000    71.5210     8.6820     2.5700     0.0240     6.2710     6.4670
 2228.0000    69.6180     8.6860     2.5840     0.0270     6.2550     6.4790
 2228.5000    67.5040     8.6910     2.5890     0.0280     6.2200     6.3830
 2229.0000    67.5830     8.6950     2.5890     0.0230     6.1500     6.3000
 2229.5000    65.0000     8.6880     2.5900     0.0170     6.0790     6.2170
 2230.0000    64.9030     8.6880     2.5750     0.0140     6.0090     6.1320
 2230.5000    67.3930     8.7080     2.5730     0.0150     5.9520     6.1140
 2231.0000    69.3000     8.7270     2.5740     0.0150     5.9150     6.0960
 2231.5000    73.8010     8.7080     2.5750     0.0150     5.8790     6.0780
 2232.0000    70.9440     8.6850     2.5670     0.0170     5.8420     6.0590
 2232.5000    72.0700     8.7350     2.5680     0.0180     5.8060     6.0410
 2233.0000    69.3240     8.7570     2.5690     0.0180     5.7700     6.0230
 2233.5000    72.8410     8.7570     2.5760     0.0180     5.7330     6.0050
 2234.0000    74.8080     8.7570     2.5840     0.0180     5.6980     5.9870
 2234.5000    80.0280     8.7570     2.5840     0.0170     5.7140     5.9660
 2235.0000    76.1460     8.7570     2.5800     0.0150     5.7280     5.9950
 2235.5000    72.6340     8.7570     2.5790     0.0160     5.7430     6.0300
 2236.0000    76.3180     8.7570     2.5630     0.0160     5.7880     6.0650
 2236.5000    71.2020     8.7570     2.5650     0.0160     5.9110     6.1880
 2237.0000    73.2950     8.7570     2.5660     0.0170     6.1120     6.3520
 2237.5000    69.1470     8.7570     2.5620     0.0190     6.3610     6.5170
 2238.0000    71.3860     8.7570     2.5700     0.0130     6.4620     6.7960
 2238.5000    69.3240     8.7570     2.5640     0.0110     6.5730     7.1880
 2239.0000    73.8300     8.7570     2.5630     0.0160     6.6850     7.3250
 2239.5000    73.6180     8.7570     2.5680     0.0230     6.7870     7.3650
 2240.0000    73.2060     8.7570     2.5760     0.0290     6.8270     7.2800
 2240.5000    70.4970     8.7570     2.5910     0.0300     6.8660     7.1660
 2241.0000    68.1250     8.7570     2.5960     0.0240     6.9050     7.2400
 2241.5000    67.4700     8.7570     2.5900     0.0200     6.9440     7.3400
 2242.0000    69.2760     8.7570     2.5750     0.0190     6.9830     7.4400
 2242.5000    71.0110     8.7570     2.5770     0.0150     7.0220     7.5400
 2243.0000    71.2020     8.7570     2.5680     0.0140     7.0610     7.6400
 2243.5000    73.6190     8.7570     2.5690     0.0210     7.1000     7.5110
 2244.0000    74.4640     8.7570     2.5740     0.0240     7.0820     7.4330
 2244.5000    69.9670     8.7570     2.5830     0.0210     7.0630     7.5570
 2245.0000    72.1400     8.7570     2.5770     0.0160     7.0450     7.5390
 2245.5000    71.8870     8.7490     2.5740     0.0140     7.0260     7.5220
 2246.0000    68.2690     8.7380     2.5680     0.0150     7.0080     7.5050
 2246.5000    65.8720     8.7710     2.5680     0.0190     6.9890     7.3750
 2247.0000    65.8720     8.8050     2.5820     0.0240     6.9720     7.2320
 2247.5000    68.0970     8.8160     2.5910     0.0170     6.9710     7.2960
 2248.0000    70.2580     8.8160     2.5890     0.0190     6.9710     7.3940
 2248.5000    72.1760     8.8160     2.5900     0.0090     6.9710     7.4920
 2249.0000    74.0300     8.8160     2.5750     0.0120     6.9710     7.5900
 2249.5000    75.8630     8.8160     2.5600     0.0140     6.9710     7.6460
 2250.0000    74.2710     8.8160     2.5600     0.0160     7.1000     7.6560
 2250.5000    70.2460     8.8160     2.5650     0.0220     7.2180     7.6670
 2251.0000    71.0500     8.8160     2.5810     0.0230     7.2980     7.6780
 2251.5000    66.6480     8.8140     2.5860     0.0160     7.2640     7.6890
 2252.0000    66.2770     8.8120     2.5780     0.0110     7.2380     7.6990
 2252.5000    63.6400     8.8090     2.5690     0.0140     7.1000     7.7110
 2253.0000    69.0770     8.8070     2.5740     0.0140     7.0590     7.7110
 2253.5000    66.1930     8.8040     2.5780     0.0130     7.0160     7.7110
 2254.0000    69.2410     8.8010     2.5750     0.0150     6.9710     7.7110
 2254.5000    68.3800     8.7990     2.5760     0.0200     7.0430     7.9260
 2255.0000    66.6580     8.7960     2.5820     0.0210     7.1160     7.8530
 2255.5000    69.8570     8.7940     2.5880     0.0180     7.1890     7.8530
 2256.0000    61.7130     8.7910     2.5850     0.0190     7.2980     7.9990
 2256.5000    64.4750     8.7880     2.5880     0.0190     7.2520     7.9290
 2257.0000    67.8610     8.7860     2.5920     0.0160     7.1970     7.8170
 2257.5000    66.7290     8.7830     2.5950     0.0210     7.0870     7.7110
 2258.0000    68.8150     8.7810     2.5940     0.0210     6.9110     7.4710
 2258.5000    71.6460     8.7780     2.5890     0.0180     6.7490     7.2110
 2259.0000    73.4400     8.7770     2.5780     0.0170     6.6240     6.9710
 2259.5000    73.1070     8.7770     2.5710     0.0160     6.4980     6.9280
 2260.0000    76.3590     8.7770     2.5740     0.0180     6.3610     6.8890
 2260.5000    74.4120     8.7780     2.5720     0.0180     6.3410     6.8490
 2261.0000    72.0860     8.7780     2.5710     0.0180     6.3190     6.8090
 2261.5000    73.0950     8.7780     2.5700     0.0170     6.2980     6.7820
 2262.0000    67.6130     8.7790     2.5700     0.0200     6.2760     6.8450
 2262.5000    66.4270     8.7790     2.5720     0.0240     6.2540     6.4790
 2263.0000    62.5660     8.7790     2.5800     0.0200     6.2320     6.4790
 2263.5000    64.7330     8.7800     2.5730     0.0170     6.2100     6.6550
 2264.0000    65.8300     8.7800     2.5710     0.0150     6.1890     6.7200
 2264.5000    63.9680     8.7800     2.5730     0.0120     6.1670     6.5650
 2265.0000    71.7030     8.7810     2.5750     0.0090     6.1450     6.4510
 2265.5000    65.4010     8.7810     2.5710     0.0080     6.0870     6.3380
 2266.0000    69.9520     8.7810     2.5610     0.0090     5.9750     6.2250
 2266.5000    67.8900     8.7820     2.5510     0.0090     5.8820     6.1110
 2267.0000    64.9430     8.7820     2.5410     0.0110     5.8150     5.9980
 2267.5000    67.8220     8.7820     2.5400     0.0170     5.7510     5.8850
 2268.0000    71.4890     8.7830     2.5460     0.0130     5.6000     5.7710
 2268.5000    69.1600     8.7830     2.5490     0.0070     5.4560     5.6580
 2269.0000    66.2600     8.7830     2.5480    -0.0010     5.3130     5.5450
 2269.5000    73.0290     8.7830     2.5310    -0.0020     5.1910     5.4310
 2270.0000    69.9260     8.7840     2.5350     0.0040     5.0730     5.3180
 2270.5000    63.4980     8.7840     2.5340     0.0100     4.9550     5.2050
 2271.0000    68.2830     8.7840     2.5400     0.0120     4.8430     5.0930
 2271.5000    73.8100     8.7850     2.5420     0.0070     4.7320     4.9950
 2272.0000    70.8890     8.7850     2.5330     0.0000     4.6150     4.8970
 2272.5000    73.2910     8.7850     2.5240     0.0030     4.5970     4.7990
 2273.0000    74.9360     8.7860     2.5150     0.0090     4.5730     4.7010
 2273.5000    72.8470     8.7860     2.5210     0.0100     4.5900     4.6580
 2274.0000    75.0080     8.7860     2.5270     0.0080     4.6110     4.7810
 2274.5000    76.1390     8.7870     2.5230     0.0090     4.6550     4.8770
 2275.0000    73.3630     8.7870     2.5240     0.0090     4.7050     4.9740
 2275.5000    74.7250     8.7870     2.5270     0.0070     4.7670     5.0430
 2276.0000    74.1340     8.7880     2.5290     0.0060     4.8750     5.1190
 2276.5000    79.2640     8.7880     2.5300     0.0100     4.9830     5.1960
 2277.0000    74.3720     8.7880     2.5290     0.0150     5.0920     5.2720
 2277.5000    72.7990     8.7890     2.5410     0.0200     5.1690     5.3440
 2278.0000    68.7500     8.7890     2.5540     0.0240     5.2070     5.3960
 2278.5000    68.6390     8.7890     2.5670     0.0220     5.2450     5.4450
 2279.0000    71.8230     8.7900     2.5710     0.0170     5.2960     5.4940
