~VERSION INFORMATION
 VERS.                2.0:   CWLS LOG ASCII STANDARD - VERSION 2.0
 WRAP.                 NO:   ONE LINE PER DEPTH STEP
~WELL INFORMATION
#MNEM.UNIT      DATA TYPE    INFORMATION
#----------   ------------   ------------------------------
 STRT.F           14.0000:   START DEPTH
 STOP.F         3030.0000:   STOP DEPTH
 STEP.F            0.5000:   STEP LENGTH
 NULL.          -999.2500:   NO VALUE
 COMP. LAWRENCE ALLISON & ASSOC. WEST:   COMPANY
 WELL. LAWRENCE "X" #37-28:   WELL
 FLD .          N.P.R. #3:   FIELD
 LOC .      S28 T39N R78W:   LOCATION
 CNTY.            NATRONA:   COUNTY
 STAT.            WYOMING:   STATE
 CTRY. UNITED STATES OF AMERICA:   COUNTRY
 SRVC.      DRESSER ATLAS:   SERVICE COMPANY
 DATE.        22-SEP-1986:   LOGDATE
 API .     49025111090000:   API NUMBER
~CURVE INFORMATION
#MNEM.UNIT       API CODE    CURVE DESCRIPTION
#----------   ------------   ------------------------------
 DEPT.F                  :   
 GRR .GAPI   07 310 01 00:   GAMMA RAY FROM RESISTIVITY
 SPR .MV     07 010 01 00:   SPONTANEOUS POTENTIAL
 TENR.LBS    07 635 01 00:   TENSION FROM RESISTIVITY
 RILD.OHMM   07 120 46 00:   DEEP INDUCTION RESISTIVITY
 RILM.OHMM   07 120 44 00:   INDUCTION LOG MEDIUM RESISTIVITY
 RFOC.OHMM   07 220 04 00:   RESISTIVITY FOCUSED LOG RES.
 CNC .DEC    42 890 03 00:   NEUTRON PORISITY SANDSTONE
 RHOB.G/C3   45 350 01 00:   BULK DENSITY
 CORR.G/C3   45 356 01 00:   DENSITY CORRECTION
 TEND.LBS    45 635 01 00:   TENSION FROM DENSITY LOG
 CALD.IN     45 280 60 00:   CALIPER FROM DENSITY LOG
~PARAMETER INFORMATION
#MNEM.UNIT          VALUE    DESCRIPTION
#----------   ------------   ------------------------------
 EKB .F         5124.0000:   Kelly bushing
 EGL .F         5113.0000:   Ground level
 EDF .F         5123.0000:   Drilling floor
 TD  .F         3026.0000:   Total depth
 DATE.        22-SEP-1986:   Date logged
 CLNT.            A2DTECH:   Client Code
 SL  . 1097' FSL & 1722' FWL:   Surface Location
 PD  .                 GL:   Permanent Datum
 EPD .F              5113:   Elevation Permanent Datum
 LMF .                 KB:   Log Measured From
 DMF .                 KB:   Drilling Measured From
 DAPD.F                11:   Feet Above Permanent Datum
 DD  .F              3026:   Depth driller
 DL  .F              3023:   Depth logger
 BLI .F              3020:   Bottom log interval
 CS1 .IN            8.625:   Casing size
 CBD1.      8.625" @ 517':   Casing driller 1
 CBL1.F               518:   Casing logger 1
 BS1 .IN            7.875:   Bit size
 BSD1.F              3026:   Depth drilled with bit1
 DFT .            KCL-GEL:   Type fluid in hole
 DFD .                8.6:   Density
 DFV .                 41:   Viscosity
 DFPH.                9.5:   pH
 DFL .                6.8:   Fluid loss
 MSS .           FLOWLINE:   Source of sample
 RMS .OHMM           0.37:   Rm
 MST .F                58:   Rm Meas. temp.
 RMF .OHMM           0.33:   Rmf
 MFST.F                63:   Rmf Meas. temp.
 RMC .OHMM           0.59:   Rmc
 MCST.F                58:   Rmc Meas. temp.
 MFSS.               MEAS:   Source Rmf.
 MCSS.               CALC:   Source Rmc.
 RMB .OHMM           0.16:   Rm. at BHT
 BHT .F               131:   BHT.
 TCS .HRS               3:   Time Circ. stopped
 MRT .F               131:   Maximum recorded temp.
 LUN .            HL 6426:   Logging unit number
 LUL .                 RS:   Logging unit location
 ENGI.               RALL:   Recorded By
 WITN.             STRONG:   Witnessed by
 ORIG.           5" PRINT:   Origin of data
 UWI .     49025111090000:   Unique Well ID
 DICO. A2D TECHNOLOGIES, INC.:   Digitizing Company
~OTHER INFORMATION
~A   DEPT      GRR        SPR       TENR       RILD       RILM       RFOC        CNC       RHOB       CORR       TEND       CALD   
# ...
 1020.5000   102.3490    -5.1400   -46.3760     7.0490     7.2020     7.6370  -999.2500  -999.2500  -999.2500  -999.2500  -999.2500
 1021.0000    99.9370    -4.8470   -49.2990     7.0650     7.2620     7.6370  -999.2500  -999.2500  -999.2500  -999.2500  -999.2500
 1021.5000    99.6760    -4.6960   -52.2230     7.0050     7.3230     7.6370  -999.2500  -999.2500  -999.2500  -999.2500  -999.2500
 1022.0000   101.3320    -4.6060   -55.1460     6.9620     7.3840     7.6370  -999.2500  -999.2500  -999.2500  -999.2500  -999.2500
 1022.5000   102.8620    -4.5370   -58.0690     7.0990     7.4440     7.6370  -999.2500  -999.2500  -999.2500  -999.2500  -999.2500
 1023.0000   101.3780    -4.4370   -60.9920     7.2050     7.4970     7.6830  -999.2500  -999.2500  -999.2500  -999.2500  -999.2500
 1023.5000    98.0820    -4.3530   -64.0700     7.3110     7.6040     7.7720  -999.2500  -999.2500  -999.2500  -999.2500  -999.2500
 1024.0000    94.8180    -4.4590   -64.9670     7.4170     7.6990     7.8610  -999.2500  -999.2500  -999.2500  -999.2500  -999.2500
 1024.5000    93.0320    -4.6310   -65.9150     7.5230     7.7930     7.9500  -999.2500  -999.2500  -999.2500  -999.2500  -999.2500
 1025.0000    92.8670    -4.7920   -66.8620     7.6370     7.8880     8.0390  -999.2500  -999.2500  -999.2500  -999.2500  -999.2500
 1025.5000    93.3640    -4.9440   -67.8090     7.6370     7.9190     8.0730  -999.2500  -999.2500  -999.2500  -999.2500  -999.2500
 1026.0000    95.8720    -4.9590   -68.7570     7.6180     7.9090     7.9890  -999.2500  -999.2500  -999.2500  -999.2500  -999.2500
 1026.5000    98.9760    -4.9390   -69.7040     7.6010     7.8980     7.8870  -999.2500  -999.2500  -999.2500  -999.2500  -999.2500
 1027.0000   100.0280    -5.0350   -70.6510     7.5850     7.8880     7.8220  -999.2500  -999.2500  -999.2500  -999.2500  -999.2500
 1027.5000   100.6570    -5.1800   -71.5990     7.5670     7.8780     7.7800  -999.2500  -999.2500  -999.2500  -999.2500  -999.2500
 1028.0000   100.8850    -5.3520   -72.5460     7.5670     7.8670     7.7080  -999.2500  -999.2500  -999.2500  -999.2500  -999.2500
 1028.5000    99.3140    -5.5590   -73.4930     7.5670     7.8570     7.7080  -999.2500  -999.2500  -999.2500  -999.2500  -999.2500
 1029.0000    96.3870    -5.7600   -74.4410     7.6390     7.9410     7.7900  -999.2500  -999.2500  -999.2500  -999.2500  -999.2500
 1029.5000    94.4340    -6.0780   -75.3880     7.7380     8.1060     7.9030  -999.2500  -999.2500  -999.2500  -999.2500  -999.2500
 1030.0000    94.6610    -6.3460   -76.3350     7.8360     8.2710     8.0150  -999.2500  -999.2500  -999.2500  -999.2500  -999.2500
 1030.5000    94.4110    -6.2960   -77.2830     7.9350     8.4370     8.1280  -999.2500  -999.2500  -999.2500  -999.2500  -999.2500
 1031.0000    93.0740    -6.1790   -78.2300     8.0340     8.5350     8.2400  -999.2500  -999.2500  -999.2500  -999.2500  -999.2500
 1031.5000    91.5110    -6.0580   -79.1770     8.1490     8.6450     8.3530  -999.2500  -999.2500  -999.2500  -999.2500  -999.2500
 1032.0000    90.3340    -5.8610   -80.1250     8.2790     8.7360     8.4650  -999.2500  -999.2500  -999.2500  -999.2500  -999.2500
 1032.5000    90.8440    -5.6890   -81.0720     8.4560     8.8270     8.5770  -999.2500  -999.2500  -999.2500  -999.2500  -999.2500
 1033.0000    91.8030    -5.5020   -82.0190     8.4970     8.8960     8.6510  -999.2500  -999.2500  -999.2500  -999.2500  -999.2500
 1033.5000    92.6220    -5.3250   -82.9670     8.5430     8.9550     8.7060  -999.2500  -999.2500  -999.2500  -999.2500  -999.2500
 1034.0000    93.5380    -5.1380   -84.1710     8.5900     9.0130     8.7610  -999.2500  -999.2500  -999.2500  -999.2500  -999.2500
 1034.5000    93.3190    -4.9540   -84.1710     8.6360     9.0720     8.8170  -999.2500  -999.2500  -999.2500  -999.2500  -999.2500
 1035.0000    92.3070    -4.9460   -84.1710     8.6940     9.1310     8.8720  -999.2500  -999.2500  -999.2500  -999.2500  -999.2500
 1035.5000    90.2730    -5.0650   -84.1710     8.7630     9.1910     8.9390  -999.2500  -999.2500  -999.2500  -999.2500  -999.2500
 1036.0000    88.2360    -5.1800   -84.1710     8.8520     9.2070     9.0350  -999.2500  -999.2500  -999.2500  -999.2500  -999.2500
 1036.5000    91.6770    -5.2960   -84.1710     8.9420     9.2280     9.1570  -999.2500  -999.2500  -999.2500  -999.2500  -999.2500
 1037.0000    98.6640    -5.4190   -84.1710     9.0320     9.2480     9.2760  -999.2500  -999.2500  -999.2500  -999.2500  -999.2500
 1037.5000    99.7640    -5.5290   -84.1710     9.1220     9.2690     9.4680  -999.2500  -999.2500  -999.2500  -999.2500  -999.2500
 1038.0000    97.3430    -5.6530   -83.4060     9.2110     9.2900     9.6550  -999.2500  -999.2500  -999.2500  -999.2500  -999.2500
 1038.5000    98.6790    -5.7570   -82.5080     9.2760     9.3110     9.7150  -999.2500  -999.2500  -999.2500  -999.2500  -999.2500
 1039.0000    98.0180    -5.7550   -81.6110     9.1660     9.3320     9.7150  -999.2500  -999.2500  -999.2500  -999.2500  -999.2500
 1039.5000    92.7430    -5.7620   -80.7130     9.0790     9.3530     9.7150  -999.2500  -999.2500  -999.2500  -999.2500  -999.2500
 1040.0000    91.0520    -5.7530   -79.8160     9.0330     9.3680     9.7150  -999.2500  -999.2500  -999.2500  -999.2500  -999.2500
 1040.5000    93.4310    -5.6310   -78.9180     9.0660     9.3840     9.7150  -999.2500  -999.2500  -999.2500  -999.2500  -999.2500
 1041.0000    94.6980    -5.6370   -78.0210     9.0990     9.4010     9.7150  -999.2500  -999.2500  -999.2500  -999.2500  -999.2500
 1041.5000    95.1430    -5.8520   -77.1230     9.1320     9.4170     9.7150  -999.2500  -999.2500  -999.2500  -999.2500  -999.2500
 1042.0000    93.6290    -6.0880   -76.2260     9.1650     9.4330     9.7150  -999.2500  -999.2500  -999.2500  -999.2500  -999.2500
 1042.5000    89.3050    -6.2820   -75.3280     9.1910     9.4490     9.7150  -999.2500  -999.2500  -999.2500  -999.2500  -999.2500
 1043.0000    88.1650    -6.5360   -74.4310     9.3570     9.4840     9.7150  -999.2500  -999.2500  -999.2500  -999.2500  -999.2500
 1043.5000    87.9310    -6.7480   -73.5330     9.4930     9.5170     9.8010  -999.2500  -999.2500  -999.2500  -999.2500  -999.2500
 1044.0000    83.0040    -6.7140   -72.6360     9.4730     9.5500     9.8830  -999.2500  -999.2500  -999.2500  -999.2500  -999.2500
 1044.5000    81.0120    -6.6090   -71.7390     9.3780     9.5830     9.9890  -999.2500  -999.2500  -999.2500  -999.2500  -999.2500
 1045.0000    85.5010    -6.4820   -70.8410     9.2760     9.6260     9.9360  -999.2500  -999.2500  -999.2500  -999.2500  -999.2500
 1045.5000    90.4950    -6.2060   -69.9440     9.3620     9.5930     9.7680  -999.2500  -999.2500  -999.2500  -999.2500  -999.2500
 1046.0000    93.2460    -5.9140   -69.0460     9.3620     9.5370     9.6260  -999.2500  -999.2500  -999.2500  -999.2500  -999.2500
 1046.5000    93.0320    -5.6640   -68.1490     9.4350     9.6250     9.7840  -999.2500  -999.2500  -999.2500  -999.2500  -999.2500
 1047.0000    90.3000    -5.3540   -67.2510     9.5650     9.7410     9.9200  -999.2500  -999.2500  -999.2500  -999.2500  -999.2500
 1047.5000    87.9510    -5.1700   -66.3540     9.6950     9.8560    10.0570  -999.2500  -999.2500  -999.2500  -999.2500  -999.2500
 1048.0000    89.0130    -5.2980   -65.4560     9.8240     9.9720    10.1940  -999.2500  -999.2500  -999.2500  -999.2500  -999.2500
 1048.5000    93.0950    -5.4630   -64.5590     9.8970    10.0820    10.2550  -999.2500  -999.2500  -999.2500  -999.2500  -999.2500
 1049.0000    95.4530    -5.5730   -63.8330     9.8090    10.0560    10.2190  -999.2500  -999.2500  -999.2500  -999.2500  -999.2500
 1049.5000    94.6830    -5.7280   -63.3130     9.7150    10.0310    10.1840  -999.2500  -999.2500  -999.2500  -999.2500  -999.2500
 1050.0000    93.8530    -5.8460   -62.7930     9.7290    10.0070    10.1480  -999.2500  -999.2500  -999.2500  -999.2500  -999.2500
 1050.5000    93.3160    -5.9960   -62.2730     9.7430     9.9820    10.1130  -999.2500  -999.2500  -999.2500  -999.2500  -999.2500
