~VERSION INFORMATION
 VERS.                2.0:   CWLS LOG ASCII STANDARD - VERSION 2.0
 WRAP.                 NO:   ONE LINE PER DEPTH STEP
~WELL INFORMATION
#MNEM.UNIT      DATA TYPE    INFORMATION
#----------   ------------   ------------------------------
 STRT.F           76.0000:   START DEPTH
 STOP.F         4972.0000:   STOP DEPTH
 STEP.F            0.5000:   STEP LENGTH
 NULL.          -999.2500:   NO VALUE
 COMP.    PENIX & SCISSON:   COMPANY
 WELL. FENIX NPR 3 "LX" #85-9:   WELL
 FLD .                NPR:   FIELD
 LOC .       S9 T38N R78W:   LOCATION
 CNTY.            NATRONA:   COUNTY
 STAT.            WYOMING:   STATE
 CTRY. UNITED STATES OF AMERICA:   COUNTRY
 SRVC.       SCHLUMBERGER:   SERVICE COMPANY
 DATE.        10-OCT-1978:   LOGDATE
 API .     49025107250000:   API NUMBER
~CURVE INFORMATION
#MNEM.UNIT       API CODE    CURVE DESCRIPTION
#----------   ------------   ------------------------------
 DEPT.F                  :   
 TENR.LBS    07 635 01 00:   TENSION FROM RESISTIVITY
 SPR .MV     07 010 01 00:   SPONTANEOUS POTENTIAL
 SFL .OHMM   07 220 01 00:   SHALLOW FOCUSED LOG RESISTIVITY
 ILD .OHMM   07 120 46 00:   DEEP INDUCTION RESISTIVITY
 ILM .OHMM   07 120 44 00:   INDUCTION LOG MEDIUM RESISTIVITY
 CALD.IN     45 280 60 00:   CALIPER FROM DENSITY LOG
 GRD .GAPI   45 310 01 00:   GAMMA RAY FROM DENSITY LOG
 CORR.G/C3   45 356 01 00:   DENSITY CORRECTION
 TEND.LBS    45 635 01 00:   TENSION FROM DENSITY LOG
 RHOB.G/C3   45 350 01 00:   BULK DENSITY
 NPHI.DEC    42 890 03 00:   NEUTRON POROSITY SANDSTONE
~PARAMETER INFORMATION
#MNEM.UNIT          VALUE    DESCRIPTION
#----------   ------------   ------------------------------
 EKB .F         5288.0000:   Kelly bushing
 EGL .F         5278.0000:   Ground level
 EDF .F            0.0000:   Drilling floor
 TD  .F         4950.0000:   Total depth
 DATE.        10-OCT-1978:   Date logged
 CLNT.            A2DTECH:   Client Code
 SL  . 2310' FSL & 230' FEL:   Surface Location
 PD  .                 GL:   Permanent Datum
 EPD .F              5278:   Elevation Permanent Datum
 LMF .                 KB:   Log Measured From
 DMF .                 KB:   Drilling Measured From
 DAPD.F                10:   Feet Above Permanent Datum
 DD  .F              4950:   Depth driller
 DL  .F              4950:   Depth logger
 BLI .F              4947:   Bottom log interval
 TLI .F               499:   Top log interval
 CS1 .IN            8.625:   Casing size
 CBD1.      8.625" @ 489':   Casing driller 1
 CBL1.F               499:   Casing logger 1
 BS1 .IN            7.875:   Bit size
 BSD1.F              4950:   Depth drilled with bit1
 DFT .            GEL/MUD:   Type fluid in hole
 DFD .                9.3:   Density
 DFV .                175:   Viscosity
 DFPH.                 12:   pH
 DFL .                  4:   Fluid loss
 MSS .               TANK:   Source of sample
 RMS .OHMM           .600:   Rm
 MST .F                71:   Rm Meas. temp.
 RMF .OHMM           .804:   Rmf
 MFST.F                71:   Rmf Meas. temp.
 MFSS.               MEAS:   Source Rmf.
 RMB .OHMM           .308:   Rm. at BHT
 BHT .F               138:   BHT.
 TCS .HRS            1200:   Time Circ. stopped
 TLAB.HRS            0330:   Time logger at bottom
 MRT .F               138:   Maximum recorded temp.
 LUN .               8035:   Logging unit number
 LUL .               CSPR:   Logging unit location
 ENGI.        CRAIG/DFARR:   Recorded By
 WITN.              AMEND:   Witnessed by
 ORIG.           5" PRINT:   Origin of data
 UWI .     49025107250000:   Unique Well ID
 DICO. A2D TECHNOLOGIES, INC.:   Digitizing Company
~OTHER INFORMATION
~A   DEPT     TENR        SPR        SFL        ILD        ILM       CALD         GRD      CORR       TEND       RHOB         NPHI 
# ...
  808.0000   587.0450   -17.4380     2.5440     2.7110     2.1870  -999.2500    82.3370     0.0210   714.7200     1.8550     0.5360
  808.5000   587.0450   -17.9140     3.0390     3.7030     2.5350  -999.2500    91.2460     0.0530   714.3140     2.0700     0.4520
  809.0000   587.0450   -18.4240     3.6320     4.8940     2.8830  -999.2500    96.9280     0.0470   713.9070     2.1960     0.3930
  809.5000   587.0450   -18.9490     3.6570     5.0070     3.2320  -999.2500    98.4590     0.0320   713.5010     2.2880     0.3620
  810.0000   587.0450   -19.3990     3.6870     5.1760     3.5470  -999.2500    99.5870     0.0120   713.0940     2.3400     0.3310
  810.5000   587.0450   -19.7330     3.7180     5.1200     3.8410  -999.2500   101.6020     0.0180   712.6880     2.4300     0.2980
  811.0000   587.0450   -20.1100     3.7490     5.0490     3.8770    15.6760   103.3560     0.0270   712.2810     2.4720     0.2970
  811.5000   587.0450   -20.4640     3.7790     4.9790     3.9130    15.4710   104.9110     0.0250   711.8750     2.4760     0.2960
  812.0000   587.0450   -20.8030     3.8100     4.8940     4.0580    15.3980   104.4330     0.0310   711.4690     2.4840     0.2960
  812.5000   587.0450   -20.6160     3.8410     4.7570     4.2030    15.3700   104.3700     0.0430   711.3820     2.4930     0.2990
  813.0000   587.0450   -20.4160     3.9750     4.5850     4.3760    15.3570   105.6000     0.0480   711.3820     2.4990     0.3050
  813.5000   587.0450   -20.1900     4.1090     4.4130     4.3760    15.3400   109.3120     0.0400   711.3820     2.4890     0.3030
  814.0000   587.0450   -19.9780     4.2160     4.2410     3.9670    15.2840   114.0100     0.0330   711.3820     2.4760     0.3000
  814.5000   587.0450   -19.7720     4.0270     4.0310     3.5570    15.2290   113.7970     0.0250   711.3820     2.4630     0.2950
  815.0000   587.0450   -19.4090     3.5530     3.7630     3.1470    15.1690   112.7480     0.0380   711.3820     2.4470     0.2960
  815.5000   587.0450   -18.8600     3.0790     3.4960     2.7380    15.1410   109.4060     0.0700   711.3820     2.3930     0.2980
  816.0000   587.0450   -18.3080     2.3220     3.2280     2.3650    15.1450   105.0950     0.0870   711.3820     2.3310     0.3710
  816.5000   587.0450   -17.7700     2.4460     2.9600     2.4310    15.1530   101.6650     0.0320   711.3820     2.1570     0.4380
  817.0000   587.0450   -17.2880     2.6950     2.7460     2.5960    15.1660    99.1540     0.0030   711.3820     2.1790     0.4270
  817.5000   587.0450   -17.3650     2.8270     3.0310     2.7610    15.1760    96.6040     0.0110   711.3820     2.2360     0.3990
  818.0000   587.0450   -17.4400     2.9580     3.2690     2.9580    15.2110    95.7980     0.0550   711.3820     2.4010     0.3750
  818.5000   587.0450   -17.5470     3.2150     3.5070     3.0430    15.3710    98.4380     0.0850   711.3820     2.4220     0.3660
  819.0000   587.0450   -17.6290     3.5360     3.7450     3.2560    15.5540   102.1650     0.0600   711.3820     2.4100     0.3640
  819.5000   587.0450   -18.0020     3.8580     3.9830     3.4680    15.7070   105.0960     0.0340   711.3820     2.4130     0.3490
  820.0000   587.0450   -18.5130     4.1790     4.2210     3.6800    15.5470   106.2620     0.0220   711.3820     2.4350     0.3250
  820.5000   587.0450   -19.0110     4.5000     4.4590     3.8920    15.3450   107.4140     0.0140   711.3820     2.4640     0.2980
  821.0000   587.0450   -19.5130     4.6610     4.6700     4.1040    15.3240   108.3200     0.0160   711.3820     2.4700     0.2980
  821.5000   587.0450   -20.0160     4.7170     4.8810     4.3160    15.3120   106.9280     0.0200   711.3820     2.4780     0.2790
  822.0000   587.0450   -20.4220     4.7720     5.0930     4.5290    15.2670   105.5760     0.0250   711.3820     2.4920     0.2810
  822.5000   587.0450   -20.4320     4.8280     5.3040     4.7410    15.1820   104.1230     0.0290   711.3820     2.5060     0.2850
  823.0000   587.0450   -20.4460     4.8940     5.4740     5.0800    15.1080   102.7570     0.0290   711.3820     2.5100     0.2890
  823.5000   587.0450   -20.4170     4.7830     5.4610     5.0560    15.0320   101.2210     0.0280   711.3820     2.5050     0.2840
  824.0000   587.0450   -20.6290     4.7290     5.4290     4.9950    15.1050   101.2550     0.0270   711.3820     2.5000     0.2800
  824.5000   587.0450   -21.0140     4.6760     5.3980     4.9340    15.1840   102.6130     0.0260   711.3820     2.4960     0.2790
  825.0000   587.0450   -21.3770     4.6220     5.3730     4.8730    15.2670   103.8160     0.0240   711.3820     2.4930     0.2820
  825.5000   587.0450   -21.7430     4.5690     5.2610     4.8110    15.3600   104.9580     0.0260   711.3820     2.4930     0.2850
  826.0000   587.0450   -21.9910     4.5150     5.1680     4.7500    15.3070   106.3500     0.0330   711.3820     2.5010     0.2890
  826.5000   587.0450   -21.8710     4.4620     5.0750     4.6890    15.1500   107.9630     0.0390   711.3820     2.5120     0.2950
  827.0000   587.0450   -21.7480     4.4080     4.9820     4.6280    15.0090   109.5050     0.0450   711.3820     2.5170     0.3070
  827.5000   587.0450   -21.6100     4.3090     4.8890     4.5670    14.8790   110.2110     0.0470   711.3820     2.5160     0.3200
  828.0000   587.0450   -21.2340     4.1420     4.7960     4.4620    14.7330   108.3640     0.0420   711.3820     2.5140     0.3350
  828.5000   587.0450   -20.8670     3.9750     4.7030     4.3290    14.6610   106.5550     0.0380   711.3820     2.5110     0.3250
  829.0000   587.0450   -20.4860     3.8410     4.6280     4.1950    14.6630   105.2120     0.0340   711.3820     2.5040     0.3130
  829.5000   587.0450   -20.1110     3.8170     4.4140     4.0620    14.6670   104.9360     0.0330   711.3820     2.4890     0.3030
  830.0000   587.0450   -19.7390     3.7980     4.1460     3.7270    14.6970   105.1630     0.0420   711.3820     2.4850     0.3030
  830.5000   587.0450   -19.3580     3.7780     3.8780     3.3930    15.2990   105.3570     0.0520   711.3820     2.4850     0.3210
  831.0000   587.0450   -18.9860     3.5160     3.6110     3.0580    15.7620   105.6230     0.0530   711.3820     2.4840     0.3510
  831.5000   587.0450   -18.6180     3.0920     3.3430     2.7230    15.2820   105.8470     0.0520   711.3820     2.4660     0.3610
  832.0000   587.0450   -18.2040     2.6690     3.1290     2.3220    14.8580   106.0260     0.0470   711.3820     2.4310     0.3640
  832.5000   587.0450   -18.2280     2.2450     3.2060     2.6160    14.7790   105.7680     0.0610   711.3820     2.3840     0.3790
  833.0000   587.0450   -18.6680     2.0760     3.2700     2.9840    14.8460   105.5610     0.0470   711.3820     2.3370     0.4470
  833.5000   587.0450   -19.0630     2.6880     3.3400     3.3520    15.0310   106.2310     0.0250   711.3820     2.3020     0.4370
  834.0000   587.0450   -19.4590     3.4540     3.6020     3.5800    15.5740   107.6070     0.0080   711.3820     2.3390     0.3960
  834.5000   587.0450   -19.8600     4.0470     3.9870     3.7160    15.7480   109.6950     0.0140   711.3820     2.4160     0.3260
  835.0000   587.0450   -20.2690     4.3810     4.3720     3.8510    15.2630   111.3320     0.0220   711.3820     2.4750     0.2950
  835.5000   587.0450   -20.4930     4.7150     4.7570     3.9870    14.8180   110.8700     0.0280   711.3820     2.4990     0.2880
  836.0000   587.0450   -20.5660     4.6760     5.1420     4.2540    14.8000   110.4490     0.0250   711.3820     2.4940     0.2910
  836.5000   587.0450   -20.6500     4.6370     5.6820     4.5210    14.7950   110.4860     0.0240   711.3820     2.4860     0.2970
  837.0000   587.0450   -20.7360     4.5980     5.6460     4.6520    14.8170   112.2980     0.0220   711.3820     2.4740     0.3000
  837.5000   587.0450   -20.8280     4.5430     5.5870     4.6930    14.8140   114.3700     0.0200   711.3820     2.4670     0.3010
  838.0000   587.0450   -20.9630     4.5990     5.5270     4.7330    14.8840   113.8330     0.0190   711.3820     2.4660     0.3010
