~VERSION INFORMATION
 VERS.                2.0:   CWLS LOG ASCII STANDARD - VERSION 2.0
 WRAP.                 NO:   ONE LINE PER DEPTH STEP
~WELL INFORMATION
#MNEM.UNIT      DATA TYPE    INFORMATION
#----------   ------------   ------------------------------
 STRT.F          216.0000:   START DEPTH
 STOP.F         3184.0000:   STOP DEPTH
 STEP.F            0.5000:   STEP LENGTH
 NULL.          -999.2500:   NO VALUE
 COMP.    FENIX & SCISSON:   COMPANY
 WELL. FENIX & SCISSON INCNRP "A" #311-14:   WELL
 FLD .                NPR:   FIELD
 LOC .      S14 T38N R78W:   LOCATION
 CNTY.            NATRONA:   COUNTY
 STAT.            WYOMING:   STATE
 CTRY. UNITED STATES OF AMERICA:   COUNTRY
 SRVC.              WELEX:   SERVICE COMPANY
 DATE.        22-JUN-1977:   LOGDATE
 API .     49025103810000:   API NUMBER
~CURVE INFORMATION
#MNEM.UNIT       API CODE    CURVE DESCRIPTION
#----------   ------------   ------------------------------
 DEPT.F                  :   
 CALD.IN     45 280 60 00:   CALIPER FROM DENSITY LOG
 GRD .GAPI   45 310 01 00:   GAMMA RAY FROM DENSITY LOG
 DPHI.DEC    45 890 12 00:   DENSITY POROSITY SANDSTONE
 RHOB.G/C3   45 350 01 00:   BULK DENSITY
 CORR.G/C3   45 356 01 00:   DENSITY CORRECTION
 SPR .MV     07 010 01 00:   SPONTANEOUS POTENTIAL
 SFLU.OHMM   07 220 01 00:   SPHERICALLY FOCUSED LOG UNAVERAGED RESISTIVITY
 ILD .OHMM   07 120 46 00:   DEEP INDUCTION RESISTIVITY
 ILM .OHMM   07 120 44 00:   INDUCTION LOG MEDIUM RESISTIVITY
~PARAMETER INFORMATION
#MNEM.UNIT          VALUE    DESCRIPTION
#----------   ------------   ------------------------------
 EKB .F         5225.0000:   Kelly bushing
 EGL .F         5215.0000:   Ground level
 TD  .F         3183.0000:   Total depth
 DATE.        22-JUN-1977:   Date logged
 CLNT.            A2DTECH:   Client Code
 CTRY.                USA:   Country
 SL  . 330' FNL & 330' FWL:   Surface Location
 PD  .                 GL:   Permanent Datum
 EPD .F              5215:   Elevation Permanent Datum
 LMF .                 KB:   Log Measured From
 DMF .                 KB:   Drilling Measured From
 DAPD.F                10:   Feet Above Permanent Datum
 DD  .F              3178:   Depth driller
 DL  .F              3183:   Depth logger
 BLI .F              3181:   Bottom log interval
 TLI .F                20:   Top log interval
 CS1 .IN            8.625:   Casing size
 CBD1.      8.625" @ 217':   Casing driller 1
 BS1 .IN            7.875:   Bit size
 BSD1.F              3178:   Depth drilled with bit1
 DFT .            KCL MUD:   Type fluid in hole
 DFD .                9.5:   Density
 DFV .                 40:   Viscosity
 DFPH.                7.5:   pH
 DFL .               13.6:   Fluid loss
 MSS .           FLOWLINE:   Source of sample
 RMS .OHMM            .36:   Rm
 MST .F                80:   Rm Meas. temp.
 RMF .OHMM            .30:   Rmf
 MFST.F                80:   Rmf Meas. temp.
 RMC .OHMM            .86:   Rmc
 MCST.F                80:   Rmc Meas. temp.
 MFSS.               FANN:   Source Rmf.
 MCSS.                KIT:   Source Rmc.
 RMB .OHMM            .25:   Rm. at BHT
 BHT .F               114:   BHT.
 TCS .HRS             2.5:   Time Circ. stopped
 MRT .F               114:   Maximum recorded temp.
 LUN .               8766:   Logging unit number
 LUL .             CASPER:   Logging unit location
 ENGI.          T. TOYNER:   Recorded By
 WITN.      B. HARRINGTON:   Witnessed by
 PWI .                  -:   Primary Well Identifier
 ORIG.           5" PRINT:   Origin of data
 UWI .     49025103810000:   Unique Well ID
 DICO. A2D TECHNOLOGIES, INC.:   Digitizing Company
~OTHER INFORMATION
~A   DEPT       CALD       GRD        DPHI       RHOB       CORR      SPR         SFLU      ILD        ILM   
# ...
 2369.5000     8.3275   113.4620     0.2594     2.2185     0.0530   -55.5233     9.4958     7.2562     7.7457
 2370.0000     8.3475   113.4634     0.2704     2.1875     0.0610   -55.5263    10.0330     7.2250     7.7446
 2370.5000     8.3278   113.4658     0.2975     2.1634     0.0630   -55.5292    10.0316     7.1940     7.6024
 2371.0000     8.3280   111.4850     0.3011     2.1254     0.0711   -55.5322     9.4918     7.1631     7.4627
 2371.5000     8.3281   110.2972     0.3009     2.1023     0.0771   -55.7334     9.2324     7.1323     7.3256
 2372.0000     8.3283   109.5060     0.3007     2.0913     0.0792   -55.7357     9.2312     7.1017     7.2575
 2372.5000     8.3285   107.5254     0.3005     2.0340     0.0771   -55.7393     9.2299     7.0712     7.1902
 2373.0000     8.3484   106.3378     0.3003     1.9495     0.0591   -55.7417     9.4866     7.0408     7.1231
 2373.5000     8.4080   106.7364     0.3001     1.9134     0.0551   -55.7452     9.7505     7.0106     7.4576
 2374.0000     8.4280   106.3418     0.2999     1.9034     0.0311   -55.7476     9.4840     6.9805     8.1004
 2374.5000     8.4678   106.3436     0.2997     1.9335     0.0051   -55.7511     8.9740     6.9372     8.5590
 2375.0000     8.4877   105.1562     0.2995     1.9796     0.0031   -55.3571     8.6489     7.0009     8.4795
 2375.5000     8.5871   104.3652     0.2492     2.0843     0.0011   -55.7571     8.4125     6.9999     8.3239
 2376.0000     8.5872   102.3850     0.1990     2.3037     0.0472   -55.7594     8.3344     7.0636     7.0519
 2376.5000     9.1026   101.9906     0.1681     2.3736     0.0693   -55.7630     8.4102     7.0628     6.7962
 2377.0000     9.5190   101.5960     0.1408     2.4180     0.0713   -55.7654     8.2559     6.9971     6.7953
 2377.5000     9.5786   101.5980     0.1416     2.4160     0.0834   -55.7689     8.1044     6.9321     6.7945
 2378.0000     9.0238   100.8072     0.1416     2.4170     0.0834   -55.7713     8.8833     6.8049     6.5516
 2378.5000     8.8059   100.0164     0.1420     2.4170     0.0714   -56.1713     9.1304     6.6799     6.4305
 2379.0000     8.4692   100.0182     0.1436     2.4140     0.0694   -56.1736     8.7191     6.6178     6.3701
 2379.5000     8.3591    99.6238     0.1452     2.4100     0.0674   -56.1772     8.1747     6.3781     6.1375
 2380.0000     8.3307    98.8332     0.1504     2.4030     0.0654   -56.1796     8.0247     6.2038     5.9685
 2380.5000     8.3309    98.4388     0.1520     2.3990     0.0634   -56.1831     8.0977     5.9790     5.7505
 2381.0000     8.3508    97.6482     0.1524     2.3970     0.0594   -56.1855     8.0225     5.8158     5.5921
 2381.5000     8.3510    95.6688     0.1500     2.4010     0.0574   -56.5855     8.0214     5.7616     5.5398
 2382.0000     8.3313    94.0856     0.1372     2.4200     0.0555   -56.5879     7.7308     5.5021     5.2882
 2382.5000     8.3117    92.8988     0.1352     2.4321     0.0575   -56.1950     7.1816     5.4011     5.1904
 2383.0000     8.3316    91.7118     0.1348     2.4301     0.0575   -56.1973     6.6106     5.3023     5.0944
 2383.5000     8.3516    91.7140     0.1368     2.4271     0.0595   -56.2009     6.0293     5.2528     5.0467
 2384.0000     8.3914    91.3198     0.1392     2.4221     0.0575   -56.2033     5.9186     5.3006     5.0930
 2384.5000     8.3916    90.5294     0.1392     2.4221     0.0616   -56.2068     7.4465     5.3488     5.1397
 2385.0000     8.3917    88.5514     0.1388     2.4231     0.0636   -56.2092     8.0870     5.4976     5.2838
 2385.5000     8.3720    88.5524     0.1392     2.4231     0.0636   -55.8163     8.0866     5.5476     5.3362
 2386.0000     8.3326    87.3658     0.1404     2.4201     0.0656   -55.8186     7.7936     5.8076     5.5868
 2386.5000     8.3326    87.3680     0.1412     2.4181     0.0637   -55.8222     7.3068     5.8605     5.7425
 2387.0000     8.3329    86.9740     0.1440     2.4151     0.0619   -55.8258     7.2390     5.9138     6.0122
 2387.5000     8.3726    86.9762     0.1448     2.4131     0.0637   -55.8281     7.6483     6.0226     6.1797
 2388.0000     8.4124    86.1860     0.1468     2.4061     0.0677   -55.8317     8.4608     6.0774     6.3518
 2388.5000     8.4126    85.0000     0.1492     2.4041     0.0697   -55.8340     8.7765     6.1327     6.3509
 2389.0000     8.3929    84.6060     0.1496     2.4041     0.0657   -55.8376     9.2724     6.1885     6.4088
 2389.5000     8.3732    84.6082     0.1420     2.4121     0.0617   -55.8400     9.3573     6.2447     6.6483
 2390.0000     8.3338    85.0068     0.1355     2.4292     0.0658   -55.8435     9.1857     6.3597     6.7708
 2390.5000     8.3735    85.0090     0.1347     2.4302     0.0658   -55.8459     8.4548     6.4768     6.9595
 2391.0000     8.3935    85.0112     0.1355     2.4282     0.0658   -55.8494     7.9271     6.7184     7.0878
 2391.5000     8.4333    86.2020     0.1387     2.4242     0.0658   -55.8518     7.9260     6.8421     7.4891
 2392.0000     8.4334    86.9966     0.1391     2.4172     0.0618   -55.8554     7.9981     6.9681     7.9132
 2392.5000     8.4732    87.7912     0.1435     2.4152     0.0579   -55.8577     8.6072     7.0315     8.2088
 2393.0000     8.5328    89.7742     0.1407     2.4162     0.0558   -55.8613     9.5218     7.0954     8.1325
 2393.5000     8.5329    90.9648     0.1375     2.4202     0.0579   -55.8637    10.2469     7.0945     7.8375
 2394.0000     8.4934    92.5516     0.1331     2.4363     0.0579   -56.2637     9.5189     7.0286     7.6935
 2394.5000     8.4936    93.7420     0.1283     2.4413     0.0599   -56.2660     8.8429     7.0276     7.4144
 2395.0000     8.4739    94.9326     0.1299     2.4423     0.0579   -56.2696     8.7608     6.9629     7.1454
 2395.5000     8.3949    97.7074     0.1335     2.4343     0.0559   -56.2719     9.3417     6.8346     7.0790
 2396.0000     8.3554    99.6900     0.1391     2.4263     0.0480   -56.2755     9.8699     6.7092     6.8853
 2396.5000     8.3554   101.2764     0.1403     2.4203     0.0440   -56.6743     8.5191     6.5259     6.7588
 2397.0000     8.4547   102.0704     0.1426     2.4153     0.0400   -56.6779     6.8949     6.4656     6.5738
 2397.5000     8.4549   102.4684     0.1435     2.4143     0.0320   -56.6802     6.5843     6.3466     6.5126
 2398.0000     8.4550   105.6390     0.1423     2.4163     0.0280   -56.6838     7.2838     6.2877     6.3930
 2398.5000     8.5542   106.4330     0.1411     2.4183     0.0280   -56.6862     8.1320     6.1723     6.3335
 2399.0000     8.6336   108.4152     0.1411     2.4183     0.0260   -56.6897     8.6711     6.1149     6.1600
 2399.5000     8.6336   111.5854     0.1411     2.4123     0.0220   -56.6921     8.7500     6.0027     5.8281
 2400.0000     8.4358   113.9634     0.1539     2.3953     0.0060   -56.6956     7.8352     5.8386     5.7739
 2400.5000     8.3292   115.9420     0.1590     2.3893     0.0042   -56.6990     7.6325     5.6545     5.6364
 2401.0000     8.3373   118.3292     0.1591     2.3893     0.0021   -56.7011     6.9508     5.3243     5.6150
 2401.5000     8.3373   119.9186     0.1539     2.3963     0.0061   -56.7033     6.8231     5.2266     5.5626
 2402.0000     8.2980   121.5080     0.1480     2.4013     0.0141   -56.3101     6.8221     5.2740     5.4603
 2402.5000     8.3379   122.3052     0.1467     2.4103     0.0181   -56.3123     6.6965     5.4707     5.5100
 2403.0000     8.3381   123.8946     0.1411     2.4154     0.0182   -56.7120     6.2786     5.6747     5.6116
 2403.5000     8.3582   124.2960     0.1399     2.4194     0.0182   -56.3178     5.6738     5.8863     5.9294
 2404.0000     8.3584   125.4894     0.1366     2.4244     0.0202   -56.3211     8.9829     6.1060     6.3233
 2404.5000     8.3388   126.6828     0.1330     2.4324     0.0202   -56.3232    11.1987     6.3338     6.7432
 2405.0000     8.3786   129.0646     0.1310     2.4355     0.0223   -56.3265    11.9412     6.4503     6.7422
 2405.5000     8.3788   130.2580     0.1306     2.4375     0.0203   -56.3287    11.8303     6.6909     6.4379
