~VERSION INFORMATION
 VERS.                2.0:   CWLS LOG ASCII STANDARD - VERSION 2.0
 WRAP.                 NO:   ONE LINE PER DEPTH STEP
~WELL INFORMATION
#MNEM.UNIT      DATA TYPE    INFORMATION
#----------   ------------   ------------------------------
 STRT.F          218.5000:   START DEPTH
 STOP.F         3291.0000:   STOP DEPTH
 STEP.F            0.5000:   STEP LENGTH
 NULL.          -999.2500:   NO VALUE
 COMP.    FENIX & SCISSON:   COMPANY
 WELL.   FENIX SHX #63-23:   WELL
 FLD .  TEAPOT DOME NPR-3:   FIELD
 LOC .      S23 T38N R78W:   LOCATION
 CNTY.            NATRONA:   COUNTY
 STAT.            WYOMING:   STATE
 CTRY. UNITED STATES OF AMERICA:   COUNTRY
 SRVC.           BIRDWELL:   SERVICE COMPANY
 DATE.        08-JUL-1978:   LOGDATE
 API .     49025106600000:   API NUMBER
~CURVE INFORMATION
#MNEM.UNIT       API CODE    CURVE DESCRIPTION
#----------   ------------   ------------------------------
 DEPT.F                  :   
 GRD .GAPI   45 310 01 00:   GAMMA RAY FROM DENSITY LOG
 CALD.IN     45 280 60 00:   CALIPER FROM DENSITY LOG
 CORR.G/C3   45 356 01 00:   DENSITY CORRECTION
 RHOB.G/C3   45 350 01 00:   BULK DENSITY
 GR  .GAPI   35 310 01 00:   GAMMA RAY
 NEUT.NAPI   35 330 01 00:   NEUTRON
~PARAMETER INFORMATION
#MNEM.UNIT          VALUE    DESCRIPTION
#----------   ------------   ------------------------------
 EKB .F         5368.0000:   Kelly bushing
 EGL .F         5358.0000:   Ground level
 TD  .F         3299.0000:   Total depth
 CLNT.            A2DTECH:   Client Code
 PD  .                 GL:   Permanent Datum
 EPD .F              5358:   Elevation Permanent Datum
 LMF .                 KB:   Log Measured From
 DMF .                 KB:   Drilling Measured From
 DAPD.F                10:   Feet Above Permanent Datum
 DATE.        08-JUL-1978:   Date Logged [DD-MMM-YYYY]
 DD  .F              3299:   Depth driller
 DL  .F              3291:   Depth logger
 BLI .F              3291:   Bottom log interval
 TLI .F              1430:   Top log interval
 CS1 .IN            9.625:   Casing size
 CBD1.     9.625" @ 1450':   Casing driller 1
 CBL1.F              1442:   Casing logger 1
 BS1 .IN            8.750:   Bit size
 BSD1.F              3299:   Depth drilled with bit1
 DFT .          KCL WATER:   Type fluid in hole
 BHT .F               118:   BHT.
 TCS .HRS               2:   Time Circ. stopped
 MRT .F               118:   Maximum recorded temp.
 LUN .               2958:   Logging unit number
 LUL .               CASP:   Logging unit location
 ENGI.             MILLER:   Recorded By
 WITN.           MCGINLEY:   Witnessed by
 ORIG.           5" PRINT:   Origin of data
 UWI .     49025106600000:   Unique Well ID
 DICO. A2D TECHNOLOGIES, INC.:   Digitizing Company
 SL  . 1800' FNL & 1825' FEL:   Surface Location
~OTHER INFORMATION
~A   DEPT      GRD       CALD       CORR       RHOB          GR      NEUT   
# ...
 3130.5000    89.3982     8.8278     0.0330     2.5056  -999.2500  -999.2500
 3131.0000    86.8865     8.8560     0.0359     2.5130  -999.2500  -999.2500
 3131.5000    86.1223     8.8553     0.0434     2.5137  -999.2500  -999.2500
 3132.0000    88.3948     8.8402     0.0494     2.5236  -999.2500  -999.2500
 3132.5000    88.0851     8.8251     0.0493     2.5299  -999.2500  -999.2500
 3133.0000    87.6234     8.8098     0.0492     2.5314  -999.2500  -999.2500
 3133.5000    88.8320     8.7947     0.0491     2.5321  -999.2500  -999.2500
 3134.0000    87.9144     8.7941     0.0506     2.5375  -999.2500  -999.2500
 3134.5000    86.2369     8.7936     0.0520     2.5542  -999.2500  -999.2500
 3135.0000    86.0791     8.7930     0.0534     2.5564  -999.2500  -999.2500
 3135.5000    86.4866     8.7923     0.0533     2.5446  -999.2500  -999.2500
 3136.0000    86.9775     8.7918     0.0456     2.5108  -999.2500  -999.2500
 3136.5000    87.8836     8.7912     0.0334     2.4823  -999.2500  -999.2500
 3137.0000    91.8292     8.8053     0.0303     2.4697  -999.2500  -999.2500
 3137.5000   105.1973     8.8046     0.0317     2.4570  -999.2500  -999.2500
 3138.0000   111.9517     8.8040     0.0346     2.4689  -999.2500  -999.2500
 3138.5000   115.0642     8.8035     0.0361     2.4755  -999.2500  -999.2500
 3139.0000   106.6984     8.8029     0.0360     2.4755  -999.2500  -999.2500
 3139.5000   102.4373     8.8022     0.0374     2.4777  -999.2500  -999.2500
 3140.0000    99.9999     8.8164     0.0388     2.4902  -999.2500  -999.2500
 3140.5000   101.8640     8.8157     0.0372     2.4709  -999.2500  -999.2500
 3141.0000   103.3304     8.8297     0.0371     2.4790  -999.2500  -999.2500
 3141.5000   105.3003     8.8146     0.0401     2.4857  -999.2500  -999.2500
 3142.0000   107.8782     8.8139     0.0415     2.4931  -999.2500  -999.2500
 3142.5000   110.3140     8.8281     0.0429     2.5014  -999.2500  -999.2500
 3143.0000   108.7770     8.8274     0.0444     2.5078  -999.2500  -999.2500
 3143.5000   105.7318     8.8414     0.0428     2.5145  -999.2500  -999.2500
 3144.0000   105.1181     8.8261     0.0411     2.5181  -999.2500  -999.2500
 3144.5000   102.6807     8.8402     0.0395     2.5121  -999.2500  -999.2500
 3145.0000    99.4231     8.8431     0.0364     2.5107  -999.2500  -999.2500
 3145.5000    98.5644     8.8536     0.0348     2.5151  -999.2500  -999.2500
 3146.0000    98.8626     8.8677     0.0362     2.5054  -999.2500  -999.2500
 3146.5000    99.1608     8.8670     0.0346     2.4950  -999.2500  -999.2500
 3147.0000    99.7648     8.8648     0.0360     2.4891  -999.2500  -999.2500
 3147.5000   100.3636     8.8531     0.0375     2.4942  -999.2500  -999.2500
 3148.0000   101.4217     8.8413     0.0404     2.5031  -999.2500  -999.2500
 3148.5000   102.1773     8.8296     0.0449     2.5142  -999.2500  -999.2500
 3149.0000   100.1944     8.8197     0.0478     2.5378  -999.2500  -999.2500
 3149.5000    99.2768     8.8341     0.0477     2.5482  -999.2500  -999.2500
 3150.0000    99.3619     8.8630     0.0492     2.5385  -999.2500  -999.2500
 3150.5000    99.8755     8.8919     0.0476     2.5369  -999.2500  -999.2500
 3151.0000    97.4403     8.8916     0.0475     2.5249  -999.2500  -999.2500
 3151.5000    96.3736     8.9060     0.0489     2.5192  -999.2500  -999.2500
 3152.0000    97.4345     8.9057     0.0518     2.5110  -999.2500  -999.2500
 3152.5000    97.4110     8.9201     0.0533     2.5236  -999.2500  -999.2500
 3153.0000    95.4524     8.9344     0.0577     2.5250  -999.2500  -999.2500
 3153.5000    93.6258     8.9652     0.0622     2.5065  -999.2500  -999.2500
 3154.0000    92.1031     9.8377     0.0667     2.4886  -999.2500  -999.2500
 3154.5000    92.0881     8.8170     0.0453     2.4923  -999.2500  -999.2500
 3155.0000    92.1176     8.7148     0.0331     2.5182  -999.2500  -999.2500
 3155.5000    92.0938     8.7130     0.0346     2.5308  -999.2500  -999.2500
 3156.0000    91.7869     8.6997     0.0374     2.5433  -999.2500  -999.2500
 3156.5000    90.7202     8.6849     0.0358     2.5181  -999.2500  -999.2500
 3157.0000    86.4620     8.6846     0.0327     2.5085  -999.2500  -999.2500
 3157.5000    83.2669     8.6844     0.0296     2.5077  -999.2500  -999.2500
 3158.0000    81.8962     8.6842     0.0280     2.5069  -999.2500  -999.2500
 3158.5000    81.1335     8.6985     0.0294     2.5202  -999.2500  -999.2500
 3159.0000    81.5865     8.7128     0.0278     2.5224  -999.2500  -999.2500
 3159.5000    82.0473     8.7272     0.0277     2.5231  -999.2500  -999.2500
 3160.0000    81.4280     8.7415     0.0276     2.5157  -999.2500  -999.2500
 3160.5000    81.1212     8.7412     0.0276     2.5008  -999.2500  -999.2500
 3161.0000    80.5104     8.7410     0.0291     2.4967  -999.2500  -999.2500
 3161.5000    80.2036     8.7262     0.0337     2.4909  -999.2500  -999.2500
 3162.0000    80.0305     8.7259     0.0352     2.4977  -999.2500  -999.2500
 3162.5000    79.4372     8.7257     0.0352     2.5031  -999.2500  -999.2500
 3163.0000    78.9784     8.7401     0.0352     2.5079  -999.2500  -999.2500
 3163.5000    79.1275     8.7252     0.0337     2.5108  -999.2500  -999.2500
 3164.0000    80.4924     8.7104     0.0322     2.4978  -999.2500  -999.2500
 3164.5000    84.1362     8.6664     0.0322     2.4970  -999.2500  -999.2500
 3165.0000    88.5406     8.6663     0.0337     2.5118  -999.2500  -999.2500
 3165.5000    90.8174     8.6965     0.0413     2.5162  -999.2500  -999.2500
 3166.0000    92.4862     8.7420     0.0367     2.5070  -999.2500  -999.2500
 3166.5000    92.6353     8.8332     0.0337     2.5017  -999.2500  -999.2500
 3167.0000    92.6317     8.8329     0.0322     2.5024  -999.2500  -999.2500
 3167.5000    92.3248     8.8480     0.0337     2.5009  -999.2500  -999.2500
 3168.0000    91.5621     8.8935     0.0352     2.4902  -999.2500  -999.2500
 3168.5000    92.1671     8.9389     0.0367     2.4918  -999.2500  -999.2500
 3169.0000    94.0691     8.9540     0.0382     2.4917  -999.2500  -999.2500
 3169.5000    99.3035     8.9385     0.0413     2.4818  -999.2500  -999.2500
 3170.0000   105.3796     8.9384     0.0458     2.4925  -999.2500  -999.2500
 3170.5000   107.2011     8.9382     0.0473     2.4826  -999.2500  -999.2500
 3171.0000   104.7659     8.9380     0.0382     2.4773  -999.2500  -999.2500
 3171.5000   103.6992     8.9378     0.0306     2.4612  -999.2500  -999.2500
 3172.0000   108.7108     8.9376     0.0261     2.4674  -999.2500  -999.2500
 3172.5000   112.0514     8.9374     0.0397     2.4765  -999.2500  -999.2500
 3173.0000   115.0880     8.9372     0.0428     2.4895  -999.2500  -999.2500
 3173.5000   120.3458     8.9370     0.0458     2.4964  -999.2500  -999.2500
 3174.0000   130.9571     8.9368     0.0504     2.4972  -999.2500  -999.2500
 3174.5000   138.2337     8.9519     0.0534     2.4987  -999.2500  -999.2500
 3175.0000   138.4805     8.9669     0.0565     2.5026  -999.2500  -999.2500
 3175.5000   135.7413     9.0124     0.0610     2.5171  -999.2500  -999.2500
 3176.0000   132.5469     8.9665     0.0625     2.5378  -999.2500  -999.2500
 3176.5000   127.3769     8.8885     0.0656     2.5500  -999.2500  -999.2500
 3177.0000   114.7593     8.8139     0.0656     2.5378  -999.2500  -999.2500
 3177.5000   107.9175     8.9507     0.0656     2.5414  -999.2500  -999.2500
 3178.0000   109.4344     8.9201     0.0687     2.5607  -999.2500  -999.2500
 3178.5000   111.8631     8.9518     0.0792     2.5478  -999.2500  -999.2500
 3179.0000   114.1586     9.2241     0.0868     2.5378  -999.2500  -999.2500
 3179.5000   115.0488     8.9499     0.0656     2.5465  -999.2500  -999.2500
 3180.0000   112.1577     8.9498     0.0565     2.5554  -999.2500  -999.2500
 3180.5000   106.8356     8.9496     0.0549     2.5608  -999.2500  -999.2500
 3181.0000   104.2492     8.9405     0.0534     2.5639  -999.2500  -999.2500
 3181.5000   101.8853     8.9340     0.0534     2.5701  -999.2500  -999.2500
 3182.0000   100.7472     8.9186     0.0519     2.5731  -999.2500  -999.2500
