~VERSION INFORMATION
 VERS.                2.0:   CWLS LOG ASCII STANDARD - VERSION 2.0
 WRAP.                 NO:   ONE LINE PER DEPTH STEP
~WELL INFORMATION
#MNEM.UNIT      DATA TYPE    INFORMATION
#----------   ------------   ------------------------------
 STRT.F          224.0000:   START DEPTH
 STOP.F         2912.0000:   STOP DEPTH
 STEP.F            0.5000:   STEP LENGTH
 NULL.          -999.2500:   NO VALUE
 COMP.    FENIX & SCISSON:   COMPANY
 WELL. FENIX & SCISSON NPR 34 "A" #3-21:   WELL
 FLD .             NPR #3:   FIELD
 LOC .      S21 T39N R78W:   LOCATION
 CNTY.            NATRONA:   COUNTY
 STAT.            WYOMING:   STATE
 CTRY. UNITED STATES OF AMERICA:   COUNTRY
 SRVC.              WELEX:   SERVICE COMPANY
 DATE.        15-JUL-1977:   LOGDATE
 API .     49025103970000:   API NUMBER
~CURVE INFORMATION
#MNEM.UNIT       API CODE    CURVE DESCRIPTION
#----------   ------------   ------------------------------
 DEPT.F                  :   
 CALD.IN     45 280 60 00:   CALIPER FROM DENSITY LOG
 CORR.G/C3   45 356 01 00:   DENSITY CORRECTION
 RHOB.G/C3   45 350 01 00:   BULK DENSITY
 GRD .GAPI   45 310 01 00:   GAMMA RAY FROM DENSITY LOG
 SPR .MV     07 010 01 00:   SPONTANEOUS POTENTIAL
 ILD .OHMM   07 120 46 00:   DEEP INDUCTION RESISTIVITY
 ILM .OHMM   07 120 44 00:   INDUCTION LOG MEDIUM RESISTIVITY
 SGRD.OHMM   07 220 05 00:   SHALLOW SHORT GUARD RESISTIVITY
~PARAMETER INFORMATION
#MNEM.UNIT          VALUE    DESCRIPTION
#----------   ------------   ------------------------------
 EKB .F         4921.0000:   Kelly bushing
 EGL .F         4911.0000:   Ground level
 TD  .F         2914.0000:   Total depth
 CLNT.            A2DTECH:   Client Code
 SL  . 2310' FNL & 1650' FWL:   Surface Location
 DATE.        15-JUL-1977:   Date Logged [DD-MMM-YYYY]
 DD  .F              2900:   Depth driller
 DL  .F              2914:   Depth logger
 BLI .F              2912:   Bottom log interval
 TLI .F               218:   Top log interval
 CS1 .              8.625:   Casing size
 CBD1.      8.625" @ 230':   Casing driller 1
 CBL1.IN              226:   Casing logger 1
 BS1 .IN            7.875:   Bit size
 BSD1.F              2900:   Depth drilled with bit1
 DFT .                KCL:   Type fluid in hole
 DFD .                8.9:   Density
 DFV .               1.42:   Viscosity
 DFPH.                7.5:   pH
 DFL .               19.6:   Fluid loss
 MSS .            MUD PIT:   Source of sample
 RMS .OHMM           3.75:   Rm
 MST .F                83:   Rm Meas. temp.
 RMF .OHMM           3.40:   Rmf
 MFST.F                83:   Rmf Meas. temp.
 MFSS.           MEASURED:   Source Rmf.
 RMC .OHMM            9.0:   Rmc
 MCST.F                83:   Rmc Meas. temp.
 MCSS.           MEASURED:   Source Rmc.
 RMB .OHMM           2.80:   Rm. at BHT
 BHT .F               111:   BHT.
 TCS .HRS               3:   Time Circ. stopped
 MRT .F               111:   Maximum recorded temp.
 LUN .               8766:   Logging unit number
 LUL .             CASPER:   Logging unit location
 ENGI.          T. JOYNER:   Recorded By
 WITN.     MR. PETTINGILL:   Witnessed by
 ORIG.           5" PRINT:   Origin of data
 UWI .     49025103970000:   Unique Well ID
 DICO. A2D TECHNOLOGIES, INC.:   Digitizing Company
 PD  .                 GL:   Permanent Datum
 EPD .F              4911:   Elevation Permanent Datum
 LMF .                 KB:   Log Measured From
 DMF .                 KB:   Drilling Measured From
 DAPD.F                10:   Feet Above Permanent Datum
~OTHER INFORMATION
~A   DEPT      CALD        CORR       RHOB       GRD       SPR        ILD        ILM       SGRD   
  224.0000    12.0538     0.0707     2.0000    38.4670  -999.2500  -999.2500  -999.2500  -999.2500
  224.5000    11.6237     0.0499     1.9723    40.1401  -999.2500  -999.2500  -999.2500  -999.2500
  225.0000    11.0002     0.0305     1.9363    41.2327  -999.2500  -999.2500  -999.2500  -999.2500
  225.5000    10.5106    -0.0068     1.9123    42.5445  -999.2500  -999.2500  -999.2500  -999.2500
  226.0000    10.2293    -0.0008     1.9724    43.4557   -23.1233    48.7987    12.6672    17.2529
  226.5000    10.1709     0.0442     2.3730    44.3670   -23.3951    47.4231    12.4998    15.8869
  227.0000    10.1575     0.0683     2.4060    45.1294   -24.8573    40.0865    12.2357    14.3288
  227.5000    10.1891     0.0699     2.3924    46.0406   -25.2790    38.3613    11.7482    13.3889
  228.0000    10.2501     0.0595     2.3382    46.6542   -24.5081    40.0081    11.4306    12.8538
  228.5000    10.3706     0.0506     2.3071    46.8214   -25.2263    32.3045    11.1387    12.3783
  229.0000    10.5060     0.0402     2.2824    46.0957   -26.8374    23.3474    10.8406    12.2195
  229.5000    10.6860     0.0373     2.2539    44.7748   -28.4484    15.6371    10.5505    12.2378
  230.0000    10.9405     0.0314     2.2517    43.8957   -28.8690    12.8894    10.3394    12.2525
  230.5000    11.1230     0.0226     2.2569    43.7653   -28.6942    12.2015    10.2027    12.2671
  231.0000    11.3043     0.0152     2.2615    44.0859   -28.6686    12.1221    10.2080    12.1936
  231.5000    11.4398     0.0108     2.2480    44.6995   -29.2522    12.2141    10.4271    12.0408
  232.0000    11.5441     0.0034     2.2338    45.1643   -29.8074    12.3052    10.6510    11.8899
  232.5000    11.6625    -0.0025     2.2263    45.7779   -28.5403    12.3970    10.7303    11.7409
  233.0000    11.7533    -0.0099     2.2233    46.3915   -26.7731    12.4034    10.8852    11.6740
  233.5000    11.8887    -0.0323     2.2054    46.5587   -26.0032    12.2392    10.9663    11.7725
  234.0000    11.9645    -0.0456     2.1784    46.4187   -25.8351    12.0756    11.0480    11.8682
  234.5000    12.0404    -0.1182     2.1266    45.9834   -26.6956    11.9985    10.9762    12.0477
  235.0000    12.1014    -0.2027     2.0404    45.5481   -27.5627    12.0062    10.7565    12.0621
  235.5000    12.1475    -0.2889     2.0064    45.2929   -28.2809    12.0124    10.4700    12.0765
  236.0000    12.2085    -0.4509     1.9369    45.7623   -28.9991    12.1020    10.2605    11.8425
  236.5000    12.2004    -0.5000     1.7427    45.7807   -29.5685    12.1082    10.1950    11.6142
  237.0000    12.1073    -0.5000     1.6857    45.7990   -29.8403    12.1986    10.2003    11.3897
  237.5000    12.0492    -0.5000     1.8312    45.8174   -30.1121    12.3749    10.2055    11.3248
  238.0000    12.0954    -0.3949     1.9468    45.9846   -30.0863    12.3813    10.2107    11.3384
  238.5000    12.2605    -0.4307     1.8636    46.5982   -29.7628    12.3877    10.2869    11.4308
  239.0000    12.2918    -0.5000     1.6070    47.0630   -29.5882    12.4802    10.4354    11.5239
  239.5000    12.3230    -0.5000     1.4140    47.2302   -29.5624    12.4004    10.4408    11.5378
  240.0000    12.3393    -0.5000     1.4348    47.0997   -29.6853    12.3073    10.5186    11.4717
  240.5000    12.3557    -0.5000     1.6012    46.6717   -30.1060    12.2425    10.4527    11.4064
  241.0000    12.3721    -0.5000     1.5615    46.3924   -30.3842    12.3354    10.3145    11.4235
  241.5000    12.3735    -0.5000     1.0010    46.1132   -30.5072    12.4275    10.2475    11.4372
  242.0000    12.3750    -0.5000  -999.2500    46.1316   -30.6302    12.5186    10.1821    11.5302
  242.5000    12.3765    -0.5000  -999.2500    46.0007   -30.7478    12.4386    10.2593    11.6240
  243.0000    12.3619    -0.5000  -999.2500    46.7635   -30.7209    12.2756    10.2646    11.7185
  243.5000    12.3181    -0.5000  -999.2500    47.8262   -30.6950    12.1115    10.1978    11.7325
  244.0000    12.2297    -0.5000  -999.2500    48.6061   -30.6692    12.0342    10.2751    11.7466
  244.5000    12.1446    -0.5000  -999.2500    49.2001   -30.6434    11.8764    10.2804    11.6762
  245.0000    12.0568    -0.5000  -999.2500    49.0451   -30.6176    11.7990    10.2856    11.6132
  245.5000    11.9392    -0.5000  -999.2500    48.0505   -30.4427    11.8066    10.2909    11.6271
  246.0000    11.7770    -0.5000  -999.2500    47.0272   -30.4167    11.8127    10.2962    11.7217
  246.5000    11.6446    -0.5000  -999.2500    47.4920   -30.3906    11.9008    10.2292    11.8989
  247.0000    11.5419    -0.5000  -999.2500    48.8496   -30.3645    11.9896    10.3068    12.0787
  247.5000    11.4838    -0.5000  -999.2500    49.4632   -30.3385    12.0791    10.3835    12.0064
  248.0000    11.4555    -0.5000  -999.2500    48.2911   -30.3073    12.0853    10.4609    11.9410
  248.5000    11.4418    -0.5000  -999.2500    47.5609   -30.4368    12.1754    10.6119    11.8732
  249.0000    11.4284    -0.5000  -999.2500    48.4767   -30.7086    12.0977    10.8397    11.8879
  249.5000    11.4153    -0.5000  -999.2500    49.3879   -30.9804    12.0203    11.1492    11.8201
  250.0000    11.4132    -0.5000  -999.2500    48.3646   -31.2522    12.0266    11.5470    11.9177
  250.5000    11.3941    -0.5000  -999.2500    47.4901   -31.6663    12.2006    11.6365    11.7603
  251.0000    11.3749    -0.5000  -999.2500    47.9549   -32.2357    12.2916    11.7198    11.6873
  251.5000    11.3643    -0.5000  -999.2500    49.7823   -32.5140    12.2980    11.6351    11.5350
  252.0000    11.3675    -0.5000  -999.2500    49.9500   -33.1343    12.2902    11.3206    11.3081
  252.5000    11.3700    -0.5000  -999.2500    48.9399   -33.8292    12.2256    10.9555    11.0839
  253.0000    11.3570    -0.5000  -999.2500    48.9651   -34.5469    12.2334    10.8107    10.9394
  253.5000    11.3602    -0.5000  -999.2500    49.1392   -35.2703    12.1537    10.7404    10.7949
  254.0000    11.3627    -0.5000  -999.2500    49.3132   -36.1425    11.9929    10.8218    10.6560
  254.5000    11.3653    -0.5000  -999.2500    49.6361   -37.1635    11.9163    10.8274    10.5152
  255.0000    11.3678    -0.5000  -999.2500    50.1077   -38.3333    11.8402    10.7570    10.3067
  255.5000    11.3548    -0.5000  -999.2500    50.8770   -39.3591    11.6849    10.6884    10.1740
  256.0000    11.3425    -0.5000  -999.2500    51.6463   -40.2461    11.6088    10.6202    10.1810
  256.5000    11.3301    -0.5000  -999.2500    52.5644   -41.2767    11.6258    10.4798    10.1176
  257.0000    11.3178    -0.5000  -999.2500    53.4825   -42.2876    11.5597    10.4130    10.0549
  257.5000    11.2757    -0.5000  -999.2500    54.5494   -43.7848    11.3291    10.3466     9.9927
  258.0000    11.2193    -0.5000  -999.2500    55.3187   -45.1982    11.1032    10.2820     9.7946
  258.5000    11.1475    -0.5000  -999.2500    56.3856   -45.9216    10.9574    10.2164     9.6669
  259.0000    11.0458    -0.5000  -999.2500    57.4525   -46.6450    10.8118    10.2217     9.6035
  259.5000    10.9442    -0.5000  -999.2500    58.8170   -46.9220    10.5247    10.1552     9.4757
  260.0000    10.7979    -0.5000  -999.2500    60.0327   -47.1989    10.4570    10.0220     9.3496
  260.5000    10.6814    -0.5000  -999.2500    61.6948   -47.6247    10.3212     9.9442     9.2252
  261.0000    10.5946    -0.5000  -999.2500    62.7617   -47.9068    10.3276     9.8850     9.1156
  261.5000    10.5228    -0.5000  -999.2500    63.9775   -48.0350    10.2627     9.8258     9.1234
  262.0000    10.4807    -0.5000  -999.2500    64.1452   -48.0092    10.2690     9.7667     9.1296
  262.5000    10.4677    -0.5000  -999.2500    63.4327   -48.2861    10.2753     9.7075     9.1992
  263.0000    10.4262    -0.5000  -999.2500    62.8627   -48.4194    10.2817     9.6209     9.2692
  263.5000    10.4132    -0.5000  -999.2500    62.2927   -48.5476    10.2880     9.6291     9.2756
  264.0000    10.4012    -0.5000  -999.2500    62.0140   -48.5217    10.2944     9.5035     9.2819
