~VERSION INFORMATION
 VERS.                2.0:   CWLS LOG ASCII STANDARD - VERSION 2.0
 WRAP.                 NO:   ONE LINE PER DEPTH STEP
~WELL INFORMATION
#MNEM.UNIT      DATA TYPE    INFORMATION
#----------   ------------   ------------------------------
 STRT.F            0.0000:   START DEPTH
 STOP.F         3205.0000:   STOP DEPTH
 STEP.F            0.5000:   STEP LENGTH
 NULL.          -999.2500:   NO VALUE
 COMP. LAWRENCE-ALLISON AND ASSOCIATES:   COMPANY
 WELL. LAWRENCE "X" #64-28:   WELL
 FLD .          N.P.R. #3:   FIELD
 LOC .      S28 T39N R78W:   LOCATION
 CNTY.            NATRONA:   COUNTY
 STAT.            WYOMING:   STATE
 CTRY. UNITED STATES OF AMERICA:   COUNTRY
 SRVC.      DRESSER ATLAS:   SERVICE COMPANY
 DATE.        25-MAY-1986:   LOGDATE
 API .     49025110730000:   API NUMBER
~CURVE INFORMATION
#MNEM.UNIT       API CODE    CURVE DESCRIPTION
#----------   ------------   ------------------------------
 DEPT.F                  :   
 GRR .GAPI   07 310 01 00:   GAMMA RAY FROM RESISTIVITY
 SPR .MV     07 010 01 00:   SPONTANEOUS POTENTIAL
 RILD.OHMM   07 120 46 00:   DEEP INDUCTION RESISTIVITY
 RILM.OHMM   07 120 44 00:   INDUCTION LOG MEDIUM RESISTIVITY
 RSFL.OHMM   07 221 01 00:   AMPPLIFIED SHALLOW FOCUSED LOG RESISTIVITY
 TENR.LBS    07 635 01 00:   TENSION FROM RESISTIVITY
 CNC .DEC    42 890 03 00:   NEUTRON POROSITY SANDSTONE
 CALD.IN     45 280 60 00:   CALIPER FROM DENSITY LOG
 DEN .G/C3   45 350 01 00:   BULK DENSITY
 CORR.G/C3   45 356 01 00:   DENSITY CORRECTION
 TEND.LBS    45 635 01 00:   TENSION FROM DENSITY LOG
~PARAMETER INFORMATION
#MNEM.UNIT          VALUE    DESCRIPTION
#----------   ------------   ------------------------------
 EKB .F         5070.0000:   Kelly bushing
 EGL .F         5058.0000:   Ground level
 TD  .F         3205.0000:   Total depth
 DATE.        25-MAY-1986:   Date logged
 CLNT.            A2DTECH:   Client Code
 SL  . 2248' FNL & 1636' FEL:   Surface Location
 PD  .                 GL:   Permanent Datum
 EPD .F              5058:   Elevation Permanent Datum
 LMF .                 KB:   Log Measured From
 DMF .                 KB:   Drilling Measured From
 DAPD.F                12:   Feet Above Permanent Datum
 DD  .F              3205:   Depth driller
 DL  .F              3203:   Depth logger
 BLI .F              3201:   Bottom log interval
 CS1 .IN            8.625:   Casing size
 CBD1.      8.625" @ 476':   Casing driller 1
 CBL1.F               478:   Casing logger 1
 BS1 .IN            7.875:   Bit size
 BSD1.F              3205:   Depth drilled with bit1
 DFT .        POLYMER-KCL:   Type fluid in hole
 DFD .                  9:   Density
 DFV .                 37:   Viscosity
 DFPH.                8.5:   pH
 DFL .                 10:   Fluid loss
 MSS .           FLOWLINE:   Source of sample
 RMS .OHMM           0.31:   Rm
 MST .F                69:   Rm Meas. temp.
 RMF .OHMM           0.25:   Rmf
 MFST.F                69:   Rmf Meas. temp.
 RMC .OHMM           0.39:   Rmc
 MCST.F                69:   Rmc Meas. temp.
 MFSS.               MEAS:   Source Rmf.
 MCSS.               CALC:   Source Rmc.
 RMB .OHMM           0.19:   Rm. at BHT
 BHT .F               115:   BHT.
 TCS .HRS               4:   Time Circ. stopped
 MRT .F               115:   Maximum recorded temp.
 LUN .            HL-6274:   Logging unit number
 LUL .           GILLETTE:   Logging unit location
 ENGI.             RAUTIO:   Recorded By
 WITN.             STRONG:   Witnessed by
 ORIG.           5" PRINT:   Origin of data
 UWI .     49025110730000:   Unique Well ID
 DICO. A2D TECHNOLOGIES, INC.:   Digitizing Company
~OTHER INFORMATION
~A    DEPT     GRR        SPR       RILD       RILM       RSFL       TENR        CNC       CALD        DEN       CORR       TEND   
# ...
 1921.5000   121.2990   -44.9670     7.6790     8.0830    10.3660   -29.5450  -999.2500  -999.2500  -999.2500  -999.2500  -999.2500
 1922.0000   119.9730   -44.5950     7.7350     8.1320    10.5560   -33.9190  -999.2500  -999.2500  -999.2500  -999.2500  -999.2500
 1922.5000   118.6370   -44.5260     7.7920     8.1810    10.5980   -31.3120  -999.2500  -999.2500  -999.2500  -999.2500  -999.2500
 1923.0000   118.1670   -44.8170     7.8490     8.2290    10.4710   -25.0250  -999.2500  -999.2500  -999.2500  -999.2500  -999.2500
 1923.5000   116.8160   -45.1090     7.9050     8.2780    10.3440   -18.7380  -999.2500  -999.2500  -999.2500  -999.2500  -999.2500
 1924.0000   116.1480   -45.4170     7.9620     8.3270    10.2170   -17.2580  -999.2500  -999.2500  -999.2500  -999.2500  -999.2500
 1924.5000   117.3110   -45.7760     8.0140     8.3900    10.2360   -20.9840  -999.2500  -999.2500  -999.2500  -999.2500  -999.2500
 1925.0000   119.9500   -46.1620     8.0140     8.3140    10.3560   -24.7100  -999.2500  -999.2500  -999.2500  -999.2500  -999.2500
 1925.5000   122.3850   -46.5740     8.0140     8.2610    10.4760   -28.4360  -999.2500  -999.2500  -999.2500  -999.2500  -999.2500
 1926.0000   122.4610   -46.6090     8.0140     8.2030    10.5110   -32.1620  -999.2500  -999.2500  -999.2500  -999.2500  -999.2500
 1926.5000   120.8870   -46.3770     7.9020     8.1440    10.3610   -35.4290  -999.2500  -999.2500  -999.2500  -999.2500  -999.2500
 1927.0000   119.1220   -46.1950     7.8020     8.0860    10.2100   -38.7680  -999.2500  -999.2500  -999.2500  -999.2500  -999.2500
 1927.5000   118.2140   -45.8470     7.7010     8.0280    10.0600   -29.6230  -999.2500  -999.2500  -999.2500  -999.2500  -999.2500
 1928.0000   119.0310   -45.5140     7.6010     7.9690     9.9360   -26.8160  -999.2500  -999.2500  -999.2500  -999.2500  -999.2500
 1928.5000   122.7490   -45.3690     7.5010     7.9110     9.8330   -29.3310  -999.2500  -999.2500  -999.2500  -999.2500  -999.2500
 1929.0000   126.6900   -45.2070     7.3770     7.8530     9.7300   -31.8460  -999.2500  -999.2500  -999.2500  -999.2500  -999.2500
 1929.5000   126.3200   -45.2440     7.3770     7.7940     9.6270   -34.3610  -999.2500  -999.2500  -999.2500  -999.2500  -999.2500
 1930.0000   125.2880   -45.4830     7.3770     7.7360     9.5430   -33.0170  -999.2500  -999.2500  -999.2500  -999.2500  -999.2500
 1930.5000   124.9310   -45.8550     7.3770     7.6770     9.5430   -28.8260  -999.2500  -999.2500  -999.2500  -999.2500  -999.2500
 1931.0000   125.1130   -46.3350     7.3770     7.6870     9.6800   -25.4490  -999.2500  -999.2500  -999.2500  -999.2500  -999.2500
 1931.5000   130.9470   -46.4690     7.3770     7.7420     9.8540   -34.6920  -999.2500  -999.2500  -999.2500  -999.2500  -999.2500
 1932.0000   134.9600   -46.4380     7.4210     7.7980     9.9920   -42.4310  -999.2500  -999.2500  -999.2500  -999.2500  -999.2500
 1932.5000   130.7810   -46.5150     7.4650     7.8540     9.8680   -42.3150  -999.2500  -999.2500  -999.2500  -999.2500  -999.2500
 1933.0000   126.0470   -46.5510     7.5090     7.9090     9.8440   -37.2850  -999.2500  -999.2500  -999.2500  -999.2500  -999.2500
 1933.5000   123.9910   -46.5800     7.5530     7.9650     9.9250   -32.2550  -999.2500  -999.2500  -999.2500  -999.2500  -999.2500
 1934.0000   124.4230   -46.5300     7.5970     8.0210    10.0070   -27.2260  -999.2500  -999.2500  -999.2500  -999.2500  -999.2500
 1934.5000   125.6230   -46.4150     7.6410     8.0770    10.0840   -22.1960  -999.2500  -999.2500  -999.2500  -999.2500  -999.2500
 1935.0000   125.8850   -46.2620     7.6850     8.1320     9.9930   -17.1660  -999.2500  -999.2500  -999.2500  -999.2500  -999.2500
 1935.5000   127.0310   -46.0650     7.7290     8.1260     9.8870   -19.8480  -999.2500  -999.2500  -999.2500  -999.2500  -999.2500
 1936.0000   127.4360   -45.8430     7.7730     8.0490     9.8100   -29.2790  -999.2500  -999.2500  -999.2500  -999.2500  -999.2500
 1936.5000   125.5590   -45.7310     7.7560     7.9720     9.9340   -38.7100  -999.2500  -999.2500  -999.2500  -999.2500  -999.2500
 1937.0000   123.6710   -45.9460     7.6720     7.8950    10.0310   -45.4090  -999.2500  -999.2500  -999.2500  -999.2500  -999.2500
 1937.5000   124.0530   -46.2360     7.5890     7.7960    10.1290   -38.4590  -999.2500  -999.2500  -999.2500  -999.2500  -999.2500
 1938.0000   122.0940   -46.3770     7.5140     7.8510    10.1040   -33.0700  -999.2500  -999.2500  -999.2500  -999.2500  -999.2500
 1938.5000   115.4750   -46.5070     7.5650     7.9300     9.9600   -27.6800  -999.2500  -999.2500  -999.2500  -999.2500  -999.2500
 1939.0000   113.1380   -46.5840     7.6110     8.0090     9.8160   -22.2910  -999.2500  -999.2500  -999.2500  -999.2500  -999.2500
 1939.5000   115.6790   -46.4980     7.6570     8.0890     9.7880   -15.4690  -999.2500  -999.2500  -999.2500  -999.2500  -999.2500
 1940.0000   119.6970   -46.3050     7.7030     8.1680     9.9960   -18.6800  -999.2500  -999.2500  -999.2500  -999.2500  -999.2500
 1940.5000   124.3610   -46.1080     7.6870     8.2470    10.2040   -23.0540  -999.2500  -999.2500  -999.2500  -999.2500  -999.2500
 1941.0000   124.8890   -46.0050     7.6180     8.3140    10.4610   -27.4280  -999.2500  -999.2500  -999.2500  -999.2500  -999.2500
 1941.5000   124.5370   -46.0310     7.5490     8.1460    10.4210   -31.8020  -999.2500  -999.2500  -999.2500  -999.2500  -999.2500
 1942.0000   123.4950   -46.1230     7.4800     8.0010    10.3090   -35.4290  -999.2500  -999.2500  -999.2500  -999.2500  -999.2500
 1942.5000   119.7680   -46.1310     7.4110     7.8560    10.1970   -32.0570  -999.2500  -999.2500  -999.2500  -999.2500  -999.2500
 1943.0000   118.1930   -46.2070     7.3420     7.7630    10.0840   -28.5880  -999.2500  -999.2500  -999.2500  -999.2500  -999.2500
 1943.5000   119.3710   -46.5300     7.2730     7.7070     9.5860   -25.1190  -999.2500  -999.2500  -999.2500  -999.2500  -999.2500
 1944.0000   128.5000   -46.8160     7.2040     7.6500     9.0830   -21.6500  -999.2500  -999.2500  -999.2500  -999.2500  -999.2500
 1944.5000   139.9170   -47.1300     7.1610     7.5840     8.7380   -18.1810  -999.2500  -999.2500  -999.2500  -999.2500  -999.2500
 1945.0000   140.6520   -47.3690     7.1360     7.6310     8.6250   -15.4690  -999.2500  -999.2500  -999.2500  -999.2500  -999.2500
 1945.5000   137.7470   -47.1470     7.1110     7.6900     9.4290   -19.2690  -999.2500  -999.2500  -999.2500  -999.2500  -999.2500
 1946.0000   137.8180   -46.8270     7.1960     7.7480     9.8430   -22.9950  -999.2500  -999.2500  -999.2500  -999.2500  -999.2500
 1946.5000   139.5630   -46.6100     7.2990     7.8070     9.9920   -26.7210  -999.2500  -999.2500  -999.2500  -999.2500  -999.2500
 1947.0000   136.7970   -46.3970     7.4020     7.8650     9.9480   -30.4470  -999.2500  -999.2500  -999.2500  -999.2500  -999.2500
 1947.5000   129.9540   -46.2260     7.5060     7.9240     9.9120   -34.1720  -999.2500  -999.2500  -999.2500  -999.2500  -999.2500
 1948.0000   124.0060   -46.0470     7.6090     7.9830     9.9890   -31.9260  -999.2500  -999.2500  -999.2500  -999.2500  -999.2500
 1948.5000   117.6920   -45.8610     7.7240     7.9680    10.1220   -24.3810  -999.2500  -999.2500  -999.2500  -999.2500  -999.2500
 1949.0000   114.3960   -45.6860     7.6520     7.8730    10.2710   -16.8360  -999.2500  -999.2500  -999.2500  -999.2500  -999.2500
 1949.5000   114.7570   -45.7190     7.5690     7.7770     9.9950    -9.2910  -999.2500  -999.2500  -999.2500  -999.2500  -999.2500
 1950.0000   116.1730   -45.9830     7.4860     7.6540     9.6840    -9.4350  -999.2500  -999.2500  -999.2500  -999.2500  -999.2500
 1950.5000   121.2410   -46.2420     7.4450     7.6740     9.2830   -17.3910  -999.2500  -999.2500  -999.2500  -999.2500  -999.2500
 1951.0000   122.4230   -46.5100     7.4450     7.7030     9.4110   -25.3470  -999.2500  -999.2500  -999.2500  -999.2500  -999.2500
 1951.5000   116.4590   -46.7630     7.4450     7.7330     9.5900   -35.4290  -999.2500  -999.2500  -999.2500  -999.2500  -999.2500
