~VERSION INFORMATION
 VERS.                2.0:   CWLS LOG ASCII STANDARD - VERSION 2.0
 WRAP.                 NO:   ONE LINE PER DEPTH STEP
~WELL INFORMATION
#MNEM.UNIT      DATA TYPE    INFORMATION
#----------   ------------   ------------------------------
 STRT.F          206.0000:   START DEPTH
 STOP.F         2974.0000:   STOP DEPTH
 STEP.F            0.5000:   STEP LENGTH
 NULL.          -999.2500:   NO VALUE
 COMP.    FENIX & SCISSON:   COMPANY
 WELL.    FENIX AX #32-21:   WELL
 FLD .                NPR:   FIELD
 LOC .      S21 T39N R78W:   LOCATION
 CNTY.            NATRONA:   COUNTY
 STAT.            WYOMING:   STATE
 CTRY. UNITED STATES OF AMERICA:   COUNTRY
 SRVC.              WELEX:   SERVICE COMPANY
 DATE.        29-JUL-1977:   LOGDATE
 API .     49025104050000:   API NUMBER
~CURVE INFORMATION
#MNEM.UNIT       API CODE    CURVE DESCRIPTION
#----------   ------------   ------------------------------
 DEPT.F                  :   
 SPR .MV     07 010 01 00:   SPONTANEOUS POTENTIAL
 RILM.OHMM   07 120 44 00:   INDUCTION LOG MEDIUM RESISTIVITY
 RILD.OHMM   07 120 46 00:   INDUCTION LOG DEEP RESISTIVITY
 SGRD.OHMM   07 220 05 00:   SHALLOW GUARD LOG RESISTIVITY
 CALD.IN     45 280 60 00:   CALIPER FROM DENSITY LOG
 RHOB.G/C3   45 350 01 00:   BULK DENSITY
 DCOR.G/C3   45 356 01 00:   DENSITY CORRECTION
 GRD .GAPI   45 310 01 00:   GAMMA RAY FROM DENSITY LOG
~PARAMETER INFORMATION
#MNEM.UNIT          VALUE    DESCRIPTION
#----------   ------------   ------------------------------
 EKB .F         4995.0000:   Kelly bushing
 EGL .F         4985.0000:   Ground level
 EDF .F            0.0000:   Drilling floor
 EPD .F         4985.0000:   Permanent datum
 TD  .F         2978.0000:   Total depth
 DATE.        29-JUL-1977:   Date logged
 CLNT.            A2DTECH:   Client Code
 SL  . 1040' FNL & 1500' FWL:   Surface Location
 PD  .                 GL:   Permanent Datum
 LMF .                 KB:   Log Measured From
 DMF .                 KB:   Drilling Measured From
 DAPD.F                10:   Feet Above Permanent Datum
 DD  .F              2972:   Depth driller
 DL  .F              2978:   Depth logger
 BLI .F              2976:   Bottom log interval
 TLI .F               120:   Top log interval
 CS1 .IN            8.625:   Casing size
 CBD1.      8.625" @ 205':   Casing driller 1
 CBL1.F               220:   Casing logger 1
 BS1 .IN            7.875:   Bit size
 BSD1.F              2972:   Depth drilled with bit1
 DFT .                KCL:   Type fluid in hole
 DFD .                9.2:   Density
 DFV .                 43:   Viscosity
 DFPH.                 10:   pH
 DFL .                  8:   Fluid loss
 MSS .            MUD PIT:   Source of sample
 RMS .OHMM            .21:   Rm
 MST .F                91:   Rm Meas. temp.
 RMF .OHMM            .18:   Rmf
 MFST.F                91:   Rmf Meas. temp.
 RMC .OHMM            .23:   Rmc
 MCST.F                91:   Rmc Meas. temp.
 MFSS.               MEAS:   Source Rmf.
 MCSS.               MEAS:   Source Rmc.
 RMB .OHMM            .17:   Rm. at BHT
 BHT .F               110:   BHT.
 TCS .HRS               3:   Time Circ. stopped
 MRT .F               110:   Maximum recorded temp.
 LUN .               9685:   Logging unit number
 LUL .             CASPER:   Logging unit location
 ENGI.   T JOYNER/ E HOCH:   Recorded By
 WITN.         PETTINGILL:   Witnessed by
 ORIG.     2.5", 5" PRINT:   Origin of data
 UWI .     49025104050000:   Unique Well ID
 DICO. A2D TECHNOLOGIES, INC.:   Digitizing Company
~OTHER INFORMATION
~A   DEPT      SPR       RILM       RILD       SGRD       CALD       RHOB       DCOR         GRD  
# ...
 2919.5000   -64.3440     3.5520     3.3050     3.6220     7.7970     2.5050     0.1120   147.5590
 2920.0000   -64.7360     3.5130     3.2760     3.9670     7.7980     2.5020     0.1050   147.2320
 2920.5000   -65.1320     3.4670     3.2470     3.8940     7.8000     2.5040     0.0960   146.7880
 2921.0000   -65.5280     3.4200     3.2170     3.8940     7.8010     2.5060     0.0890   146.3230
 2921.5000   -65.7440     3.3740     3.1880     3.9510     7.8030     2.4980     0.0810   146.1470
 2922.0000   -65.8570     3.3270     3.1590     4.1920     7.8040     2.4900     0.0740   146.7030
 2922.5000   -65.9580     3.2810     3.1300     3.8240     7.8050     2.4800     0.0660   147.2680
 2923.0000   -66.0480     3.2340     3.1010     3.9890     7.8070     2.4720     0.0590   147.8440
 2923.5000   -65.6800     3.1880     3.0720     3.9680     7.8080     2.4620     0.0520   148.3700
 2924.0000   -65.3440     3.1410     3.0420     3.6310     7.8100     2.4540     0.0440   149.0780
 2924.5000   -64.9210     3.0950     3.0130     3.3620     7.8110     2.4430     0.0360   148.2520
 2925.0000   -65.1440     3.0480     2.9840     3.4880     7.8130     2.4440     0.0330   146.3260
 2925.5000   -65.4710     3.0110     2.9550     3.3130     7.8140     2.4530     0.0370   144.5900
 2926.0000   -65.8110     3.0620     2.9260     3.0670     7.8150     2.4620     0.0400   142.8110
 2926.5000   -66.0520     3.1260     2.9020     3.3370     7.8170     2.4720     0.0430   141.0440
 2927.0000   -65.9270     3.1900     2.9840     3.6980     7.8180     2.4790     0.0470   139.3070
 2927.5000   -65.8220     3.2550     3.0530     3.9040     7.8200     2.4870     0.0470   137.3450
 2928.0000   -65.6970     3.3190     3.1240     4.1150     7.8200     2.4910     0.0440   136.7010
 2928.5000   -65.5850     3.3830     3.2200     4.1920     7.8200     2.4880     0.0410   137.7650
 2929.0000   -65.4710     3.4470     3.3190     4.1230     7.8200     2.4860     0.0390   138.7030
 2929.5000   -65.3410     3.5110     3.4170     3.9670     7.8200     2.4850     0.0330   137.5510
 2930.0000   -65.3040     3.5910     3.5160     4.1420     7.8200     2.4820     0.0360   139.2760
 2930.5000   -65.4100     3.6970     3.6150     4.2690     7.8200     2.4880     0.0400   142.0580
 2931.0000   -65.4990     3.8040     3.7140     4.1370     7.8200     2.4980     0.0440   142.8930
 2931.5000   -65.5940     3.8940     3.8130     4.0400     7.8200     2.5140     0.0480   142.8120
 2932.0000   -65.6900     4.3030     3.9110     4.8010     7.8200     2.5280     0.0520   144.9850
 2932.5000   -65.7790     4.6590     4.0100     5.4620     7.8200     2.5240     0.0510   148.0200
 2933.0000   -65.8810     5.0380     4.1150     6.1670     7.8200     2.5200     0.0490   151.0350
 2933.5000   -65.9660     5.1200     4.2690     6.2740     7.8200     2.5270     0.0480   153.9990
 2934.0000   -66.0380     5.0970     4.2280     6.3980     7.8200     2.5270     0.0500   157.9230
 2934.5000   -65.6600     5.0510     4.1020     6.3100     7.8200     2.5210     0.0510   162.3820
 2935.0000   -65.2870     4.7810     3.9670     6.2150     7.8200     2.5110     0.0520   168.2100
 2935.5000   -64.9380     4.4270     3.7770     6.1200     7.8200     2.5000     0.0490   176.7670
 2936.0000   -64.5950     4.0720     3.5520     5.7140     7.8200     2.4890     0.0460   185.6120
 2936.5000   -64.2470     3.7180     3.2470     4.6260     7.8200     2.4810     0.0420   193.3050
 2937.0000   -63.9040     3.3630     2.7460     3.5380     7.8200     2.4820     0.0390   190.2410
 2937.5000   -63.5550     2.9020     2.7940     2.1230     7.8200     2.4870     0.0360   183.9710
 2938.0000   -63.2110     3.2150     2.8880     2.5790     7.8200     2.4980     0.0330   159.8830
 2938.5000   -62.9100     3.6630     2.9820     4.2420     7.8200     2.5100     0.0350   138.2540
 2939.0000   -62.9000     4.1120     3.1530     5.9050     7.8200     2.5100     0.0390   126.3150
 2939.5000   -62.8960     4.5600     3.3590     7.2760     7.8200     2.5100     0.0430   119.6660
 2940.0000   -62.8700     5.0080     3.7220     6.9980     7.8200     2.5090     0.0470   116.7000
 2940.5000   -62.7700     5.4220     4.1570     6.7600     7.8200     2.5150     0.0480   117.6560
 2941.0000   -62.6730     5.7610     4.5920     6.8570     7.8200     2.5250     0.0480   119.0050
 2941.5000   -62.5690     6.0540     5.0280     6.9470     7.8200     2.5360     0.0480   120.3410
 2942.0000   -62.5370     6.2670     5.5230     7.2910     7.8200     2.5460     0.0480   119.7770
 2942.5000   -62.6750     6.4660     5.8250     8.2760     7.8200     2.5480     0.0480   119.2310
 2943.0000   -62.8080     6.6650     6.0350     8.1770     7.8200     2.5450     0.0480   119.2000
 2943.5000   -62.9460     6.9640     6.1670     8.0840     7.8200     2.5430     0.0480   120.6940
 2944.0000   -63.0820     6.8590     6.1190     7.9770     7.8200     2.5410     0.0460   122.1670
 2944.5000   -63.2180     6.4650     6.0470     7.8260     7.8200     2.5310     0.0400   123.6680
 2945.0000   -63.3540     6.3500     5.9740     7.6480     7.8200     2.5230     0.0340   125.1770
 2945.5000   -63.4900     6.2350     5.9020     7.4690     7.8200     2.5140     0.0290   126.6170
 2946.0000   -63.6260     6.0540     5.8290     7.2910     7.8180     2.5060     0.0230   128.2780
 2946.5000   -63.7630     6.1320     5.7570     7.1130     7.8160     2.4970     0.0210   128.7710
 2947.0000   -63.9000     6.3130     5.7220     6.9350     7.8140     2.4940     0.0230   129.2780
 2947.5000   -64.0300     6.4940     5.7100     6.7600     7.8120     2.5000     0.0250   129.7160
 2948.0000   -64.1730     6.6750     5.6980     6.8680     7.8100     2.5060     0.0280   130.1950
 2948.5000   -64.3270     6.8550     5.6870     6.9730     7.8080     2.5130     0.0290   130.6720
 2949.0000   -64.4750     7.1440     5.6750     7.3720     7.8070     2.5140     0.0300   131.1250
 2949.5000   -64.6210     7.1270     5.6630     7.9600     7.8050     2.5190     0.0310   131.5580
 2950.0000   -64.7710     7.0870     5.6510     8.4290     7.8030     2.5300     0.0320   131.3010
 2950.5000   -64.9180     7.0460     5.6390     8.3860     7.8010     2.5340     0.0330   131.0250
 2951.0000   -65.0620     7.0140     5.6250     8.2770     7.7990     2.5310     0.0340   130.7220
 2951.5000   -65.2230     6.6020     5.5960     8.1680     7.7970     2.5290     0.0350   130.4370
 2952.0000   -65.2240     6.0540     5.5240     7.2030     7.7950     2.5200     0.0360   130.1440
 2952.5000   -65.0930     6.0700     5.4510     6.2810     7.7930     2.5160     0.0400   129.8590
 2953.0000   -64.9830     6.1090     5.3350     6.3260     7.7910     2.5280     0.0440   129.5550
 2953.5000   -64.8650     6.1480     5.1890     6.3720     7.7890     2.5350     0.0480   129.2590
 2954.0000   -64.7480     6.1870     5.1310     6.4170     7.7880     2.5430     0.0510   128.3270
 2954.5000   -64.6460     6.2260     5.1310     6.4620     7.7860     2.5500     0.0550   126.9940
 2955.0000   -64.4890     6.2650     5.1310     6.5160     7.7840     2.5430     0.0580   125.8510
 2955.5000   -64.7500     6.3040     5.1310     6.7150     7.7820     2.5460     0.0600   124.5390
 2956.0000   -65.1930     6.3430     5.1310     7.0140     7.7800     2.5480     0.0580   120.6190
 2956.5000   -65.6380     6.3980     5.0970     7.0140     7.7770     2.5490     0.0570   116.5710
 2957.0000   -65.5720     6.1050     5.0550     6.7600     7.7740     2.5420     0.0550    83.7930
 2957.5000   -65.4790     5.6170     5.0130     6.0910     7.7720     2.5360     0.0530    29.7480
 2958.0000   -65.3550     5.2260     4.9710     5.4220     7.7690     2.5290     0.0510     3.2000
 2958.5000   -65.2330     5.1560     4.8700     5.4560     7.7660     2.5220     0.0490     3.1210
 2959.0000   -65.0380     5.0970     4.6820     5.5230     7.7630     2.5190     0.0480     3.1120
 2959.5000   -64.7680     5.0380     4.4930     5.4890     7.7610     2.5210     0.0490     3.1400
