~VERSION INFORMATION
 VERS.                2.0:   CWLS LOG ASCII STANDARD - VERSION 2.0
 WRAP.                 NO:   ONE LINE PER DEPTH STEP
~WELL INFORMATION
#MNEM.UNIT      DATA TYPE    INFORMATION
#----------   ------------   ------------------------------
 STRT.F            4.0000:   START DEPTH
 STOP.F         5696.0000:   STOP DEPTH
 STEP.F            0.5000:   STEP LENGTH
 NULL.          -999.2500:   NO VALUE
 COMP.       FLUOR DANIEL:   COMPANY
 WELL.   FLUOR "X" #72-10:   WELL
 FLD .             NPR #3:   FIELD
 LOC .      S10 T38N R78W:   LOCATION
 CNTY.            NATRONA:   COUNTY
 STAT.            WYOMING:   STATE
 CTRY. UNITED STATES OF AMERICA:   COUNTRY
 SRVC.      WESTERN ATLAS:   SERVICE COMPANY
 DATE.        26-SEP-1996:   LOGDATE
 API .     49025228080000:   API NUMBER
~CURVE INFORMATION
#MNEM.UNIT       API CODE    CURVE DESCRIPTION
#----------   ------------   ------------------------------
 DEPT.F                  :   
 GRR .GAPI   07 310 01 00:   GAMMA RAY FROM RESISTIVITY
 SPR .MV     07 010 01 00:   SPONTANEOUS POTENTIAL
 CALR.IN     07 280 01 00:   CALIPER FROM RESISTIVITY
 RD  .OHMM   07 220 10 00:   RESISTIVITY DEEP
 RS  .OHMM   07 220 09 00:   RESISTIVITY SHALLOW
 TENR.LBS    07 635 01 00:   TENSION FROM RESISTIVITY
~PARAMETER INFORMATION
#MNEM.UNIT          VALUE    DESCRIPTION
#----------   ------------   ------------------------------
 EKB .F         5178.0000:   Kelly bushing
 EGL .F         5168.0000:   Ground level
 EDF .F         5177.0000:   Drilling floor
 TD  .F         5698.0000:   Total depth
 CLNT.            A2DTECH:   Client Code
 SL  . 687' FNL & 1002' FEL:   Surface Location
 PD  .                 GL:   Permanent Datum
 EPD .F              5168:   Elevation Permanent Datum
 LMF .                 KB:   Log Measured From
 DMF .                 KB:   Drilling Measured From
 DAPD.F                10:   Feet Above Permanent Datum
 DATE.        26-SEP-1996:   Date Logged [DD-MMM-YYYY]
 DD  .F              5698:   Depth driller
 DL  .F              5697:   Depth logger
 BLI .F              5685:   Bottom log interval
 CS1 .IN            9.625:   Casing size
 CBD1.      9.625" @ 526':   Casing driller 1
 CBL1.F               526:   Casing logger 1
 BS1 .IN             8.75:   Bit size
 BSD1.F              5698:   Depth drilled with bit1
 DFT .               CHEM:   Type fluid in hole
 DFD .                9.1:   Density
 DFV .                 60:   Viscosity
 DFPH.                9.5:   pH
 DFL .                7.6:   Fluid loss
 MSS .               CIRC:   Source of sample
 RMS .OHMM           0.82:   Rm
 MST .F                64:   Rm Meas. temp.
 RMF .OHMM           0.64:   Rmf
 MFST.F                64:   Rmf Meas. temp.
 MFSS.               CALC:   Source Rmf.
 RMC .OHMM           1.08:   Rmc
 MCST.F                64:   Rmc Meas. temp.
 MCSS.               CALC:   Source Rmc.
 RMB .OHMM           0.29:   Rm. at BHT
 BHT .F               183:   BHT.
 TCS .HRS               5:   Time Circ. stopped
 MRT .F               183:   Maximum recorded temp.
 LUN .            HL-6530:   Logging unit number
 LUL .             CASPER:   Logging unit location
 ENGI.           BROWNLOW:   Recorded By
 ORIG.        2" 5" PRINT:   Origin of data
 UWI .     49025228080000:   Unique Well ID
 WITN.              HARDY:   Witnessed by
 DICO. A2D TECHNOLOGIES, INC.:   Digitizing Company
~OTHER INFORMATION
~A  DEPTH      GRR        SPR       CALR         RD         RS       TENR
# ...
 4580.0000   122.5304   -24.1136     9.2789    11.1847    11.1843   -16.6560
 4580.5000   119.9146   -24.5588     9.2802    10.8801    10.8801     6.2878
 4581.0000   119.9430   -25.0063     9.2818    10.4318    10.4383    -1.0763
 4581.5000   121.1762   -25.4543     9.2679    10.1538    10.2247   -15.9601
 4582.0000   121.8147   -25.7412     9.2386    10.3690    10.4411   -30.9511
 4582.5000   121.8426   -25.8840     9.1795    10.5883    10.6620   -45.8352
 4583.0000   120.9674   -26.0267     9.1054    10.5855    10.5165   -53.1433
 4583.5000   120.0850   -26.1694     9.0612    10.3730    10.3730   -60.5050
 4584.0000   119.2170   -26.1586     9.0322    11.1198    10.6665   -67.8666
 4584.5000   117.7465   -26.3035     9.0032    14.0787    12.6000   -75.2283
 4585.0000   103.6781   -26.2928     9.0045    18.6131    16.2322   -74.9608
 4585.5000    88.1706   -26.2842     8.9906    23.2038    24.3580   -74.7467
 4586.0000    64.8244   -26.2753     8.9922    25.2208    25.7510   -82.1618
 4586.5000    67.2625   -26.1136     8.9935    23.8627    24.8766   -89.4701
 4587.0000    79.3391   -26.1050     8.9948    20.7689    21.2927   -89.2024
 4587.5000    89.6084   -25.9452     8.9964    17.7145    18.0869   -81.4126
 4588.0000    98.6801   -25.6239     8.9977    16.4150    16.3015   -81.1985
 4588.5000   101.1181   -25.4720     8.9990    16.9970    16.8794   -73.4086
 4589.0000    97.5321   -25.9173     9.0003    18.3468    17.8718   -42.8382
 4589.5000    90.0304   -27.1190     9.0019    20.6460    20.6460   -42.6241
 4590.0000    81.9453   -28.0182     9.0032    23.2326    24.0523   -50.0393
 4590.5000    72.7329   -29.2177     9.0045    27.0657    29.0094   -72.5000
 4591.0000    65.1056   -29.5139     9.0210    30.6686    33.8075   -87.3828
 4591.5000    59.7342   -29.8057     9.0225    34.7521    36.2287   -94.7980
 4592.0000    57.6542   -30.2511     9.0085    36.2335    36.4856   -86.9548
 4592.5000    58.5862   -30.8476     9.0099    35.4920    35.7390   -56.4377
 4593.0000    62.5303   -31.4441     9.0112    33.8145    33.8145    -3.1397
 4593.5000    64.0718   -32.0386     9.0128    33.3531    32.6662    12.2259
 4594.0000    60.4858   -32.6351     8.9986    34.7760    34.2969     4.8642
 4594.5000    58.1046   -33.2317     9.0002    35.7589    36.2583   -10.0732
 4595.0000    58.1330   -33.9774     9.0015    36.0125    36.2631   -17.4349
 4595.5000    60.2770   -34.4227     9.0031    34.6555    34.7907   -32.3723
 4596.0000    66.6307   -34.7167     9.0044    25.8228    31.3574   -39.7342
 4596.5000    78.1667   -35.0107     9.0209    19.7056    23.2744   -39.4665
 4597.0000    90.3262   -35.3025     9.0525    15.1422    16.9192   -39.1988
 4597.5000   102.4858   -35.5987     9.0992    14.1069    14.6147   -38.9847
 4598.0000   116.4502   -35.7392     9.0099    13.1849    14.2301   -31.1949
 4598.5000   114.9726   -35.7306     8.9806    12.6491    13.9389   -23.4053
 4599.0000   113.7952   -35.8734     8.9822    11.9680    13.2801   -23.1376
 4599.5000   114.2090   -35.8626     8.9835    11.3093    11.9471   -38.0750
 4600.0000   124.1011   -35.8541     8.9851    10.7141    11.2467   -53.0124
 4600.5000   125.3273   -35.8457     8.9863    11.6455    12.3955   -75.5256
 4601.0000   120.5435   -35.8366     8.9876    13.5668    14.5412   -98.0388
 4601.5000   106.4742   -35.8262     8.9889    17.4629    17.2161   -90.1956
 4602.0000    84.4629   -35.8176     8.9905    21.8997    22.6724   -74.8300
 4602.5000    77.5636   -36.1137     8.9918    26.2306    26.2306   -62.8234
 4603.0000    75.4835   -36.2642     9.0083    26.4157    27.1369   -53.1566
 4603.5000    73.0974   -36.6974     9.0095    25.1551    25.8509   -54.6461
 4604.0000    70.7282   -36.8423     9.0263    23.6489    24.7972   -47.2835
 4604.5000    69.2506   -37.2854     9.0276    22.8459    23.7865   -32.3450
 4605.0000    66.5682   -37.4281     9.0440    22.3776    23.2967   -70.4900
 4605.5000    62.9821   -37.7221     9.0453    22.2266    23.1357   -85.8546
 4606.0000    60.9092   -37.8648     9.0483    22.2302    23.1357   -78.4919
 4606.5000    62.1424   -38.1588     9.0634    22.2332    22.9758   -48.4020
 4607.0000    62.7733   -38.4507     9.0646    22.8790    22.8170   -41.0393
 4607.5000    62.8017   -38.4400     9.0508    23.5264    22.9758   -48.8815
 4608.0000    61.9336   -38.5848     9.0369    24.1930    23.1357   -49.0944
 4608.5000    58.9499   -38.5741     9.0234    24.7057    23.6221   -56.9365
 4609.0000    57.1711   -38.7171     9.0247    25.0552    24.4557   -57.1496
 4609.5000    55.0911   -38.7080     9.0411    25.5988    25.8509   -64.9385
 4610.0000    53.0111   -38.8509     9.0747    26.6783    27.3258   -50.0000
 4610.5000    52.4371   -38.8412     9.1043    27.8156    28.4869   -27.5390
 4611.0000    54.2798   -38.9829     9.0753    28.6025    28.9464    -5.0070
 4611.5000    57.6215   -38.9743     9.0617    28.4106    28.1552    -5.2272
 4612.0000    60.4439   -38.9636     9.0478    27.8333    27.5817   -13.0623
 4612.5000    62.8059   -38.6525     9.0340    27.4559    27.3958   -36.0026
 4613.0000    60.7259   -38.4926     9.0201    27.0836    27.0261   -43.7915
 4613.5000    59.2483   -38.4840     9.0217    26.5319    26.4772   -66.7849
 4614.0000    59.2771   -38.6268     9.0230    25.6071    25.9379   -74.5738
 4614.5000    60.2159   -38.9186     9.0246    23.4328    23.3805   -82.3626
 4615.0000    62.3527   -38.9100     9.0104    21.2718    19.2582   -97.7272
 4615.5000    68.4513   -38.9014     9.0120    18.5299    15.8636  -105.5161
 4616.0000    77.2802   -38.8726     9.0133    15.5044    15.0108   -60.3279
 4616.5000   106.6199   -38.7309     9.0147    13.4147    14.7043    -7.5107
 4617.0000   114.1841   -38.7223     9.0161    16.0625    15.8745    -0.1480
 4617.5000   112.7121   -38.7137     9.0174    18.6302    19.2824   -30.7173
 4618.0000   105.3806   -38.8564     9.0188    20.7565    22.1565   -46.0819
 4618.5000    87.7888   -38.8472     9.0202    23.0301    24.0849   -47.2980
 4619.0000    80.2927   -38.9884     9.0215    24.3436    25.1141   -23.7808
 4619.5000    80.3268   -39.1311     9.0229    25.7826    26.0077    -8.8423
 4620.0000    81.5663   -39.1728     9.0242    26.8258    26.7454     6.0428
 4620.5000    79.8011   -39.4144     9.0256    27.2017    27.3139    -9.3216
 4621.0000    76.8231   -39.4058     9.0270    27.5829    27.8946   -24.7396
 4621.5000    73.2427   -39.7020     9.0283    27.5851    28.4892   -40.1042
 4622.0000    72.9756   -39.9939     9.0297    27.5869    28.8937   -40.3172
 4622.5000    74.5242   -40.4391     9.0311    27.2088    28.7006   -40.5303
 4623.0000    74.2485   -40.5964     9.0324    26.2849    28.1160   -40.7967
 4623.5000    75.4959   -40.6341     9.0338    24.5283    26.9777   -33.3808
 4624.0000    75.8351   -40.6717     9.0352    23.2079    24.8291   -26.0712
 4624.5000    77.0786   -40.7094     9.0365    21.8070    22.8515   -26.7929
 4625.0000    77.7151   -40.7471     9.0379    19.5211    21.0384   -49.2780
 4625.5000    78.9540   -40.7612     9.0392    16.3059    18.7406   -34.3395
 4626.0000    84.4097   -40.7488     9.0406    14.3958    16.4427   -11.8253
 4626.5000   102.8258   -40.7389     9.0421    12.1923    14.1449   -28.2071
 4627.0000   113.4021   -40.8805     9.0369    10.6010    12.0872   -57.7592
 4627.5000   117.6530   -40.8679     9.0295     8.9912    10.5247   -65.5480
 4628.0000   118.8919   -40.8579     9.0309     9.1805    10.2385   -43.0338
 4628.5000   122.2477   -40.8480     9.0280     9.7716    11.1303   -35.6712
 4629.0000   122.8842   -40.6868     9.0186    11.4447    13.4255   -58.6648
 4629.5000   119.3039   -40.6744     9.0201    14.8074    16.4128   -81.6052
 4630.0000   108.7957   -40.8158     9.0212    18.4819    21.0832  -104.5453
 4630.5000   101.0070   -40.8064     9.0217    21.2288    23.7269  -104.8118
 4631.0000    91.7037   -40.6445     9.0217    23.4298    25.6137  -105.0248
 4631.5000    84.5089   -40.7860     9.0218    24.5554    26.7354   -97.6089
