~VERSION INFORMATION
 VERS.                2.0:   CWLS LOG ASCII STANDARD - VERSION 2.0
 WRAP.                 NO:   ONE LINE PER DEPTH STEP
~WELL INFORMATION
#MNEM.UNIT      DATA TYPE    INFORMATION
#----------   ------------   ------------------------------
 STRT.F         1999.5000:   START DEPTH
 STOP.F         2762.5000:   STOP DEPTH
 STEP.F            0.5000:   STEP LENGTH
 NULL.          -999.2500:   NO VALUE
 COMP.          U.S. NAVY:   COMPANY
 WELL. LAWRENCE US NAVY 3 "A" #404-20:   WELL
 FLD .        TEAPOT DOME:   FIELD
 LOC .      S20 T39N R78W:   LOCATION
 CNTY.            NATRONA:   COUNTY
 STAT.            WYOMING:   STATE
 CTRY. UNITED STATES OF AMERICA:   COUNTRY
 SRVC.         MCCULLOUGH:   SERVICE COMPANY
 DATE.        09-JUL-1966:   LOGDATE
 API .     49025095910000:   API NUMBER
~CURVE INFORMATION
#MNEM.UNIT       API CODE    CURVE DESCRIPTION
#----------   ------------   ------------------------------
 DEPT.F                  :   
 TEMP.DEG    99 000 00 00:   TEMPERATURE AT TOOL
 GR  .GAPI   30 310 01 00:   GAMMA RAY
~PARAMETER INFORMATION
#MNEM.UNIT          VALUE    DESCRIPTION
#----------   ------------   ------------------------------
 EGL .F         5004.0000:   Ground level
 EDF .F         5008.0000:   Drilling floor
 TD  .F         2765.0000:   Total depth
 DATE.        09-JUL-1966:   Date logged
 CLNT.            A2DTECH:   Client Code
 PD  .                 GL:   Permanent Datum
 EPD .F              5004:   Elevation Permanent Datum
 LMF .                 GL:   Log Measured From
 DMF .                 GL:   Drilling Measured From
 DL  .F              2765:   Depth logger
 BLI .F              2763:   Bottom log interval
 TLI .F              2000:   Top log interval
 CS1 .IN           5.1875:   Casing size
 CBD1.    5.1875" @ 2790':   Casing driller 1
 DFT .              WATER:   Type fluid in hole
 ENGI.        FITZSIMMONS:   Recorded By
 WITN.             HUDSON:   Witnessed by
 ORIG.           5" PRINT:   Origin of data
 UWI .     49025095910000:   Unique Well ID
 DICO. A2D TECHNOLOGIES, INC.:   Digitizing Company
~OTHER INFORMATION
~A  DEPT      TEMP          GR  
# ...
 2242.5000  -999.2500   132.6770
 2243.0000  -999.2500   133.7720
 2243.5000  -999.2500   135.0670
 2244.0000  -999.2500   136.9057
 2244.5000  -999.2500   138.6786
 2245.0000  -999.2500   142.5551
 2245.5000  -999.2500   140.9029
 2246.0000  -999.2500   137.6700
 2246.5000  -999.2500   137.0087
 2247.0000  -999.2500   138.5030
 2247.5000  -999.2500   136.1875
 2248.0000  -999.2500   132.2993
 2248.5000  -999.2500   132.2963
 2249.0000  -999.2500   130.6961
 2249.5000  -999.2500   129.2813
 2250.0000  -999.2500   133.5129
 2250.5000  -999.2500   135.7293
 2251.0000  -999.2500   135.0357
 2251.5000  -999.2500   138.3764
 2252.0000  -999.2500   136.1080
 2252.5000  -999.2500   135.6822
 2253.0000  -999.2500   133.0763
 2253.5000  -999.2500   130.7912
 2254.0000  -999.2500   133.9701
 2254.5000  -999.2500   133.0086
 2255.0000  -999.2500   132.4239
 2255.5000  -999.2500   134.1428
 2256.0000  -999.2500   136.9734
 2256.5000  -999.2500   138.4128
 2257.0000  -999.2500   136.6290
 2257.5000  -999.2500   135.4261
 2258.0000  -999.2500   134.1830
 2258.5000  -999.2500   132.1943
 2259.0000  -999.2500   130.0740
 2259.5000  -999.2500   128.7573
 2260.0000  -999.2500   129.8111
 2260.5000  -999.2500   130.7255
 2261.0000  -999.2500   129.8729
 2261.5000  -999.2500   126.7862
 2262.0000  -999.2500   127.2925
 2262.5000  -999.2500   120.1459
 2263.0000  -999.2500   117.4987
 2263.5000  -999.2500   117.0425
 2264.0000  -999.2500   116.2076
 2264.5000  -999.2500   120.8807
 2265.0000  -999.2500   130.3870
 2265.5000  -999.2500   137.2099
 2266.0000  -999.2500   138.3764
 2266.5000  -999.2500   136.6300
 2267.0000  -999.2500   134.5726
 2267.5000  -999.2500   134.0604
 2268.0000  -999.2500   130.5823
 2268.5000  -999.2500   133.5522
 2269.0000  -999.2500   136.0874
 2269.5000  -999.2500   136.6820
 2270.0000  -999.2500   135.0877
 2270.5000  -999.2500   140.6733
 2271.0000  -999.2500   145.6693
 2271.5000  -999.2500   147.7022
 2272.0000  -999.2500   145.9891
 2272.5000  -999.2500   143.5971
 2273.0000  -999.2500   140.5899
 2273.5000  -999.2500   136.5339
 2274.0000  -999.2500   133.7101
 2274.5000  -999.2500   135.6813
 2275.0000  -999.2500   139.6774
 2275.5000  -999.2500   140.0483
 2276.0000  -999.2500   137.8103
 2276.5000  -999.2500   138.5874
 2277.0000  -999.2500   133.6189
 2277.5000  -999.2500   135.0494
 2278.0000  -999.2500   143.2782
 2278.5000  -999.2500   149.9088
 2279.0000  -999.2500   148.0103
 2279.5000  -999.2500   150.2836
 2280.0000  -999.2500   154.4407
 2280.5000  -999.2500   146.5268
 2281.0000  -999.2500   139.3262
 2281.5000  -999.2500   132.1207
 2282.0000  -999.2500   137.1677
 2282.5000  -999.2500   140.7999
 2283.0000  -999.2500   144.4595
 2283.5000  -999.2500   150.0746
 2284.0000  -999.2500   146.3963
 2284.5000  -999.2500   142.0184
 2285.0000  -999.2500   137.8692
 2285.5000  -999.2500   137.2511
 2286.0000  -999.2500   136.7370
 2286.5000  -999.2500   138.4216
 2287.0000  -999.2500   137.2707
 2287.5000  -999.2500   135.2260
 2288.0000  -999.2500   136.6810
 2288.5000  -999.2500   131.3799
 2289.0000  -999.2500   139.9424
 2289.5000  -999.2500   137.9624
 2290.0000  -999.2500   134.1310
 2290.5000  -999.2500   135.1897
 2291.0000  -999.2500   137.8653
 2291.5000  -999.2500   135.3781
 2292.0000  -999.2500   137.6612
 2292.5000  -999.2500   133.8750
 2293.0000  -999.2500   132.3208
 2293.5000  -999.2500   130.5106
 2294.0000  -999.2500   134.2566
 2294.5000  -999.2500   138.4324
 2295.0000  -999.2500   138.4235
 2295.5000  -999.2500   141.1972
 2296.0000  -999.2500   144.0239
 2296.5000  -999.2500   138.9485
 2297.0000  -999.2500   133.8966
 2297.5000  -999.2500   131.5958
 2298.0000  -999.2500   128.6847
 2298.5000  -999.2500   121.8040
 2299.0000  -999.2500   125.7266
 2299.5000  -999.2500   132.0108
 2300.0000  -999.2500   137.5768
 2300.5000  -999.2500   140.6694
 2301.0000  -999.2500   137.6308
 2301.5000  -999.2500   134.7217
 2302.0000  -999.2500   131.7194
 2302.5000  -999.2500   131.4663
 2303.0000  -999.2500   133.4580
 2303.5000  -999.2500   137.2364
 2304.0000  -999.2500   136.4819
 2304.5000  -999.2500   136.7115
 2305.0000  -999.2500   139.2830
 2305.5000  -999.2500   141.8134
 2306.0000  -999.2500   136.8017
 2306.5000  -999.2500   133.6787
 2307.0000  -999.2500   126.8078
 2307.5000  -999.2500   129.7483
 2308.0000  -999.2500   137.8682
 2308.5000  -999.2500   142.3422
 2309.0000  -999.2500   140.8764
 2309.5000  -999.2500   136.6722
 2310.0000  -999.2500   132.1246
 2310.5000  -999.2500   127.4554
 2311.0000  -999.2500   132.8644
 2311.5000  -999.2500   135.7362
 2312.0000  -999.2500   149.0503
 2312.5000  -999.2500   147.9848
 2313.0000  -999.2500   145.9126
 2313.5000  -999.2500   142.9270
 2314.0000  -999.2500   132.7761
 2314.5000  -999.2500   134.9336
 2315.0000  -999.2500   136.8625
 2315.5000  -999.2500   139.3164
 2316.0000  -999.2500   142.5787
 2316.5000  -999.2500   140.3996
 2317.0000  -999.2500   138.3352
 2317.5000  -999.2500   137.0499
 2318.0000  -999.2500   130.8364
 2318.5000  -999.2500   127.7360
 2319.0000  -999.2500   130.1751
 2319.5000  -999.2500   133.4354
 2320.0000  -999.2500   136.6830
 2320.5000  -999.2500   139.2497
 2321.0000  -999.2500   141.9390
 2321.5000  -999.2500   140.0503
 2322.0000  -999.2500   135.2701
 2322.5000  -999.2500   132.7849
 2323.0000  -999.2500   135.5822
 2323.5000  -999.2500   141.5004
 2324.0000  -999.2500   139.7088
 2324.5000  -999.2500   137.0676
 2325.0000  -999.2500   135.4507
 2325.5000  -999.2500   132.1717
 2326.0000  -999.2500   130.5823
 2326.5000  -999.2500   131.3564
 2327.0000  -999.2500   132.3189
 2327.5000  -999.2500   131.7194
 2328.0000  -999.2500   123.8791
 2328.5000  -999.2500   126.4772
 2329.0000  -999.2500   123.7074
 2329.5000  -999.2500   118.4279
 2330.0000  -999.2500   114.4072
 2330.5000  -999.2500   116.8708
 2331.0000  -999.2500   124.7906
 2331.5000  -999.2500   128.8829
 2332.0000  -999.2500   124.8887
 2332.5000  -999.2500   129.4687
 2333.0000  -999.2500   132.7211
 2333.5000  -999.2500   127.8410
 2334.0000  -999.2500   115.6483
 2334.5000  -999.2500   107.1624
 2335.0000  -999.2500   100.5113
 2335.5000  -999.2500    97.2382
 2336.0000  -999.2500    99.5272
 2336.5000  -999.2500    97.5060
 2337.0000  -999.2500    99.9755
 2337.5000  -999.2500    98.0054
 2338.0000  -999.2500    93.8925
 2338.5000  -999.2500    90.5232
 2339.0000  -999.2500    91.5269
 2339.5000  -999.2500    90.8549
 2340.0000  -999.2500    89.1918
 2340.5000  -999.2500    89.7001
 2341.0000  -999.2500    88.3804
 2341.5000  -999.2500    88.2323
 2342.0000  -999.2500    88.1322
 2342.5000  -999.2500    88.0331
 2343.0000  -999.2500    88.0557
 2343.5000  -999.2500    88.7788
 2344.0000  -999.2500    90.6734
 2344.5000  -999.2500    91.7909
 2345.0000  -999.2500    90.7293
 2345.5000  -999.2500    94.4596
 2346.0000  -999.2500    98.1820
 2346.5000  -999.2500    95.9764
 2347.0000  -999.2500    95.0385
 2347.5000  -999.2500    93.7306
 2348.0000  -999.2500    94.8089
 2348.5000  -999.2500   101.6327
 2349.0000  -999.2500   103.1545
 2349.5000  -999.2500   103.0004
 2350.0000  -999.2500   108.7764
 2350.5000  -999.2500   106.9789
 2351.0000  -999.2500   103.2094
 2351.5000  -999.2500   101.2814
 2352.0000  -999.2500   106.0253
 2352.5000  -999.2500   120.8327
 2353.0000  -999.2500   118.9655
 2353.5000  -999.2500   116.1909
 2354.0000  -999.2500   114.9517
 2354.5000  -999.2500   115.0351
 2355.0000  -999.2500   118.6702
 2355.5000  -999.2500   122.7145
 2356.0000  -999.2500   124.0930
 2356.5000  -999.2500   122.3073
 2357.0000  -999.2500   121.3242
 2357.5000  -999.2500   120.7699
 2358.0000  -999.2500   119.7868
 2358.5000  -999.2500   120.9887
 2359.0000  -999.2500   120.7816
 2359.5000  -999.2500   118.7271
 2360.0000  -999.2500   117.7656
 2360.5000  -999.2500   119.7828
 2361.0000  -999.2500   118.1188
 2361.5000  -999.2500   114.6289
 2362.0000  -999.2500   111.3784
 2362.5000  -999.2500   114.8457
 2363.0000  -999.2500   114.3993
 2363.5000  -999.2500   115.8426
