~VERSION INFORMATION
 VERS.                2.0:   CWLS LOG ASCII STANDARD - VERSION 2.0
 WRAP.                 NO:   ONE LINE PER DEPTH STEP
~WELL INFORMATION
#MNEM.UNIT      DATA TYPE    INFORMATION
#----------   ------------   ------------------------------
 STRT.F           44.0000:   START DEPTH
 STOP.F         6166.0000:   STOP DEPTH
 STEP.F            0.5000:   STEP LENGTH
 NULL.          -999.2500:   NO VALUE
 COMP.   TESORO PETROLEUM:   COMPANY
 WELL. TESORO 11X NPR #3-23:   WELL
 FLD .             TEAPOT:   FIELD
 LOC .      S23 T38N R78W:   LOCATION
 CNTY.            NATRONA:   COUNTY
 STAT.            WYOMING:   STATE
 CTRY. UNITED STATES OF AMERICA:   COUNTRY
 SRVC.       SCHLUMBERGER:   SERVICE COMPANY
 DATE.        29-OCT-1968:   LOGDATE
 API .     49025100170000:   API NUMBER
~CURVE INFORMATION
#MNEM.UNIT       API CODE    CURVE DESCRIPTION
#----------   ------------   ------------------------------
 DEPT.F                  :   
 SN  .OHMM   05 040 18 00:   SHORT NORMAL 18"
 RES .OHMM   05 000 00 00:   RESISTIVITY
 ILD .OHMM   05 120 46 00:   INDUCTION LOG DEEP RESISTIVITY
 SPR .MV     05 010 01 00:   SPONTANEOUS POTENTIAL FROM RES.
~PARAMETER INFORMATION
#MNEM.UNIT          VALUE    DESCRIPTION
#----------   ------------   ------------------------------
 EKB .F         5283.0000:   Kelly bushing
 EGL .F         5272.0000:   Ground level
 EDF .F            0.0000:   Drilling floor
 TD  .F         6171.0000:   Total depth
 CLNT.            A2DTECH:   Client Code
 SL  . 380' FNL & 380' FWL:   Surface Location
 PD  .                 GL:   Permanent Datum
 EPD .F              5272:   Elevation Permanent Datum
 LMF .                 KB:   Log Measured From
 DMF .                 KB:   Drilling Measured From
 DAPD.F                11:   Feet Above Permanent Datum
 DATE.        29-OCT-1968:   Date Logged [DD-MMM-YYYY]
 DD  .F              6171:   Depth driller
 DL  .F              6167:   Depth logger
 BLI .F              6166:   Bottom log interval
 TLI .F               975:   Top log interval
 CS1 .IN            10.75:   Casing size
 CBD1.      10.75" @ 975':   Casing driller 1
 CBL1.F               975:   Casing logger 1
 BS1 .IN            9.125:   Bit size
 BSD1.F              6171:   Depth drilled with bit1
 DFT .           GEL-CHEM:   Type fluid in hole
 DFD .                9.6:   Density
 DFV .                 61:   Viscosity
 DFPH.                 10:   pH
 DFL .                6.8:   Fluid loss
 MSS .           FLOWLINE:   Source of sample
 RMS .OHMM           0.89:   Rm
 MST .F                80:   Rm Meas. temp.
 RMF .OHMM           0.60:   Rmf
 MFST.F                80:   Rmf Meas. temp.
 MFSS.               MEAS:   Source Rmf.
 RMB .OHMM           0.45:   Rm. at BHT
 BHT .F               160:   BHT.
 TCS .HRS               4:   Time Circ. stopped
 MRT .F               160:   Maximum recorded temp.
 LUN .               7041:   Logging unit number
 LUL .               CSPR:   Logging unit location
 ENGI.            MANGOLD:   Recorded By
 WITN.                MAY:   Witnessed by
 ORIG.         2.5" PRINT:   Origin of data
 UWI .     49025100170000:   Unique Well ID
 DICO. A2D TECHNIOLOGIES,INC.:   Digitizing Company
~OTHER INFORMATION
~A  DEPTH       SN        RES        ILD        SPR
# ...
 2453.0000     8.7697  -999.2500     7.1337   -53.0670
 2453.5000     8.7667  -999.2500     7.1319   -52.9747
 2454.0000     8.7636  -999.2500     6.9785   -52.8852
 2454.5000     8.7606  -999.2500     6.9771   -52.7929
 2455.0000     8.7576  -999.2500     6.9756   -52.6933
 2455.5000     8.9059  -999.2500     6.9742   -52.6637
 2456.0000     8.9030  -999.2500     6.9726   -52.7555
 2456.5000     8.9000  -999.2500     7.0145   -52.8382
 2457.0000     8.9192  -999.2500     7.1219   -52.9215
 2457.5000     9.0455  -999.2500     7.1201   -53.0068
 2458.0000     9.0424  -999.2500     7.1183   -53.0902
 2458.5000     9.0935  -999.2500     7.1168   -53.1757
 2459.0000     9.3392  -999.2500     7.1154   -53.2587
 2459.5000     9.3364  -999.2500     7.1139   -53.3413
 2460.0000     9.3333  -999.2500     7.4165   -53.4344
 2460.5000     9.2888  -999.2500     7.4149   -53.3937
 2461.0000     9.1758  -999.2500     7.4134   -53.2735
 2461.5000     9.0888  -999.2500     7.4119   -53.1619
 2462.0000     9.0177  -999.2500     7.4103   -53.0533
 2462.5000     9.0149  -999.2500     7.4085   -52.9420
 2463.0000     8.8606  -999.2500     7.4071   -52.8309
 2463.5000     8.8405  -999.2500     7.4057   -52.7188
 2464.0000     8.7030  -999.2500     7.4042   -52.6414
 2464.5000     8.7000  -999.2500     7.4027   -52.6427
 2465.0000     8.6970  -999.2500     7.4012   -52.6415
 2465.5000     8.6935  -999.2500     7.3549   -52.6417
 2466.0000     8.6906  -999.2500     7.0942   -52.6421
 2466.5000     8.6878  -999.2500     7.0927   -52.6420
 2467.0000     8.6848  -999.2500     7.0909   -52.6421
 2467.5000     8.5303  -999.2500     7.0895   -52.6422
 2468.0000     8.3758  -999.2500     7.0880   -52.6423
 2468.5000     8.4505  -999.2500     7.0866   -52.6423
 2469.0000     8.6722  -999.2500     7.0851   -52.6423
 2469.5000     8.6694  -999.2500     7.0836   -52.6423
 2470.0000     8.6666  -999.2500     7.2796   -52.6423
 2470.5000     8.6747  -999.2500     7.3848   -52.6423
 2471.0000     8.8444  -999.2500     7.3830   -52.6423
 2471.5000     8.9611  -999.2500     7.5332   -52.6423
 2472.0000     9.1070  -999.2500     7.6839   -52.6423
 2472.5000     9.2576  -999.2500     7.6823   -52.6423
 2473.0000     9.2542  -999.2500     7.6808   -52.6423
 2473.5000     9.2514  -999.2500     7.6793   -52.6423
 2474.0000     9.2485  -999.2500     7.6778   -52.6423
 2474.5000     9.2455  -999.2500     7.6763   -52.6423
 2475.0000     9.0404  -999.2500     7.6748   -52.6423
 2475.5000     8.9364  -999.2500     7.6733   -52.6423
 2476.0000     8.9328  -999.2500     7.6715   -52.6423
 2476.5000     8.9300  -999.2500     7.6700   -52.6423
 2477.0000     8.9271  -999.2500     7.5166   -52.6423
 2477.5000     8.9242  -999.2500     7.5152   -52.6423
 2478.0000     8.9212  -999.2500     7.3617   -52.6423
 2478.5000     8.9182  -999.2500     7.3602   -52.6423
 2479.0000     8.9152  -999.2500     7.3587   -52.6423
 2479.5000     8.9115  -999.2500     7.3571   -52.6423
 2480.0000     8.9087  -999.2500     7.3556   -52.6424
 2480.5000     8.7544  -999.2500     7.3538   -52.6424
 2481.0000     8.6000  -999.2500     7.3524   -52.6428
 2481.5000     8.5970  -999.2500     7.3510   -52.6426
 2482.0000     8.5939  -999.2500     7.3495   -52.6422
 2482.5000     8.5909  -999.2500     7.3480   -52.6446
 2483.0000     8.5873  -999.2500     7.3465   -52.6412
 2483.5000     8.5844  -999.2500     7.3450   -52.6348
 2484.0000     8.7331  -999.2500     7.4083   -52.5137
 2484.5000     8.8818  -999.2500     7.5758   -52.4078
 2485.0000     8.8788  -999.2500     7.6444   -52.2955
 2485.5000     8.9172  -999.2500     7.6427   -52.1845
 2486.0000     9.1763  -999.2500     7.6412   -52.0737
 2486.5000     9.1727  -999.2500     7.7918   -51.9654
 2487.0000     9.1693  -999.2500     7.9423   -51.8547
 2487.5000     9.1664  -999.2500     7.9407   -51.8806
 2488.0000     9.1636  -999.2500     7.9392   -51.9518
 2488.5000     9.3964  -999.2500     7.9377   -52.0231
 2489.0000     9.4610  -999.2500     7.9362   -52.0923
 2489.5000     9.4576  -999.2500     7.9344   -52.1629
 2490.0000     9.5353  -999.2500     7.9330   -52.2331
 2490.5000     9.4511  -999.2500     7.9315   -52.3040
 2491.0000     9.2967  -999.2500     7.9301   -52.3737
 2491.5000     9.1424  -999.2500     7.6246   -52.4425
 2492.0000     9.1253  -999.2500     7.6231   -52.5177
 2492.5000     8.8333  -999.2500     7.6216   -52.5819
 2493.0000     8.8303  -999.2500     7.4017   -52.6270
 2493.5000     8.6758  -999.2500     7.3146   -52.3915
 2494.0000     8.5207  -999.2500     7.3128   -52.2050
 2494.5000     8.5179  -999.2500     7.1594   -51.9767
 2495.0000     8.5151  -999.2500     7.0060   -51.8016
 2495.5000     8.5121  -999.2500     7.0046   -51.9154
 2496.0000     8.5091  -999.2500     7.0030   -51.1590
 2496.5000     8.5061  -999.2500     7.0015   -51.0372
 2497.0000     8.5030  -999.2500     7.0000   -51.1409
 2497.5000     8.4995  -999.2500     6.9985   -51.2982
 2498.0000     8.4966  -999.2500     6.9970   -51.4146
 2498.5000     8.4938  -999.2500     6.9952   -51.5391
 2499.0000     8.4909  -999.2500     6.9938   -51.6690
 2499.5000     8.4879  -999.2500     6.9923   -51.7958
 2500.0000     8.4848  -999.2500     6.9909   -51.9206
 2500.5000     8.4487  -999.2500     7.1583   -52.0466
 2501.0000     8.3976  -999.2500     7.2920   -52.1868
 2501.5000     8.3465  -999.2500     7.2903   -52.1579
 2502.0000     8.4760  -999.2500     7.2888   -51.9600
 2502.5000     8.6254  -999.2500     7.2872   -51.7761
 2503.0000     8.6223  -999.2500     7.2855   -51.5945
 2503.5000     8.6202  -999.2500     7.2840   -51.4087
 2504.0000     8.6181  -999.2500     6.9786   -51.2240
 2504.5000     8.6159  -999.2500     6.9772   -51.0405
 2505.0000     8.5858  -999.2500     6.9757   -50.8578
 2505.5000     8.4091  -999.2500     6.9742   -50.6685
 2506.0000     8.3061  -999.2500     6.9726   -50.6187
 2506.5000     8.3034  -999.2500     6.9711   -50.6494
 2507.0000     8.4528  -999.2500     6.9696   -50.6750
 2507.5000     8.4507  -999.2500     7.1087   -50.6981
 2508.0000     8.2971  -999.2500     7.1064   -50.7237
 2508.5000     8.4465  -999.2500     7.1041   -50.7484
 2509.0000     8.5959  -999.2500     7.1018   -50.7730
 2509.5000     8.5932  -999.2500     7.0995   -50.7979
 2510.0000     8.7421  -999.2500     7.2492   -50.8225
 2510.5000     8.7400  -999.2500     7.3986   -50.8470
 2511.0000     8.8894  -999.2500     7.3964   -50.8716
 2511.5000     8.8871  -999.2500     7.3943   -50.8962
 2512.0000     8.8848  -999.2500     7.3921   -50.9208
 2512.5000     8.8826  -999.2500     7.6939   -50.9454
 2513.0000     8.8799  -999.2500     7.6915   -50.9699
 2513.5000     8.9165  -999.2500     7.7422   -50.9945
 2514.0000     9.0272  -999.2500     7.9909   -51.0191
 2514.5000     9.1766  -999.2500     8.0756   -51.0437
 2515.0000     9.1742  -999.2500     8.2903   -51.0683
 2515.5000     9.3793  -999.2500     8.5917   -51.0928
 2516.0000     9.4727  -999.2500     8.5896   -51.1174
 2516.5000     9.6216  -999.2500     8.8914   -51.1420
 2517.0000     9.7712  -999.2500     8.8891   -51.1666
 2517.5000     9.7689  -999.2500     8.8868   -51.1912
 2518.0000     9.7859  -999.2500     8.8845   -51.2157
 2518.5000     9.9162  -999.2500     8.8822   -51.2403
 2519.0000     9.7621  -999.2500     8.6404   -51.2650
 2519.5000     9.6079  -999.2500     8.5734   -51.2897
 2520.0000     9.4543  -999.2500     8.2673   -51.3142
 2520.5000     9.4522  -999.2500     8.2651   -51.3394
 2521.0000     9.1470  -999.2500     8.1075   -51.3633
 2521.5000     9.1162  -999.2500     7.9567   -51.3876
 2522.0000     8.9909  -999.2500     7.9544   -51.4168
 2522.5000     8.9886  -999.2500     7.9521   -51.3884
 2523.0000     8.9860  -999.2500     7.8784   -51.3154
 2523.5000     8.9839  -999.2500     7.7951   -51.2469
 2524.0000     8.9818  -999.2500     7.6410   -51.1797
 2524.5000     8.8280  -999.2500     7.6388   -51.1108
 2525.0000     8.8258  -999.2500     7.6367   -51.0425
 2525.5000     8.8235  -999.2500     7.6345   -50.9743
