~VERSION INFORMATION
 VERS.                2.0:   CWLS LOG ASCII STANDARD - VERSION 2.0
 WRAP.                 NO:   ONE LINE PER DEPTH STEP
~WELL INFORMATION
#MNEM.UNIT      DATA TYPE    INFORMATION
#----------   ------------   ------------------------------
 STRT.F           72.5000:   START DEPTH
 STOP.F         2820.0000:   STOP DEPTH
 STEP.F            0.5000:   STEP LENGTH
 NULL.          -999.2500:   NO VALUE
 COMP.          INTEX OIL:   COMPANY
 WELL. INTEX OIL AX N. P. R. #51-29:   WELL
 FLD .             TEAPOT:   FIELD
 LOC .      S29 T39N R78W:   LOCATION
 CNTY.            NATRONA:   COUNTY
 STAT.            WYOMING:   STATE
 CTRY. UNITED STATES OF AMERICA:   COUNTRY
 SRVC.       SCHLUMBERGER:   SERVICE COMPANY
 DATE.        01-MAY-1966:   LOGDATE
 API .     49025094920000:   API NUMBER
~CURVE INFORMATION
#MNEM.UNIT       API CODE    CURVE DESCRIPTION
#----------   ------------   ------------------------------
 DEPT.F                  :   
 GRD .GAPI   45 310 01 00:   GAMMA RAY FROM DENSITY LOG
 CALD.IN     45 280 60 00:   CALIPER FROM DENSITY LOG
 RHOB.G/C3   45 350 01 00:   BULK DENSITY
 CORR.G/C3   45 356 01 00:   DENSITY CORRECTION
 SPR .MV     07 010 01 00:   SPONTANEOUS POTENTIAL
 ASN .OHMM   05 041 16 00:   AMPLIFIED SHORT NORMAL 16"
 ILD .OHMM   05 120 46 00:   DEEP INDUCTION RESISTIVITY
 DT  .US/F   60 520 00 00:   DELTA TIME
~PARAMETER INFORMATION
#MNEM.UNIT          VALUE    DESCRIPTION
#----------   ------------   ------------------------------
 EKB .F         5007.3000:   Kelly bushing
 EGL .F         4997.0000:   Ground level
 EDF .F            0.0000:   Drilling floor
 TD  .F         2799.0000:   Total depth
 DATE.        01-MAY-1966:   Date logged
 CLNT.            A2DTECH:   Client Code
 PD  .                 GL:   Permanent Datum
 EPD .F              4997:   Elevation Permanent Datum
 LMF .                 KB:   Log Measured From
 DMF .                 KB:   Drilling Measured From
 DAPD.F              10.3:   Feet Above Permanent Datum
 DD  .F              2798:   Depth driller
 DL  .F              2799:   Depth logger
 BLI .F              2798:   Bottom log interval
 TLI .F                88:   Top log interval
 CS1 .IN            10.75:   Casing size
 CBD1.       10.75" @ 30':   Casing driller 1
 BS1 .IN            7.875:   Bit size
 BSD1.F              2798:   Depth drilled with bit1
 DFT .           CHEM/OIL:   Type fluid in hole
 DFD .                9.5:   Density
 DFV .                 46:   Viscosity
 DFPH.                7.2:   pH
 DFL .                7.0:   Fluid loss
 MSS .         CIRCULATED:   Source of sample
 RMS .OHMM           2.28:   Rm
 MST .F                68:   Rm Meas. temp.
 RMF .OHMM           1.32:   Rmf
 MFST.F                72:   Rmf Meas. temp.
 MFSS.                 FP:   Source Rmf.
 RMB .OHMM           1.52:   Rm. at BHT
 BHT .F               102:   BHT.
 TCS .HRS             1.5:   Time Circ. stopped
 MRT .F               102:   Maximum recorded temp.
 LUN .               4507:   Logging unit number
 LUL .               CSPR:   Logging unit location
 ENGI.               HAUG:   Recorded By
 WITN.      TUTTLE/HUDSON:   Witnessed by
 ORIG.           5" PRINT:   Origin of data
 UWI .     49025094920000:   Unique Well ID
 DICO. A2D TECHNOLOGIES, INC.:   Digitizing Company
~OTHER INFORMATION
~A   DEPT      GRD       CALD       RHOB       CORR        SPR        ASN        ILD         DT   
# ...
 2259.5000   117.0330     9.0510     2.4880    -0.0240   -38.6590    11.4830     7.8530    79.1440
 2260.0000   118.1480     9.0410     2.5060    -0.0180   -38.7440    11.1570     7.9630    79.1320
 2260.5000   118.7680     9.0310     2.5270    -0.0240   -38.7500    11.0460     7.9780    80.2210
 2261.0000   118.7970     9.0210     2.5290    -0.0240   -38.6200    11.1030     7.9820    81.3390
 2261.5000   117.6010     9.0110     2.5310    -0.0080   -38.4280    11.1880     8.0940    81.7790
 2262.0000   115.7950     9.0010     2.5240    -0.0030   -38.2690    11.5030     8.3000    80.8800
 2262.5000   114.2220     8.9910     2.5160     0.0010   -38.1410    12.2260     8.5000    81.3020
 2263.0000   111.8990     8.9810     2.5250     0.0140   -37.9770    13.0100     8.6640    79.0380
 2263.5000   106.4020     8.9700     2.5450     0.0010   -37.7790    13.5130     8.8580    75.5040
 2264.0000   101.3240     8.9610     2.5650     0.0000   -37.6490    13.7630     9.1110    73.8970
 2264.5000    98.0200     8.9530     2.5770     0.0040   -37.6790    13.7600     9.3140    73.6300
 2265.0000    97.9490     8.9640     2.5610     0.0190   -37.8370    13.6270     9.3200    76.4310
 2265.5000    99.8070     8.9740     2.5400     0.0080   -37.9980    13.4330     9.1160    79.2330
 2266.0000   103.7830     8.9850     2.5330     0.0000   -38.0850    13.1820     8.8440    79.9110
 2266.5000   106.2930     8.9960     2.5250     0.0030   -38.1340    12.8680     8.6510    78.6430
 2267.0000   106.6510     9.0060     2.5270    -0.0030   -38.2090    12.5410     8.5740    79.0660
 2267.5000   107.2830     9.0170     2.5320     0.0000   -38.3030    12.2970     8.5620    79.8810
 2268.0000   108.5590     9.0280     2.5250    -0.0030   -38.3630    12.1810     8.5640    80.9740
 2268.5000   110.2280     9.0380     2.5180    -0.0120   -38.3500    12.1240     8.5620    80.8380
 2269.0000   112.2480     9.0490     2.5120    -0.0210   -38.2280    12.0400     8.5590    80.1760
 2269.5000   114.3220     9.0590     2.5060    -0.0240   -37.9730    11.9450     8.5610    80.1290
 2270.0000   116.5500     9.0710     2.5030    -0.0210   -37.7000    11.9240     8.5670    81.5210
 2270.5000   118.7130     9.0720     2.4990    -0.0230   -37.6510    12.0020     8.5660    82.6740
 2271.0000   119.1610     9.0720     2.5050    -0.0260   -37.9000    12.0980     8.5550    82.6870
 2271.5000   118.2240     9.0720     2.5140    -0.0130   -38.1630    12.1080     8.5560    81.3380
 2272.0000   117.3680     9.0720     2.5190    -0.0180   -38.1160    11.9910     8.5770    79.9890
 2272.5000   115.1750     9.0720     2.5130    -0.0150   -37.8590    11.7960     8.5800    79.7700
 2273.0000   113.8510     9.0720     2.5050    -0.0060   -37.7930    11.6220     8.5080    80.6810
 2273.5000   114.1700     9.0720     2.4970    -0.0150   -38.0530    11.5550     8.3530    81.5180
 2274.0000   116.0240     9.0720     2.4950    -0.0240   -38.3390    11.6060     8.1530    81.0000
 2274.5000   115.4010     9.0720     2.5070    -0.0200   -38.3600    11.6950     7.9470    79.7990
 2275.0000   114.5600     9.0720     2.5140    -0.0110   -38.1870    11.6960     7.7610    78.6890
 2275.5000   113.7120     9.0720     2.5130    -0.0010   -38.0450    11.4930     7.6270    78.4050
 2276.0000   113.1060     9.0720     2.5120     0.0050   -37.9850    11.0570     7.5680    79.1030
 2276.5000   114.6510     9.0730     2.5310     0.0070   -37.9180    10.5210     7.5660    80.2210
 2277.0000   116.0780     9.0930     2.5390     0.0040   -37.8120    10.1510     7.5770    81.3390
 2277.5000   117.4300     9.1140     2.5290    -0.0060   -37.7110    10.1480     7.5950    82.4580
 2278.0000   118.0420     9.1360     2.5430    -0.0010   -37.6210    10.4630     7.6430    83.5760
 2278.5000   118.0780     9.1500     2.5460     0.0060   -37.5540    10.8500     7.7280    83.6880
 2279.0000   118.0600     9.1420     2.5300     0.0020   -37.5990    11.1120     7.8200    83.5060
 2279.5000   118.4660     9.1330     2.5140    -0.0030   -37.7880    11.2310     7.9050    83.1410
 2280.0000   119.6620     9.1240     2.5040    -0.0090   -37.9530    11.2750     7.9950    82.7770
 2280.5000   120.9360     9.1150     2.5050    -0.0160   -37.8650    11.2760     8.0880    82.8430
 2281.0000   121.2720     9.1160     2.5110    -0.0070   -37.5610    11.2410     8.1470    83.3400
 2281.5000   120.6240     9.1230     2.5210     0.0030   -37.3290    11.1920     8.1420    83.8370
 2282.0000   115.2000     9.1300     2.5170    -0.0090   -37.3540    11.1520     8.0920    83.6550
 2282.5000   111.9100     9.1360     2.5160    -0.0170   -37.5370    11.1110     8.0410    82.8820
 2283.0000   111.1280     9.1430     2.5260    -0.0120   -37.7170    11.0490     8.0070    82.1080
 2283.5000   110.0260     9.1490     2.5030    -0.0120   -37.8590    10.9670     7.9750    81.3350
 2284.0000   109.4640     9.1560     2.5460    -0.0080   -37.9400    10.8880     7.9300    81.1030
 2284.5000   110.6550     9.1620     2.5390    -0.0070   -37.8510    10.8200     7.8840    81.3520
 2285.0000   111.8720     9.1690     2.5370     0.0090   -37.5680    10.7530     7.8550    81.8490
 2285.5000   112.4010     9.1760     2.5270     0.0040   -37.2800    10.6770     7.8290    82.3330
 2286.0000   112.5180     9.1820     2.5010    -0.0120   -37.1910    10.5960     7.7510    82.8100
 2286.5000   112.7080     9.1890     2.4790    -0.0120   -37.2820    10.5280     7.5730    83.2880
 2287.0000   112.8560     9.1950     2.5070    -0.0050   -37.3830    10.4720     7.3070    83.7660
 2287.5000   113.2670     9.2020     2.5090     0.0060   -37.4080    10.3980     7.0340    84.2440
 2288.0000   114.5990     9.2080     2.4930    -0.0010   -37.4140    10.3000     6.8270    84.6070
 2288.5000   117.8100     9.2140     2.4930    -0.0130   -37.4670    10.2180     6.6870    84.8560
 2289.0000   120.3740     9.2220     2.5000    -0.0040   -37.5490    10.1700     6.5710    84.7180
 2289.5000   122.1460     9.2270     2.5090    -0.0060   -37.5890    10.0740     6.4710    84.5370
 2290.0000   125.4260     9.2290     2.5040    -0.0080   -37.5470     9.8570     6.4330    85.2420
 2290.5000   128.7620     9.1900     2.4940     0.0030   -37.4420     9.6150     6.4830    86.3270
 2291.0000   130.5210     9.1560     2.5000     0.0080   -37.3130     9.5520     6.5800    86.9930
 2291.5000   131.9030     9.1190     2.5010     0.0020   -37.1630     9.7230     6.6620    87.0180
 2292.0000   128.4520     9.0850     2.4950    -0.0090   -36.9930     9.9570     6.7100    86.1340
 2292.5000   124.7500     9.0480     2.4960    -0.0110   -36.8820  -999.2500     6.7510    84.8640
 2293.0000   121.7920     9.0290     2.5070    -0.0050   -36.9250  -999.2500     6.8100    84.0190
 2293.5000   118.9820     9.0280     2.5170     0.0050   -37.1010  -999.2500     6.8850    83.6880
 2294.0000   117.6640     9.0250     2.5280     0.0190   -37.2700  -999.2500     6.9470    83.9860
 2294.5000   117.5930     9.0230     2.5430     0.0140   -37.3320  -999.2500     6.9610    84.2680
 2295.0000   117.8960     9.0200     2.5380     0.0040   -37.3330  -999.2500     6.9140    84.1020
 2295.5000   118.9220     9.0170     2.5200    -0.0060   -37.3580  -999.2500     6.8240    84.0130
 2296.0000   120.5410     9.0150     2.5130    -0.0030   -37.4140  -999.2500     6.7210    84.1040
 2296.5000   122.0570     9.0120     2.5130     0.0000   -37.4550  -999.2500     6.6350    84.2400
 2297.0000   123.1980     9.0090     2.5030    -0.0080   -37.4810  -999.2500     6.5670    84.7960
 2297.5000   123.3330     9.0070     2.4840    -0.0180   -37.5250  -999.2500     6.4900    85.3510
 2298.0000   123.4530     9.0040     2.5110     0.0000   -37.5760  -999.2500     6.3790    85.9070
 2298.5000   123.5620     9.0010     2.5280    -0.0050   -37.5750     9.8940     6.2700    85.8250
 2299.0000   123.7010     8.9990     2.5230    -0.0050   -37.4920     9.8580     6.2560    85.3280
 2299.5000   123.7140     8.9960     2.5150    -0.0030   -37.3660     9.8880     6.4000    84.8310
