~VERSION INFORMATION
 VERS.                2.0:   CWLS LOG ASCII STANDARD - VERSION 2.0
 WRAP.                 NO:   ONE LINE PER DEPTH STEP
~WELL INFORMATION
#MNEM.UNIT      DATA TYPE    INFORMATION
#----------   ------------   ------------------------------
 STRT.F            9.5000:   START DEPTH
 STOP.F         3154.0000:   STOP DEPTH
 STEP.F            0.5000:   STEP LENGTH
 NULL.          -999.2500:   NO VALUE
 COMP. LAWRENCE ALISON AND ASSOCIATES:   COMPANY
 WELL. LAWRENCE "X" #86-3:   WELL
 FLD .          N.P.R. #3:   FIELD
 LOC .       S3 T38N R78W:   LOCATION
 CNTY.            NATRONA:   COUNTY
 STAT.            WYOMING:   STATE
 CTRY. UNITED STATES OF AMERICA:   COUNTRY
 SRVC.       DRESSER ALAS:   SERVICE COMPANY
 DATE.        13-JUN-1986:   LOGDATE
 API .     49025110920000:   API NUMBER
~CURVE INFORMATION
#MNEM.UNIT       API CODE    CURVE DESCRIPTION
#----------   ------------   ------------------------------
 DEPT.F                  :   
 CALD.IN     45 280 60 00:   CALIPER FROM DENSITY LOG
 RHOB.G/C3   45 350 01 00:   BULK DENSITY
 CORR.G/C3   45 356 01 00:   DENSITY CORRECTION
 CNC .DEC    42 890 03 00:   NEUTRON PORISITY LIMESTONE
 SPR .MV     07 010 01 00:   SPONTANEOUS POTENTIAL
 GRR .GAPI   07 310 01 00:   GAMMA RAY FROM RESISTIVITY
 RFOC.OHMM   07 220 04 00:   RESISTIVITY FOCUSED LOG RES.
 ILD .OHMM   07 120 46 00:   DEEP INDUCTION RESISTIVITY
 ILM .OHMM   07 120 44 00:   INDUCTION LOG MEDIUM RESISTIVITY
 TENR.LBS    07 635 01 00:   TENSION FROM RESISTIVITY
~PARAMETER INFORMATION
#MNEM.UNIT          VALUE    DESCRIPTION
#----------   ------------   ------------------------------
 EKB .F         5153.0000:   Kelly bushing
 EGL .F         5142.0000:   Ground level
 EDF .F         5151.0000:   Drilling floor
 TD  .F         3151.0000:   Total depth
 DATE.        13-JUN-1986:   Date logged
 CLNT.            A2DTECH:   Client Code
 SL  . 1450' FSL & 144' FEL:   Surface Location
 PD  .                 GL:   Permanent Datum
 EPD .F              5142:   Elevation Permanent Datum
 LMF .                 KB:   Log Measured From
 DMF .                 KB:   Drilling Measured From
 DAPD.F                11:   Feet Above Permanent Datum
 DD  .F              3151:   Depth driller
 DL  .F              3151:   Depth logger
 BLI .F              3146:   Bottom log interval
 TLI .F                11:   Top log interval
 CS1 .IN            8.625:   Casing size
 CBD1.      8.625" @ 584':   Casing driller 1
 CBL1.F               592:   Casing logger 1
 BS1 .IN            7.875:   Bit size
 BSD1.F              3151:   Depth drilled with bit1
 DFT .            KCL-GEL:   Type fluid in hole
 DFD .                8.8:   Density
 DFV .                 35:   Viscosity
 DFPH.                8.5:   pH
 DFL .               15.5:   Fluid loss
 MSS .           FLOWLINE:   Source of sample
 RMS .OHMM           0.49:   Rm
 MST .F                80:   Rm Meas. temp.
 RMF .OHMM           0.38:   Rmf
 MFST.F                80:   Rmf Meas. temp.
 RMC .OHMM           0.61:   Rmc
 MCST.F                80:   Rmc Meas. temp.
 MFSS.               MEAS:   Source Rmf.
 MCSS.               CALC:   Source Rmc.
 RMB .OHMM           0.37:   Rm. at BHT
 BHT .F               112:   BHT.
 TCS .HRS            0.37:   Time Circ. stopped
 MRT .F               112:   Maximum recorded temp.
 LUN .            HL-6274:   Logging unit number
 LUL .           GILLETTE:   Logging unit location
 WITN.             STRONG:   Witnessed by
 ORIG.           5" PRINT:   Origin of data
 UWI .     49025110920000:   Unique Well ID
 DICO. A2D TECHNOLOGIES, INC.:   Digitizing Company
~OTHER INFORMATION
~A    DEPT    CALD       RHOB       CORR        CNC        SPR        GRR       RFOC        ILD        ILM       TENR   
# ...
 2421.5000     8.7253     2.5622     0.0713     0.2716   -87.0016   109.6410     6.8600     6.0649     6.0647   -42.1346
 2422.0000     8.7268     2.5592     0.0693     0.2789   -86.8049   109.2283     6.6101     5.7891     6.0077   -41.9846
 2422.5000     8.7284     2.5512     0.0330     0.2861   -86.8062   108.4124     6.1954     5.5777     5.8966   -41.8346
 2423.0000     8.7497     2.5461     0.0210     0.2910   -86.7971   108.4028     6.0810     5.5767     5.8954   -31.6220
 2423.5000     8.7094     2.5441     0.0270     0.2837   -86.7881   108.7964     5.9139     5.6801     5.8946   -41.5346
 2424.0000     8.7093     2.5471     0.0411     0.2648   -86.7790   109.9963     6.1354     5.8393     5.9477   -41.3846
 2424.5000     8.7093     2.5582     0.0673     0.2607   -86.7699   109.1785     6.6045     6.0027     6.0586   -41.2347
 2425.0000     8.7093     2.5693     0.0713     0.2620   -86.7609   108.3624     6.8923     6.1144     6.1714   -41.0847
 2425.5000     8.7093     2.5794     0.0882     0.2607   -86.7518   107.1429     7.1927     6.1128     6.2854   -40.9347
 2426.0000     8.7294     2.5794     0.0995     0.2579   -86.7428   107.5365     7.5119     6.1120     6.2263   -40.7847
 2426.5000     8.7294     2.5764     0.0773     0.2571   -86.7337   108.3334     7.1061     5.9985     6.2251   -50.6977
 2427.0000     8.7093     2.5683     0.0612     0.2684   -86.7247   109.9370     6.7844     5.7793     6.2241   -50.5478
 2427.5000     8.7294     2.5643     0.0572     0.2757   -86.7156   111.1373     6.2423     5.5680     5.9412   -40.3347
 2428.0000     8.7293     2.5613     0.0452     0.2713   -86.7066   111.9344     6.0150     5.5159     5.6714   -30.1215
 2428.5000     8.7293     2.5562     0.0431     0.2656   -86.6975   111.9250     5.9583     5.4643     5.5660   -29.9415
 2429.0000     8.7104     2.5572     0.0431     0.2648   -86.6885   112.3188     5.9577     5.4128     5.5141   -39.8546
 2429.5000     8.7293     2.5673     0.0432     0.2648   -86.6794   113.5195     6.1802     5.3618     5.4121   -29.6414
 2430.0000     8.7293     2.5744     0.0673     0.2624   -86.6703   115.1236     6.1230     5.2626     5.3609   -29.4913
 2430.5000     8.7293     2.5744     0.0713     0.2592   -86.6613   115.9210     6.0651     5.2132     5.3602   -39.4046
 2431.0000     8.7494     2.5714     0.0741     0.2592   -86.6522   116.3133     6.0088     5.2127     5.3591   -29.1912
 2431.5000     8.7292     2.5683     0.0769     0.2628   -86.6432   116.3039     5.8439     5.3580     5.3582   -39.1046
 2432.0000     8.7292     2.5623     0.0794     0.2638   -86.6341   115.4877     6.0072     5.3573     5.3573   -49.0181
 2432.5000     8.7124     2.5583     0.0774     0.2665   -86.6251   114.2680     6.1180     5.3562     5.4063   -48.8682
 2433.0000     8.7090     2.5593     0.0716     0.2685   -86.6160   110.6272     6.2308     5.3059     5.4052   -48.7182
 2433.5000     8.7090     2.5593     0.0593     0.2717   -86.6070   106.1792     6.2297     5.2561     5.4041   -48.5682
 2434.0000     8.7090     2.5593     0.0573     0.2718   -86.5979   100.9237     6.1147     5.1589     5.3541   -48.4182
 2434.5000     8.7291     2.5603     0.0593     0.2742   -86.5889   103.3350     5.9467     5.1104     5.2059   -38.2044
 2435.0000     8.7291     2.5633     0.0747     0.2823   -86.5798   106.9571     5.6575     5.0626     5.1570   -38.0544
 2435.5000     8.7291     2.5613     0.0794     0.2859   -86.5707   108.9651     5.5018     4.8322     5.1086   -37.9044
 2436.0000     8.7090     2.5553     0.0774     0.2839   -86.5617   112.5877     5.3500     4.7868     5.1077   -37.7244
 2436.5000     8.7089     2.5452     0.0553     0.2762   -86.5526   113.7891     5.2509     4.7419     5.0597   -37.5743
 2437.0000     8.7089     2.5312     0.0452     0.2787   -86.5436   115.3941     5.2500     4.7414     4.9663   -37.4243
 2437.5000     8.7089     2.5312     0.0480     0.2823   -86.5345   114.1739     5.2983     4.6537     4.8290   -37.2743
 2438.0000     8.7089     2.5402     0.0513     0.2896   -86.5255   109.7225     5.3167     4.5248     4.6958   -37.1242
 2438.5000     8.7089     2.5442     0.0472     0.2940   -86.5164   108.5019     5.2670     4.4826     4.6518   -36.9742
 2439.0000     8.7089     2.5432     0.0452     0.2952   -86.5074   108.8959     5.1697     4.2000     4.4817   -36.8241
 2439.5000     8.7088     2.5392     0.0452     0.2948   -86.4983   109.6937     5.1213     4.1222     4.2782   -26.6098
 2440.0000     8.7088     2.5362     0.0452     0.2900   -86.4893   114.5287     4.7558     3.9347     4.0833   -26.4597
 2440.5000     8.7088     2.5352     0.0493     0.2835   -86.4802   118.5566     4.4572     3.6869     3.9708   -26.3096
 2441.0000     8.7491     2.5332     0.0633     0.2835   -86.4711   122.1810     4.1010     3.5521     3.7206   -26.1595
 2441.5000     8.7325     2.5302     0.0714     0.2864   -86.4578   124.1908     4.0253     3.4541     3.5845   -36.0739
 2442.0000     8.7289     2.5332     0.0714     0.2912   -86.4623   119.7402     4.0620     3.4216     3.5182   -35.9239
 2442.5000     8.7087     2.5352     0.0956     0.3036   -86.6706   118.5196     4.0990     3.3898     3.4852   -25.7092
 2443.0000     8.7087     2.5423     0.0996     0.3092   -86.4713   115.8858     4.1747     3.3891     3.4846   -25.5291
 2443.5000     8.6886     2.5493     0.0996     0.3141   -86.4816   116.8859     4.4941     3.3884     3.5491   -25.3789
 2444.0000     8.7087     2.5584     0.1036     0.3109   -86.4880   119.7035     4.4741     3.5819     3.6148   -25.2288
 2444.5000     8.7087     2.5574     0.1036     0.2880   -86.4957   121.7136     4.3505     3.7163     3.6820   -25.0787
 2445.0000     8.7087     2.5503     0.1016     0.2896   -86.5021   125.7432     4.2305     3.8203     3.8561   -24.9286
 2445.5000     8.7288     2.5483     0.0855     0.2965   -86.5086   126.5383     4.1907     3.8913     3.9274   -24.7785
 2446.0000     8.7288     2.5483     0.0533     0.2953   -86.5150   119.6647     4.8795     3.9269     3.9633   -24.6284
 2446.5000     8.7288     2.5433     0.0453     0.2913   -86.5214   115.0144     5.0158     3.9627     3.9979   -24.4783
 2447.0000     8.7086     2.5383     0.0393     0.2763   -86.5266   116.0109     4.9688     3.9620     4.0328   -24.3282
 2447.5000     8.7086     2.5353     0.0462     0.2711   -86.5349   117.6174     4.9223     3.9616     4.0680   -24.1781
 2448.0000     8.7086     2.5292     0.0513     0.2723   -86.5407   119.2240     4.8313     3.9605     4.1100   -24.0280
 2448.5000     8.7086     2.5232     0.0493     0.2808   -86.5472   118.0028     4.8753     3.9600     4.1096   -23.8779
 2449.0000     8.7087     2.5172     0.0473     0.2788   -86.5536   119.6096     4.8297     4.0333     4.1089   -33.7931
 2449.5000     8.7087     2.5162     0.0212     0.2756   -86.5600   120.0044     4.8737     4.1084     4.2469   -33.6429
 2450.0000     8.7087     2.5222     0.0272     0.2776   -86.5665   119.5912     5.0097     4.3027     4.3895   -33.4628
 2450.5000     8.7086     2.5262     0.0494     0.2788   -86.5742   117.7717     5.1023     4.4642     4.5368   -23.2474
 2451.0000     8.7085     2.5303     0.0534     0.2764   -86.5806   119.5728     5.3426     4.6751     4.6751   -23.0972
 2451.5000     8.7085     2.5333     0.0594     0.2732   -86.5837   121.1799     5.4917     4.7618     4.6749   -22.9471
 2452.0000     8.7084     2.5383     0.0695     0.2663   -86.5650   122.7872     5.6975     4.8053     4.9055   -22.7969
 2452.5000     8.7286     2.5413     0.0956     0.2675   -86.5462   126.0093     5.9109     4.9400     5.1476   -22.6468
 2453.0000     8.7286     2.5494     0.0916     0.2708   -86.5274   124.3838     6.0760     5.1259     5.2703   -32.5624
 2453.5000     8.7084     2.5484     0.0856     0.2752   -86.5086   123.1623     6.1883     5.2698     5.3681   -32.4123
 2454.0000     8.7084     2.5454     0.0554     0.2809   -86.4899   123.1551     6.5396     5.3674     5.5703   -32.2622
 2454.5000     8.7084     2.5454     0.0393     0.2922   -86.4711   121.5275     6.4786     5.4164     5.6211   -32.1121
