~VERSION INFORMATION
 VERS.                2.0:   CWLS LOG ASCII STANDARD - VERSION 2.0
 WRAP.                 NO:   ONE LINE PER DEPTH STEP
~WELL INFORMATION
#MNEM.UNIT      DATA TYPE    INFORMATION
#----------   ------------   ------------------------------
 STRT.F            0.0000:   START DEPTH
 STOP.F         2870.0000:   STOP DEPTH
 STEP.F            0.5000:   STEP LENGTH
 NULL.          -999.2500:   NO VALUE
 COMP.  FENIX AND SCISSON:   COMPANY
 WELL.  FENIX "A" #304-28:   WELL
 FLD .             NPR #3:   FIELD
 LOC .      S28 T39N R78W:   LOCATION
 CNTY.            NATRONA:   COUNTY
 STAT.            WYOMING:   STATE
 CTRY. UNITED STATES OF AMERICA:   COUNTRY
 SRVC.         MCCULLOUGH:   SERVICE COMPANY
 DATE.        21-DEC-1977:   LOGDATE
 API .     49025105600000:   API NUMBER
~CURVE INFORMATION
#MNEM.UNIT       API CODE    CURVE DESCRIPTION
#----------   ------------   ------------------------------
 DEPT.F                  :   
 GR  .GAPI   30 310 01 00:   GAMMA RAY
 CALI.IN     70 280 01 00:   CALIPER
~PARAMETER INFORMATION
#MNEM.UNIT          VALUE    DESCRIPTION
#----------   ------------   ------------------------------
 EKB .F            0.0000:   Kelly bushing
 EGL .F            0.0000:   Ground level
 EDF .F         5074.7000:   Drilling floor
 EPD .F         5074.7000:   Permanent datum
 TD  .F         2868.0000:   Total depth
 DATE.        21-DEC-1977:   Date logged
 CLNT.            A2DTECH:   Client Code
 DL  .F              2868:   Depth logger
 BLI .F              2866:   Bottom log interval
 TLI .F              2000:   Top log interval
 CS1 .IN             6.25:   Casing size
 CBD1.     6.625" @ 2935':   Casing driller 1
 BS1 .IN             6.25:   Bit size
 BSD1.F              2868:   Depth drilled with bit1
 DFT .              WATER:   Type fluid in hole
 TCS .HRS             1.5:   Time Circ. stopped
 ENGI.             CONLEY:   Recorded By
 WITN.           HARRISON:   Witnessed by
 ORIG.           5" PRINT:   Origin of data
 UWI .     49025105600000:   Unique Well ID
 DICO. A2D TECHNOLOGIES, INC.:   Digitizing Company
~OTHER INFORMATION
~A    DEPT      GR         CALI 
# ...
 1336.5000  -999.2500     6.7040
 1337.0000  -999.2500     6.6990
 1337.5000  -999.2500     6.6910
 1338.0000  -999.2500     6.6800
 1338.5000  -999.2500     6.6750
 1339.0000  -999.2500     6.6750
 1339.5000  -999.2500     6.6750
 1340.0000  -999.2500     6.6750
 1340.5000  -999.2500     6.6760
 1341.0000  -999.2500     6.6760
 1341.5000  -999.2500     6.6760
 1342.0000  -999.2500     6.6740
 1342.5000  -999.2500     6.6730
 1343.0000  -999.2500     6.6710
 1343.5000  -999.2500     6.6700
 1344.0000  -999.2500     6.6700
 1344.5000  -999.2500     6.6700
 1345.0000  -999.2500     6.6700
 1345.5000  -999.2500     6.6700
 1346.0000  -999.2500     6.6700
 1346.5000  -999.2500     6.6700
 1347.0000  -999.2500     6.6710
 1347.5000  -999.2500     6.6720
 1348.0000  -999.2500     6.6770
 1348.5000  -999.2500     6.6830
 1349.0000  -999.2500     6.6850
 1349.5000  -999.2500     6.6860
 1350.0000  -999.2500     6.6880
 1350.5000  -999.2500     6.6890
 1351.0000  -999.2500     6.6910
 1351.5000  -999.2500     6.6930
 1352.0000  -999.2500     6.6950
 1352.5000  -999.2500     6.6990
 1353.0000  -999.2500     6.7010
 1353.5000  -999.2500     6.9100
 1354.0000  -999.2500     6.7380
 1354.5000  -999.2500     6.7450
 1355.0000  -999.2500     6.7380
 1355.5000  -999.2500     6.7270
 1356.0000  -999.2500     6.7230
 1356.5000  -999.2500     6.7090
 1357.0000  -999.2500     6.7050
 1357.5000  -999.2500     6.7010
 1358.0000  -999.2500     6.7030
 1358.5000  -999.2500     6.7090
 1359.0000  -999.2500     6.7170
 1359.5000  -999.2500     6.7250
 1360.0000  -999.2500     6.7280
 1360.5000  -999.2500     6.7300
 1361.0000  -999.2500     6.7330
 1361.5000  -999.2500     6.7320
 1362.0000  -999.2500     6.7320
 1362.5000  -999.2500     6.7320
 1363.0000  -999.2500     6.7320
 1363.5000  -999.2500     6.7280
 1364.0000  -999.2500     6.7240
 1364.5000  -999.2500     6.7210
 1365.0000  -999.2500     6.7170
 1365.5000  -999.2500     6.7150
 1366.0000  -999.2500     6.7180
 1366.5000  -999.2500     6.7200
 1367.0000  -999.2500     6.7220
 1367.5000  -999.2500     6.7270
 1368.0000  -999.2500     6.7310
 1368.5000  -999.2500     6.7320
 1369.0000  -999.2500     6.7480
 1369.5000  -999.2500     6.7640
 1370.0000  -999.2500     6.7650
 1370.5000  -999.2500     6.7630
 1371.0000  -999.2500     6.7550
 1371.5000  -999.2500     6.7440
 1372.0000  -999.2500     6.7330
 1372.5000  -999.2500     6.7260
 1373.0000  -999.2500     6.7290
 1373.5000  -999.2500     6.7310
 1374.0000  -999.2500     6.7360
 1374.5000  -999.2500     6.7350
 1375.0000  -999.2500     6.8820
 1375.5000  -999.2500     6.6510
 1376.0000  -999.2500     6.6680
 1376.5000  -999.2500     6.6580
 1377.0000  -999.2500     6.6600
 1377.5000  -999.2500     6.6600
 1378.0000  -999.2500     6.6600
 1378.5000  -999.2500     6.6600
 1379.0000  -999.2500     6.6600
 1379.5000  -999.2500     6.6600
 1380.0000  -999.2500     6.6600
 1380.5000  -999.2500     6.6600
 1381.0000  -999.2500     6.6610
 1381.5000  -999.2500     6.6610
 1382.0000  -999.2500     6.6610
 1382.5000  -999.2500     6.6610
 1383.0000  -999.2500     6.6620
 1383.5000  -999.2500     6.6610
 1384.0000  -999.2500     6.6590
 1384.5000  -999.2500     6.6580
 1385.0000  -999.2500     6.6570
 1385.5000  -999.2500     6.6580
 1386.0000  -999.2500     6.6590
 1386.5000  -999.2500     6.6600
 1387.0000  -999.2500     6.6610
 1387.5000  -999.2500     6.6630
 1388.0000  -999.2500     6.6670
 1388.5000  -999.2500     6.6760
 1389.0000  -999.2500     6.6840
 1389.5000  -999.2500     6.6910
 1390.0000  -999.2500     6.6960
 1390.5000  -999.2500     6.7000
 1391.0000  -999.2500     6.7050
 1391.5000  -999.2500     6.7100
 1392.0000  -999.2500     6.7090
 1392.5000  -999.2500     6.7090
 1393.0000  -999.2500     6.7090
 1393.5000  -999.2500     6.7100
 1394.0000  -999.2500     6.7130
 1394.5000  -999.2500     6.7170
 1395.0000  -999.2500     6.7210
 1395.5000  -999.2500     6.7320
 1396.0000  -999.2500     6.9410
 1396.5000  -999.2500     6.7050
 1397.0000  -999.2500     6.7180
 1397.5000  -999.2500     6.7260
 1398.0000  -999.2500     6.7350
 1398.5000  -999.2500     6.7390
 1399.0000  -999.2500     6.7390
 1399.5000  -999.2500     6.7380
 1400.0000  -999.2500     6.7390
 1400.5000  -999.2500     6.7400
 1401.0000  -999.2500     6.7420
 1401.5000  -999.2500     6.7400
 1402.0000  -999.2500     6.7360
 1402.5000  -999.2500     6.7230
 1403.0000  -999.2500     6.7220
 1403.5000  -999.2500     6.7060
 1404.0000  -999.2500     6.6960
 1404.5000  -999.2500     6.6950
 1405.0000  -999.2500     6.6930
 1405.5000  -999.2500     6.6910
 1406.0000  -999.2500     6.6950
 1406.5000  -999.2500     6.7010
 1407.0000  -999.2500     6.7070
 1407.5000  -999.2500     6.7130
 1408.0000  -999.2500     6.7180
 1408.5000  -999.2500     6.7210
 1409.0000  -999.2500     6.7250
 1409.5000  -999.2500     6.7290
 1410.0000  -999.2500     6.7340
 1410.5000  -999.2500     6.7400
 1411.0000  -999.2500     6.7430
 1411.5000  -999.2500     6.7440
 1412.0000  -999.2500     6.7420
 1412.5000  -999.2500     6.7360
 1413.0000  -999.2500     6.7310
 1413.5000  -999.2500     6.7240
 1414.0000  -999.2500     6.7170
 1414.5000  -999.2500     6.7120
 1415.0000  -999.2500     6.7080
 1415.5000  -999.2500     6.7080
 1416.0000  -999.2500     6.7100
 1416.5000  -999.2500     6.7240
 1417.0000  -999.2500     6.7400
 1417.5000  -999.2500     6.7560
 1418.0000  -999.2500     6.8700
 1418.5000  -999.2500     6.7770
 1419.0000  -999.2500     6.7820
 1419.5000  -999.2500     6.7880
 1420.0000  -999.2500     6.7710
 1420.5000  -999.2500     6.7510
 1421.0000  -999.2500     6.7480
 1421.5000  -999.2500     6.7430
 1422.0000  -999.2500     6.7370
 1422.5000  -999.2500     6.7340
 1423.0000  -999.2500     6.7320
 1423.5000  -999.2500     6.7290
 1424.0000  -999.2500     6.7330
 1424.5000  -999.2500     6.7370
 1425.0000  -999.2500     6.7390
 1425.5000  -999.2500     6.7390
 1426.0000  -999.2500     6.7390
 1426.5000  -999.2500     6.7390
 1427.0000  -999.2500     6.7390
 1427.5000  -999.2500     6.7390
 1428.0000  -999.2500     6.7400
 1428.5000  -999.2500     6.7400
 1429.0000  -999.2500     6.7400
 1429.5000  -999.2500     6.7410
 1430.0000  -999.2500     6.7410
 1430.5000  -999.2500     6.7420
 1431.0000  -999.2500     6.7420
 1431.5000  -999.2500     6.7420
 1432.0000  -999.2500     6.7550
 1432.5000  -999.2500     6.7710
 1433.0000  -999.2500     6.7790
 1433.5000  -999.2500     6.7960
 1434.0000  -999.2500     6.7760
 1434.5000  -999.2500     6.7440
 1435.0000  -999.2500     6.7420
 1435.5000  -999.2500     6.7410
 1436.0000  -999.2500     6.7390
 1436.5000  -999.2500     6.7390
 1437.0000  -999.2500     6.7410
 1437.5000  -999.2500     6.7420
 1438.0000  -999.2500     6.7440
 1438.5000  -999.2500     6.7430
 1439.0000  -999.2500     6.7480
 1439.5000  -999.2500     6.7620
 1440.0000  -999.2500     6.9570
 1440.5000  -999.2500     6.8060
 1441.0000  -999.2500     6.8040
 1441.5000  -999.2500     6.7910
 1442.0000  -999.2500     6.7790
 1442.5000  -999.2500     6.7750
 1443.0000  -999.2500     6.7740
 1443.5000  -999.2500     6.7740
 1444.0000  -999.2500     6.7730
 1444.5000  -999.2500     6.7730
 1445.0000  -999.2500     6.7720
 1445.5000  -999.2500     6.7700
 1446.0000  -999.2500     6.7680
 1446.5000  -999.2500     6.7680
 1447.0000  -999.2500     6.7680
 1447.5000  -999.2500     6.7680
 1448.0000  -999.2500     6.7670
 1448.5000  -999.2500     6.7630
 1449.0000  -999.2500     6.7600
 1449.5000  -999.2500     6.7590
 1450.0000  -999.2500     6.7590
 1450.5000  -999.2500     6.7580
 1451.0000  -999.2500     6.7580
 1451.5000  -999.2500     6.7600
 1452.0000  -999.2500     6.7610
 1452.5000  -999.2500     6.7710
 1453.0000  -999.2500     6.7820
 1453.5000  -999.2500     6.7920
 1454.0000  -999.2500     6.7940
 1454.5000  -999.2500     6.7950
 1455.0000  -999.2500     6.7950
 1455.5000  -999.2500     6.7930
 1456.0000  -999.2500     6.7910
 1456.5000  -999.2500     6.7850
 1457.0000  -999.2500     6.7800
 1457.5000  -999.2500     6.7740
