~VERSION INFORMATION
 VERS.                2.0:   CWLS LOG ASCII STANDARD - VERSION 2.0
 WRAP.                 NO:   ONE LINE PER DEPTH STEP
~WELL INFORMATION
#MNEM.UNIT      DATA TYPE    INFORMATION
#----------   ------------   ------------------------------
 STRT.F          207.0000:   START DEPTH
 STOP.F         3130.0000:   STOP DEPTH
 STEP.F            0.5000:   STEP LENGTH
 NULL.          -999.2500:   NO VALUE
 COMP. FENIX & SCISSON U.S. NAVY:   COMPANY
 WELL.    FENIX "A" #61-3:   WELL
 FLD .             NPR #3:   FIELD
 LOC .       S3 T38N R78W:   LOCATION
 CNTY.            NATRONA:   COUNTY
 STAT.            WYOMING:   STATE
 CTRY. UNITED STATES OF AMERICA:   COUNTRY
 SRVC.              WELEX:   SERVICE COMPANY
 DATE.        13-MAY-1977:   LOGDATE
 API .     49025103630000:   API NUMBER
~CURVE INFORMATION
#MNEM.UNIT       API CODE    CURVE DESCRIPTION
#----------   ------------   ------------------------------
 DEPT.F                  :   
 SPR .MV     07 010 01 00:   SPONTANEOUS POTENTIAL
 SFLU.OHMM   07 220 01 00:   SPHERICALLY FOCUSED LOG UNAVERAGED RESISTIVITY
 ILD .OHMM   07 120 46 00:   INDUCTION LOG DEEP RESISTIVITY
 ILM .OHMM   07 120 44 00:   INDUCTION LOG MEDIUM RESISTIVITY
 CALD.IN     45 280 60 00:   CALIPER FROM DENSITY LOG
 GRD .GAPI   45 310 01 00:   GAMMA RAY FROM DENSITY LOG
 RHOB.G/C3   45 350 01 00:   BULK DENSITY
 CORR.G/C3   45 356 01 00:   DENSITY CORRECTION
~PARAMETER INFORMATION
#MNEM.UNIT          VALUE    DESCRIPTION
#----------   ------------   ------------------------------
 EKB .F         5109.0000:   Kelly bushing
 EGL .F         5099.0000:   Ground level
 EDF .F            0.0000:   Drilling floor
 TD  .F         3130.0000:   Total depth
 DATE.        13-MAY-1977:   Date logged
 CLNT.            A2DTECH:   Client Code
 SL  . 330' FNL & 1650' FEL:   Surface Location
 PD  .                 GL:   Permanent Datum
 EPD .F              5099:   Elevation Permanent Datum
 LMF .                 KB:   Log Measured From
 DMF .                 KB:   Drilling Measured From
 DAPD.F                10:   Feet Above Permanent Datum
 DD  .F              3126:   Depth driller
 DL  .F              3129:   Depth logger
 BLI .F              3127:   Bottom log interval
 TLI .F               210:   Top log interval
 CS1 .IN            8.625:   Casing size
 CBD1.      8.625" @ 200':   Casing driller 1
 CBL1.F               216:   Casing logger 1
 BS1 .IN            7.875:   Bit size
 BSD1.F              3126:   Depth drilled with bit1
 DFT .            KCL MUD:   Type fluid in hole
 DFD .                9.1:   Density
 DFV .                 32:   Viscosity
 DFPH.                  8:   pH
 DFL .                8.4:   Fluid loss
 MSS .           FLOWLINE:   Source of sample
 RMS .OHMM            .29:   Rm
 MST .F                68:   Rm Meas. temp.
 RMF .OHMM            .28:   Rmf
 MFST.F                68:   Rmf Meas. temp.
 RMC .OHMM            .43:   Rmc
 MCST.F                68:   Rmc Meas. temp.
 MFSS.           FANN KIT:   Source Rmf.
 MCSS.           FANN KIT:   Source Rmc.
 RMB .OHMM            .16:   Rm. at BHT
 BHT .F               123:   BHT.
 TCS .HRS             2.5:   Time Circ. stopped
 MRT .F               123:   Maximum recorded temp.
 LUN .               9685:   Logging unit number
 LUL .           BRIGHTON:   Logging unit location
 ENGI.          T. JOYNER:   Recorded By
 WITN.      B. HARRINGTON:   Witnessed by
 ORIG.           5" PRINT:   Origin of data
 UWI .     49025103630000:   Unique Well ID
 DICO. A2D TECHNOLOGIES, INC.:   Digitizing Company
~OTHER INFORMATION
~A   DEPT      SPR       SFLU        ILD        ILM       CALD        GRD       RHOB       CORR   
# ...
 2110.5000   -38.0280    11.8245     7.0714    10.3031     8.8964   128.9010     2.3006     0.0016
 2111.0000   -38.2326    11.3944     7.0682     9.8376     8.9558   128.1030     2.3278     0.0095
 2111.5000   -38.0380    11.0813     7.0659     9.6555     9.1538   128.0979     2.3714     0.0015
 2112.0000   -38.2425    11.0784     6.9991    10.6789     9.3322   127.2999     2.4135     0.0094
 2112.5000   -38.0480    11.0742     6.9968    10.6748     9.6492   127.6912     2.4247     0.0094
 2113.0000   -37.8534    11.2758     6.9955    10.3808     9.9662   128.8754     2.4317     0.0094
 2113.5000   -38.2575    11.5870     6.9293    10.0961     9.9462   128.4739     2.4387     0.0093
 2114.0000   -37.8633    11.9067     6.8633     9.9092     8.7569   127.2797     2.4456     0.0133
 2114.5000   -38.2675    12.3474     6.7984     9.8155     8.6577   125.2928     2.4496     0.0152
 2115.0000   -38.2725    12.2314     6.7958     9.4585     8.6378   125.2878     2.4566     0.0152
 2115.5000   -38.2775    12.0050     6.7315     8.8669     8.6178   124.4902     2.4616     0.0212
 2116.0000   -38.2825    11.6751     6.7298     8.7027     8.4790   122.1074     2.4646     0.0211
 2116.5000   -38.0879    10.9448     6.7272     8.1584     8.3799   121.7063     2.4695     0.0251
 2117.0000   -38.0929    11.1440     6.7250     8.2310     8.3996   121.3051     2.4703     0.0290
 2117.5000   -37.8983    11.9896     6.7237     8.6943     8.3797   120.5078     2.4723     0.0290
 2118.0000   -37.9033    12.4341     6.7207     9.0155     8.3994   120.1068     2.4753     0.0290
 2118.5000   -37.9083    12.6605     6.7186     8.7689     8.3993   119.7058     2.4763     0.0329
 2119.0000   -37.9133    12.6564     6.8409     8.2962     8.4190   120.4935     2.4782     0.0389
 2119.5000   -37.9183    13.0057     6.9022     8.2177     8.4189   122.4697     2.4792     0.0468
 2120.0000   -37.9233    13.0032     7.0274     8.1400     8.3792   123.6533     2.4772     0.0548
 2120.5000   -37.7287    12.9982     7.0899     7.7012     8.4187   124.8379     2.4752     0.0528
 2121.0000   -37.7337    12.4101     7.0872     7.3533     8.4186   126.0214     2.4712     0.0527
 2121.5000   -37.5391    12.7510     6.8299     7.1507     8.4185   126.8087     2.4651     0.0527
 2122.0000   -37.3445    12.5174     6.0587     7.0184     8.4184   126.0114     2.4571     0.0527
 2122.5000   -37.3495    12.3982     5.8395     6.9524     8.4183   125.6103     2.4491     0.0466
 2123.0000   -37.3545    12.2817     5.8376     6.8871     8.4182   124.8131     2.4471     0.0386
 2123.5000   -37.7587    12.2777     6.6961     6.8845     8.4181   123.2239     2.4471     0.0325
 2124.0000   -37.7637    12.2730     6.7566     7.1383     8.4378   123.6150     2.4470     0.0225
 2124.5000   -37.7686    12.2691     6.6931     7.1379     8.4180   122.4220     2.4500     0.0224
 2125.0000   -37.7736    12.2659     6.5692     7.1351     8.4179   122.4171     2.4540     0.0224
 2125.5000   -37.7786    12.2612     6.5071     7.1328     8.4178   122.0162     2.4580     0.0224
 2126.0000   -37.7836    11.2836     6.5050     7.1301     8.4177   122.8034     2.4590     0.0223
 2126.5000   -37.5890    11.1783     6.4430     7.1282     8.3978   123.1945     2.4571     0.0263
 2127.0000   -37.5940    11.2778     6.4418     7.1260     8.4175   122.7936     2.4511     0.0263
 2127.5000   -37.5990    11.4831     6.4401     7.1227     8.4174   124.7685     2.4441     0.0342
 2128.0000   -37.6040    10.2805     6.4381     7.1209     8.4173   125.5554     2.4371     0.0362
 2128.5000   -37.4094    10.2785     6.4352     7.5917     8.4172   127.5300     2.4331     0.0301
 2129.0000   -37.4144    11.1604     6.4327     7.7304     8.4171   126.7332     2.4238     0.0341
 2129.5000   -37.4194    12.1179     6.4314     8.0175     8.3972   124.7487     2.4198     0.0340
 2130.0000   -37.4244    12.6815     6.4286     8.2377     8.3773   122.7644     2.4168     0.0260
 2130.5000   -37.2298    12.6798     6.4277     8.4656     8.4168   121.5720     2.4158     0.0200
 2131.0000   -37.2348    12.5591     6.5435     8.8605     8.4167   120.7754     2.4250     0.0139
 2131.5000   -37.4394    12.3274     6.6021     9.7971     8.4166   120.3748     2.4329     0.0079
 2132.0000   -37.2448    11.7705     6.7219     9.7965     8.4165   121.1617     2.4489     0.0058
 2132.5000   -37.4494    11.5518     6.7817     9.6133     8.4560   122.3442     2.4567     0.0058
 2133.0000   -37.2548    11.5489     6.8430     9.2642     8.4361   122.3394     2.4537     0.0058
 2133.5000   -37.4594    11.4396     6.8408     9.0096     8.4558   123.8786     2.4417     0.0097
 2134.0000   -37.4644    11.0236     6.9021     8.6020     8.4953   124.6641     2.4426     0.0097
 2134.5000   -37.4694    10.8188     6.8990     8.2891     8.5545   123.8687     2.4476     0.0097
 2135.0000   -37.4744    10.8153     6.8968     8.4406     8.5940   119.9457     2.4536     0.0116
 2135.5000   -37.6789    10.8125     6.8311     8.5943     8.6335   118.3581     2.4616     0.0136
 2136.0000   -37.6839    11.1102     6.8293     8.5130     8.6532   116.7707     2.4586     0.0135
 2136.5000   -37.6889    11.8432     6.7643     8.7479     8.6135   115.1834     2.4545     0.0175
 2137.0000   -37.6939    11.8409     6.6391     8.7451     8.5738   114.3875     2.4515     0.0174
 2137.5000   -37.6989    11.6210     6.5763     8.7423     8.5539   113.5917     2.4505     0.0234
 2138.0000   -37.7039    11.3016     6.5145     8.2710     8.5341   112.7960     2.4505     0.0294
 2138.5000   -37.9085    10.8919     6.4525     8.2684     8.5340   113.1871     2.4495     0.0293
 2139.0000   -37.9135    10.3985     6.3927     8.1153     8.5536   113.5782     2.4434     0.0333
 2139.5000   -37.9185    10.1127     6.3314     8.0386     8.6326   113.1781     2.4354     0.0332
 2140.0000   -37.9235    10.1095     6.2711     8.0349     8.7116   113.5292     2.4234     0.0332
 2140.5000   -38.3277    10.1062     6.2695     7.8872     8.4940   113.5247     2.4124     0.0412
 2141.0000   -38.1331    10.1030     6.2106     7.8111     8.4346   114.3112     2.3994     0.0411
 2141.5000   -38.3376    10.0087     6.2090     7.7387     8.4345   115.8887     2.3945     0.0431
 2142.0000   -38.3426    10.0049     6.1491     7.5955     8.4146   117.0706     2.3875     0.0471
 2142.5000   -38.3476     9.9102     6.0909     7.3867     8.4343   117.5014     2.3835     0.0390
 2143.0000   -38.3526     9.9077     6.2018     7.1837     8.4540   117.4968     2.3845     0.0230
 2143.5000   -38.5572     9.9039     6.0314     7.6567     8.4539   117.0967     2.4025     0.0129
 2144.0000   -38.5622     9.9007     6.0851     8.3919     8.4538   116.3012     2.4314     0.0129
 2144.5000   -38.5672    10.0803     6.1950     8.8643     8.4537   113.5287     2.4404     0.0188
 2145.0000   -38.7718    10.2645     6.2510     8.8621     8.4536   113.1287     2.4454     0.0228
 2145.5000   -38.9764    10.8416     6.2502     8.5397     8.4732   113.5196     2.4384     0.0268
 2146.0000   -39.1809    11.2436     6.3627     8.2286     8.4534   111.1003     2.4314     0.0287
 2146.5000   -38.9863    11.8766     6.4198     8.0025     8.4335   111.4947     2.4233     0.0347
 2147.0000   -39.1909    12.0928     6.4765     7.9268     8.4334   113.4661     2.4183     0.0406
 2147.5000   -39.1959    12.0897     6.5948     7.9237     8.4333   115.0429     2.4073     0.0466
 2148.0000   -39.6001    11.5435     6.7149     7.9222     8.4727   114.2477     2.3963     0.0566
 2148.5000   -39.2059    11.2263     6.7127     7.9922     8.4726   111.8723     2.3933     0.0625
 2149.0000   -39.0113    11.2227     6.7110     7.9901     8.4923   113.0928     2.3802     0.0725
 2149.5000   -39.0163    11.2198     6.5257     7.9140     8.4922   113.4418     2.3692     0.0804
 2150.0000   -39.2209    11.2154     6.4049     7.6262     8.4724   113.0439     2.3642     0.0944
 2150.5000   -38.8267    11.2097     6.3444     7.3493     8.4723   111.2291     2.3428     0.0994
