~VERSION INFORMATION
 VERS.                2.0:   CWLS LOG ASCII STANDARD - VERSION 2.0
 WRAP.                 NO:   ONE LINE PER DEPTH STEP
~WELL INFORMATION
#MNEM.UNIT      DATA TYPE    INFORMATION
#----------   ------------   ------------------------------
 STRT.F           54.0000:   START DEPTH
 STOP.F         5201.0000:   STOP DEPTH
 STEP.F            0.5000:   STEP LENGTH
 NULL.          -999.2500:   NO VALUE
 COMP.   TESORO PETROLEUM:   COMPANY
 WELL. TESORO DX NPR-3 #51-26:   WELL
 FLD .        TEAPOT DOME:   FIELD
 LOC .      S26 T38N R78W:   LOCATION
 CNTY.            NATRONA:   COUNTY
 STAT.            WYOMING:   STATE
 CTRY. UNITED STATES OF AMERICA:   COUNTRY
 SRVC.      DRESSER ATLAS:   SERVICE COMPANY
 DATE.        27-AUG-1976:   LOGDATE
 API .     49025102680000:   API NUMBER
~CURVE INFORMATION
#MNEM.UNIT       API CODE    CURVE DESCRIPTION
#----------   ------------   ------------------------------
 DEPT.F                  :   
 GRD .GAPI   45 310 01 00:   GAMMA RAY FROM DENSITY LOG
 CALD.IN     45 280 60 00:   CALIPER FROM DENSITY LOG
 CORR.G/C3   45 356 01 00:   DENSITY CORRECTION
 RHOB.G/C3   45 350 01 00:   BULK DENSITY
 SPR .MV     07 010 01 00:   SPONTANEOUS POTENTIAL
 ILD .OHMM   07 120 46 00:   DEEP INDUCTION RESISTIVITY
 ILM .OHMM   07 120 44 00:   INDUCTION LOG MEDIUM RESISTIVITY
 RFOC.OHMM   07 220 04 00:   RESISTIVITY FOCUSED LOG RES.
 TEND.LBS    45 635 01 00:   TENSION FORM DENSITY LOG
 NPHI.DEC    42 890 03 00:   NEUTRON POROSITY SANDSTONE
~PARAMETER INFORMATION
#MNEM.UNIT          VALUE    DESCRIPTION
#----------   ------------   ------------------------------
 EKB .F         5453.5000:   Kelly bushing
 EGL .F         5442.0000:   Ground level
 EDF .F         5452.0000:   Drilling floor
 EPD .F            0.0000:   Permanent datum
 TD  .F         5193.0000:   Total depth
 CLNT.            A2DTECH:   Client Code
 SL  . 2000' FEL & 600' FNL:   Surface Location
 PD  .                 GL:   Permanent Datum
 DAPD.F              11.5:   Feet Above Permanent Datum
 DATE.        27-AUG-1976:   Date Logged [DD-MMM-YYYY]
 DD  .F              5193:   Depth driller
 DL  .F              5193:   Depth logger
 BLI .F              5191:   Bottom log interval
 TLI .F              1726:   Top log interval
 CS1 .IN            8.625:   Casing size
 CBD1.     8.625" @ 1724':   Casing driller 1
 CBL1.F              1726:   Casing logger 1
 BS1 .IN            7.875:   Bit size
 BSD1.F              5193:   Depth drilled with bit1
 DFT .           CHEM GEL:   Type fluid in hole
 DFD .                9.2:   Density
 DFV .                 65:   Viscosity
 DFPH.                 10:   pH
 DFL .                5.8:   Fluid loss
 MSS .           FLOWLINE:   Source of sample
 RMS .OHMM           1.70:   Rm
 MST .F                71:   Rm Meas. temp.
 RMF .OHMM              1:   Rmf
 MFST.F                68:   Rmf Meas. temp.
 MFSS.               MEAS:   Source Rmf.
 RMC .OHMM           1.30:   Rmc
 MCST.F                66:   Rmc Meas. temp.
 MCSS.               MEAS:   Source Rmc.
 RMB .OHMM           0.85:   Rm. at BHT
 BHT .F               142:   BHT.
 TCS .HRS               6:   Time Circ. stopped
 MRT .F               142:   Maximum recorded temp.
 LUN .               6145:   Logging unit number
 LUL .              GLTTE:   Logging unit location
 ENGI.        GOULD-HOYER:   Recorded By
 WITN.        WOLF-CARTER:   Witnessed by
 ORIG.           5" PRINT:   Origin of data
 UWI .     49025102680000:   Unique Well ID
 DICO. A2D TECHNOLOGIES, INC.:   Digitizing Company
~OTHER INFORMATION
~A   DEPT      GRD       CALD       CORR       RHOB        SPR         ILD        ILM      RFOC       TEND       NPHI   
# ...
 5179.5000   128.2277     7.7946     0.0496     2.5392   -31.9815     3.3202     3.5842     4.6778   540.4030     0.2424
 5180.0000   125.6343     7.7900     0.0532     2.5461   -31.8493     3.2520     3.3705     4.2794   554.6611     0.2370
 5180.5000   129.7350     7.7773     0.0566     2.5454   -31.8384     3.2073     3.4469     3.7047   568.9193     0.2393
 5181.0000   133.5915     7.7799     0.0625     2.5409   -31.8450     3.1852     3.4695     2.5542   568.2158     0.2441
 5181.5000   135.0564     7.7822     0.0687     2.5381   -31.8452     3.1632     3.4716     2.8950   574.9622     0.2474
 5182.0000   131.7380     7.7698     0.0733     2.5420   -31.8440     3.1414     3.4026     3.9388   581.7088     0.2408
 5182.5000   129.8177     7.7669     0.0780     2.5399   -31.8449     3.1632     3.3349     4.3238   589.0833     0.2384
 5183.0000   130.3629     7.7445     0.0901     2.5370   -31.8879     3.1632     3.2238     4.1518   596.4570     0.2332
 5183.5000   129.4361     7.7323     0.0962     2.5371   -32.4610     3.1852     3.1592     3.7721   616.8040     0.2299
 5184.0000   137.3659     7.7197     0.0873     2.5417   -32.4452     3.1852     3.1835     3.5719   623.7496     0.2344
 5184.5000   138.1133     7.7029     0.0786     2.5478   -32.3778     3.1852     3.2718     3.3131   630.5116     0.2410
 5185.0000   138.3824     7.6945     0.0667     2.5629   -32.3075     3.1852     3.3915     4.3390   637.2735     0.2443
 5185.5000   138.6515     7.6883     0.0593     2.5683   -32.2368     3.1852     3.4915     4.4935   666.3404     0.2389
 5186.0000   135.0940     7.6697     0.0565     2.5556   -32.1666     3.1852     3.6169     4.4044   740.5686     0.2343
 5186.5000   131.6792     7.6723     0.0552     2.5573   -32.0970     3.2296     3.6915     4.6263   679.8642     0.2300
 5187.0000   133.0088     7.6592     0.0568     2.5611   -32.0400     3.2520     3.5685     4.7919   619.1599     0.2242
 5187.5000   136.8653     7.6621     0.0585     2.5529   -31.9073     3.3433     3.4970     4.8618   550.9592     0.2271
 5188.0000   132.3512     7.6644     0.0586     2.5606   -31.6220     3.3665     3.4751     4.4723   497.7511     0.2310
 5188.5000   133.3377     7.6669     0.0588     2.5599   -31.5579     3.3665     3.5998     3.6186   465.7621     0.2235
 5189.0000   133.6332     7.6694     0.0604     2.5548   -31.4985     3.3665     3.6773     4.2444   362.5437     0.2150
 5189.5000   132.2043  -999.2500  -999.2500  -999.2500   -31.4475     3.3433     3.7050     4.1033   270.4768  -999.2500
 5190.0000   134.8959  -999.2500  -999.2500  -999.2500   -31.5111     3.2973     3.6818     4.3390   194.7799  -999.2500
 5190.5000   132.0134  -999.2500  -999.2500  -999.2500   -31.4466     3.2296     3.6085     5.2995   126.5793  -999.2500
 5191.0000   134.6931  -999.2500  -999.2500  -999.2500   -31.5690     3.1852     3.5104     3.8375    73.3712  -999.2500
 5191.5000   136.3972  -999.2500  -999.2500  -999.2500   -31.7664     3.1852     3.4125     3.7868    50.1481  -999.2500
 5192.0000   136.9054  -999.2500  -999.2500  -999.2500   -31.9649     3.2073     3.3975     3.8163    41.9175  -999.2500
 5192.5000   136.9354  -999.2500  -999.2500  -999.2500  -999.2500  -999.2500  -999.2500  -999.2500    41.1832  -999.2500
 5193.0000   136.7186  -999.2500  -999.2500  -999.2500  -999.2500  -999.2500  -999.2500  -999.2500    40.4488  -999.2500
 5193.5000   138.1910  -999.2500  -999.2500  -999.2500  -999.2500  -999.2500  -999.2500  -999.2500    39.7145  -999.2500
 5194.0000   140.4326  -999.2500  -999.2500  -999.2500  -999.2500  -999.2500  -999.2500  -999.2500    38.9802  -999.2500
 5194.5000   141.3674  -999.2500  -999.2500  -999.2500  -999.2500  -999.2500  -999.2500  -999.2500    38.2312  -999.2500
 5195.0000   140.6799  -999.2500  -999.2500  -999.2500  -999.2500  -999.2500  -999.2500  -999.2500    37.4815  -999.2500
 5195.5000   129.2300  -999.2500  -999.2500  -999.2500  -999.2500  -999.2500  -999.2500  -999.2500   149.0379  -999.2500
 5196.0000    88.6022  -999.2500  -999.2500  -999.2500  -999.2500  -999.2500  -999.2500  -999.2500   178.4723  -999.2500
 5196.5000  -999.2500  -999.2500  -999.2500  -999.2500  -999.2500  -999.2500  -999.2500  -999.2500   177.5542  -999.2500
 5197.0000  -999.2500  -999.2500  -999.2500  -999.2500  -999.2500  -999.2500  -999.2500  -999.2500   176.8199  -999.2500
 5197.5000  -999.2500  -999.2500  -999.2500  -999.2500  -999.2500  -999.2500  -999.2500  -999.2500   168.5893  -999.2500
 5198.0000  -999.2500  -999.2500  -999.2500  -999.2500  -999.2500  -999.2500  -999.2500  -999.2500   167.8549  -999.2500
 5198.5000  -999.2500  -999.2500  -999.2500  -999.2500  -999.2500  -999.2500  -999.2500  -999.2500   167.1206  -999.2500
 5199.0000  -999.2500  -999.2500  -999.2500  -999.2500  -999.2500  -999.2500  -999.2500  -999.2500   158.8900  -999.2500
 5199.5000  -999.2500  -999.2500  -999.2500  -999.2500  -999.2500  -999.2500  -999.2500  -999.2500   158.1556  -999.2500
 5200.0000  -999.2500  -999.2500  -999.2500  -999.2500  -999.2500  -999.2500  -999.2500  -999.2500   149.9250  -999.2500
 5200.5000  -999.2500  -999.2500  -999.2500  -999.2500  -999.2500  -999.2500  -999.2500  -999.2500   149.1753  -999.2500
 5201.0000  -999.2500  -999.2500  -999.2500  -999.2500  -999.2500  -999.2500  -999.2500  -999.2500   148.4256  -999.2500
