~VERSION INFORMATION
 VERS.                2.0:   CWLS LOG ASCII STANDARD - VERSION 2.0
 WRAP.                 NO:   ONE LINE PER DEPTH STEP
~WELL INFORMATION
#MNEM.UNIT      DATA TYPE    INFORMATION
#----------   ------------   ------------------------------
 STRT.F          196.5000:   START DEPTH
 STOP.F         3219.0000:   STOP DEPTH
 STEP.F            0.5000:   STEP LENGTH
 NULL.          -999.2500:   NO VALUE
 COMP.    FENIX & SCISSON:   COMPANY
 WELL.  FENIX "AX" #73-15:   WELL
 FLD .              NPR 3:   FIELD
 LOC .      S15 T38N R78W:   LOCATION
 CNTY.            NATRONA:   COUNTY
 STAT.            WYOMING:   STATE
 CTRY. UNITED STATES OF AMERICA:   COUNTRY
 SRVC.       SCHLUMBERGER:   SERVICE COMPANY
 DATE.        30-AUG-1977:   LOGDATE
 API .     49025104270000:   API NUMBER
~CURVE INFORMATION
#MNEM.UNIT       API CODE    CURVE DESCRIPTION
#----------   ------------   ------------------------------
 DEPT.F                  :   
 NPHI.DEC    42 890 03 00:   NEUTRON POROSITY SANDSTONE
 CALD.IN     45 280 60 00:   CALIPER FROM DENSITY LOG
 GRD .GAPI   45 310 01 00:   GAMMA RAY FROM DENSITY LOG
 CORR.G/C3   45 356 01 00:   DENSITY CORRECTION
 RHOB.G/C3   45 350 01 00:   BULK DENSITY
 SPR .MV     07 010 01 00:   SPONTANEOUS POTENTIAL
 RILD.OHMM   07 120 46 00:   DEEP INDUCTION RESISTIVITY
 RILM.OHMM   07 120 44 00:   INDUCTION LOG MEDIUM RESISTIVITY
 LL8 .OHMM   07 220 08 00:   LATEROLOG-8 RES.
~PARAMETER INFORMATION
#MNEM.UNIT          VALUE    DESCRIPTION
#----------   ------------   ------------------------------
 EKB .F         5263.0000:   Kelly bushing
 EGL .F         5253.0000:   Ground level
 TD  .F         3220.0000:   Total depth
 CLNT.            A2DTECH:   Client Code
 SL  . 1650' FNL & 875' FEL:   Surface Location
 PD  .                 GL:   Permanent Datum
 EPD .F              5253:   Elevation Permanent Datum
 LMF .                 KB:   Log Measured From
 DMF .                 KB:   Drilling Measured From
 DAPD.F                10:   Feet Above Permanent Datum
 DATE.        30-AUG-1977:   Date Logged [DD-MMM-YYYY]
 DD  .F              3220:   Depth driller
 DL  .F              3219:   Depth logger
 BLI .F              3209:   Bottom log interval
 TLI .F               216:   Top log interval
 CS1 .IN            8.625:   Casing size
 CBL1.F               216:   Casing logger 1
 BS1 .IN            7.875:   Bit size
 BSD1.F              3220:   Depth drilled with bit1
 DFT .                FGM:   Type fluid in hole
 DFD .                8.9:   Density
 DFPH.                 11:   pH
 MSS .            MUDTANK:   Source of sample
 RMS .OHMM           0.40:   Rm
 MST .F                82:   Rm Meas. temp.
 RMF .OHMM           0.25:   Rmf
 MFST.F                72:   Rmf Meas. temp.
 MFSS.               MEAS:   Source Rmf.
 RMC .OHMM           0.60:   Rmc
 MCST.F                82:   Rmc Meas. temp.
 MCSS.               CALC:   Source Rmc.
 RMB .OHMM           0.27:   Rm. at BHT
 BHT .F               120:   BHT.
 MRT .F               120:   Maximum recorded temp.
 LUN .               5642:   Logging unit number
 LUL .               CSPR:   Logging unit location
 ENGI.                FIX:   Recorded By
 WITN.         RETTINGILL:   Witnessed by
 ORIG.           5" PRINT:   Origin of data
 UWI .     49025104270000:   Unique Well ID
 DICO. A2D TECHNOLOGIES, INC.:   Digitizing Company
 DFV .                 35:   Viscosity
 DFL .                8.4:   Fluid loss
 CBD1.      8.625" @ 216':   Casing driller 1
~OTHER INFORMATION
~A   DEPT       NPHI     CALD        GRD       CORR       RHOB        SPR       RILD       RILM        LL8   
# ...
  598.0000     0.2746    11.9835    49.6772     0.0041     2.3821   -76.6575    13.7374    13.6607    11.0071
  598.5000     0.2791    12.0302    46.3595     0.0148     2.3702   -76.7884    13.5596    13.4958    11.0116
  599.0000     0.2812    12.0619    44.1517     0.0194     2.3590   -77.0694    13.4696    13.4088    11.0161
  599.5000     0.2820    12.0638    43.7236     0.0150     2.3523   -77.0473    13.3803    13.2344    10.9445
  600.0000     0.2829    12.0701    44.9146     0.0188     2.3434   -77.0259    13.3842    13.0583    10.9490
  600.5000     0.2826    12.0971    47.7935     0.0159     2.3265   -77.0045    13.3885    12.9757    10.8510
  601.0000     0.2774    12.0986    49.1548     0.0130     2.3150   -76.9829    13.3922    12.9851    10.8025
  601.5000     0.2696    12.1000    48.5071     0.0153     2.3222   -76.9613    13.3958    12.9026    10.7539
  602.0000     0.2663    12.0862    48.0772     0.0124     2.3136   -76.9397    13.2416    12.8213    10.7053
  602.5000     0.2716    12.0731    48.5511     0.0080     2.3107   -76.9181    13.0669    12.7400    10.6719
  603.0000     0.2767    12.0746    48.7963     0.0110     2.3168   -76.8924    12.9356    12.6594    10.6028
  603.5000     0.2830    12.0910    47.7022     0.0202     2.3259   -76.8710    12.8943    12.6669    10.5338
  604.0000     0.2856    12.0924    45.2689     0.0157     2.3162   -77.0063    12.8530    12.6744    10.4654
  604.5000     0.2850    12.0790    46.4069     0.0158     2.3343   -77.4335    12.8117    12.7304    10.3870
  605.0000     0.2838    12.0810    46.2057     0.0136     2.3359   -77.5687    12.7704    12.7773    10.2587
  605.5000     0.2831    12.0984    44.8884     0.0107     2.3195   -77.8446    12.7290    12.6964    10.2633
  606.0000     0.3070    12.1133    42.1963     0.0078     2.3083   -78.1312    12.6877    12.7057    10.2675
  606.5000     0.3134    12.0703    42.3811     0.0336     2.3144   -78.4124    12.6464    12.7131    10.2724
  607.0000     0.2770    11.9526    45.2558     0.0614     2.3279   -78.6936    12.6237    12.6308    10.2766
  607.5000     0.2704    11.9239    47.4373     0.0156     2.3153   -78.9695    12.6281    12.6388    10.2809
  608.0000     0.2725    11.8512    49.9146     0.0217     2.3387   -79.0994    12.5442    12.6473    10.2851
  608.5000     0.2722    11.8526    49.0437     0.0157     2.3456   -79.0780    12.4611    12.5663    10.2173
  609.0000     0.2784    11.8541    45.7175     0.0196     2.3584   -79.2133    12.3786    12.5738    10.2221
  609.5000     0.2808    11.8407    44.4002     0.0142     2.3584   -79.6405    12.3819    12.4950    10.2268
  610.0000     0.2750    11.7974    45.0919     0.0114     2.3443   -79.7709    12.2999    12.4142    10.2306
  610.5000     0.2720    11.7687    48.0156     0.0139     2.3534   -79.8213    12.3033    12.3078    10.2352
  611.0000     0.2720    11.7705    50.0465     0.0109     2.3655   -80.0303    12.2920    12.2382    10.2394
  611.5000     0.2702    11.7720    51.4078     0.0057     2.3610   -80.1672    12.2252    12.1813    10.2434
  612.0000     0.2608    11.7735    51.4298     0.0042     2.3634   -80.3040    12.2292    12.1043    10.2479
  612.5000     0.2569    11.7750    48.1036     0.0119     2.3762   -80.7226    12.2320    12.0269    10.3233
  613.0000     0.2611    11.7765    45.8934     0.0180     2.3831   -80.8525    12.2354    11.9518    10.3274
  613.5000     0.2637    11.7782    46.3619     0.0233     2.3877   -81.1284    12.2392    11.8763    10.2604
  614.0000     0.2667    11.8095    49.2917     0.0181     2.3817   -81.2637    12.2001    11.8832    10.1939
  614.5000     0.2682    11.8110    50.6473     0.0152     2.3713   -81.5396    12.0775    11.8080    10.1981
  615.0000     0.2699    11.8124    51.1458     0.0145     2.3819   -81.9774    12.0808    11.8151    10.2023
  615.5000     0.2675    11.8139    52.4821     0.0176     2.3790   -82.1020    11.9999    11.8221    10.2066
  616.0000     0.2678    11.8303    53.6202     0.0215     2.3745   -82.2373    12.0040    11.7487    10.2108
  616.5000     0.2734    11.8317    53.8654     0.0133     2.3679   -82.5131    12.0070    11.7555    10.2151
  617.0000     0.2734    11.8332    53.6587     0.0066     2.3733   -82.6484    12.0105    11.6794    10.2193
  617.5000     0.2725    11.8347    53.4574     0.0074     2.3740   -82.9296    12.0020    11.6868    10.2235
  618.0000     0.2742    11.8212    54.3778     0.0143     2.3796   -83.0595    11.9508    11.6140    10.2286
  618.5000     0.2790    11.8227    55.0670     0.0249     2.3983   -83.3407    11.8995    11.5748    10.1622
  619.0000     0.2871    11.8390    54.1986     0.0227     2.3946   -83.4707    11.8483    11.5330    10.1657
  619.5000     0.2819    11.8256    53.3277     0.0190     2.3872   -83.6006    11.7970    11.4734    10.0994
  620.0000     0.2699    11.8271    53.7961     0.0086     2.3745   -83.5739    11.7458    11.4425    10.0349
  620.5000     0.2606    11.8289    55.1574     0.0132     2.3851   -83.8551    11.6945    11.4065     9.9687
  621.0000     0.2620    11.8304    55.6258     0.0133     2.3836   -83.9853    11.6433    11.4148     9.9040
  621.5000     0.2629    11.8318    56.3174     0.0165     2.4010   -84.1150    11.5920    11.3409     9.8397
  622.0000     0.2675    11.8180    57.9019     0.0172     2.4229   -84.2518    11.5407    11.2691     9.7758
  622.5000     0.2764    11.8046    59.0476     0.0105     2.4109   -84.3748    11.4895    11.2484     9.7123
  623.0000     0.2802    11.8063    59.7321     0.0061     2.4013   -84.4392    11.4800    11.2058     9.7173
  623.5000     0.2786    11.8079    60.4241     0.0054     2.3886   -84.4824    11.4833    11.1356     9.6533
  624.0000     0.2728    11.8094    61.1204     0.0093     2.4052   -84.4608    11.4871    11.1415     9.6582
  624.5000     0.2711    11.8108    60.6960     0.0086     2.4083   -84.4353    11.4903    11.0700     9.7290
  625.0000     0.2724    11.8123    59.8251     0.0109     2.4076   -84.4140    11.4929    11.0020     9.7334
  625.5000     0.2763    11.8137    59.1774     0.0185     2.4138   -84.3959    11.4961    11.0076     9.7374
  626.0000     0.2809    11.8152    57.8602     0.0186     2.4037   -84.5279    11.4992    10.9588     9.7414
  626.5000     0.2827    11.8167    56.5429     0.0179     2.3979   -84.5012    11.5028    10.9445     9.7454
  627.0000     0.2706    11.8182    55.4488     0.0233     2.3959   -84.7824    11.5060    10.9509     9.7494
  627.5000     0.2691    11.8355    56.1404     0.0272     2.4110   -85.0690    11.4850    10.9584     9.8212
  628.0000     0.2652    11.8512    57.0553     0.0159     2.3998   -85.4961    11.4320    10.8891     9.8935
  628.5000     0.2636    11.8676    57.3005     0.0153     2.4142   -85.6314    11.4359    10.8954     9.8976
  629.0000     0.2720    11.8840    59.1082     0.0146     2.4098   -85.7613    11.3593    10.8249     9.9017
  629.5000     0.2735    11.8854    58.9062     0.0132     2.4038   -85.8913    11.2069    10.7564     9.9058
  630.0000     0.2692    11.9018    58.0357     0.0193     2.4332   -85.8646    11.1325    10.6161     9.9099
  630.5000     0.2668    11.8880    60.9599     0.0246     2.4370   -85.8432    10.9067    10.5473     9.8433
  631.0000     0.2776    11.8898    62.7798     0.0187     2.4093   -85.9731    10.8344    10.4082     9.7097
  631.5000     0.2850    11.9062    63.4598     0.0097     2.3966   -85.9518    10.7124    10.2724     9.5844
  632.0000     0.2778    11.9226    63.4821     0.0061     2.3880   -86.0817    10.5779    10.1369     9.4479
  632.5000     0.2772    11.9240    63.5087     0.0167     2.3998   -86.3699    10.4020    10.0017     9.3197
  633.0000     0.2846    11.9106    63.5307     0.0190     2.3886   -86.8093    10.3330     9.8713     9.1996
  633.5000     0.2885    11.8972    62.6598     0.0184     2.3955   -87.2279    10.1944     9.8087     9.0211
  634.0000     0.2849    11.9136    61.7889     0.0222     2.3993   -87.3578     9.9875     9.6793     8.8998
