~VERSION INFORMATION
 VERS.                2.0:   CWLS LOG ASCII STANDARD - VERSION 2.0
 WRAP.                 NO:   ONE LINE PER DEPTH STEP
~WELL INFORMATION
#MNEM.UNIT      DATA TYPE    INFORMATION
#----------   ------------   ------------------------------
 STRT.F            0.0000:   START DEPTH
 STOP.F         3040.0000:   STOP DEPTH
 STEP.F            0.5000:   STEP LENGTH
 NULL.          -999.2500:   NO VALUE
 COMP. LAWRENCE ALLISON & ASSOCIATES:   COMPANY
 WELL. LAWRENCE NPR 3 "AX" #77-28:   WELL
 FLD .      NPR - WILDCAT:   FIELD
 LOC .      S28 T39N R78W:   LOCATION
 CNTY.            NATRONA:   COUNTY
 STAT.            WYOMING:   STATE
 CTRY. UNITED STATES OF AMERICA:   COUNTRY
 SRVC.      DRESSER ATLAS:   SERVICE COMPANY
 DATE.        19-OCT-1986:   LOGDATE
 API .     49025111150000:   API NUMBER
~CURVE INFORMATION
#MNEM.UNIT       API CODE    CURVE DESCRIPTION
#----------   ------------   ------------------------------
 DEPT.F                  :   
 TENR.LBS    07 635 01 00:   TENSION FROM RESISTIVITY
 RILD.OHMM   07 120 46 00:   DEEP INDUCTION RESISTIVITY
 RILM.OHMM   07 120 44 00:   INDUCTION LOG MEDIUM RESISTIVITY
 RFOC.OHMM   07 220 04 00:   RESISTIVITY FOCUSED LOG RES.
 SPR .MV     07 010 01 00:   SPONTANEOUS POTENTIAL
 GRR .GAPI   07 310 01 00:   GAMMA RAY FROM RESISTIVITY
 CNC .DEC    42 890 03 00:   NEUTRON POROSITY SANDSTONE
 RHOB.G/C3   45 350 01 00:   BULK DENSITY
 TEND.LBS    45 635 01 00:   TENSION FROM DENSITY LOG
 CORR.G/C3   45 356 01 00:   DENSITY CORRECTION
 CALD.IN     45 280 60 00:   CALIPER FROM DENSITY LOG
~PARAMETER INFORMATION
#MNEM.UNIT          VALUE    DESCRIPTION
#----------   ------------   ------------------------------
 EKB .F         5086.0000:   Kelly bushing
 EGL .F         5074.0000:   Ground level
 EDF .F            0.0000:   Drilling floor
 TD  .F         3025.0000:   Total depth
 DATE.        19-OCT-1986:   Date logged
 CLNT.            A2DTECH:   Client Code
 SL  . 967' FSL @ 763' FEL:   Surface Location
 PD  .                 GL:   Permanent Datum
 EPD .F              5074:   Elevation Permanent Datum
 LMF .                 KB:   Log Measured From
 DMF .                 KB:   Drilling Measured From
 DAPD.F                12:   Feet Above Permanent Datum
 DD  .F              3021:   Depth driller
 DL  .F              3025:   Depth logger
 BLI .F              3023:   Bottom log interval
 CS1 .IN            8.625:   Casing size
 CBD1.      8.625" @ 620':   Casing driller 1
 CBL1.F               615:   Casing logger 1
 BS1 .IN            7.875:   Bit size
 BSD1.F              3021:   Depth drilled with bit1
 DFT .        KCL/POLTMER:   Type fluid in hole
 DFD .                8.9:   Density
 DFV .                 38:   Viscosity
 DFPH.                9.5:   pH
 DFL .                 11:   Fluid loss
 MSS .           FLOWLINE:   Source of sample
 RMS .OHMM            .25:   Rm
 MST .F                65:   Rm Meas. temp.
 RMF .OHMM           .203:   Rmf
 MFST.F                65:   Rmf Meas. temp.
 RMC .OHMM            .31:   Rmc
 MCST.F                65:   Rmc Meas. temp.
 MFSS.               MEAS:   Source Rmf.
 MCSS.               CALC:   Source Rmc.
 RMB .OHMM           .136:   Rm. at BHT
 BHT .F               119:   BHT.
 TCS .HRS               5:   Time Circ. stopped
 MRT .F               119:   Maximum recorded temp.
 LUN .               6274:   Logging unit number
 LUL .               GLTE:   Logging unit location
 ENGI.             RAUTIO:   Recorded By
 WITN.             STRONG:   Witnessed by
 ORIG.         2.5" PRINT:   Origin of data
 UWI .     49025111150000:   Unique Well ID
 DICO. A2D TECHNOLOGIES, INC.:   Digitizing Company
~OTHER INFORMATION
~A    DEPT    TENR       RILD       RILM       RFOC        SPR         GRR       CNC       RHOB       TEND       CORR       CALD   
# ...
 2043.5000   -63.7250     6.8390     7.0750     8.1050   -81.7210   116.2500  -999.2500  -999.2500  -999.2500  -999.2500  -999.2500
 2044.0000   -63.7250     6.7790     7.0460     8.4410   -81.9760   113.7650  -999.2500  -999.2500  -999.2500  -999.2500  -999.2500
 2044.5000   -63.7250     6.6680     7.0160     8.9540   -82.2490   109.3500  -999.2500  -999.2500  -999.2500  -999.2500  -999.2500
 2045.0000   -63.7250     6.5570     6.9860     8.8160   -81.8210   104.8170  -999.2500  -999.2500  -999.2500  -999.2500  -999.2500
 2045.5000   -63.7250     6.4460     6.9540     8.5250   -81.4810   101.2980  -999.2500  -999.2500  -999.2500  -999.2500  -999.2500
 2046.0000   -63.7250     6.3360     6.7840     8.2340   -81.1400   100.1990  -999.2500  -999.2500  -999.2500  -999.2500  -999.2500
 2046.5000   -63.7250     6.2250     6.5940     8.0060   -81.1780    98.9160  -999.2500  -999.2500  -999.2500  -999.2500  -999.2500
 2047.0000   -63.7250     6.1280     6.4040     7.9170   -81.2600    98.7530  -999.2500  -999.2500  -999.2500  -999.2500  -999.2500
 2047.5000   -63.7250     6.0980     6.3530     7.8280   -81.3430    99.6670  -999.2500  -999.2500  -999.2500  -999.2500  -999.2500
 2048.0000   -63.7250     6.0720     6.3530     7.7380   -81.4200   100.1440  -999.2500  -999.2500  -999.2500  -999.2500  -999.2500
 2048.5000   -63.7250     6.0460     6.3530     7.6490   -81.5000   100.3600  -999.2500  -999.2500  -999.2500  -999.2500  -999.2500
 2049.0000   -63.7250     6.0200     6.3530     7.6110   -81.5800   100.6660  -999.2500  -999.2500  -999.2500  -999.2500  -999.2500
 2049.5000   -63.7250     5.9940     6.3530     7.7980   -81.6590   100.5820  -999.2500  -999.2500  -999.2500  -999.2500  -999.2500
 2050.0000   -63.7250     5.9680     6.3530     7.9570   -81.7390   100.0030  -999.2500  -999.2500  -999.2500  -999.2500  -999.2500
 2050.5000   -63.7250     5.9420     6.2200     8.1170   -81.8190    99.4650  -999.2500  -999.2500  -999.2500  -999.2500  -999.2500
 2051.0000   -63.7250     5.9100     6.0540     8.1810   -81.8980    98.8260  -999.2500  -999.2500  -999.2500  -999.2500  -999.2500
 2051.5000   -63.7250     5.7460     5.8880     7.5670   -81.9780    98.1570  -999.2500  -999.2500  -999.2500  -999.2500  -999.2500
 2052.0000   -63.7250     5.5390     5.7220     6.9540   -82.0570    95.8160  -999.2500  -999.2500  -999.2500  -999.2500  -999.2500
 2052.5000   -63.7250     5.3330     5.5550     6.8620   -82.1380    92.3130  -999.2500  -999.2500  -999.2500  -999.2500  -999.2500
 2053.0000   -63.7250     5.1270     5.3890     6.7470   -82.2140    90.0790  -999.2500  -999.2500  -999.2500  -999.2500  -999.2500
 2053.5000   -63.7250     4.9210     5.2230     6.6330   -82.2950    90.0360  -999.2500  -999.2500  -999.2500  -999.2500  -999.2500
 2054.0000   -63.7250     4.6740     5.0240     6.3750   -82.2530    93.1630  -999.2500  -999.2500  -999.2500  -999.2500  -999.2500
 2054.5000   -63.7250     4.7640     5.1220     6.0220   -82.1710    95.7600  -999.2500  -999.2500  -999.2500  -999.2500  -999.2500
 2055.0000   -63.7250     4.8760     5.2450     5.5990   -82.0930    98.8930  -999.2500  -999.2500  -999.2500  -999.2500  -999.2500
 2055.5000   -62.5000     4.9890     5.3690     5.7010   -82.0160    98.8060  -999.2500  -999.2500  -999.2500  -999.2500  -999.2500
 2056.0000   -59.4360     5.1010     5.4920     6.0180   -81.9370    97.2330  -999.2500  -999.2500  -999.2500  -999.2500  -999.2500
 2056.5000   -56.3730     5.2130     5.6150     7.1190   -81.8610    94.5410  -999.2500  -999.2500  -999.2500  -999.2500  -999.2500
 2057.0000   -53.3090     5.3030     5.7380     8.0360   -81.7810    94.2040  -999.2500  -999.2500  -999.2500  -999.2500  -999.2500
 2057.5000   -50.2450     5.3030     5.9100     8.9540   -81.7040    93.3880  -999.2500  -999.2500  -999.2500  -999.2500  -999.2500
 2058.0000   -47.1810     5.3030     5.7460     8.7940   -81.6310    89.9480  -999.2500  -999.2500  -999.2500  -999.2500  -999.2500
 2058.5000   -44.1180     5.0260     5.4730     7.8780   -81.5340    86.9700  -999.2500  -999.2500  -999.2500  -999.2500  -999.2500
 2059.0000   -41.0540     4.7950     5.2000     7.1160   -81.6460    87.1520  -999.2500  -999.2500  -999.2500  -999.2500  -999.2500
 2059.5000   -37.9900     4.5640     4.9260     6.3530   -81.9100    90.7410  -999.2500  -999.2500  -999.2500  -999.2500  -999.2500
 2060.0000   -34.9260     4.3320     4.6530     5.8150   -82.1510    94.5570  -999.2500  -999.2500  -999.2500  -999.2500  -999.2500
 2060.5000   -31.8630     4.1940     4.3790     5.2760   -82.3900    98.3990  -999.2500  -999.2500  -999.2500  -999.2500  -999.2500
 2061.0000   -28.7990     4.1190     4.2700     4.8900   -82.6380   100.5650  -999.2500  -999.2500  -999.2500  -999.2500  -999.2500
 2061.5000   -25.7350     4.1190     4.5120     5.1150   -82.8800    97.5640  -999.2500  -999.2500  -999.2500  -999.2500  -999.2500
 2062.0000   -26.2920     4.1600     4.6740     5.7700   -83.1170    96.1460  -999.2500  -999.2500  -999.2500  -999.2500  -999.2500
 2062.5000   -29.2630     4.2300     4.6740     6.4240   -83.3830    95.1950  -999.2500  -999.2500  -999.2500  -999.2500  -999.2500
 2063.0000   -32.2340     4.2990     4.6740     7.2090   -83.3520   100.4430  -999.2500  -999.2500  -999.2500  -999.2500  -999.2500
 2063.5000   -35.2050     4.3680     4.6740     6.9410   -83.1060   106.6060  -999.2500  -999.2500  -999.2500  -999.2500  -999.2500
 2064.0000   -38.1760     4.4380     4.6740     6.2700   -82.8880   105.3200  -999.2500  -999.2500  -999.2500  -999.2500  -999.2500
 2064.5000   -41.1470     4.5070     4.6740     5.5990   -82.6690   103.7710  -999.2500  -999.2500  -999.2500  -999.2500  -999.2500
 2065.0000   -44.1180     4.5900     4.7590     5.6510   -82.4450   103.3240  -999.2500  -999.2500  -999.2500  -999.2500  -999.2500
 2065.5000   -47.0890     4.7180     4.9390     5.7390   -82.2270   104.2030  -999.2500  -999.2500  -999.2500  -999.2500  -999.2500
 2066.0000   -50.0590     4.8780     5.1640     5.8260   -81.9990   111.7510  -999.2500  -999.2500  -999.2500  -999.2500  -999.2500
 2066.5000   -53.0300     5.0380     5.3880     5.9130   -81.7900   115.4100  -999.2500  -999.2500  -999.2500  -999.2500  -999.2500
 2067.0000   -56.0010     5.1970     5.6130     6.0180   -81.5400   113.8120  -999.2500  -999.2500  -999.2500  -999.2500  -999.2500
 2067.5000   -58.9720     5.3570     5.8380     6.8110   -81.5990   112.8600  -999.2500  -999.2500  -999.2500  -999.2500  -999.2500
 2068.0000   -61.9430     5.5170     6.1130     7.8020   -81.6950   111.5850  -999.2500  -999.2500  -999.2500  -999.2500  -999.2500
 2068.5000   -63.7250     5.6770     6.0870     8.7940   -81.8020   110.0540  -999.2500  -999.2500  -999.2500  -999.2500  -999.2500
 2069.0000   -63.7250     5.8050     6.0360     8.7940   -81.8990   107.6330  -999.2500  -999.2500  -999.2500  -999.2500  -999.2500
 2069.5000   -63.7250     5.7510     5.9850     7.8740   -82.0000   104.3340  -999.2500  -999.2500  -999.2500  -999.2500  -999.2500
 2070.0000   -63.7250     5.7060     5.9350     6.9540   -82.1010   102.3780  -999.2500  -999.2500  -999.2500  -999.2500  -999.2500
 2070.5000   -63.7250     5.6610     5.8840     6.9250   -82.2020   101.2670  -999.2500  -999.2500  -999.2500  -999.2500  -999.2500
 2071.0000   -63.7250     5.6160     5.8330     6.9010   -82.3030   100.0660  -999.2500  -999.2500  -999.2500  -999.2500  -999.2500
 2071.5000   -63.7250     5.5710     5.7820     6.8770   -82.4020    98.9350  -999.2500  -999.2500  -999.2500  -999.2500  -999.2500
 2072.0000   -63.7250     5.5260     5.7010     6.8530   -82.5050    97.5980  -999.2500  -999.2500  -999.2500  -999.2500  -999.2500
 2072.5000   -63.7250     5.4990     5.7380     6.8290   -82.6060    95.7560  -999.2500  -999.2500  -999.2500  -999.2500  -999.2500
 2073.0000   -63.7250     5.5910     5.8300     6.9970   -82.6800    94.1850  -999.2500  -999.2500  -999.2500  -999.2500  -999.2500
 2073.5000   -63.7250     5.6840     5.9220     7.2760   -82.6960    88.4520  -999.2500  -999.2500  -999.2500  -999.2500  -999.2500
