~VERSION INFORMATION
 VERS.                2.0:   CWLS LOG ASCII STANDARD - VERSION 2.0
 WRAP.                 NO:   ONE LINE PER DEPTH STEP
~WELL INFORMATION
#MNEM.UNIT      DATA TYPE    INFORMATION
#----------   ------------   ------------------------------
 STRT.F          205.0000:   START DEPTH
 STOP.F         3171.5000:   STOP DEPTH
 STEP.F            0.5000:   STEP LENGTH
 NULL.          -999.2500:   NO VALUE
 COMP.    FENIX & SCISSON:   COMPANY
 WELL. FENIX & SCISSON  "AX" #27-28:   WELL
 FLD .              NPR 3:   FIELD
 LOC .      S28 T39N R78W:   LOCATION
 CNTY.            NATRONA:   COUNTY
 STAT.            WYOMING:   STATE
 CTRY. UNITED STATES OF AMERICA:   COUNTRY
 SRVC.       SCHLUMBERGER:   SERVICE COMPANY
 DATE.        30-MAY-1977:   LOGDATE
 API .     49025103870000:   API NUMBER
~CURVE INFORMATION
#MNEM.UNIT       API CODE    CURVE DESCRIPTION
#----------   ------------   ------------------------------
 DEPT.F                  :   
 NPHI.DEC    42 890 03 00:   NEUTRON POROSITY SANDSTONE
 CALD.IN     45 280 60 00:   CALIPER FROM DENSITY LOG
 GRD .GAPI   45 310 01 00:   GAMMA RAY FROM DENSITY LOG
 RHOB.G/C3   45 350 01 00:   BULK DENSITY
 CORR.G/C3   45 356 01 00:   DENSITY CORRECTION
 SPR .MV     11 010 01 00:   SPONTANEOUS POTENTIAL
 MSFL.OHMM   11 270 04 00:   MICRO SPHERICALLY FOCUSED RES.
 LLD .OHMM   11 220 10 00:   LATEROLOG LOG DEEP
 LLS .OHMM   11 220 09 00:   LATEROLOG LOG SHALLOW
~PARAMETER INFORMATION
#MNEM.UNIT          VALUE    DESCRIPTION
#----------   ------------   ------------------------------
 EKB .F         5094.0000:   Kelly bushing
 EGL .F         5084.0000:   Ground level
 EDF .F            0.0000:   Drilling floor
 EPD .F            0.0000:   Permanent datum
 TD  .F         3169.0000:   Total depth
 DATE.        30-MAY-1977:   Date logged
 CLNT.            A2DTECH:   Client Code
 SL  . 1266' FSL & 871' FWL:   Surface Location
 PD  .                 GL:   Permanent Datum
 DD  .F              3163:   Depth driller
 DL  .F              3169:   Depth logger
 BLI .F              3168:   Bottom log interval
 CS1 .IN            8.625:   Casing size
 CBD1.      8.625" @ 210':   Casing driller 1
 CBL1.F               219:   Casing logger 1
 BS1 .IN            7.875:   Bit size
 DFT .           SALT/MUD:   Type fluid in hole
 DFD .                8.9:   Density
 DFV .                 32:   Viscosity
 DFPH.                8.5:   pH
 DFL .                5.8:   Fluid loss
 MSS .                PIT:   Source of sample
 RMS .OHMM           .194:   Rm
 MST .F                65:   Rm Meas. temp.
 RMF .OHMM           .165:   Rmf
 MFST.F                65:   Rmf Meas. temp.
 MFSS.               MEAS:   Source Rmf.
 RMB .OHMM           .107:   Rm. at BHT
 BHT .F               118:   BHT.
 MRT .F               118:   Maximum recorded temp.
 LUN .               5642:   Logging unit number
 LUL .               CSPR:   Logging unit location
 ENGI.             MARTIN:   Recorded By
 WITN.         PETTINGILL:   Witnessed by
 ORIG.           5" PRINT:   Origin of data
 UWI .     49025103870000:   Unique Well ID
 DICO. A2D TECHNOLOGIES, INC.:   Digitizing Company
 DAPD.F                10:   Feet Above Permanent Datum
 BSD1.F              3163:   Depth drilled with bit1
 TLI .F               219:   Top log interval
 TLAB.HRS            0930:   Time logger at bottom
~OTHER INFORMATION
~A   DEPT     NPHI         CALD      GRD         RHOB      CORR       SPR       MSFL        LLD        LLS   
# ...
 1957.0000     0.3355     8.1596   206.6602     2.4675     0.0662   -83.2496    22.9731    16.2469    18.2113
 1957.5000     0.3387     8.1599   208.2546     2.4555     0.0473   -83.0555    23.1813    16.2446    18.2088
 1958.0000     0.3451     8.1603   211.0404     2.4486     0.0354   -82.8615    23.1780    16.2422    18.3740
 1958.5000     0.3591     8.1606   214.2224     2.4586     0.0623   -82.4697    22.3418    16.2398    18.2035
 1959.0000     0.3631     8.1609   217.0084     2.4616     0.0434   -82.2757    20.3843    16.2375    17.8699
 1959.5000     0.3683     8.1612   218.6030     2.4586     0.0584   -81.8839    19.6476    16.2351    17.3822
 1960.0000     0.3659     8.1615   217.0202     2.4935     0.0405   -81.8898    19.6460    15.3598    16.9077
 1960.5000     0.3651     8.1619   208.6864     2.4776     0.0664   -81.6957    20.3759    14.9402    15.7909
 1961.0000     0.3627     8.1622   204.7204     2.4687     0.0375   -81.5015    21.7220    14.9380    15.7887
 1961.5000     0.3563     8.1625   195.3702     2.4657     0.0525   -80.9120    23.7993    16.5273    17.4485
 1962.0000     0.3507     8.1628   189.0278     2.4518     0.0396   -80.3224    22.9423    17.3688    18.6934
 1962.5000     0.3468     8.1632   180.2964     2.4319     0.0506   -79.5352    22.1144    17.5275    18.8637
 1963.0000     0.3284     8.1635   183.4835     2.4528     0.0267   -79.3387    21.1219    17.6866    18.8615
 1963.5000     0.3260     8.1638   187.0667     2.4598     0.0317   -79.1445    19.2702    16.8907    17.9212
 1964.0000     0.3308     8.1641   188.6645     2.4479     0.0636   -78.9503    16.9499    14.8513    16.8126
 1964.5000     0.3448     8.1645   187.4728     2.4738     0.0547   -78.9511    15.1831    13.4227    15.4050
 1965.0000     0.3496     8.1648   180.7347     2.4519     0.0407   -79.4772    18.2319    12.7014    15.2616
 1965.5000     0.3408     8.1651   180.7430     2.4480     0.0288   -79.7518    19.0855    12.5834    15.4001
 1966.0000     0.3264     8.1654   183.9275     2.4460     0.0498   -80.3523    19.7943    14.1770    16.1213
 1966.5000     0.3237     8.1657   187.1138     2.4231     0.0478   -80.3544    19.0797    15.4734    16.1189
 1967.0000     0.3265     8.1661   189.5057     2.4660     0.0378   -80.3565    19.7888    12.2896    15.6787
 1967.5000     0.3372     8.1664   192.6922     2.4849     0.0777   -80.5571    21.0960    14.1694    15.8210
 1968.0000     0.3448     8.1667   195.0842     2.4899     0.0778   -80.7180    22.0814    14.4312    16.4105
 1968.5000     0.3460     8.1670   195.0927     2.4651     0.0678   -80.8790    25.5628    15.1074    17.1791
 1969.0000     0.3468     8.1675   192.3201     2.4571     0.0529   -81.0399    24.1928    16.9535    18.1502
 1969.5000     0.3496     8.1677   189.5475     2.4571     0.0489   -81.2008    22.0725    17.6530    20.2620
 1970.0000     0.3548     8.1878   187.9667     2.4412     0.0380   -81.3688    20.1379    17.6525    20.2592
 1970.5000     0.3604     8.1880   186.7831     2.4582     0.0271   -81.3717    18.2052    15.9540    18.6504
 1971.0000     0.3588     8.1883   189.1779     2.4771     0.0670   -81.3753    17.3878    12.3333    15.5172
 1971.5000     0.3460     8.1874   192.3648     2.4871     0.0600   -81.3788    18.0341    10.9882    12.1074
 1972.0000     0.3468     8.1864   196.3463     2.4622     0.0401   -81.3825    18.8767    10.5471    11.9952
 1972.5000     0.3476     8.1855   193.9708     2.4593     0.0272   -81.3862    22.0546    11.7167    13.0266
 1973.0000     0.3508     8.1846   188.8140     2.4762     0.0382   -81.3898    20.1211    13.0246    14.0177
 1973.5000     0.3516     8.1837   182.4666     2.4902     0.0741   -81.3935    19.3945    13.7601    16.5352
 1974.0000     0.3429     8.1828   177.7068     2.4753     0.0472   -81.3972    19.0397    13.7584    15.7911
 1974.5000     0.3405     8.1818   173.7415     2.4723     0.0383   -81.4008    19.0370    13.7564    15.5014
 1975.0000     0.3393     8.1809   171.3613     2.4694     0.0373   -81.4060    19.0344    13.6286    15.3574
 1975.5000     0.3297     8.1800   168.5895     2.4873     0.0523   -81.4081    18.8582    13.5019    15.3552
 1976.0000     0.3312     8.1791   167.0081     2.4953     0.0682   -81.8073    18.0112    13.2541    15.3529
 1976.5000     0.3357     8.1782   165.4267     2.5063     0.0643   -82.0087    18.1744    13.0108    15.2103
 1977.0000     0.3357     8.1772   164.6399     2.4844     0.0354   -82.0123    18.8503    12.8899    14.7946
 1977.5000     0.3313     8.1727   165.4427     2.4954     0.0504   -82.0159    20.0962    12.6533    14.9290
 1978.0000     0.3349     8.1730   168.6298     2.4914     0.0544   -81.8217    20.6534    13.4312    15.0649
 1978.5000     0.3369     8.1932   172.6117     2.4785     0.0434   -81.8245    21.8179    14.1231    15.4837
 1979.0000     0.3425     8.1934   176.5938     2.4775     0.0505   -81.2346    22.1533    14.2522    15.9142
 1979.5000     0.3429     8.1930   180.9760     2.4586     0.0296   -81.4367    21.7475    14.3817    16.3566
 1980.0000     0.3393     8.1927   182.9713     2.4407     0.0266   -81.4403    20.5781    14.3800    16.5053
 1980.5000     0.3409     8.1923   186.9537     2.4726     0.0495   -81.2460    20.2006    14.2463    16.5029
 1981.0000     0.3473     8.1920   188.1542     2.4776     0.0615   -81.0517    20.2616    14.2455    15.7595
 1981.5000     0.3545     8.1916   188.9574     2.4597     0.0556   -81.1232    20.4454    13.5942    15.1884
 1982.0000     0.3613     8.1913   190.5529     2.4478     0.0436   -81.1937    20.4426    13.1095    14.7732
 1982.5000     0.3589     8.1909   189.7631     2.4667     0.0317   -81.2603    20.6280    13.1072    14.9075
 1983.0000     0.3545     8.1906   183.3527     2.4468     0.0527   -80.8660    20.6250    13.4715    15.1817
 1983.5000     0.3501     8.1902   176.2716     2.4429     0.0208   -80.6753    20.6222    13.7198    15.6039
 1984.0000     0.3453     8.1899   176.6755     2.4658     0.0089   -80.6774    20.6194    13.9723    15.8911
 1984.5000     0.3429     8.1895   178.2736     2.4928     0.0577   -80.6810    18.9839    13.9702    15.5993
 1985.0000     0.3569     8.1892   177.4868     2.4868     0.0528   -80.6824    17.1604    13.9685    15.3130
 1985.5000     0.3641     8.1888   174.7153     2.4699     0.0458   -80.7167    15.6549    12.8567    14.8943
 1986.0000     0.3645     8.1885   171.5436     2.4559     0.0319   -80.7511    15.0890    11.5121    13.2138
 1986.5000     0.3629     8.1881   168.7693     2.4490     0.0259   -80.7855    16.9975    10.9375    12.6187
 1987.0000     0.3565     8.1878   165.2000     2.4819     0.0389   -80.8198    17.1497    11.1396    12.3869
 1987.5000     0.3486     8.1874   160.8372     2.4979     0.0579   -80.8542    19.1432    12.0347    12.7511
 1988.0000     0.3442     8.1871   151.3052     2.4889     0.0739   -80.8885    19.3162    13.0252    14.3446
 1988.5000     0.3374     8.1867   149.3230     2.5079     0.0839   -80.9060    19.6710    13.8258    14.7449
 1989.0000     0.3167     8.1864   153.7034     2.5119     0.0699   -80.9109    20.0329    13.9514    15.0163
 1989.5000     0.3151     8.1860   159.2764     2.5000     0.0600   -80.9145    19.8473    14.0782    14.8256
 1990.0000     0.3135     8.1857   164.4505     2.4820     0.0341   -81.1160    19.6634    14.0761    14.9588
 1990.5000     0.3143     8.1853   173.9992     2.4930     0.0491   -81.5154    19.3033    14.0740    14.9566
 1991.0000     0.3231     8.1850   184.3456     2.4672     0.0372   -81.5190    18.4351    13.8155    14.6838
 1991.5000     0.3398     8.1846   191.1120     2.4572     0.0362   -81.5225    17.7686    13.3146    14.7323
 1992.0000     0.3366     8.1843   195.0934     2.4483     0.0312   -81.5261    17.6039    12.8318    14.3289
 1992.5000     0.3302     8.1839   195.1001     2.4383     0.0223   -81.5297    17.7636    12.7124    14.1956
 1993.0000     0.3318     8.1836   185.5714     2.4573     0.0323   -81.5333    18.2564    12.8278    14.1499
