~VERSION INFORMATION
 VERS.                2.0:   CWLS LOG ASCII STANDARD - VERSION 2.0
 WRAP.                 NO:   ONE LINE PER DEPTH STEP
~WELL INFORMATION
#MNEM.UNIT      DATA TYPE    INFORMATION
#----------   ------------   ------------------------------
 STRT.F          502.0000:   START DEPTH
 STOP.F         3068.0000:   STOP DEPTH
 STEP.F            0.5000:   STEP LENGTH
 NULL.          -999.2500:   NO VALUE
 COMP. LAWRENCE ALLISON AND ASSOCIATES:   COMPANY
 WELL. LAWRENCE NPR TX #85-33:   WELL
 FLD .              N P R:   FIELD
 LOC .      S33 T39N R78W:   LOCATION
 CNTY.            NATRONA:   COUNTY
 STAT.            WYOMING:   STATE
 CTRY. UNITED STATES OF AMERICA:   COUNTRY
 SRVC.       SCHLUMBERGER:   SERVICE COMPANY
 DATE.        20-JUN-1982:   LOGDATE
 API .     49025107990001:   API NUMBER
~CURVE INFORMATION
#MNEM.UNIT       API CODE    CURVE DESCRIPTION
#----------   ------------   ------------------------------
 DEPT.F                  :   
 RHOB.G/C3   45 350 01 00:   BULK DENSITY
 GRD .GAPI   45 310 01 00:   GAMMA RAY FROM DENSITY LOG
 CALD.IN     45 280 60 00:   CALIPER FROM DENSITY LOG
 CORR.G/C3   45 356 01 00:   DENSITY CORRECTION
 TEND.LBS    45 635 01 00:   TENSION FROM DENSITY LOG
 NPHI.DEC    42 890 03 00:   NEUTRON POROSITY SANDSTONE
 TENR.LBS    07 635 01 00:   TENSION FROM RESISTIVITY
 SPR .MV     07 010 01 00:   SPONTANEOUS POTENTIAL
 ILD .OHMM   07 120 46 00:   DEEP INDUCTION RESISTIVITY
 ILM .OHMM   07 120 44 00:   INDUCTION LOG MEDIUM RESISTIVITY
 SFL .OHMM   07 220 01 00:   SHALLOW FOCUSED LOG RESISTIVITY
~PARAMETER INFORMATION
#MNEM.UNIT          VALUE    DESCRIPTION
#----------   ------------   ------------------------------
 EKB .F         5123.0000:   Kelly bushing
 EGL .F         5113.0000:   Ground level
 EDF .F         5122.0000:   Drilling floor
 EPD .F         5113.0000:   Permanent datum
 TD  .F         3100.0000:   Total depth
 DATE.        20-JUN-1982:   Date logged
 CLNT.            A2DTECH:   Client Code
 SL  . 2263' FSL & 293' FEL:   Surface Location
 PD  .                 GL:   Permanent Datum
 DD  .F              3100:   Depth driller
 DL  .F              3056:   Depth logger
 BLI .F              3050:   Bottom log interval
 CS1 .IN            9.625:   Casing size
 CBD1.      9.625" @ 524':   Casing driller 1
 CBL1.F               520:   Casing logger 1
 BS1 .IN            7.875:   Bit size
 DFT .           POLY/KCL:   Type fluid in hole
 DFD .                8.4:   Density
 DFV .                 40:   Viscosity
 DFPH.                7.6:   pH
 DFL .                 10:   Fluid loss
 MSS .               TANK:   Source of sample
 RMS .OHMM            .92:   Rm
 MST .F                66:   Rm Meas. temp.
 RMF .OHMM           .603:   Rmf
 MFST.F                68:   Rmf Meas. temp.
 MFSS.               MEAS:   Source Rmf.
 RMB .OHMM           .515:   Rm. at BHT
 BHT .F               118:   BHT.
 TCS .HRS             815:   Time Circ. stopped
 MRT .F               118:   Maximum recorded temp.
 LUN .               8035:   Logging unit number
 LUL .               CSPR:   Logging unit location
 ENGI.              PENNY:   Recorded By
 WITN.           JENNINGS:   Witnessed by
 ORIG.           5" PRINT:   Origin of data
 UWI .     49025107990001:   Unique Well ID
 DICO. A2D TECHNOLOGIES, INC.:   Digitizing Company
 DAPD.                 10:   Feet Above Permanent Datum
 BSD1.               3100:   Depth drilled with bit1
 TLI .                520:   Top log interval
 TLAB.               1100:   Time logger at bottom
~OTHER INFORMATION
~A   DEPT     RHOB         GRD      CALD       CORR       TEND       NPHI       TENR        SPR        ILD        ILM        SFL   
# ...
 1539.0000     2.2470   104.0420    11.5330     0.1760  1190.0790     0.3500  1425.7230   -21.3790     7.9560     7.6590     8.1090
 1539.5000     2.2640   103.2250    11.3170     0.2490  1193.4189     0.3640  1425.7230   -21.5800     7.8390     7.3760     7.9110
 1540.0000     2.2650   102.4060    11.3170     0.2450  1196.7590     0.3860  1425.7230   -21.8000     7.8390     7.0930     7.9700
 1540.5000     2.2350   101.5870    11.5110     0.2420  1200.0990     0.3930  1425.7230   -21.6220     7.9630     6.9570     8.0820
 1541.0000     2.2520   100.2500    11.9380     0.2370  1203.4390     0.3870  1425.7230   -21.6950     8.0950     7.2090     8.1930
 1541.5000     2.2790    98.8450    12.4800     0.2290  1206.7791     0.3800  1425.7230   -21.7720     8.2280     7.6550     8.3040
 1542.0000     2.3020    97.5740    12.8960     0.2230  1210.1190     0.3730  1425.7230   -21.8190     8.3600     8.1020     8.4160
 1542.5000     2.2950    96.3610    12.3630     0.1710  1213.4590     0.3520  1425.7230   -21.8200     8.4360     8.6580     9.1630
 1543.0000     2.2920    95.0030    11.6410     0.1630  1216.7990     0.3320  1425.7230   -21.8730     8.9960     8.9960     9.1400
 1543.5000     2.3030    95.9110    10.8930     0.1990  1220.2380     0.3260  1425.7230   -21.9360     8.8140     8.7450     9.0860
 1544.0000     2.2900    99.4040    10.6360     0.2310  1210.1810     0.3240  1425.7230   -22.0000     8.5340     8.1960     8.8540
 1544.5000     2.2420   102.3010    10.6310     0.2460  1199.8149     0.3520  1425.7230   -22.0150     8.2070     7.6480     8.5930
 1545.0000     2.2270   101.1920    11.0620     0.1820  1189.4500     0.3520  1425.7230   -22.0160     8.2070     7.4870     8.5760
 1545.5000     2.2520    99.1930    11.4470     0.1890  1179.0850     0.3420  1425.7230   -22.0160     8.2400     7.8220     8.5530
 1546.0000     2.3160    98.4540    11.5770     0.2030  1168.7190     0.3400  1425.7230   -22.0150     8.2700     8.0580     8.5290
 1546.5000     2.3360    98.0250    11.4070     0.2260  1160.7140     0.3500  1425.7230   -22.0500     8.3370     8.0580     8.5140
 1547.0000     2.3290    97.5730    11.1820     0.2030  1160.7140     0.3490  1425.7230   -22.0940     8.4340     8.0820     8.6110
 1547.5000     2.3370    96.2750    11.0750     0.1680  1160.7140     0.3380  1425.7230   -22.1380     8.5300     8.2110     8.7360
 1548.0000     2.3870    94.9600    11.0620     0.1540  1160.7140     0.3220  1425.7230   -22.1820     8.6270     8.3400     8.8920
 1548.5000     2.4670    93.6100    10.9510     0.1990  1160.7140     0.3050  1425.7230   -22.2270     8.7230     8.4690     9.1550
 1549.0000     2.5570    92.9250    10.6510     0.2410  1160.7140     0.3030  1425.7230   -22.2710     8.8240     8.5930     9.4190
 1549.5000     2.5450    96.1500    10.5830     0.2500  1161.8361     0.3130  1425.7230   -22.3150     8.7710     8.7520     9.5060
 1550.0000     2.4850    99.8690    11.1170     0.2490  1163.4771     0.3230  1425.7230   -22.3600     8.6990     7.9840     9.2320
 1550.5000     2.4020   101.7230    11.3150     0.2480  1165.1180     0.3300  1425.7230   -22.4050     8.5930     7.9840     9.0790
 1551.0000     2.3650   101.0420    11.1270     0.2480  1166.7590     0.3280  1425.7230   -22.4070     8.8080     8.3180     9.0790
 1551.5000     2.3470   100.3710    11.5390     0.2470  1168.4010     0.3230  1425.7230   -22.4070     9.0790     8.6180     8.9140
 1552.0000     2.3420    99.6450    12.2140     0.2470  1170.0420     0.3170  1425.7230   -22.4070     9.0290     8.7520     9.0330
 1552.5000     2.3680    98.0290    12.1030     0.2350  1171.6830     0.3160  1425.7230   -22.4160     9.1500     8.6330     9.2470
 1553.0000     2.4090    95.8640    11.6760     0.2450  1173.3240     0.3160  1425.7230   -22.4400     9.2480     8.5930     9.4190
 1553.5000     2.4230    93.7290    11.2360     0.2370  1174.9659     0.3160  1425.7230   -22.4630     8.9960     8.5140     9.0790
 1554.0000     2.4030    91.0440    10.7920     0.2100  1176.6071     0.3150  1425.7230   -22.4870     9.1840     8.7620     9.5020
 1554.5000     2.3820    89.7200    10.3340     0.1220  1178.2480     0.3110  1425.7230   -22.5110     9.6300     8.9670     9.9200
 1555.0000     2.4350    92.8650    10.3320     0.1390  1179.8890     0.3020  1425.7230   -22.5340    10.1370     9.1630    10.2310
 1555.5000     2.5070    97.3230    10.6700     0.2060  1181.5310     0.3020  1425.7230   -22.5590     9.7870     9.0740    10.1370
 1556.0000     2.5390   100.2840    10.9320     0.2310  1183.1720     0.3050  1425.7230   -22.5820     9.2600     8.8840     9.4150
 1556.5000     2.4980    99.1410    10.8320     0.2470  1184.8130     0.3010  1426.6560   -22.5700     8.9960     8.7150     9.0790
 1557.0000     2.4630    96.5370    10.6420     0.2450  1186.4540     0.3010  1427.7000   -22.2810     8.9960     8.5950     9.0790
 1557.5000     2.4060    95.5440    10.6090     0.2480  1188.0959     0.3170  1428.7450   -21.9870     8.9960     8.3750     9.0790
 1558.0000     2.3320    96.8690    10.6250     0.2480  1189.7371     0.3340  1429.7889   -21.6890     8.9550     7.9600     9.0790
 1558.5000     2.2580    98.8040    10.6510     0.2370  1191.3781     0.3470  1430.8330   -21.6240     8.6880     7.6960     8.9060
 1559.0000     2.2320   100.1100    10.6770     0.2290  1193.0190     0.3460  1431.8781   -21.6670     8.4210     7.7670     8.7240
 1559.5000     2.3070   100.2290    10.7050     0.2400  1194.6610     0.3400  1432.9220   -21.7220     8.2070     7.9440     8.5430
 1560.0000     2.3840    99.5940    10.8200     0.2490  1196.3020     0.3270  1433.9659   -21.7780     8.3050     8.1680     8.4360
 1560.5000     2.4070    98.4400    11.3820     0.2480  1197.9430     0.3150  1435.0100   -21.8330     8.4020     8.2070     8.5330
 1561.0000     2.3970    98.8200    11.9490     0.2210  1199.5840     0.3090  1436.0551   -21.8880     8.5000     8.0300     8.6130
 1561.5000     2.4020   100.8540    12.1670     0.2300  1200.3970     0.3090  1437.0990   -21.9430     8.5140     7.7550     8.6720
 1562.0000     2.4150   103.4480    11.8260     0.2500  1200.3970     0.3300  1438.1429   -22.0000     8.1920     7.5560     8.3040
 1562.5000     2.3960   103.9940    11.6460     0.2480  1200.3970     0.3460  1439.1880   -22.0150     7.9110     7.6730     7.9840
 1563.0000     2.3480   100.9380    11.8090     0.2290  1200.3970     0.3610  1440.2321   -22.0160     8.0000     7.8430     8.0390
 1563.5000     2.2880    98.5020    12.0510     0.1790  1200.3970     0.3460  1441.2760   -22.0150     8.1390     8.0130     8.1470
 1564.0000     2.2650    99.8390    12.1570     0.1160  1200.3970     0.3300  1442.3199   -22.0160     8.2790     8.1830     8.2540
 1564.5000     2.3710   102.5050    11.6520     0.1650  1200.3970     0.3240  1443.3650   -22.0600     8.4180     8.3590     8.3620
 1565.0000     2.4570   102.5940    10.9480     0.2500  1200.3970     0.3300  1444.4091   -22.1080     8.5570     8.4360     8.4700
 1565.5000     2.4170   101.5820    10.9460     0.2490  1200.3970     0.3360  1445.4530   -22.1550     8.7520     8.1090     8.5930
 1566.0000     2.3130   101.1750    11.2260     0.2480  1200.3970     0.3420  1431.9709   -22.1930     8.7350     7.8390     9.0550
 1566.5000     2.2140   102.6520    11.5610     0.2130  1200.3970     0.3450  1426.2920   -22.5070     8.6920     7.8960     9.5060
 1567.0000     2.2140   101.8780    11.7360     0.1660  1200.3970     0.3450  1427.2130   -22.8670     8.6500     8.1490     9.2310
 1567.5000     2.3450   101.0410    11.9810     0.1820  1200.3970     0.3430  1428.1340   -23.2320     8.6070     8.4010     8.8990
 1568.0000     2.4450   100.1570    12.7570     0.2030  1200.3970     0.3370  1429.0551   -23.5850     8.5930     8.4360     8.5930
 1568.5000     2.4870    98.4360    12.6600     0.2130  1200.3970     0.3270  1429.9760   -23.9920     8.5930     8.3640     8.5930
 1569.0000     2.4840   101.2090    12.5240     0.2080  1200.3970     0.3130  1430.8960   -23.7550     8.5930     8.2970     8.7620
