~VERSION INFORMATION
 VERS.                2.0:   CWLS LOG ASCII STANDARD - VERSION 2.0
 WRAP.                 NO:   ONE LINE PER DEPTH STEP
~WELL INFORMATION
#MNEM.UNIT      DATA TYPE    INFORMATION
#----------   ------------   ------------------------------
 STRT.F          700.5000:   START DEPTH
 STOP.F         3060.0000:   STOP DEPTH
 STEP.F            0.5000:   STEP LENGTH
 NULL.          -999.2500:   NO VALUE
 COMP.    FENIX & SCISSON:   COMPANY
 WELL.   FENIX "A" #23-34:   WELL
 FLD .           N P R #3:   FIELD
 LOC .      S34 T39N R78W:   LOCATION
 CNTY.            NATRONA:   COUNTY
 STAT.            WYOMING:   STATE
 CTRY. UNITED STATES OF AMERICA:   COUNTRY
 SRVC.       SCHLUMBERGER:   SERVICE COMPANY
 DATE.        23-APR-1977:   LOGDATE
 API .     49025103590000:   API NUMBER
~CURVE INFORMATION
#MNEM.UNIT       API CODE    CURVE DESCRIPTION
#----------   ------------   ------------------------------
 DEPT.F                  :   
 ILD .OHMM   07 120 46 00:   DEEP INDUCTION RESISTIVITY
 ILM .OHMM   07 120 44 00:   INDUCTION LOG MEDIUM RESISTIVITY
 LL8 .OHMM   07 220 08 00:   LATEROLOG-8 RES.
 SPR .MV     07 010 01 00:   SPONTANEOUS POTENTIAL
 GRD .GAPI   45 310 01 00:   GAMMA RAY FROM DENSITY LOG
 CALD.IN     45 280 60 00:   CALIPER FROM DENSITY LOG
 RHOB.G/C3   45 350 01 00:   BULK DENSITY
 CORR.G/C3   45 356 01 00:   DENSITY CORRECTION
~PARAMETER INFORMATION
#MNEM.UNIT          VALUE    DESCRIPTION
#----------   ------------   ------------------------------
 EKB .F         5094.0000:   Kelly bushing
 EGL .F         5082.0000:   Ground level
 EDF .F            0.0000:   Drilling floor
 EPD .F            0.0000:   Permanent datum
 TD  .F         3051.0000:   Total depth
 DATE.        23-APR-1977:   Date logged
 CLNT.            A2DTECH:   Client Code
 SL  . 990' FWL & 1650' FNL:   Surface Location
 PD  .                 GL:   Permanent Datum
 DD  .F              3050:   Depth driller
 DL  .F              3051:   Depth logger
 BLI .F              3045:   Bottom log interval
 CS1 .IN            8.625:   Casing size
 CBD1.      8.625" @ 718':   Casing driller 1
 CBL1.F               717:   Casing logger 1
 BS1 .IN            7.875:   Bit size
 DFT .                FGM:   Type fluid in hole
 DFD .                8.8:   Density
 DFV .                 34:   Viscosity
 DFPH.                8.5:   pH
 DFL .                8.2:   Fluid loss
 MSS .           FLOWLINE:   Source of sample
 RMS .OHMM           .155:   Rm
 MST .F                66:   Rm Meas. temp.
 RMF .OHMM           .152:   Rmf
 MFST.F                66:   Rmf Meas. temp.
 MFSS.               MEAS:   Source Rmf.
 RMB .OHMM           .085:   Rm. at BHT
 BHT .F               120:   BHT.
 TCS .HRS            0230:   Time Circ. stopped
 MRT .F               120:   Maximum recorded temp.
 LUN .               5642:   Logging unit number
 LUL .               CSPR:   Logging unit location
 ENGI.             TAYLOR:   Recorded By
 WITN.         HARRINGTON:   Witnessed by
 ORIG.           5" PRINT:   Origin of data
 UWI .     49025103590000:   Unique Well ID
 DICO. A2D TECHNOLOGIES, INC.:   Digitizing Company
 DAPD.                 12:   Feet Above Permanent Datum
 BSD1.               3050:   Depth drilled with bit1
 TLI .                717:   Top log interval
 TLAB.               0530:   Time logger at bottom
~OTHER INFORMATION
~A   DEPT      ILD        ILM        LL8        SPR         GRD      CALD       RHOB       CORR   
# ...
 1915.5000     8.3420     7.9750    10.1290   -77.1530   170.8390     8.4240     2.4380     0.0220
 1916.0000     8.3010     7.9220    10.0520   -77.3260   174.9650     8.4220     2.4330     0.0230
 1916.5000     8.2600     7.8680    10.0520   -77.4390   179.1420     8.4210     2.4280     0.0160
 1917.0000     8.2190     7.8140    10.2490   -77.0860   180.7480     8.4190     2.4240     0.0220
 1917.5000     8.1780     7.7610    10.4300   -76.7270   175.8010     8.4180     2.4450     0.0350
 1918.0000     8.1370     7.7070    10.3580   -76.3680   170.2090     8.4170     2.4550     0.0400
 1918.5000     8.1290     7.6530    10.2710   -75.9990   165.6730     8.4150     2.4520     0.0410
 1919.0000     8.1560     7.6210    10.1840   -75.7520   165.3640     8.4140     2.4490     0.0410
 1919.5000     8.2000     7.6920    10.0970   -75.5380   164.5930     8.4120     2.4570     0.0360
 1920.0000     8.2440     7.6920    10.0100   -75.3270   162.4850     8.4110     2.4470     0.0320
 1920.5000     8.2810     7.6920     9.8790   -75.1160   160.4300     8.4090     2.4510     0.0320
 1921.0000     8.2030     7.6920     9.9590   -74.9030   158.8470     8.4080     2.4580     0.0340
 1921.5000     8.1020     7.6920    10.2340   -74.7120   159.7890     8.4070     2.4550     0.0240
 1922.0000     8.0020     7.6920    10.5190   -74.8420   161.2070     8.4050     2.4610     0.0220
 1922.5000     7.9010     7.6340    10.8220   -74.9800   159.6030     8.4040     2.4650     0.0240
 1923.0000     7.8000     7.2250    10.6680   -75.1160   153.8960     8.4030     2.4580     0.0220
 1923.5000     7.6920     6.8160     9.6370   -75.2530   148.8140     8.4010     2.4710     0.0420
 1924.0000     7.6920     6.5090     8.2840   -75.3870   147.3130     8.4000     2.4770     0.0470
 1924.5000     7.9760     6.9800     7.2700   -75.4730   147.7590     8.3990     2.4590     0.0310
 1925.0000     8.3750     7.4500     9.0770   -75.3440   148.8030     8.3980     2.4480     0.0250
 1925.5000     8.7740     7.9200    10.8780   -74.9660   149.6430     8.3970     2.4540     0.0280
 1926.0000     9.1720     8.3910    11.6490   -74.4290   149.3760     8.3960     2.4450     0.0220
 1926.5000     9.5710     8.8610    12.0180   -73.8890   149.1580     8.3950     2.4350     0.0140
 1927.0000     9.9700     9.3310    12.3870   -73.3440   149.7560     8.3940     2.4290     0.0100
 1927.5000    10.3680     9.8010    12.7230   -72.9560   153.5730     8.3920     2.4100     0.0120
 1928.0000    10.7670    10.2260    12.9630   -72.6810   159.7720     8.3910     2.4020     0.0160
 1928.5000    11.1660    10.5260    13.2040   -72.4050   168.5620     8.3900     2.4030     0.0200
 1929.0000    11.3330    10.5260    13.4440   -72.1280   172.6480     8.3890     2.4190     0.0260
 1929.5000    11.3330    10.6240    13.6300   -71.8510   176.7120     8.3880     2.4360     0.0440
 1930.0000    11.3210    10.5780    13.7560   -71.5670   180.8000     8.3870     2.4270     0.0330
 1930.5000    11.2930    10.5410    13.7560   -71.2770   182.6990     8.3860     2.4150     0.0250
 1931.0000    11.2650    10.5040    13.7560   -70.9890   182.4880     8.3850     2.4040     0.0230
 1931.5000    11.2370    10.4670    13.7560   -70.7820   178.3630     8.3850     2.3920     0.0080
 1932.0000    11.2090    10.4300    13.3540   -71.1470   172.7400     8.3910     2.3820     0.0060
 1932.5000    11.1810    10.4460    12.8470   -71.4010   166.9230     8.3980     2.3830     0.0070
 1933.0000    11.1530    10.4870    12.4280   -71.5160   161.1490     8.4050     2.3920     0.0140
 1933.5000    11.1260    10.5290    13.2550   -71.4260   156.0310     8.4110     2.4070     0.0220
 1934.0000    11.0980    10.5710    14.8100   -71.3320   153.3700     8.4180     2.3980     0.0200
 1934.5000    11.0710    10.6130    14.6320   -71.2390   149.3400     8.4240     2.3820     0.0130
 1935.0000    11.0420    10.6240    14.3100   -71.1460   143.7640     8.4310     2.3710     0.0110
 1935.5000    10.9500    10.3590    13.9870   -71.0530   146.0740     8.4370     2.3900     0.0270
 1936.0000    10.7290    10.1610    13.6650   -70.9600   149.6730     8.4440     2.4210     0.0510
 1936.5000    10.5090     9.9640    13.2930   -70.8670   149.6680     8.4500     2.4430     0.0510
 1937.0000    10.2890     9.7410    12.5420   -70.7740   149.7090     8.4570     2.4410     0.0410
 1937.5000    10.0690     9.4940    11.8680   -70.6810   148.0390     8.4630     2.4130     0.0310
 1938.0000     9.8490     9.2470    11.9660   -70.5890   140.9070     8.4480     2.4240     0.0350
 1938.5000     9.6280     9.0000    11.9780   -70.5590   142.1460     8.4320     2.4340     0.0370
 1939.0000     9.4080     8.6720     9.8560   -70.6110   144.7000     8.4150     2.4240     0.0190
 1939.5000     9.3360     8.7520     9.1660   -70.6630   147.2560     8.3990     2.4390     0.0160
 1940.0000     9.5070     8.9980    11.2290   -70.7120   149.7240     8.3840     2.4320     0.0280
 1940.5000     9.8300     9.2690    11.3990   -70.9800   153.6000     8.3850     2.4150     0.0220
 1941.0000    10.1520     9.5850    11.7590   -71.3730   157.0170     8.3870     2.3990     0.0180
 1941.5000    10.4740     9.9010    12.7700   -71.7670   160.9040     8.3890     2.3950     0.0250
 1942.0000    10.7220    10.1450    14.0640   -72.1610   161.2570     8.3910     2.4110     0.0330
 1942.5000    10.7220    10.2390    14.8100   -72.5560   157.5980     8.3930     2.4070     0.0300
 1943.0000    10.5490    10.0870    14.2490   -72.9530   156.9680     8.3950     2.4050     0.0270
 1943.5000    10.2680     9.7050    13.6990   -73.2600   155.8990     8.3970     2.4160     0.0250
 1944.0000     9.9880     9.2770    13.1360   -73.5040   152.1020     8.3990     2.4280     0.0240
 1944.5000     9.7070     8.8500    11.9560   -73.7170   152.2090     8.4010     2.4380     0.0200
 1945.0000     9.4260     8.5920    10.6220   -73.7110   152.5180     8.4030     2.4320     0.0140
 1945.5000     9.2510     8.5920     9.1660   -73.7100   156.0070     8.4040     2.4240     0.0130
 1946.0000     9.1660     8.6590     9.5590   -73.7100   159.9930     8.4050     2.4200     0.0230
 1946.5000     9.1660     8.7450    11.4260   -73.7100   160.8460     8.4050     2.4270     0.0360
 1947.0000     9.1930     8.8320    13.0150   -73.7100   155.5320     8.4060     2.4310     0.0300
 1947.5000     9.2720     8.9190    12.6210   -73.7100   151.7620     8.4060     2.4080     0.0180
 1948.0000     9.3510     9.0050    12.2060   -73.7100   147.8900     8.4070     2.4210     0.0180
 1948.5000     9.4300     9.0920    11.7590   -73.7100   141.9160     8.4070     2.4280     0.0250
 1949.0000     9.5090     9.1780    11.8590   -73.7090   136.1020     8.4080     2.4110     0.0220
 1949.5000     9.5870     9.2650    11.9780   -73.7140   134.5670     8.4080     2.4210     0.0200
 1950.0000     9.6660     9.3510    11.9780   -74.0100   137.0160     8.4090     2.4360     0.0220
 1950.5000     9.7450     9.4380    11.5570   -74.3410   138.0930     8.4090     2.4290     0.0250
 1951.0000     9.8240     9.5240    11.3330   -74.6730   136.9340     8.4100     2.4190     0.0200
 1951.5000     9.9030     9.6110    11.4380   -75.0150   135.8430     8.4100     2.4250     0.0140
 1952.0000     9.9820     9.6870    11.6780   -75.0120   134.7630     8.4110     2.4100     0.0130
 1952.5000    10.0600     9.7030    12.0140   -74.8970   133.9370     8.4120     2.4140     0.0160
 1953.0000    10.1390     9.7210    12.3500   -74.7790   135.1140     8.4120     2.4240     0.0280
 1953.5000    10.2180     9.7380    12.7770   -74.6600   137.9770     8.4130     2.4300     0.0390
 1954.0000    10.3340     9.7550    12.6470   -74.5420   142.1890     8.4130     2.4200     0.0290
 1954.5000    10.2750     9.7770    12.4680   -74.4240   145.5030     8.4140     2.4100     0.0190
 1955.0000    10.1660     9.7240    12.2670   -74.3060   145.9740     8.4140     2.4010     0.0120
 1955.5000    10.0570     9.6260    11.9280   -74.1880   148.0700     8.4150     2.4010     0.0100
