~VERSION INFORMATION
 VERS.                2.0:   CWLS LOG ASCII STANDARD - VERSION 2.0
 WRAP.                 NO:   ONE LINE PER DEPTH STEP
~WELL INFORMATION
#MNEM.UNIT      DATA TYPE    INFORMATION
#----------   ------------   ------------------------------
 STRT.F          500.0000:   START DEPTH
 STOP.F         4646.0000:   STOP DEPTH
 STEP.F            0.5000:   STEP LENGTH
 NULL.          -999.2500:   NO VALUE
 COMP.    FENIX & SCISSON:   COMPANY
 WELL. LAWRENCE NPR 3 "X" #34-10:   WELL
 FLD .                NPR:   FIELD
 LOC .      S10 T38N R78W:   LOCATION
 CNTY.            NATRONA:   COUNTY
 STAT.            WYOMING:   STATE
 CTRY. UNITED STATES OF AMERICA:   COUNTRY
 SRVC.              WELEX:   SERVICE COMPANY
 DATE.        12-OCT-1979:   LOGDATE
 API .     49025109290000:   API NUMBER
~CURVE INFORMATION
#MNEM.UNIT       API CODE    CURVE DESCRIPTION
#----------   ------------   ------------------------------
 DEPT.F                  :   
 SPR .MV     07 010 01 00:   SPONTANEOUS POTENTIAL
 SGRD.OHMM   07 220 05 00:   SHALLOW GUARD LOG RESISTIVITY
 ILD .OHMM   07 120 46 00:   DEEP INDUCTION RESISTIVITY
 ILM .OHMM   07 120 44 00:   INDUCTION LOG MEDIUM RESISTIVITY
 TEND.LBS    45 635 01 00:   TENSION FROM DENSITY LOG
 CORR.G/C3   45 356 01 00:   DENSITY CORRECTION
 RHOB.G/C3   45 350 01 00:   BULK DENSITY
 NPHI.DEC    42 890 03 00:   NEUTRON POROSITY SANDSTONE
 GRD .GAPI   45 310 01 00:   GAMMA RAY FROM DENSITY LOG
 CALD.IN     45 280 60 00:   CALIPER FROM DENSITY LOG
~PARAMETER INFORMATION
#MNEM.UNIT          VALUE    DESCRIPTION
#----------   ------------   ------------------------------
 EKB .F         5234.0000:   Kelly bushing
 EGL .F         5224.0000:   Ground level
 EDF .F            0.0000:   Drilling floor
 TD  .F         4650.0000:   Total depth
 DATE.        12-OCT-1979:   Date logged
 CLNT.            A2DTECH:   Client Code
 SL  . 2055' FNL & 1509' FWL:   Surface Location
 PD  .                 GL:   Permanent Datum
 DD  .F              4650:   Depth driller
 DL  .F              4646:   Depth logger
 BLI .F              4644:   Bottom log interval
 CS1 .IN              500:   Casing size
 CBD1.      8.625" @ 500':   Casing driller 1
 CBL1.F               502:   Casing logger 1
 BS1 .IN            7.875:   Bit size
 DFT .           CHEM/GEL:   Type fluid in hole
 DFD .                8.8:   Density
 DFV .                 62:   Viscosity
 DFPH.               11.2:   pH
 DFL .                4.5:   Fluid loss
 MSS .            MUD/PIT:   Source of sample
 RMS .OHMM           1.18:   Rm
 MST .F                60:   Rm Meas. temp.
 RMF .OHMM            .94:   Rmf
 MFST.F                60:   Rmf Meas. temp.
 RMC .OHMM           1.41:   Rmc
 MCST.F                60:   Rmc Meas. temp.
 MFSS.               MEAS:   Source Rmf.
 RMB .OHMM            .81:   Rm. at BHT
 BHT .F                87:   BHT.
 TCS .HRS               2:   Time Circ. stopped
 MRT .F                87:   Maximum recorded temp.
 LUN .               1892:   Logging unit number
 LUL .             CASPER:   Logging unit location
 ENGI.               REIN:   Recorded By
 WITN.           DINSMORE:   Witnessed by
 ORIG.           5" PRINT:   Origin of data
 UWI .     49025109290000:   Unique Well ID
 DICO. A2D TECHNOLOGIES, INC.:   Digitizing Company
 DAPD.                 10:   Feet Above Permanent Datum
 BSD1.F              4650:   Depth drilled with bit1
 MCSS.               MEAS:   Source Rmc.
 EPD .F              5224:   Elevation Permanent Datum
 LMF .                 KB:   Log Measured From
 DMF .                 KB:   Drilling Measured From
 TLI .F               500:   Top log interval
~OTHER INFORMATION
~A   DEPT      SPR         SGRD      ILD         ILM      TEND         CORR       RHOB       NPHI       GRD        CALD 
# ...
 4084.5000   -19.5360     3.8220     3.0800     4.1970  2432.4319     0.1930     2.2640     0.2020   101.1510     9.9990
 4085.0000   -19.4880     4.0730     3.2140     4.3290  2460.4600     0.1960     2.3140     0.1700    98.7420    10.2070
 4085.5000   -19.4400     4.3240     3.3470     4.6140  2490.3191     0.2020     2.3630     0.1390    98.7870    10.2090
 4086.0000   -19.3930     4.5750     3.4810     5.0170  2512.5129     0.2050     2.4130     0.1180    98.8570    10.1240
 4086.5000   -19.3450     4.5750     3.6140     4.8970  2450.6731     0.1920     2.4430     0.1070    95.5140     9.7000
 4087.0000   -19.2970     4.5610     3.7070     4.7470  2392.3921     0.1780     2.4650     0.0940    90.8290     9.2800
 4087.5000   -19.2770     4.5280     3.8040     4.8310  2435.1021     0.1670     2.4870     0.0690    86.0790     8.9300
 4088.0000   -19.3590     4.4910     3.9010     4.9130  2490.8379     0.1710     2.5270     0.0490    81.4380     8.8980
 4088.5000   -19.4380     4.5760     3.9980     4.9710  2546.5730     0.1730     2.5670     0.0340    80.2970     9.4370
 4089.0000   -19.5170     4.6700     4.0950     5.1100  2509.3940     0.1750     2.5900     0.0330    85.2740    10.1610
 4089.5000   -19.5960     4.7450     4.1920     5.0630  2476.3921     0.1800     2.5940     0.0320    90.1810    10.3080
 4090.0000   -19.6740     4.8200     4.2890     5.1960  2443.3911     0.1760     2.5880     0.0310    93.3860    10.4470
 4090.5000   -19.7530     5.0100     4.4240     5.3020  2412.4121     0.1860     2.5920     0.0320    88.2850    10.1300
 4091.0000   -19.8320     5.6590     4.5860     5.4510  2440.1399     0.1910     2.5960     0.0340    81.5990     9.8030
 4091.5000   -19.9110     6.8580     4.7480     6.0260  2466.2661     0.1850     2.5910     0.0370    79.2330     9.5170
 4092.0000   -19.9900    10.0170     4.9100     6.5830  2492.4919     0.1880     2.5870     0.0360    81.6810     9.3300
 4092.5000   -20.0680     9.4800     5.0710     6.8640  2478.6121     0.1910     2.5840     0.0350    88.0070     9.1340
 4093.0000   -20.1470     8.0090     5.2330     6.7170  2464.6780     0.1940     2.5880     0.0340    88.4580     8.7750
 4093.5000   -20.2270     6.6070     5.4010     6.5130  2455.9470     0.1970     2.5920     0.0330    86.4390     8.4050
 4094.0000   -20.2260     5.3340     5.3240     6.3080  2484.4480     0.2020     2.5960     0.0290    81.1820     8.3290
 4094.5000   -20.1700     4.4910     5.2240     6.1040  2512.5129     0.2090     2.5970     0.0350    75.9620     8.3340
 4095.0000   -20.1130     4.4910     5.1240     5.8990  2445.5359     0.2150     2.5860     0.0460    70.7600     8.3400
 4095.5000   -20.0560     4.4910     5.0240     5.7080  2388.5339     0.2160     2.5630     0.0590    67.7760     8.3410
 4096.0000   -19.9990     4.5250     4.9240     5.6560  2413.2129     0.2110     2.5400     0.0730    72.1840     8.2980
 4096.5000   -19.9430     4.6430     4.8350     5.9340  2470.2161     0.2070     2.5160     0.0850    78.8570     8.2530
 4097.0000   -19.8850     4.7610     4.7910     6.1860  2450.6509     0.2070     2.5030     0.0970    81.9510     8.2690
 4097.5000   -19.8930     5.7280     4.9860     6.4380  2398.3979     0.2030     2.4850     0.1080    84.1930     8.3060
 4098.0000   -19.9490     6.4940     5.1570     6.5550  2474.6079     0.1980     2.4680     0.1140    79.9530     8.3910
 4098.5000   -20.0060     5.9120     5.3270     6.3020  2542.4619     0.1940     2.4510     0.1230    76.5840     8.5210
 4099.0000   -20.0640     5.3510     5.4980     5.9850  2479.7600     0.1900     2.4340     0.1380    75.4340     8.6510
 4099.5000   -20.1210     7.9860     5.6690     5.7610  2442.0181     0.1860     2.4110     0.1520    72.0430     8.7840
 4100.0000   -20.1780    12.3830     5.8400     5.8290  2481.1069     0.1640     2.3870     0.1660    68.7640     8.7840
 4100.5000   -20.2350     9.6280     5.9220     5.9080  2475.6289     0.1510     2.3590     0.1840    66.5940     8.7280
 4101.0000   -20.2920     6.5800     5.6140     5.9860  2451.8359     0.1470     2.3320     0.2000    67.2180     8.7450
 4101.5000   -20.3500     4.7030     5.3810     6.0330  2437.1870     0.1440     2.2950     0.2240    64.7780     8.7540
 4102.0000   -20.4080     5.4770     5.2050     5.0310  2457.3989     0.1220     2.2510     0.2530    61.8170     8.4390
 4102.5000   -20.4560     6.2400     5.2050     4.6170  2469.5281     0.1020     2.2090     0.2870    63.5790     8.4200
 4103.0000   -20.4060     7.0560     5.1670     5.2210  2481.6580     0.0870     2.1700     0.3000    65.4210     8.4620
 4103.5000   -20.3560     7.0560     5.1320     5.6920  2485.8860     0.0910     2.1300     0.2990    71.1200     8.4710
 4104.0000   -20.3050     6.8330     5.0970     6.1640  2424.0239     0.1010     2.0780     0.2990    78.1450     8.4430
 4104.5000   -20.2690     6.6670     5.0630     6.4350  2384.1531     0.0990     2.0270     0.2990    82.3920     8.4150
 4105.0000   -20.4740     6.5020     5.0170     6.4220  2455.5320     0.0890     2.0190     0.2980    80.8670     8.3870
 4105.5000   -20.6600     6.3360     5.0780     6.3940  2526.9121     0.0760     2.1030     0.2180    79.4420     8.3730
 4106.0000   -20.6170     6.1530     5.1260     6.3760  2495.9241     0.1200     2.4560     0.0770    78.0180     8.4160
 4106.5000   -20.5780     5.9540     5.1730     6.8640  2432.4319     0.1630     2.6250     0.0050    78.2200     8.4440
 4107.0000   -20.5390     5.7610     5.2190     6.7380  2552.5530     0.1710     2.6400     0.0040    80.2900     8.4140
 4107.5000   -20.5010     5.9390     5.2540     6.9250  2504.7781     0.1780     2.6440     0.0040    82.3200     8.3850
 4108.0000   -20.4610     6.1110     5.2540     7.1220  2439.1660     0.1840     2.6440     0.0040    83.4380     8.3560
 4108.5000   -20.3300     6.2590     5.2520     7.1220  2432.7661     0.1860     2.6420     0.0070    82.0800     8.3270
 4109.0000   -20.0860     6.0670     5.2430     6.6840  2467.1340     0.1800     2.6330     0.0110    80.7700     8.3050
 4109.5000   -19.8440     5.8990     5.2340     6.6150  2472.2219     0.1660     2.6240     0.0150    80.0230     8.3070
 4110.0000   -19.6750     5.7080     5.2250     6.6150  2394.8950     0.1410     2.6170     0.0160    80.8700     8.3110
 4110.5000   -19.7650     5.9180     5.2160     6.6290  2446.6470     0.1350     2.6180     0.0140    81.6780     8.3160
 4111.0000   -19.8490     6.1620     5.2060     6.6490  2505.2329     0.1340     2.6280     0.0120    83.7320     8.3200
 4111.5000   -19.9320     6.3470     5.2590     6.6680  2458.3669     0.1300     2.6350     0.0090    87.5660     8.3240
 4112.0000   -20.0160     6.4310     5.3020     6.7000  2412.4121     0.1290     2.6290     0.0100    91.4120     8.3280
 4112.5000   -20.0990     6.4940     5.4130     6.7410  2465.5911     0.1290     2.6230     0.0140    92.0130     8.3320
 4113.0000   -20.1830     6.6150     5.5220     6.7810  2532.5330     0.1340     2.6200     0.0170    92.1040     8.3370
 4113.5000   -20.2660     6.6690     5.6310     6.8220  2500.6260     0.1420     2.6210     0.0180    86.9970     8.3410
 4114.0000   -20.3500     6.7180     5.7410     6.8640  2432.4319     0.1480     2.6130     0.0200    79.9630     8.3450
 4114.5000   -20.4340     6.8310     5.8500     7.0650  2466.6890     0.1380     2.6050     0.0240    80.1000     8.3550
 4115.0000   -20.5170     6.9900     5.9600     7.3260  2512.5129     0.1290     2.5960     0.0280    82.7760     8.3640
 4115.5000   -20.5990     7.1490     6.0690     7.5860  2506.1221     0.1200     2.5890     0.0330    85.3820     8.3740
 4116.0000   -20.6270     7.3210     6.1450     7.6670  2498.1899     0.1240     2.5940     0.0340    86.8690     8.3840
 4116.5000   -20.5140     7.1640     6.0760     7.5090  2477.0100     0.1300     2.5990     0.0320    86.6320     8.3830
 4117.0000   -20.4030     6.9920     6.0330     7.2140  2422.0220     0.1370     2.5970     0.0310    82.6960     8.3800
 4117.5000   -20.2920     6.6810     5.8910     6.9270  2367.0339     0.1350     2.5880     0.0320    78.9070     8.3770
