~VERSION INFORMATION
 VERS.                2.0:   CWLS LOG ASCII STANDARD - VERSION 2.0
 WRAP.                 NO:   ONE LINE PER DEPTH STEP
~WELL INFORMATION
#MNEM.UNIT      DATA TYPE    INFORMATION
#----------   ------------   ------------------------------
 STRT.F            8.0000:   START DEPTH
 STOP.F         3021.0000:   STOP DEPTH
 STEP.F            0.5000:   STEP LENGTH
 NULL.          -999.2500:   NO VALUE
 COMP. LAWRENCE ALLISON & ASSOCIATES W:   COMPANY
 WELL. LAWRENCE ALLISON #68-28:   WELL
 FLD .              NPR 3:   FIELD
 LOC .      S28 T39N R78W:   LOCATION
 CNTY.            NATRONA:   COUNTY
 STAT.            WYOMING:   STATE
 CTRY. UNITED STATES OF AMERICA:   COUNTRY
 SRVC.      DRESSER ATLAS:   SERVICE COMPANY
 DATE.        19-DEC-1986:   LOGDATE
 API .     49025111580000:   API NUMBER
~CURVE INFORMATION
#MNEM.UNIT       API CODE    CURVE DESCRIPTION
#----------   ------------   ------------------------------
 DEPT.F                  :   
 SPR .MV     07 010 01 00:   SPONTANEOUS POTENTIAL
 TENR.LBS    07 635 01 00:   TENSION FROM RESISTIVITY
 RILD.OHMM   07 120 46 00:   DEEP INDUCTION RESISTIVITY
 RILM.OHMM   07 120 44 00:   INDUCTION LOG MEDIUM RESISTIVITY
 RFOC.OHMM   07 220 04 00:   RESISTIVITY FOCUSED LOG RES.
 CALD.IN     45 280 60 00:   CALIPER FROM DENSITY LOG
 CORR.G/C3   45 356 01 00:   DENSITY CORRECTION
 RHOB.G/C3   45 350 01 00:   BULK DENSITY
 CNC .DEC    42 890 03 00:   NEUTRON POROSITY SANDSTONE
 GRR .GAPI   07 310 01 00:   GAMMA RAY FROM RESISTIVITY
~PARAMETER INFORMATION
#MNEM.UNIT          VALUE    DESCRIPTION
#----------   ------------   ------------------------------
 EKB .F         5106.0000:   Kelly bushing
 EGL .F         5094.0000:   Ground level
 EDF .F            0.0000:   Drilling floor
 EPD .F         5094.0000:   Permanent datum
 TD  .F         3010.0000:   Total depth
 CLNT.            A2DTECH:   Client Code
 SL  . 1559'EL & 533' FSL:   Surface Location
 DATE.        19-DEC-1986:   Date Logged [DD-MMM-YYYY]
 DD  .F              3003:   Depth driller
 DL  .F              3010:   Depth logger
 BLI .F              3007:   Bottom log interval
 TLI .F                 0:   Top log interval
 CS1 .              8.625:   Casing size
 CBD1.      8.625" @ 389':   Casing driller 1
 CBL1.IN              405:   Casing logger 1
 BS1 .IN            7.875:   Bit size
 BSD1.F              3003:   Depth drilled with bit1
 DFT .        KCL POLYMER:   Type fluid in hole
 DFD .                9.0:   Density
 DFV .                 42:   Viscosity
 DFPH.                9.3:   pH
 DFL .                8.8:   Fluid loss
 MSS .           FLOWLINE:   Source of sample
 RMS .OHMM          0.484:   Rm
 MST .F                68:   Rm Meas. temp.
 RMF .OHMM          0.392:   Rmf
 MFST.F                68:   Rmf Meas. temp.
 MFSS.               MEAS:   Source Rmf.
 RMC .OHMM          0.605:   Rmc
 MCST.F                68:   Rmc Meas. temp.
 MCSS.               CALC:   Source Rmc.
 RMB .OHMM          0.269:   Rm. at BHT
 BHT .F               122:   BHT.
 TCS .HRS             3.5:   Time Circ. stopped
 MRT .F               122:   Maximum recorded temp.
 LUN .            HL-6274:   Logging unit number
 LUL .           GILLETTE:   Logging unit location
 ENGI.             RAUTIO:   Recorded By
 WITN.             STRONG:   Witnessed by
 ORIG.        2" 5" PRINT:   Origin of data
 UWI .     49025111580000:   Unique Well ID
 DICO. A2D TECHNOLOGIES, INC.:   Digitizing Company
~OTHER INFORMATION
~A    DEPT     SPR       TENR       RILD       RILM       RFOC       CALD       CORR       RHOB        CNC        GRR   
# ...
 1951.0000   -40.7208   -77.3400     8.8430     8.8256    11.1915  -999.2500  -999.2500  -999.2500  -999.2500   105.8824
 1951.5000   -41.1903   -68.9764     9.2327     8.6964    11.0269  -999.2500  -999.2500  -999.2500  -999.2500   114.6305
 1952.0000   -41.3479   -68.2896     9.1591     8.5690    10.3902  -999.2500  -999.2500  -999.2500  -999.2500   129.7134
 1952.5000   -41.3498   -67.6030     9.0223     8.5044     9.8893  -999.2500  -999.2500  -999.2500  -999.2500   138.7632
 1953.0000   -41.3513   -66.9162     8.8237     8.5008     9.9568  -999.2500  -999.2500  -999.2500  -999.2500   141.1765
 1953.5000   -41.0837   -66.2296     8.8181     8.4978    10.1688  -999.2500  -999.2500  -999.2500  -999.2500   139.3665
 1954.0000   -41.0933   -73.3281     8.7492     8.4338    10.3865  -999.2500  -999.2500  -999.2500  -999.2500   135.4449
 1954.5000   -41.1009   -64.8524     8.7435     8.3704    10.6100  -999.2500  -999.2500  -999.2500  -999.2500   128.7808
 1955.0000   -40.9506   -64.1524     8.6740     8.2478    10.8360  -999.2500  -999.2500  -999.2500  -999.2500   125.1279
 1955.5000   -40.8022   -63.4527     8.5445     8.0687    10.9109  -999.2500  -999.2500  -999.2500  -999.2500   122.3141
 1956.0000   -40.6558   -54.8485     8.3564     7.9505    10.9465  -999.2500  -999.2500  -999.2500  -999.2500   121.5686
 1956.5000   -40.5055   -62.1095     8.2316     7.8340    10.8584  -999.2500  -999.2500  -999.2500  -999.2500   125.7919
 1957.0000   -40.2030   -61.2512     8.0504     7.7751    10.6956  -999.2500  -999.2500  -999.2500  -999.2500   124.8869
 1957.5000   -40.2107   -60.5646     7.9875     7.7723    10.3846  -999.2500  -999.2500  -999.2500  -999.2500   122.1719
 1958.0000   -40.2184   -59.8778     7.9825     7.7696     9.9385  -999.2500  -999.2500  -999.2500  -999.2500   115.5354
 1958.5000   -40.3822   -59.1912     7.9774     7.7668     9.5115  -999.2500  -999.2500  -999.2500  -999.2500   118.8537
 1959.0000   -40.8595   -58.5044     8.0301     7.8202     9.1029  -999.2500  -999.2500  -999.2500  -999.2500   126.6968
 1959.5000   -41.0232   -57.8178     8.2003     7.8740     8.8382  -999.2500  -999.2500  -999.2500  -999.2500   129.4118
 1960.0000   -41.0308   -57.1311     8.4998     7.9281     9.4915  -999.2500  -999.2500  -999.2500  -999.2500   127.6018
 1960.5000   -40.8805   -56.4444     8.7580     8.1562    10.1974  -999.2500  -999.2500  -999.2500  -999.2500   127.6018
 1961.0000   -40.7321   -55.7543     9.1836     8.6992    10.9662  -999.2500  -999.2500  -999.2500  -999.2500   128.8084
 1961.5000   -40.5838   -55.0545     9.2456     9.0150    11.2584  -999.2500  -999.2500  -999.2500  -999.2500   128.1468
 1962.0000   -40.4354   -54.3546     9.0407     8.9472    11.1678  -999.2500  -999.2500  -999.2500  -999.2500   122.8968
 1962.5000   -40.4449   -45.7499     8.7152     8.5658    10.6880  -999.2500  -999.2500  -999.2500  -999.2500   111.3122
 1963.0000   -40.2964   -45.0633     8.5233     8.2599    10.2289  -999.2500  -999.2500  -999.2500  -999.2500   109.2006
 1963.5000   -40.4602   -52.1526     8.4568     8.1390    10.0032  -999.2500  -999.2500  -999.2500  -999.2500   112.5189
 1964.0000   -40.4678   -51.4660     8.3907     8.0776     9.9245  -999.2500  -999.2500  -999.2500  -999.2500   117.6471
 1964.5000   -40.2917   -50.7792     8.3252     8.0852     9.7055  -999.2500  -999.2500  -999.2500  -999.2500   122.4736
 1965.0000   -40.0151   -50.0926     8.3199     8.1304     9.4914  -999.2500  -999.2500  -999.2500  -999.2500   125.1885
 1965.5000   -40.1806   -49.4058     8.3748     8.1268     9.4167  -999.2500  -999.2500  -999.2500  -999.2500   125.4902
 1966.0000   -40.5003   -48.7192     8.3693     8.0656     9.7682  -999.2500  -999.2500  -999.2500  -999.2500   120.6637
 1966.5000   -40.9759   -48.0325     8.3027     8.0628    10.2504  -999.2500  -999.2500  -999.2500  -999.2500   119.7587
 1967.0000   -41.2956   -55.1321     8.2975     8.0021    10.5444  -999.2500  -999.2500  -999.2500  -999.2500   120.0603
 1967.5000   -41.6152   -54.4324     8.2922     8.0578    10.6131  -999.2500  -999.2500  -999.2500  -999.2500   120.9701
 1968.0000   -41.7789   -53.7485     8.3482     8.0543    10.5277  -999.2500  -999.2500  -999.2500  -999.2500   122.2001
 1968.5000   -41.7865   -60.8378     8.2817     8.0514    10.1483  -999.2500  -999.2500  -999.2500  -999.2500   123.3786
 1969.0000   -41.6380   -67.9273     8.1580     7.9908     9.7123  -999.2500  -999.2500  -999.2500  -999.2500   122.4736
 1969.5000   -41.4827   -67.0689     7.9211     7.8711     9.6358  -999.2500  -999.2500  -999.2500  -999.2500   121.8703
 1970.0000   -41.1648   -58.6061     7.8028     7.6953     9.6291  -999.2500  -999.2500  -999.2500  -999.2500   120.9653
 1970.5000   -40.7250   -57.9195     7.6863     7.4271     9.4847  -999.2500  -999.2500  -999.2500  -999.2500   119.7587
 1971.0000   -40.4206   -57.2327     7.5715     7.2137     9.2754  -999.2500  -999.2500  -999.2500  -999.2500   118.2504
 1971.5000   -40.1182   -56.5461     7.4016     7.0570     9.1259  -999.2500  -999.2500  -999.2500  -999.2500   117.6471
 1972.0000   -40.2818   -55.8595     7.2417     6.9038     8.9979  -999.2500  -999.2500  -999.2500  -999.2500   117.6471
 1972.5000   -40.4454   -55.1727     7.1842     6.9013     8.8630  -999.2500  -999.2500  -999.2500  -999.2500   118.2504
 1973.0000   -40.4531   -62.2861     7.2327     6.9990     8.8567  -999.2500  -999.2500  -999.2500  -999.2500   116.7421
 1973.5000   -40.6167   -61.5754     7.3849     7.0980     8.9160  -999.2500  -999.2500  -999.2500  -999.2500   114.6305
 1974.0000   -40.7804   -60.8864     7.4348     7.2506     8.9082  -999.2500  -999.2500  -999.2500  -999.2500   115.5438
 1974.5000   -40.7880   -60.1866     7.2178     7.2479     8.8381  -999.2500  -999.2500  -999.2500  -999.2500   118.5790
 1975.0000   -40.9516   -59.4867     7.1100     7.0396     8.7685  -999.2500  -999.2500  -999.2500  -999.2500   120.0603
 1975.5000   -40.7901   -58.6571     7.0556     6.8867     8.6995  -999.2500  -999.2500  -999.2500  -999.2500   117.6471
 1976.0000   -40.6281   -57.9703     7.2040     6.8928     8.7562  -999.2500  -999.2500  -999.2500  -999.2500   115.8371
 1976.5000   -40.5065   -49.5077     7.4100     7.0316     8.8133  -999.2500  -999.2500  -999.2500  -999.2500   115.5354
 1977.0000   -40.5161   -48.8209     7.6219     7.2868     8.9978  -999.2500  -999.2500  -999.2500  -999.2500   117.3454
 1977.5000   -40.5237   -56.0819     7.7891     7.6059     9.2543  -999.2500  -999.2500  -999.2500  -999.2500   118.2504
 1978.0000   -40.6873   -63.1714     8.0627     7.8254     9.7259  -999.2500  -999.2500  -999.2500  -999.2500   117.0437
 1978.5000   -40.6950   -62.3130     8.1746     7.9368     9.8618  -999.2500  -999.2500  -999.2500  -999.2500   114.6305
 1979.0000   -40.7026   -61.6263     8.1694     8.0491     9.7824  -999.2500  -999.2500  -999.2500  -999.2500   114.0272
 1979.5000   -40.8663   -60.9397     8.1642     8.1630     9.7054  -999.2500  -999.2500  -999.2500  -999.2500   114.3288
 1980.0000   -40.7176   -60.2529     8.2194     8.2185     9.3556  -999.2500  -999.2500  -999.2500  -999.2500   114.0272
 1980.5000   -40.7255   -59.5646     8.1539     8.0980     9.4165  -999.2500  -999.2500  -999.2500  -999.2500   114.0152
 1981.0000   -40.5771   -58.8646     8.0321     7.9771     9.7549  -999.2500  -999.2500  -999.2500  -999.2500   110.3027
 1981.5000   -40.7410   -65.9690     7.9693     7.8624     9.9609  -999.2500  -999.2500  -999.2500  -999.2500   106.0855
 1982.0000   -40.9063   -65.1106     8.0801     7.8034    10.0259  -999.2500  -999.2500  -999.2500  -999.2500   103.4691
 1982.5000   -41.0700   -64.4238     8.0168     7.9138     9.8738  -999.2500  -999.2500  -999.2500  -999.2500   107.6923
 1983.0000   -41.0776   -63.7372     8.0116     7.9103     9.7258  -999.2500  -999.2500  -999.2500  -999.2500   112.8205
 1983.5000   -41.0852   -63.0505     8.0064     7.8508     9.5800  -999.2500  -999.2500  -999.2500  -999.2500   119.4570
 1984.0000   -41.0929   -62.3639     8.0003     7.7917     9.4364  -999.2500  -999.2500  -999.2500  -999.2500   120.6637
