~VERSION INFORMATION
 VERS.                2.0:   CWLS LOG ASCII STANDARD - VERSION 2.0
 WRAP.                 NO:   ONE LINE PER DEPTH STEP
~WELL INFORMATION
#MNEM.UNIT      DATA TYPE    INFORMATION
#----------   ------------   ------------------------------
 STRT.F          200.0000:   START DEPTH
 STOP.F         3209.0000:   STOP DEPTH
 STEP.F            0.5000:   STEP LENGTH
 NULL.          -999.2500:   NO VALUE
 COMP.    FENIX & SCISSON:   COMPANY
 WELL. FENIX & SCISSON "AX" #88-3:   WELL
 FLD .             NPR #3:   FIELD
 LOC .       S3 T38N R78W:   LOCATION
 CNTY.            NATRONA:   COUNTY
 STAT.            WYOMING:   STATE
 CTRY. UNITED STATES OF AMERICA:   COUNTRY
 SRVC.              WELEX:   SERVICE COMPANY
 DATE.        27-JUL-1977:   LOGDATE
 API .     49025104060000:   API NUMBER
~CURVE INFORMATION
#MNEM.UNIT       API CODE    CURVE DESCRIPTION
#----------   ------------   ------------------------------
 DEPT.F                  :   
 CALD.IN     45 280 60 00:   CALIPER FROM DENSITY LOG
 GRD .GAPI   45 310 01 00:   GAMMA RAY FROM DENSITY LOG
 RHOB.G/C3   45 350 01 00:   BULK DENSITY
 CORR.G/C3   45 356 01 00:   DENSITY CORRECTION
 NPHI.DEC    42 890 03 00:   NEUTRON POROSITY SANDSTONE
 SPR .MV     07 010 01 00:   SPONTANEOUS POTENTIAL
 SGRD.OHMM   07 220 05 00:   GUARD LOG RESISTIVITY
 FORX.OHMM   07 000 00 00:   
~PARAMETER INFORMATION
#MNEM.UNIT          VALUE    DESCRIPTION
#----------   ------------   ------------------------------
 EKB .F         5134.0000:   Kelly bushing
 EGL .F         5124.0000:   Ground level
 EDF .F            0.0000:   Drilling floor
 TD  .F         3211.0000:   Total depth
 CLNT.            A2DTECH:   Client Code
 SL  . 230' FSL & 380' FEL:   Surface Location
 PD  .                 GL:   Permanent Datum
 EPD .F              5124:   Elevation Permanent Datum
 LMF .                 KB:   Log Measured From
 DMF .                 KB:   Drilling Measured From
 DAPD.F                10:   Feet Above Permanent Datum
 DATE.        27-JUL-1977:   Date Logged [DD-MMM-YYYY]
 DD  .F              3200:   Depth driller
 DL  .F              3211:   Depth logger
 BLI .F              3210:   Bottom log interval
 TLI .F               200:   Top log interval
 CS1 .IN            8.625:   Casing size
 CBD1.      8.625" @ 218':   Casing driller 1
 CBL1.F               218:   Casing logger 1
 BS1 .IN            7.875:   Bit size
 BSD1.F              3200:   Depth drilled with bit1
 DFT .            KCL MUD:   Type fluid in hole
 DFD .                9.2:   Density
 DFV .                 36:   Viscosity
 DFPH.                9.5:   pH
 DFL .                9.6:   Fluid loss
 MSS .           FLOWLINE:   Source of sample
 RMS .OHMM           0.61:   Rm
 MST .F                85:   Rm Meas. temp.
 RMF .OHMM           0.53:   Rmf
 MFST.F                85:   Rmf Meas. temp.
 MFSS.               FANN:   Source Rmf.
 RMC .OHMM           0.48:   Rmc
 MCST.F                85:   Rmc Meas. temp.
 MCSS.                KIT:   Source Rmc.
 RMB .OHMM           0.42:   Rm. at BHT
 BHT .F               122:   BHT.
 TCS .HRS             2.5:   Time Circ. stopped
 MRT .F               122:   Maximum recorded temp.
 LUN .               8611:   Logging unit number
 LUL .             CASPER:   Logging unit location
 ENGI.            C. DOAK:   Recorded By
 WITN.      E. HARRINGTON:   Witnessed by
 ORIG.      2.5" 5" PRINT:   Origin of data
 UWI .     49025104060000:   Unique Well ID
 DICO. A2D TECHNOLOGIES, INC.:   Digitizing Company
~OTHER INFORMATION
~A   DEPT       CALD       GRD        RHOB      CORR        NPHI       SPR      SGRD         FORX 
# ...
 1172.0000    10.9932    92.2391     2.5289     0.0673     0.2598   -61.4154     6.0756     7.5792
 1172.5000    10.9958    91.6942     2.5417     0.0714     0.2586   -61.4559     6.0764     7.5721
 1173.0000    10.9982    91.2058     2.5442     0.0775     0.2568   -61.4964     6.1076     7.4812
 1173.5000    10.9855    90.9279     2.5330     0.0793     0.2562   -61.5370     6.1973     7.4840
 1174.0000    10.9878    90.6136     2.5211     0.0777     0.2550   -61.5774     6.2476     7.3844
 1174.5000    10.9902    90.4519     2.5116     0.0738     0.2563   -61.6183     6.2484     7.2865
 1175.0000    10.9926    90.6528     2.5052     0.0725     0.2590   -61.6584     6.2493     7.2894
 1175.5000    10.9949    91.2096     2.4975     0.0697     0.2643   -61.6988     6.2503     7.4395
 1176.0000    10.9975    91.9025     2.4924     0.0670     0.2693   -61.7422     6.2511     7.4968
 1176.5000    10.9999    93.6179     2.5014     0.0652     0.2603   -61.7670     6.2519     7.4994
 1177.0000    11.0171    94.8496     2.5150     0.0634     0.2542   -61.7642     6.2528     8.0338
 1177.5000    11.0254    96.0831     2.5061     0.0632     0.2517   -61.7648     6.2536     8.3733
 1178.0000    11.0579    96.4273     2.4905     0.0635     0.2527   -61.7650     6.1694     8.1500
 1178.5000    11.0687    96.4748     2.4868     0.0622     0.2562   -61.7646     6.1703     7.9326
 1179.0000    11.0710    96.6714     2.5026     0.0625     0.2586   -61.7648     6.0872     7.6160
 1179.5000    11.0734    96.8665     2.5162     0.0642     0.2562   -61.7647     6.0880     7.5148
 1180.0000    11.0758    96.9202     2.5111     0.0644     0.2544   -61.7647     6.0061     7.4154
 1180.5000    11.0935    97.1273     2.5006     0.0647     0.2550   -61.7647     6.0069     7.5201
 1181.0000    11.0954    97.3056     2.4943     0.0649     0.2537   -61.7647     6.0078     7.6262
 1181.5000    11.0980    97.3531     2.4851     0.0652     0.2526   -61.7647     6.0086     7.7339
 1182.0000    11.1047    97.4006     2.4781     0.0654     0.2512   -61.7647     6.0094     7.5229
 1182.5000    11.1174    97.4481     2.4697     0.0656     0.2491   -61.7647     6.0102     7.3268
 1183.0000    11.1199    97.2006     2.4631     0.0644     0.2548   -61.7647     6.0494     7.3295
 1183.5000    11.1127    97.2473     2.4564     0.0586     0.2582   -61.7647     6.2228     7.5543
 1184.0000    11.1097    97.2938     2.4498     0.0542     0.2609   -61.7647     6.2647     8.6432
 1184.5000    11.1032    97.0422     2.4447     0.0501     0.2525   -61.7647     6.4396     7.3366
 1185.0000    11.0996    96.8019     2.4388     0.0504     0.2446   -61.7647     6.7103     7.6094
 1185.5000    11.0871    96.5217     2.4352     0.0521     0.2420   -61.7647     6.9925     8.0911
 1186.0000    11.0702    96.0636     2.4367     0.0539     0.2441   -61.7647     6.4421     8.5856
 1186.5000    11.0621    95.7435     2.4503     0.0560     0.2479   -61.7647     6.2690     8.7122
 1187.0000    11.0496    95.0379     2.4628     0.0603     0.2515   -61.7647     6.2699     8.6028
 1187.5000    11.0371    94.3649     2.4727     0.0620     0.2540   -61.7647     6.2707     8.3682
 1188.0000    11.0310    93.2286     2.4805     0.0638     0.2521   -61.7647     6.2732     8.1401
 1188.5000    11.0126    92.3852     2.4873     0.0675     0.2503   -61.7647     6.3587     8.0968
 1189.0000    11.0144    91.5300     2.4979     0.0687     0.2479   -61.7647     6.2733     8.2116
 1189.5000    11.0019    91.2917     2.5025     0.0690     0.2455   -61.7647     6.4087     8.4423
 1190.0000    10.9751    91.6352     2.5003     0.0693     0.2406   -61.7647     6.8652     8.5887
 1190.5000    10.9477    91.7583     2.4937     0.0679     0.2385   -61.7647     6.6291     8.2198
 1191.0000    10.9459    92.0293     2.4870     0.0667     0.2400   -61.7647     6.4510     8.0006
 1191.5000    10.9370    92.2614     2.4813     0.0669     0.2413   -61.7647     6.2777     7.8943
 1192.0000    10.9250    92.5318     2.4790     0.0656     0.2437   -61.7647     6.2785     8.0059
 1192.5000    10.9272    92.7596     2.4823     0.0689     0.2485   -61.7647     6.2793     8.3442
 1193.0000    10.9144    92.8097     2.4953     0.0707     0.2586   -61.7646     6.2802     8.3389
 1193.5000    10.9171    92.8546     2.5032     0.0724     0.2645   -61.7647     6.3676     7.9877
 1194.0000    10.9195    92.5044     2.5011     0.0756     0.2646   -61.7644     6.4562     7.5896
 1194.5000    10.9367    92.3525     2.4892     0.0773     0.2627   -61.7643     6.4571     7.7152
 1195.0000    10.9393    92.1142     2.4786     0.0776     0.2609   -61.7653     6.4477     8.0463
 1195.5000    10.9457    91.4334     2.4715     0.0778     0.2609   -61.7626     6.3710     8.2477
 1196.0000    10.9587    90.0962     2.4686     0.0765     0.2585   -61.7658     6.3719     8.2506
 1196.5000    10.9764    88.9903     2.4605     0.0746     0.2554   -61.7729     6.3975     8.2534
 1197.0000    10.9804    88.1508     2.4501     0.0725     0.2517   -61.9088     6.5809     8.2562
 1197.5000    11.0108    87.5289     2.4427     0.0713     0.2454   -62.0392     6.8628     8.2590
 1198.0000    11.0280    87.3385     2.4413     0.0701     0.2349   -62.1765     6.9636     8.3172
 1198.5000    11.0452    86.8034     2.4490     0.0687     0.2298   -62.3102     7.0173     8.4940
 1199.0000    11.0475    87.4436     2.4542     0.0675     0.2344   -62.4449     6.9652     8.6825
 1199.5000    11.0499    88.4305     2.4532     0.0663     0.2402   -62.5814     6.8299     8.9787
 1200.0000    11.0522    89.9110     2.4447     0.0650     0.2489   -62.7116     7.0204     8.8596
 1200.5000    11.0391    90.8675     2.4388     0.0638     0.2536   -62.8523     7.3156     8.7417
 1201.0000    11.0272    91.5273     2.4344     0.0625     0.2554   -62.9867     7.4174     8.6258
 1201.5000    11.0295    92.7335     2.4234     0.0625     0.2548   -63.1008     7.3175     8.5118
 1202.0000    11.0318    92.7898     2.4287     0.0625     0.2525   -63.3018     7.2190     8.3895
 1202.5000    11.0342    92.8703     2.4373     0.0625     0.2513   -63.0224     7.1218     8.5057
 1203.0000    11.0284    92.9508     2.4467     0.0625     0.2537   -62.9407     6.8000     8.5062
 1203.5000    11.0146    93.0313     2.4568     0.0625     0.2567   -62.9314     6.5772     7.8332
 1204.0000    11.0008    93.1118     2.4667     0.0625     0.2610   -62.9491     6.3407     7.8367
 1204.5000    10.9869    93.1923     2.4720     0.0583     0.2646   -62.9381     6.1649     8.0042
 1205.0000    10.9707    93.2653     2.4657     0.0548     0.2681   -62.9413     6.1223     8.5085
 1205.5000    10.9728    92.8061     2.4554     0.0526     0.2693   -62.9416     6.2067     7.9551
 1206.0000    10.9596    91.7804     2.4492     0.0513     0.2697   -62.9406     6.2922     7.3204
 1206.5000    10.9566    90.4125     2.4509     0.0502     0.2689   -62.9411     6.3789     7.4564
 1207.0000    10.9495    89.4402     2.4704     0.0510     0.2675   -62.9412     6.3789     8.1447
 1207.5000    10.9368    88.4128     2.4850     0.0522     0.2659   -62.9410     6.4668     7.9620
 1208.0000    10.9352    88.4530     2.4976     0.0563     0.2641   -62.9408     6.4668     7.8410
 1208.5000    10.9261    88.7869     2.5074     0.0602     0.2629   -62.9418     6.2922     8.3568
 1209.0000    10.9287    89.8773     2.5170     0.0637     0.2608   -62.9394     6.2922     8.4442
 1209.5000    10.9309    90.6439     2.5245     0.0666     0.2585   -62.9420     6.2067     7.8427
 1210.0000    10.9183    90.6825     2.5318     0.0705     0.2561   -62.9493     6.1223     7.5278
 1210.5000    10.9205    90.7252     2.5371     0.0715     0.2543   -63.0541     6.1223     7.4259
 1211.0000    10.9232    90.7624     2.5265     0.0718     0.2537   -63.1413     6.2067     7.7377
 1211.5000    10.9250    90.2060     2.5111     0.0735     0.2531   -63.2357     6.2067     8.2862
 1212.0000    10.9272    90.0939     2.4985     0.0738     0.2525   -63.3271     6.2922     7.8454
