~VERSION INFORMATION
 VERS.                2.0:   CWLS LOG ASCII STANDARD - VERSION 2.0
 WRAP.                 NO:   ONE LINE PER DEPTH STEP
~WELL INFORMATION
#MNEM.UNIT      DATA TYPE    INFORMATION
#----------   ------------   ------------------------------
 STRT.F          240.0000:   START DEPTH
 STOP.F         2876.0000:   STOP DEPTH
 STEP.F            0.5000:   STEP LENGTH
 NULL.          -999.2500:   NO VALUE
 COMP.    FENIX & SCISSON:   COMPANY
 WELL. FENIX & SCISSON "A" #23-21:   WELL
 FLD .               NPR3:   FIELD
 LOC .      S21 T39N R78W:   LOCATION
 CNTY.            NATRONA:   COUNTY
 STAT.            WYOMING:   STATE
 CTRY. UNITED STATES OF AMERICA:   COUNTRY
 SRVC.              WELEX:   SERVICE COMPANY
 DATE.        05-MAR-1977:   LOGDATE
 API .     49025103030000:   API NUMBER
~CURVE INFORMATION
#MNEM.UNIT       API CODE    CURVE DESCRIPTION
#----------   ------------   ------------------------------
 DEPT.F                  :   
 GRD .GAPI   45 310 01 00:   GAMMA RAY FROM DENSITY LOG
 CALD.IN     45 280 60 00:   CALIPER FROM DENSITY LOG
 CORR.G/C3   45 356 01 00:   DENSITY CORRECTION
 RHOB.G/C3   45 350 01 00:   BULK DENSITY
 SPR .MV     07 010 01 00:   SPONTANEOUS POTENTIAL
 ILD .OHMM   07 120 46 00:   DEEP INDUCTION RESISTIVITY
 ILM .OHMM   07 120 44 00:   INDUCTION LOG MEDIUM RESISTIVITY
 SGRD.OHMM   07 220 05 00:   SHALLOW SHORT GUARD RESISTIVITY
~PARAMETER INFORMATION
#MNEM.UNIT          VALUE    DESCRIPTION
#----------   ------------   ------------------------------
 EKB .F         4986.0000:   Kelly bushing
 EGL .F         4976.0000:   Ground level
 TD  .F         2885.0000:   Total depth
 CLNT.            A2DTECH:   Client Code
 SL  . 990' FWL & 1650' FNL:   Surface Location
 DATE.        05-MAR-1977:   Date Logged [DD-MMM-YYYY]
 DD  .F              2885:   Depth driller
 DL  .F              2882:   Depth logger
 BLI .F              2876:   Bottom log interval
 TLI .F               238:   Top log interval
 CS1 .IN            8.625:   Casing size
 CBD1.      8.625" @ 251':   Casing driller 1
 CBL1.IN              251:   Casing logger 1
 BS1 .IN            7.875:   Bit size
 BSD1.F              2885:   Depth drilled with bit1
 DFT .                KCL:   Type fluid in hole
 DFD .                9.5:   Density
 TCS .HRS               3:   Time Circ. stopped
 MRT .F                78:   Maximum recorded temp.
 ENGI.          D. LAWSON:   Recorded By
 WITN.            K. JAPP:   Witnessed by
 ORIG.         2.5" PRINT:   Origin of data
 UWI .     49025103030000:   Unique Well ID
 DICO. A2D TECHNOLOGIES,INC.:   Digitizing Company
 PD  .                 GL:   Permanent Datum
 EPD .               4976:   Elevation Permanent Datum
 LMF .                 KB:   Log Measured From
 DMF .                 KB:   Drilling Measured From
 DAPD.                 10:   Feet Above Permanent Datum
 DFL .                8.8:   Fluid loss
 MSS .           FLOWLINE:   Source of sample
 RMS .OHMM            .40:   Rm
 MST .F                58:   Rm Meas. temp.
 RMF .OHMM            .37:   Rmf
 MFST.F                58:   Rmf Meas. temp.
 MFSS.OHMM            .67:   Source Rmf.
 MCST.F                58:   Rmc Meas. temp.
 MCSS.               MEAS:   Source Rmc.
 RMB .OHMM            .30:   Rm. at BHT
 BHT .F                78:   BHT.
~OTHER INFORMATION
~A   DEPT       GRD        CALD      CORR        RHOB      SPR        ILD        ILM       SGRD   
# ...
  402.0000   111.9072     9.8806     0.0391     2.5053   -39.9532     7.9349    11.6691    12.3153
  402.5000   112.7943     9.8821     0.0391     2.5098   -39.9562     7.9376    11.6774    12.1436
  403.0000   112.5083     9.8837     0.0392     2.5158   -39.9591     8.0472    11.6765    12.1411
  403.5000   111.6359     9.8550     0.0362     2.5188   -39.9621     8.1584    11.6757    12.1386
  404.0000   111.0566     9.8258     0.0363     2.5084   -39.9651     8.2711    11.6749    12.3051
  404.5000   110.1842     9.8172     0.0363     2.4891   -39.9708     8.3853    11.8363    12.8236
  405.0000   109.8974     9.7970     0.0364     2.4668   -39.9847     8.5011    11.9998    13.1810
  405.5000   110.1988     9.7974     0.0334     2.4475   -39.9986     8.5355    12.3343    13.7360
  406.0000   111.3791     9.7977     0.0335     2.4580   -40.0124     8.6180    12.5047    13.7332
  406.5000   111.5646     9.7979     0.0305     2.4684   -40.0263     8.6520    12.8534    13.5417
  407.0000   110.7498     9.7982     0.0276     2.4670   -40.0402     8.8577    13.0312    13.5389
  407.5000   112.5740     9.7985     0.0216     2.4596   -40.0541     8.9801    13.2110    13.7251
  408.0000   113.7543     9.7988     0.0187     2.4537   -40.0679     8.9794    13.3937    13.9134
  408.5000   113.1751     9.7991     0.0157     2.4462   -40.0818     8.9787    13.3925    13.9100
  409.0000   112.5953     9.7994     0.0128     2.4552   -40.0957     8.9781    13.3916    13.9071
  409.5000   112.5606     9.7703     0.0158     2.4687   -40.1096     8.9775    13.3907    13.7132
  410.0000   113.1970     9.7706     0.0189     2.4693   -40.1234     8.9769    13.2799    13.3364
  410.5000   113.7908     9.7414     0.0249     2.4628   -40.1373     8.9763    13.2057    13.1505
  411.0000   114.3846     9.7123     0.0279     2.4718   -40.1512     8.9756    13.0975    12.9672
  411.5000   115.8581     9.6757     0.0280     2.4837   -40.1651     8.9750    13.0231    12.7864
  412.0000   114.3992     9.6467     0.0310     2.4897   -40.1789     8.9744    12.8438    12.4350
  412.5000   112.9402     9.6177     0.0311     2.4853   -40.1928     8.9431    12.4661    12.2617
  413.0000   112.9475     9.5958     0.0281     2.4794   -40.2067     8.8503    12.0565    12.0908
  413.5000   112.9548     9.5667     0.0282     2.4615   -40.2205     8.7285    11.7531    12.0883
  414.0000   113.2553     9.5670     0.0252     2.4407   -40.2367     8.6993    11.9149    12.2546
  414.5000   113.8491     9.5673     0.0163     2.4228   -40.2367     8.6078    12.0789    12.5951
  415.0000   115.0294     9.5676     0.0128     2.4139   -40.5325     8.4893    12.1496    12.7679
  415.5000   115.9165     9.5973     0.0074     2.4095   -40.5325     8.4620    12.1488    12.5899
  416.0000   116.5103     9.5976     0.0014     2.4244   -40.5325     8.3719    11.2210    12.5873
  416.5000   116.5176     9.5979     0.0015     2.4379   -40.5325     8.3457    10.8314    12.5847
  417.0000   116.5249     9.5982     0.0105     2.4484   -40.8284     8.2313    11.8344    12.5820
  417.5000   116.5372     9.5985     0.0136     2.4559   -40.8284     8.1425    12.3141    12.5794
  418.0000   116.8406     9.5988     0.0166     2.4663   -40.8284     8.1420    12.3132    12.5768
  418.5000   117.4375     9.5635     0.0196     2.4738   -41.1243     8.1414    12.2208    12.4015
  419.0000   117.7409     9.4990     0.0227     2.4783   -41.1243     8.1408    11.9767    12.2286
  419.5000   118.0279     9.3878     0.0197     2.4798   -41.1243     8.1403    11.7250    11.7293
  420.0000   117.9961     9.3647     0.0198     2.4694   -41.2821     8.1397    11.4804    11.5663
  420.5000   117.0952     9.3650     0.0168     2.4605   -41.4201     8.0277    10.9434    11.4050
  421.0000   115.6784     9.4004     0.0139     2.4516   -41.5710     7.8756    10.7933    11.4027
  421.5000   115.1243     9.4244     0.0079     2.4412   -41.7160     7.7014    10.8710    11.4003
  422.0000   115.8126     9.4552     0.0020     2.4397   -41.8600     7.7008    11.0212    11.5567
  422.5000   117.9154     9.4664     0.0020     2.4503   -42.3077     7.6810    11.1796    11.5543
  423.0000   121.2716     9.4796     0.0051     2.4592   -42.4448     7.5756    11.4085    11.7127
  423.5000   125.1119     9.5092     0.0111     2.4682   -42.6035     7.4717    11.4842    11.7103
  424.0000   128.1936     9.5365     0.0141     2.4608   -42.8994     7.2856    11.0936    11.6136
  424.5000   128.9510     9.4436     0.0172     2.4474   -42.8994     7.1686    10.4262    10.8988
  425.0000   128.3236     9.3579     0.0142     2.4400   -42.8994     6.9735     9.7985    10.3105
  425.5000   127.3965     9.3016     0.0112     2.4371   -43.0193     6.8779     9.5318     9.9692
  426.0000   126.8114     9.2698     0.0052     2.4326   -43.3116     6.7054     9.3354     9.8304
  426.5000   125.9908     9.2431     0.0023     2.4343   -43.4911     6.5989     9.3348     9.6370
  427.0000   125.3480     9.2459    -0.0006     2.4432   -43.4911     6.5221     9.3341     9.5587
  427.5000   124.8892     9.2728    -0.0005     2.4524   -43.5971     6.4323     9.3335     9.4257
  428.0000   124.8973     9.2757    -0.0003     2.4688   -43.7870     6.4190     9.3328     9.3683
  428.5000   124.5420     9.3025     0.0056     2.4823   -43.7870     6.3434     9.3322     9.4409
  429.0000   123.6666     9.3026     0.0119     2.4927   -43.7870     6.4435     9.4611     9.4948
  429.5000   122.7161     9.3028     0.0180     2.5001   -43.7870     6.6228     9.6543     9.6250
  430.0000   121.8378     9.3000     0.0211     2.5015   -43.6982     6.7016     9.7243     9.7570
  430.5000   120.7473     9.2707     0.0237     2.4999   -43.4911     6.7942     9.8586     9.8908
  431.0000   119.8720     9.2444     0.0237     2.4954   -43.4911     6.7938     9.8579     9.9664
  431.5000   119.2028     9.2151     0.0208     2.4909   -43.4911     6.7933     9.8572    10.1640
  432.0000   118.4145     9.2153     0.0208     2.4848   -43.4911     6.7928     9.8566    10.3034
  432.5000   117.8324     9.2154     0.0179     2.4772   -43.4911     6.7923    10.0551    10.4448
  433.0000   117.2502     9.2156     0.0173     2.4669   -43.4911     6.8862    10.1936    10.4426
  433.5000   116.3749     9.2157     0.0150     2.4580   -43.4911     6.8962    10.3339    10.6676
  434.0000   115.4995     9.2159     0.0120     2.4509   -43.4911     6.9808    10.4125    10.8137
  434.5000   114.9174     9.2160     0.0083     2.4497   -43.4911     6.9803    10.4118    11.0296
  435.0000   114.4415     9.2128     0.0061     2.4563   -43.4911     6.9798    10.5556    11.1118
  435.5000   114.1555     9.1869     0.0062     2.4650   -43.4911     6.9887    10.7653    11.4208
  436.0000   114.1642     9.1870     0.0053     2.4708   -43.4911     7.1833    10.9135    11.5772
  436.5000   114.0552     9.1872     0.0033     2.4739   -43.4911     7.3741    11.0638    11.6473
  437.0000   113.4731     9.1873     0.0033     2.4752   -43.4911     7.4849    11.3718    11.6448
  437.5000   112.8910     9.1875     0.0034     2.4691   -43.4911     7.6933    11.6212    11.8046
  438.0000   112.8524     9.1582     0.0034     2.4633   -43.4911     7.7906    11.6871    11.9665
  438.5000   113.2840     9.1546     0.0035     2.4634   -43.4911     7.7900    11.7809    12.1306
  439.0000   114.1770     9.1291     0.0035     2.4614   -43.4911     7.7895    11.8466    12.2188
  439.5000   115.6564     9.0998     0.0035     2.4521   -43.4911     7.7890    11.9428    12.2944
  440.0000   117.1359     9.1000     0.0036     2.4471   -43.4911     7.7884    11.9420    12.2919
  440.5000   117.6232     9.0707     0.0006     2.4489   -43.4911     7.7879    11.9412    12.2893
  441.0000   116.1554     9.0749    -0.0023     2.4519   -43.4911     7.7874    11.9403    12.2868
  441.5000   115.5635     9.1004    -0.0066     2.4565   -43.4911     7.7868    11.9395    12.1155
  442.0000   116.1603     9.1006    -0.0082     2.4592   -43.4911     7.7863    11.7752    12.1130
