~VERSION INFORMATION
 VERS.                2.0:   CWLS LOG ASCII STANDARD - VERSION 2.0
 WRAP.                 NO:   ONE LINE PER DEPTH STEP
~WELL INFORMATION
#MNEM.UNIT      DATA TYPE    INFORMATION
#----------   ------------   ------------------------------
 STRT.F           46.0000:   START DEPTH
 STOP.F         2952.5000:   STOP DEPTH
 STEP.F            0.5000:   STEP LENGTH
 NULL.          -999.2500:   NO VALUE
 COMP.    FENIX & SCISSON:   COMPANY
 WELL. FENIX NPR 3 "SHX" #11-15:   WELL
 FLD .        TEAPOT DOME:   FIELD
 LOC .      S15 T38N R78W:   LOCATION
 CNTY.            NATRONA:   COUNTY
 STAT.            WYOMING:   STATE
 CTRY. UNITED STATES OF AMERICA:   COUNTRY
 SRVC.           BIRDWELL:   SERVICE COMPANY
 DATE.        19-JAN-1979:   LOGDATE
 API .     49025107640000:   API NUMBER
~CURVE INFORMATION
#MNEM.UNIT       API CODE    CURVE DESCRIPTION
#----------   ------------   ------------------------------
 DEPT.F                  :   
 GRD .GAPI   45 310 01 00:   GAMMA RAY FROM DENSITY LOG
 CALD.IN     45 280 60 00:   CALIPER FROM DENSITY LOG
 RHOB.G/C3   45 350 01 00:   BULK DENSITY
 CORR.G/C3   45 356 01 00:   DENSITY CORRECTION
 SPR .MV     07 010 01 00:   SPONTANEOUS POTENTIAL
 SN  .OHMM   01 040 00 00:   SHORT NORMAL
 ILD .OHMM   07 120 46 00:   INDUCTION LOG DEEP RESISTIVITY
~PARAMETER INFORMATION
#MNEM.UNIT          VALUE    DESCRIPTION
#----------   ------------   ------------------------------
 EKB .F         5258.0000:   Kelly bushing
 EGL .F         5248.0000:   Ground level
 EDF .F            0.0000:   Drilling floor
 TD  .F         1300.0000:   Total depth
 DATE.        19-JAN-1979:   Date logged
 CLNT.            A2DTECH:   Client Code
 SL  . 177' FNL & 155' FWL:   Surface Location
 PD  .                 GL:   Permanent Datum
 EPD .F              5248:   Elevation Permanent Datum
 LMF .                 KB:   Log Measured From
 DMF .                 KB:   Drilling Measured From
 DAPD.F                10:   Feet Above Permanent Datum
 DD  .F              1300:   Depth driller
 DL  .F              1283:   Depth logger
 BLI .F              1277:   Bottom log interval
 TLI .F               100:   Top log interval
 CBD1.F                40:   Casing driller 1
 CBL1.F                40:   Casing logger 1
 BS1 .IN            7.875:   Bit size
 BSD1.F              1300:   Depth drilled with bit1
 DFT .           CHEM/GEL:   Type fluid in hole
 DFD .                8.8:   Density
 DFV .                 37:   Viscosity
 DFL .               15.4:   Fluid loss
 MSS .           FLOWLINE:   Source of sample
 RMS .OHMM            .75:   Rm
 MST .F                68:   Rm Meas. temp.
 RMF .OHMM            .75:   Rmf
 MFST.F                64:   Rmf Meas. temp.
 RMC .OHMM            1.3:   Rmc
 MCST.F                68:   Rmc Meas. temp.
 MFSS.               MEAS:   Source Rmf.
 MCSS.               MEAS:   Source Rmc.
 RMB .OHMM            .73:   Rm. at BHT
 BHT .F                70:   BHT.
 TCS .HRS               2:   Time Circ. stopped
 MRT .F                70:   Maximum recorded temp.
 LUN .               3029:   Logging unit number
 LUL .               CSPR:   Logging unit location
 ENGI.            ROLLINS:   Recorded By
 WITN.           DINSMORE:   Witnessed by
 ORIG.           5" PRINT:   Origin of data
 UWI .     49025107640000:   Unique Well ID
 DICO. A2D TECHNOLOGIES, INC.:   Digitizing Company
~OTHER INFORMATION
~A   DEPT      GRD       CALD       RHOB       CORR        SPR           SN        ILD 
# ...
 2412.0000   109.3130    10.4430     2.5290     0.1000  -999.2500  -999.2500  -999.2500
 2412.5000   106.8400    10.4750     2.5280     0.0990  -999.2500  -999.2500  -999.2500
 2413.0000   104.5220    10.4840     2.5270     0.0980  -999.2500  -999.2500  -999.2500
 2413.5000   105.0640    10.5730     2.5350     0.0980  -999.2500  -999.2500  -999.2500
 2414.0000   103.0090    10.6480     2.5380     0.0960  -999.2500  -999.2500  -999.2500
 2414.5000   100.1360    10.7300     2.5400     0.0950  -999.2500  -999.2500  -999.2500
 2415.0000   102.7100    10.7910     2.5130     0.0820  -999.2500  -999.2500  -999.2500
 2415.5000   104.7780    10.7610     2.4960     0.0680  -999.2500  -999.2500  -999.2500
 2416.0000   103.9330    10.7410     2.4340     0.0690  -999.2500  -999.2500  -999.2500
 2416.5000   102.7700    10.6950     2.3870     0.0720  -999.2500  -999.2500  -999.2500
 2417.0000   101.5010    10.7230     2.2400     0.1170  -999.2500  -999.2500  -999.2500
 2417.5000    99.6390    11.0350     2.1110     0.1570  -999.2500  -999.2500  -999.2500
 2418.0000    97.3800    10.9310     2.0280     0.1670  -999.2500  -999.2500  -999.2500
 2418.5000    93.1450    13.6280     2.0960     0.1230  -999.2500  -999.2500  -999.2500
 2419.0000    88.9340    12.8920     2.2130     0.0750  -999.2500  -999.2500  -999.2500
 2419.5000    88.0190    10.4980     2.5000     0.0640  -999.2500  -999.2500  -999.2500
 2420.0000    93.1920    10.4500     2.4780     0.0600  -999.2500  -999.2500  -999.2500
 2420.5000   102.4950    10.4530     2.5020     0.0760  -999.2500  -999.2500  -999.2500
 2421.0000   102.1040    10.5060     2.5200     0.0910  -999.2500  -999.2500  -999.2500
 2421.5000   101.6580    10.5550     2.5300     0.0910  -999.2500  -999.2500  -999.2500
 2422.0000   104.0730    10.5910     2.5460     0.0780  -999.2500  -999.2500  -999.2500
 2422.5000   106.8290    10.4110     2.5530     0.0670  -999.2500  -999.2500  -999.2500
 2423.0000   104.2830    10.3010     2.5520     0.0550  -999.2500  -999.2500  -999.2500
 2423.5000   101.1510    10.2880     2.5440     0.0430  -999.2500  -999.2500  -999.2500
 2424.0000   100.8390    10.2680     2.5350     0.0320  -999.2500  -999.2500  -999.2500
 2424.5000    98.3500    10.2490     2.5280     0.0320  -999.2500  -999.2500  -999.2500
 2425.0000    99.2210    10.2200     2.5230     0.0320  -999.2500  -999.2500  -999.2500
 2425.5000   104.7890    10.1990     2.5220     0.0350  -999.2500  -999.2500  -999.2500
 2426.0000   109.5520    10.2010     2.5320     0.0400  -999.2500  -999.2500  -999.2500
 2426.5000   114.8450    10.2010     2.5340     0.0400  -999.2500  -999.2500  -999.2500
 2427.0000   116.4330    10.2010     2.5310     0.0400  -999.2500  -999.2500  -999.2500
 2427.5000   110.8060    10.2010     2.5340     0.0400  -999.2500  -999.2500  -999.2500
 2428.0000   108.3040    10.2010     2.5440     0.0510  -999.2500  -999.2500  -999.2500
 2428.5000   110.4140    10.2000     2.5500     0.0570  -999.2500  -999.2500  -999.2500
 2429.0000   115.1760    10.1850     2.5470     0.0460  -999.2500  -999.2500  -999.2500
 2429.5000   115.3080    10.1710     2.5440     0.0350  -999.2500  -999.2500  -999.2500
 2430.0000   112.8520    10.1550     2.5430     0.0250  -999.2500  -999.2500  -999.2500
 2430.5000   110.2080    10.1400     2.5450     0.0240  -999.2500  -999.2500  -999.2500
 2431.0000   110.0150    10.1250     2.5450     0.0230  -999.2500  -999.2500  -999.2500
 2431.5000   111.1790    10.1100     2.5450     0.0300  -999.2500  -999.2500  -999.2500
 2432.0000   115.4140    10.0950     2.5480     0.0410  -999.2500  -999.2500  -999.2500
 2432.5000   117.8440    10.0800     2.5520     0.0510  -999.2500  -999.2500  -999.2500
 2433.0000   115.6640    10.0650     2.5550     0.0610  -999.2500  -999.2500  -999.2500
 2433.5000   108.2470    10.0490     2.5550     0.0710  -999.2500  -999.2500  -999.2500
 2434.0000   107.7290    10.0340     2.5520     0.0800  -999.2500  -999.2500  -999.2500
 2434.5000   105.8170    10.0190     2.5480     0.0800  -999.2500  -999.2500  -999.2500
 2435.0000   108.5170    10.0040     2.5450     0.0810  -999.2500  -999.2500  -999.2500
 2435.5000   111.0250     9.9890     2.5470     0.0800  -999.2500  -999.2500  -999.2500
 2436.0000   114.1110     9.9730     2.5480     0.0790  -999.2500  -999.2500  -999.2500
 2436.5000   114.3710     9.9650     2.5490     0.0650  -999.2500  -999.2500  -999.2500
 2437.0000   114.5880     9.9710     2.5420     0.0520  -999.2500  -999.2500  -999.2500
 2437.5000   114.7030     9.9740     2.5320     0.0470  -999.2500  -999.2500  -999.2500
 2438.0000   113.7880     9.9790     2.5260     0.0530  -999.2500  -999.2500  -999.2500
 2438.5000   112.8250     9.9830     2.5330     0.0670  -999.2500  -999.2500  -999.2500
 2439.0000   111.6920     9.9870     2.5430     0.0800  -999.2500  -999.2500  -999.2500
 2439.5000   111.3350     9.9910     2.5450     0.0880  -999.2500  -999.2500  -999.2500
 2440.0000   110.9520     9.9950     2.5440     0.0860  -999.2500  -999.2500  -999.2500
 2440.5000   110.5530     9.9990     2.5240     0.0630  -999.2500  -999.2500  -999.2500
 2441.0000   110.7690    10.0040     2.5090     0.0460  -999.2500  -999.2500  -999.2500
 2441.5000   111.5010    10.0260     2.4970     0.0420  -999.2500  -999.2500  -999.2500
 2442.0000   112.1400    10.0540     2.4870     0.0700  -999.2500  -999.2500  -999.2500
 2442.5000   112.7750    10.0830     2.4600     0.1280  -999.2500  -999.2500  -999.2500
 2443.0000   113.6070    10.1110     2.4390     0.1770  -999.2500  -999.2500  -999.2500
 2443.5000   114.5220    10.1390     2.4460     0.1620  -999.2500  -999.2500  -999.2500
 2444.0000   116.2440    10.1640     2.4690     0.1210  -999.2500  -999.2500  -999.2500
 2444.5000   108.9260    10.1220     2.4920     0.0770  -999.2500  -999.2500  -999.2500
 2445.0000   110.3280    10.0280     2.5020     0.0590  -999.2500  -999.2500  -999.2500
 2445.5000   114.6120     9.9180     2.5010     0.0600  -999.2500  -999.2500  -999.2500
 2446.0000   117.4810    10.0140     2.5010     0.0650  -999.2500  -999.2500  -999.2500
 2446.5000   117.3780    10.1560     2.5020     0.0770  -999.2500  -999.2500  -999.2500
 2447.0000   117.4020    10.2430     2.5050     0.0690  -999.2500  -999.2500  -999.2500
 2447.5000   117.0840     9.8160     2.5210     0.0450  -999.2500  -999.2500  -999.2500
 2448.0000   117.9440     9.8200     2.5360     0.0470  -999.2500  -999.2500  -999.2500
 2448.5000   119.7170     9.7990     2.5480     0.0510  -999.2500  -999.2500  -999.2500
 2449.0000   120.2930     9.8080     2.5470     0.0560  -999.2500  -999.2500  -999.2500
 2449.5000   120.1000     9.8430     2.5460     0.0610  -999.2500  -999.2500  -999.2500
 2450.0000   116.5840     9.9490     2.5460     0.0660  -999.2500  -999.2500  -999.2500
 2450.5000   115.0470    10.0160     2.5450     0.0700  -999.2500  -999.2500  -999.2500
 2451.0000   116.4500     9.9350     2.5440     0.0720  -999.2500  -999.2500  -999.2500
 2451.5000   114.7850     9.8050     2.5440     0.0720  -999.2500  -999.2500  -999.2500
 2452.0000   112.1640     9.6800     2.5430     0.0720  -999.2500  -999.2500  -999.2500
 2452.5000   109.5350     9.6480     2.5380     0.0720  -999.2500  -999.2500  -999.2500
 2453.0000   108.4530     9.6490     2.5340     0.0720  -999.2500  -999.2500  -999.2500
 2453.5000   108.2250     9.6500     2.5300     0.0720  -999.2500  -999.2500  -999.2500
 2454.0000   110.7230     9.6490     2.5260     0.0720  -999.2500  -999.2500  -999.2500
 2454.5000   113.4750     9.6500     2.5220     0.0670  -999.2500  -999.2500  -999.2500
 2455.0000   112.6290     9.6500     2.5180     0.0630  -999.2500  -999.2500  -999.2500
 2455.5000   110.6240     9.6500     2.5150     0.0580  -999.2500  -999.2500  -999.2500
 2456.0000   112.4420     9.6500     2.5150     0.0560  -999.2500  -999.2500  -999.2500
 2456.5000   116.6200     9.6500     2.5150     0.0600  -999.2500  -999.2500  -999.2500
 2457.0000   120.1510     9.6500     2.5130     0.0660  -999.2500  -999.2500  -999.2500
