~VERSION INFORMATION
 VERS.                2.0:   CWLS LOG ASCII STANDARD - VERSION 2.0
 WRAP.                 NO:   ONE LINE PER DEPTH STEP
~WELL INFORMATION
#MNEM.UNIT      DATA TYPE    INFORMATION
#----------   ------------   ------------------------------
 STRT.F          200.0000:   START DEPTH
 STOP.F         3060.0000:   STOP DEPTH
 STEP.F            0.5000:   STEP LENGTH
 NULL.          -999.2500:   NO VALUE
 COMP.    FENIX & SCISSON:   COMPANY
 WELL. FENIX NPR 3 "AX" #58-21:   WELL
 FLD .      NPR - WILDCAT:   FIELD
 LOC .      S21 T39N R78W:   LOCATION
 CNTY.            NATRONA:   COUNTY
 STAT.            WYOMING:   STATE
 CTRY. UNITED STATES OF AMERICA:   COUNTRY
 SRVC.              WELEX:   SERVICE COMPANY
 DATE.        12-JUN-1977:   LOGDATE
 API .     49025103790000:   API NUMBER
~CURVE INFORMATION
#MNEM.UNIT       API CODE    CURVE DESCRIPTION
#----------   ------------   ------------------------------
 DEPT.F                  :   
 CALD.IN     45 280 60 00:   CALIPER FROM DENSITY LOG
 GRD .GAPI   45 310 01 00:   GAMMA RAY FROM DENSITY LOG
 CORR.G/C3   45 356 01 00:   DENSITY CORRECTION
 RHOB.G/C3   45 350 01 00:   BULK DENSITY
 SPR .MV     07 010 01 00:   SPONTANEOUS POTENTIAL
 ILD .OHMM   07 120 46 00:   DEEP INDUCTION RESISTIVITY
 GURD.OHMM   07 220 05 00:   GUARD LOG RESISTIVITY
 ILM .OHMM   07 120 44 00:   INDUCTION LOG MEDIUM RESISTIVITY
 DT  .US/F   60 520 00 00:   DELTA TIME
 SPHI.DEC    60 890 00 00:   SONIC POROSITY
~PARAMETER INFORMATION
#MNEM.UNIT          VALUE    DESCRIPTION
#----------   ------------   ------------------------------
 EKB .F         5016.0000:   Kelly bushing
 EGL .F         5006.0000:   Ground level
 EDF .F            0.0000:   Drilling floor
 EPD .F            0.0000:   Permanent datum
 TD  .F         3062.0000:   Total depth
 DATE.        12-JUN-1977:   Date logged
 CLNT.            A2DTECH:   Client Code
 SL  . 280' FSL & 2160' FEL:   Surface Location
 PD  .                 GL:   Permanent Datum
 DD  .F              3060:   Depth driller
 DL  .F              3062:   Depth logger
 BLI .F              3060:   Bottom log interval
 TLI .F              2450:   Top log interval
 CS1 .IN            8.625:   Casing size
 CBD1.      8.625" @ 200':   Casing driller 1
 CBL1.F               218:   Casing logger 1
 BS1 .IN            7.875:   Bit size
 BSD1.F              3060:   Depth drilled with bit1
 DFT .            KCL/MUD:   Type fluid in hole
 DFD .                8.7:   Density
 DFV .                 33:   Viscosity
 DFPH.                7.5:   pH
 DFL .                 36:   Fluid loss
 MSS .           FLOWLINE:   Source of sample
 TCS .HRS             4.5:   Time Circ. stopped
 MRT .F               110:   Maximum recorded temp.
 LUN .               8611:   Logging unit number
 LUL .           GILLETTE:   Logging unit location
 ENGI.            C. DOAK:   Recorded By
 WITN.            RHOADES:   Witnessed by
 ORIG.           5" PRINT:   Origin of data
 UWI .     49025103790000:   Unique Well ID
 DICO. A2D TECHNOLOGIES, INC.:   Digitizing Company
 DAPD.                 10:   Feet Above Permanent Datum
 RMS .OHMM            1.3:   Rm
 MST .F                84:   Rm Meas. temp.
 RMF .OHMM            .52:   Rmf
 MFST.F                84:   Rmf Meas. temp.
 MFSS.               FANN:   Source Rmf.
 RMC .OHMM           1.43:   Rmc
 MCST.F                84:   Rmc Meas. temp.
 MCSS.                KIT:   Source Rmc.
 RMB .OHMM            .99:   Rm. at BHT
 BHT .F               110:   BHT.
~OTHER INFORMATION
~A   DEPT     CALD         GRD      CORR       RHOB        SPR        ILD       GURD        ILM         DT       SPHI   
# ...
  434.5000     9.5350    88.0040     0.0260     2.4690   -54.7680    14.1540    12.7420    13.2940  -999.2500  -999.2500
  435.0000     9.5310    87.7120     0.0220     2.4760   -54.7010    14.3860    12.7680    13.4920  -999.2500  -999.2500
  435.5000     9.5260    87.3800     0.0170     2.4840   -54.6350    14.6190    12.7930    13.6910  -999.2500  -999.2500
  436.0000     9.5210    87.3550     0.0130     2.4700   -54.5680    14.8510    12.8190    13.8890  -999.2500  -999.2500
  436.5000     9.5160    87.3490     0.0080     2.4520   -54.5010    15.0320    12.8440    13.9650  -999.2500  -999.2500
  437.0000     9.5110    87.3510     0.0040     2.4340   -54.4380    15.0320    12.8700    13.9770  -999.2500  -999.2500
  437.5000     9.5070    87.3470     0.0020     2.4350   -54.3610    15.0320    12.8950    13.9930  -999.2500  -999.2500
  438.0000     9.5020    87.1190     0.0070     2.4420   -54.4200    15.0320    12.9210    14.0090  -999.2500  -999.2500
  438.5000     9.4980    86.8250     0.0120     2.4500   -54.5500    15.0320    12.9470    14.0250  -999.2500  -999.2500
  439.0000     9.4990    86.5280     0.0140     2.4520   -54.6670    15.0320    12.9730    14.0400  -999.2500  -999.2500
  439.5000     9.5010    86.2290     0.0130     2.4480   -54.7840    15.0320    13.1510    14.0560  -999.2500  -999.2500
  440.0000     9.5030    85.9580     0.0100     2.4450   -54.9040    15.0320    13.3340    14.0720  -999.2500  -999.2500
  440.5000     9.5040    85.6230     0.0080     2.4450   -55.0200    15.0490    13.5170    14.0870  -999.2500  -999.2500
  441.0000     9.5060    85.3530     0.0050     2.4500   -55.1390    15.0790    13.7100    14.1030  -999.2500  -999.2500
  441.5000     9.5080    85.2260     0.0090     2.4590   -55.2580    15.1100    13.6650    14.1190  -999.2500  -999.2500
  442.0000     9.5090    85.6460     0.0140     2.4680   -55.3730    15.1390    13.5830    14.1340  -999.2500  -999.2500
  442.5000     9.5110    84.9550     0.0170     2.4770   -55.4980    15.1690    13.5010    14.1500  -999.2500  -999.2500
  443.0000     9.5130    84.4120     0.0200     2.4800   -55.5000    15.1980    13.4200    14.1650  -999.2500  -999.2500
  443.5000     9.5150    83.7310     0.0220     2.4820   -55.4300    15.2300    13.3380    14.1800  -999.2500  -999.2500
  444.0000     9.5160    83.9330     0.0210     2.4850   -55.3690    15.2610    13.2140    14.1970  -999.2500  -999.2500
  444.5000     9.5180    85.9650     0.0160     2.4800   -55.3100    15.2840    13.2890    14.2210  -999.2500  -999.2500
  445.0000     9.5200    87.9500     0.0120     2.4680   -55.2470    15.3120    13.4600    14.1500  -999.2500  -999.2500
  445.5000     9.5210    89.4080     0.0080     2.4560   -55.1830    14.9510    13.0720    13.8860  -999.2500  -999.2500
  446.0000     9.5230    90.2380     0.0030     2.4440   -55.1720    14.5400    12.6300    13.6230  -999.2500  -999.2500
  446.5000     9.5250    91.1420    -0.0010     2.4330   -55.3080    14.1280    12.1890    13.3600  -999.2500  -999.2500
  447.0000     9.5260    92.0400    -0.0060     2.4210   -55.4410    13.7170    11.7480    13.0960  -999.2500  -999.2500
  447.5000     9.5280    92.8570    -0.0040     2.4190   -55.5790    13.3060    11.3060    12.8330  -999.2500  -999.2500
  448.0000     9.5300    93.1800     0.0000     2.4290   -55.7150    12.8950    10.7900    12.5690  -999.2500  -999.2500
  448.5000     9.5310    93.4860     0.0040     2.4450   -55.8510    12.4840    10.7900    12.3060  -999.2500  -999.2500
  449.0000     9.5330    93.3160     0.0090     2.4470   -55.9870    12.0730    10.7400    12.0420  -999.2500  -999.2500
  449.5000     9.5350    91.7300     0.0080     2.4390   -56.1240    11.8310    10.6910    11.7790  -999.2500  -999.2500
  450.0000     9.5370    90.4650     0.0040     2.4280   -56.2600    11.8310    10.6430    11.5150  -999.2500  -999.2500
  450.5000     9.5360    89.5510    -0.0010     2.4170   -56.3960    11.6640    10.5930    11.2520  -999.2500  -999.2500
  451.0000     9.5320    88.9820    -0.0050     2.4030   -56.5320    11.5250    10.3210    10.9880  -999.2500  -999.2500
  451.5000     9.5280    89.4770    -0.0100     2.4070   -56.6680    11.3860    10.0460    10.7250  -999.2500  -999.2500
  452.0000     9.5240    89.8970    -0.0070     2.4170   -56.8050    11.2470     9.7710    10.4620  -999.2500  -999.2500
  452.5000     9.5210    90.2750    -0.0040     2.4260   -56.9400    11.1080     9.4850    10.2100  -999.2500  -999.2500
  453.0000     9.5170    91.3080    -0.0010     2.4320   -57.0770    10.9910     9.6610    10.1870  -999.2500  -999.2500
  453.5000     9.5130    92.8390     0.0020     2.4350   -57.1820    10.9910     9.6610    10.1450  -999.2500  -999.2500
  454.0000     9.5090    94.2900     0.0050     2.4380   -57.2730    10.9910     9.6610    10.1040  -999.2500  -999.2500
  454.5000     9.5050    95.7280     0.0080     2.4460   -57.3650    10.9910     9.6610    10.0620  -999.2500  -999.2500
  455.0000     9.5010    97.1710     0.0110     2.4530   -57.4580    10.9910     9.6610    10.0200  -999.2500  -999.2500
  455.5000     9.4980    98.6660     0.0140     2.4610   -57.5500    10.9910     9.6610     9.9790  -999.2500  -999.2500
  456.0000     9.4940    99.2540     0.0180     2.4680   -57.6420    10.9000     9.6610     9.9370  -999.2500  -999.2500
  456.5000     9.4900    99.1910     0.0220     2.4740   -57.7340    10.7900     9.6610     9.8960  -999.2500  -999.2500
  457.0000     9.4860    98.9420     0.0190     2.4660   -57.8260    10.7900     9.5660     9.8540  -999.2500  -999.2500
  457.5000     9.4820    98.6900     0.0150     2.4580   -57.9180    10.6970     9.4600     9.8120  -999.2500  -999.2500
  458.0000     9.4780    98.4210     0.0100     2.4490   -58.0100    10.5610     9.3530     9.7700  -999.2500  -999.2500
  458.5000     9.4740    98.1450     0.0100     2.4390   -58.1020    10.4260     9.2470     9.7280  -999.2500  -999.2500
  459.0000     9.4710    97.9020     0.0130     2.4350   -58.1940    10.2900     9.1400     9.6860  -999.2500  -999.2500
  459.5000     9.4670    97.6850     0.0160     2.4300   -58.2870    10.1540     9.0340     9.6440  -999.2500  -999.2500
  460.0000     9.4630    98.3990     0.0180     2.4220   -58.3790    10.0180     8.9750     9.6020  -999.2500  -999.2500
  460.5000     9.4590    99.1300     0.0180     2.4150   -58.4710     9.8820     8.9560     9.5600  -999.2500  -999.2500
  461.0000     9.4550    99.9320     0.0180     2.4100   -58.5630     9.7470     8.8760     9.5180  -999.2500  -999.2500
  461.5000     9.4510   100.6390     0.0180     2.4140   -58.6550     9.6110     8.7950     9.3120  -999.2500  -999.2500
  462.0000     9.4470   101.5030     0.0200     2.4180   -58.7470     9.4750     8.7150     9.1150  -999.2500  -999.2500
  462.5000     9.4440   101.1220     0.0250     2.4210   -58.8390     9.3120     8.6500     8.8740  -999.2500  -999.2500
  463.0000     9.4400   100.5920     0.0300     2.4260   -58.9310     9.2430     8.2870     8.6330  -999.2500  -999.2500
  463.5000     9.4360   100.0000     0.0340     2.4240   -59.0250     9.0680     7.9840     8.3920  -999.2500  -999.2500
  464.0000     9.4320   100.2770     0.0390     2.4180   -59.0840     8.8940     7.6810     8.1510  -999.2500  -999.2500
  464.5000     9.4280   100.7830     0.0420     2.4070   -59.0610     8.7190     7.3790     7.9100  -999.2500  -999.2500
  465.0000     9.4240   101.3100     0.0400     2.3880   -59.0400     8.5440     7.0640     7.6690  -999.2500  -999.2500
  465.5000     9.4200   101.7410     0.0370     2.3730   -59.0170     8.3700     6.5390     7.4650  -999.2500  -999.2500
  466.0000     9.4230   102.3020     0.0330     2.3410   -58.9940     8.1850     5.1650     7.4650  -999.2500  -999.2500
  466.5000     9.4310   101.0300     0.0290     2.3130   -58.9710     8.6140     5.2610     7.8140  -999.2500  -999.2500
  467.0000     9.4390    99.3210     0.0180     2.2730   -58.9490     9.1250     7.4650     8.1830  -999.2500  -999.2500
  467.5000     9.4460    97.7130     0.0060     2.2780   -58.9260     9.6370     7.7450     8.5520  -999.2500  -999.2500
