~VERSION INFORMATION
 VERS.                2.0:   CWLS LOG ASCII STANDARD - VERSION 2.0
 WRAP.                 NO:   ONE LINE PER DEPTH STEP
~WELL INFORMATION
#MNEM.UNIT      DATA TYPE    INFORMATION
#----------   ------------   ------------------------------
 STRT.F           32.0000:   START DEPTH
 STOP.F         2998.0000:   STOP DEPTH
 STEP.F            0.5000:   STEP LENGTH
 NULL.          -999.2500:   NO VALUE
 COMP.   TESORO PETROLEUM:   COMPANY
 WELL. TESORO N.P.R. #3-34:   WELL
 FLD .        TEAPOT DOME:   FIELD
 LOC .      S34 T39N R78W:   LOCATION
 CNTY.            NATRONA:   COUNTY
 STAT.            WYOMING:   STATE
 CTRY. UNITED STATES OF AMERICA:   COUNTRY
 SRVC.       SCHLUMBERGER:   SERVICE COMPANY
 DATE.        08-AUG-1969:   LOGDATE
 API .     49025100250000:   API NUMBER
~CURVE INFORMATION
#MNEM.UNIT       API CODE    CURVE DESCRIPTION
#----------   ------------   ------------------------------
 DEPT.F                  :   
 SPR .MV     05 010 01 00:   SPONTANEOUS POTENTIAL FROM RES.
 ASN .OHMM   05 040 16 00:   AMPLIFIED SHORT NORMAL 16"
 ILD .OHMM   05 120 46 00:   INDUCTION LOG DEEP
 CORR.G/C3   45 356 01 00:   DENSITY CORRECTION
 GRD .GAPI   45 310 01 00:   GAMMA RAY FROM DENSITY LOG
 CALD.IN     45 280 60 00:   CALIPER FROM DENSITY LOG
 RHOB.G/C3   45 350 01 00:   BULK DENSITY
~PARAMETER INFORMATION
#MNEM.UNIT          VALUE    DESCRIPTION
#----------   ------------   ------------------------------
 EKB .F         5185.0000:   Kelly bushing
 EGL .F         5172.0000:   Ground level
 TD  .F         2999.0000:   Total depth
 CLNT.            A2DTECH:   Client Code
 SL  . 465' FWL & 1075' FSL':   Surface Location
 DATE.        08-AUG-1969:   Date Logged [DD-MMM-YYYY]
 DD  .F              2998:   Depth driller
 DL  .F              2999:   Depth logger
 BLI .F              2998:   Bottom log interval
 TLI .F               615:   Top log interval
 CS1 .              10.75:   Casing size
 CBD1.      10.75" @ 615':   Casing driller 1
 CBL1.IN              615:   Casing logger 1
 BS1 .IN                9:   Bit size
 BSD1.F              2998:   Depth drilled with bit1
 DFT .      FRESH GEL MUD:   Type fluid in hole
 DFD .                9.6:   Density
 DFV .                 55:   Viscosity
 DFPH.                9.5:   pH
 DFL .                7.0:   Fluid loss
 MSS .           FLOWLINE:   Source of sample
 RMS .OHMM           0.75:   Rm
 MST .F                87:   Rm Meas. temp.
 RMF .OHMM           1.09:   Rmf
 MFST.F                87:   Rmf Meas. temp.
 MFSS.               MEAS:   Source Rmf.
 RMB .OHMM           0.59:   Rm. at BHT
 BHT .F               111:   BHT.
 TCS .HRS               3:   Time Circ. stopped
 MRT .F               111:   Maximum recorded temp.
 LUN .               4507:   Logging unit number
 LUL .               CSPR:   Logging unit location
 ENGI.            ED MIXA:   Recorded By
 WITN.                MAY:   Witnessed by
 ORIG.   1" 2.5" 5" PRINT:   Origin of data
 UWI .     49025100250000:   Unique Well ID
 DICO. A2D TECHNOLOGIES, INC.:   Digitizing Company
~OTHER INFORMATION
~A   DEPT      SPR        ASN        ILD       CORR        GRD       CALD       RHOB   
# ...
 1943.0000   -32.4017     9.3184     7.4385     0.0138   101.7065     9.2679     2.5215
 1943.5000   -32.2480     9.2315     7.2922     0.0098   103.5520     9.2682     2.5068
 1944.0000   -32.3854     9.1440     7.2940     0.0133   107.8425     9.2379     2.5343
 1944.5000   -32.3753     9.0857     7.3695     0.0227   110.2982     9.2382     2.5482
 1945.0000   -32.2237     9.0724     7.3709     0.0310   108.4725     9.2385     2.5370
 1945.5000   -32.0701     9.1919     7.3723     0.0365   107.2584     9.2388     2.5260
 1946.0000   -32.2054     9.3112     7.3737     0.0333   106.0443     9.2085     2.5188
 1946.5000   -32.3408     9.3714     7.5232     0.0258   106.0535     9.2088     2.5149
 1947.0000   -32.3326     9.3725     7.5246     0.0174   106.0627     9.2092     2.5085
 1947.5000   -32.4680     9.3443     7.6737     0.0122   108.5184     9.2095     2.5007
 1948.0000   -32.6033     9.3011     7.8228     0.0137   108.7300     9.2098     2.5033
 1948.5000   -32.5932     9.2432     7.8245     0.0115   107.3135     9.2101     2.5146
 1949.0000   -32.4416     9.2147     7.8997     0.0048   105.4878     9.2104     2.5225
 1949.5000   -32.2898     9.2161     7.9011     0.0071   104.6800     9.2107     2.5290
 1950.0000   -32.4233     9.2468     7.9764     0.0195   106.1177     9.2110     2.5324
 1950.5000   -32.7002     9.2774     7.9042     0.0182   100.0107     9.2113     2.5212
 1951.0000   -32.6886     9.2936     7.9056     0.0194    98.7966     9.2116     2.5162
 1951.5000   -32.6752     9.2504     7.8328     0.0278   100.6407     9.2120     2.5376
 1952.0000   -32.5208     9.1629     7.7597     0.0334   104.9312     9.1967     2.5489
 1952.5000   -32.2229     9.0901     7.3193     0.0305   107.3869     9.1975     2.5304
 1953.0000   -32.0685     8.9290     6.9040     0.0197   108.6193     9.2129     2.5274
 1953.5000   -31.9139     8.7086     6.4567     0.0197   109.2401     9.2132     2.5401
 1954.0000   -31.9023     8.5176     6.0917     0.0293   109.2492     9.2135     2.5472
 1954.5000   -31.7460     8.2520     5.8668     0.0335   109.2584     9.2138     2.5354
 1955.0000   -31.4482     7.3930     5.6570     0.0337   108.6560     9.2141     2.5413
 1955.5000   -31.2938     6.9949     5.5135     0.0419   104.9954     9.2144     2.5531
 1956.0000   -31.2819     6.7445     5.3700     0.0820    99.5000     9.2147     2.5251
 1956.5000   -31.2692     6.6108     5.3013     0.0933    98.2844     9.2150     2.5310
 1957.0000   -31.1148     6.5245     5.3796     0.0825    99.5183     9.2153     2.5059
 1957.5000   -31.1038     6.7320     5.3848     0.0515   102.5856     9.1850     2.4425
 1958.0000   -31.2368     7.0134     5.3890     0.0173   105.0413     9.1853     2.4985
 1958.5000   -31.2252     6.9402     5.3933     0.0105   103.2156     9.1856     2.4882
 1959.0000   -31.2118     6.8228     5.4713     0.0105   100.7783     9.1860     2.4878
 1959.5000   -31.2008     6.8383     5.5495     0.0129   105.0688     9.1863     2.4985
 1960.0000   -31.0464     6.9425     5.7024     0.0165   106.9128     9.1866     2.4941
 1960.5000   -31.0355     7.3125     5.8543     0.0198   107.1245     9.1869     2.4661
 1961.0000   -31.0244     7.5791     5.9324     0.0211   105.0963     9.1872     2.5162
 1961.5000   -30.8674     7.6832     6.1582     0.0142   105.7171     9.1875     2.5324
 1962.0000   -30.8565     7.6376     6.3141     0.0215   110.0076     9.1878     2.5251
 1962.5000   -30.9918     7.4927     6.4631     0.0327   113.0749     9.1881     2.5432
 1963.0000   -30.9781     7.4344     6.5412     0.0404   114.9190     9.2190     2.5472
 1963.5000   -30.9670     7.4498     6.5454     0.0454   116.1514     9.2193     2.5015
 1964.0000   -31.0997     7.5244     6.5497     0.0429   117.3838     9.2196     2.5259
 1964.5000   -31.2323     7.5694     6.4800     0.0331   118.0046     9.2199     2.5313
 1965.0000   -31.3630     7.6294     6.3365     0.0214   116.7905     9.2202     2.5265
 1965.5000   -31.4964     7.6301     6.1202     0.0134   114.3532     9.2205     2.4985
 1966.0000   -31.4835     7.5126     5.9029     0.0136   112.5275     9.2377     2.5154
 1966.5000   -31.3275     7.2918     5.7594     0.0195   111.3135     9.2517     2.5236
 1967.0000   -31.3156     7.1300     5.6898     0.0195   109.4878     9.2520     2.5092
 1967.5000   -31.1612     6.9621     5.6202     0.0209   107.6621     9.2523     2.4985
 1968.0000   -31.1503     6.6737     5.5516     0.0245   106.8541     9.2697     2.5151
 1968.5000   -30.9957     6.4676     5.5558     0.0308   107.6804     9.2835     2.5205
 1969.0000   -30.8387     6.2615     5.5600     0.0392   108.3012     9.2838     2.5243
 1969.5000   -30.8278     6.0407     5.5643     0.0654   105.8639     9.2841     2.5340
 1970.0000   -30.5299     5.8050     5.5695     0.0959   103.4266     9.3150     2.5539
 1970.5000   -30.5190     5.7910     5.5738     0.1265   105.8823     9.3153     2.5258
 1971.0000   -30.5079     5.8362     5.6518     0.1571   107.7263     9.3156     2.5286
 1971.5000   -30.4944     6.0880     5.6561     0.1398   108.3471     9.2984     2.5339
 1972.0000   -30.4835     6.3546     5.6603     0.1050   109.5795     9.2856     2.4056
 1972.5000   -30.4725     6.3996     5.6656     0.0702   107.7538     9.2859     2.4248
 1973.0000   -30.4616     6.3545     5.6698     0.0361   105.9281     9.2863     2.5059
 1973.5000   -30.5942     6.1057     5.5991     0.0587   102.8792     9.2688     2.5310
 1974.0000   -30.7267     5.7815     5.5305     0.0712   100.4419     9.2563     2.5428
 1974.5000   -30.8592     5.6936     5.5347     0.0722    96.1697     9.2744     2.5516
 1975.0000   -30.9890     5.6943     5.3913     0.0730    97.4021     9.2875     2.5398
 1975.5000   -30.9781     5.7100     5.3216     0.0878    98.6346     9.2878     2.4838
 1976.0000   -30.6705     5.7697     5.2520     0.0680    98.6437     9.2881     2.4941
 1976.5000   -30.2362     5.8590     5.1824     0.0485    98.6529     9.2884     2.5133
 1977.0000   -29.9383     5.9484     5.1876     0.0325   101.1086     9.2887     2.4749
 1977.5000   -29.9274     6.0525     5.4136     0.0219   102.3410     9.2709     2.4484
 1978.0000   -29.9164     6.1566     5.7141     0.0133   103.5734     9.2281     2.4530
 1978.5000   -30.0490     6.2477     6.0138     0.0497   103.5826     9.2102     2.4722
 1979.0000   -30.1815     6.4388     6.3134     0.0606   104.2034     9.1982     2.4749
 1979.5000   -30.1678     7.0451     6.6131     0.0545   104.8242     9.1985     2.4283
 1980.0000   -30.4439     7.5038     6.8390     0.0466   105.4450     9.1988     2.4383
 1980.5000   -30.7199     7.7113     7.0657     0.0497   106.0658     9.1991     2.5533
 1981.0000   -30.8524     7.9065     7.2176     0.0314   107.9098     9.1994     2.5649
 1981.5000   -30.6953     8.2741     7.2219     0.0176   109.1422     9.1998     2.5531
 1982.0000   -30.6843     8.4226     7.2999     0.0149   110.9862     9.1695     2.5594
 1982.5000   -30.5299     8.4971     7.3129     0.0196   106.1024     9.1698     2.5383
 1983.0000   -30.2321     8.5421     7.3084     0.0256   106.1116     9.1701     2.5560
 1983.5000   -30.2209     8.6019     7.2388     0.0268   110.4021     9.1704     2.5615
 1984.0000   -30.2075     8.6322     7.1691     0.0293   112.2462     9.1707     2.5655
 1984.5000   -30.1965     8.6181     6.9528     0.0299   108.5856     9.1710     2.5507
 1985.0000   -30.1847     8.5599     6.8759     0.0280   107.3716     9.1713     2.5513
 1985.5000   -30.3185     8.4720     6.6659     0.0239   106.1575     9.1716     2.5618
 1986.0000   -30.4489     8.3693     6.5224     0.0188   108.6132     9.1719     2.5598
 1986.5000   -30.4370     8.2496     6.5277     0.0086   115.3502     9.1722     2.5492
 1987.0000   -30.5710     7.8982     6.4579     0.0037   117.1942     9.1725     2.5328
 1987.5000   -30.5596     7.6330     6.1607     0.0065   117.2034     9.2034     2.5139
 1988.0000   -30.5459     7.4270     5.7290     0.0192   117.2125     9.2037     2.5236
