~VERSION INFORMATION
 VERS.                2.0:   CWLS LOG ASCII STANDARD - VERSION 2.0
 WRAP.                 NO:   ONE LINE PER DEPTH STEP
~WELL INFORMATION
#MNEM.UNIT      DATA TYPE    INFORMATION
#----------   ------------   ------------------------------
 STRT.F           20.0000:   START DEPTH
 STOP.F         4128.0000:   STOP DEPTH
 STEP.F            0.5000:   STEP LENGTH
 NULL.          -999.2500:   NO VALUE
 COMP. LAWRENCE-ALLISON & ASSOCIATES:   COMPANY
 WELL. LAWRENCE "X" #53-3:   WELL
 FLD .             NPR #3:   FIELD
 LOC .       S3 T38N R78W:   LOCATION
 CNTY.            NATRONA:   COUNTY
 STAT.            WYOMING:   STATE
 CTRY. UNITED STATES OF AMERICA:   COUNTRY
 SRVC.      DRESSER ATLAS:   SERVICE COMPANY
 DATE.        18-SEP-1983:   LOGDATE
 API .     49025109370000:   API NUMBER
~CURVE INFORMATION
#MNEM.UNIT       API CODE    CURVE DESCRIPTION
#----------   ------------   ------------------------------
 DEPT.F                  :   
 NPHI.DEC    42 890 03 00:   NEUTRON POROSITY SANDSTONE
 TEND.LBS    45 635 01 00:   TENSION FORM DENSITY LOG
 CORR.G/C3   45 356 01 00:   DENSITY CORRECTION
 RHOB.G/C3   45 350 01 00:   BULK DENSITY
 CALD.IN     45 280 60 00:   CALIPER FROM DENSITY LOG
 GRR .GAPI   07 310 01 00:   GAMMA RAY FROM RESISTIVITY
 TENR.LBS    06 635 01 00:   TENSION FROM RESISTIVITY
 SPR .MV     07 010 01 00:   SPONTANEOUS POTENTIAL
 RILD.OHMM   07 120 46 00:   DEEP INDUCTION RESISTIVITY
 RILM.OHMM   07 120 44 00:   INDUCTION LOG MEDIUM RESISTIVITY
 RSFL.OHMM   07 220 01 00:   SPHERICALLY FOCUSED RESISTIVITY
 TENS.LBS    60 635 01 00:   TENSION FROM SONIC
 DT  .US/F   60 520 00 00:   DELTA TIME
~PARAMETER INFORMATION
#MNEM.UNIT          VALUE    DESCRIPTION
#----------   ------------   ------------------------------
 EKB .F         5214.0000:   Kelly bushing
 EGL .F         5204.0000:   Ground level
 EDF .F            0.0000:   Drilling floor
 TD  .F         4117.0000:   Total depth
 CLNT.            A2DTECH:   Client Code
 PD  .                 GL:   Permanent Datum
 EPD .F              5204:   Elevation Permanent Datum
 LMF .                 KB:   Log Measured From
 DMF .                 KB:   Drilling Measured From
 DAPD.F                10:   Feet Above Permanent Datum
 DATE.        18-SEP-1983:   Date Logged [DD-MMM-YYYY]
 DD  .F              4117:   Depth driller
 DL  .F              4113:   Depth logger
 BLI .F              4110:   Bottom log interval
 TLI .F                 0:   Top log interval
 CS1 .IN            9.625:   Casing size
 CBD1.      9.625" @ 523':   Casing driller 1
 CBL1.F               523:   Casing logger 1
 BS1 .IN            7.875:   Bit size
 BSD1.F              4117:   Depth drilled with bit1
 DFT .            GEL KCL:   Type fluid in hole
 DFD .                9.0:   Density
 DFV .                 42:   Viscosity
 DFPH.                8.5:   pH
 DFL .                 10:   Fluid loss
 MSS .               TANK:   Source of sample
 RMS .OHMM           0.35:   Rm
 MST .F                68:   Rm Meas. temp.
 RMF .OHMM          0.266:   Rmf
 MFST.F                68:   Rmf Meas. temp.
 MFSS.               MEAS:   Source Rmf.
 RMC .OHMM          0.443:   Rmc
 MCST.F                68:   Rmc Meas. temp.
 MCSS.               CALC:   Source Rmc.
 RMB .OHMM          0.185:   Rm. at BHT
 BHT .F               130:   BHT.
 TCS .HRS               4:   Time Circ. stopped
 MRT .F               130:   Maximum recorded temp.
 LUN .               6270:   Logging unit number
 LUL .              WLSTN:   Logging unit location
 ENGI.             REEVES:   Recorded By
 WITN.             STRONG:   Witnessed by
 ORIG.           5" PRINT:   Origin of data
 UWI .     49025109370000:   Unique Well ID
 DICO. A2D TECHNOLOGIES, INC.:   Digitizing Company
~OTHER INFORMATION
~A   DEPT     NPHI       TEND       CORR       RHOB       CALD         GRR      TENR        SPR       RILD       RILM       RSFL       TENS         DT   
# ...
  748.0000     0.2945   -57.8473     0.0536     2.5090    10.1646   118.8929   -81.5430   -79.3814     6.0780     6.1085     6.0683  -999.2500  -999.2500
  748.5000     0.2933   -61.5823     0.0521     2.5008    10.1636   114.6261   -81.5430   -79.5287     6.1184     6.1501     6.1089  -999.2500  -999.2500
  749.0000     0.2983   -65.3092     0.0521     2.4962    10.1626   117.3473   -81.5430   -79.6760     6.1158     6.1475     6.1497  -999.2500  -999.2500
  749.5000     0.3040   -65.2715     0.0377     2.4932    10.1616   120.3753   -81.5430   -79.6760     6.1125     6.1447     6.1455  -999.2500  -999.2500
  750.0000     0.3054   -65.2278     0.0023     2.4902    10.1606   121.5825   -81.5430   -79.5287     6.1797     6.1345     6.1866  -999.2500  -999.2500
  750.5000     0.2813   -65.1921    -0.0279     2.4917    10.1596   118.5193   -81.5430   -79.8258     6.2235     6.0956     6.1839  -999.2500  -999.2500
  751.0000     0.2695   -65.1563    -0.0219     2.4901    10.1586   117.8941   -81.5430   -79.2402     6.2672     6.0936     6.1812  -999.2500  -999.2500
  751.5000     0.2574   -68.8914    -0.0128     2.4931    10.1576   119.0925   -81.5430   -78.9484     6.3110     6.0915     6.1785  -999.2500  -999.2500
  752.0000     0.2637   -68.8465     0.0158     2.4991    10.1566   118.1633   -81.5430   -78.5095     6.3625     6.1777     6.1759  -999.2500  -999.2500
  752.5000     0.2718   -68.8108     0.0474     2.4990    10.1556   115.9977   -81.5430   -78.0711     6.3129     6.1751     6.1732  -999.2500  -999.2500
  753.0000     0.2824   -68.7750     0.0140     2.4967    10.1546   113.5650   -81.5430   -77.6321     6.3090     6.2181     6.2147  -999.2500  -999.2500
  753.5000     0.2923   -68.7392    -0.0011     2.4974    10.1536   115.6753   -81.5430   -77.1931     6.3051     6.2609     6.2122  -999.2500  -999.2500
  754.0000     0.2840   -61.1614    -0.0072     2.5011    10.1526   117.4817   -81.5430   -76.9013     6.3469     6.3491     6.2096  -999.2500  -999.2500
  754.5000     0.2728   -57.3465    -0.0072     2.5063    10.1516   120.1999   -81.5430   -76.6096     6.3426     6.3468     6.2071  -999.2500  -999.2500
  755.0000     0.2719   -53.5400    -0.0042     2.5108    10.1506   119.2502   -81.5430   -76.3179     6.3240     6.3442     6.2494  -999.2500  -999.2500
  755.5000     0.2710   -53.5043     0.0018     2.5153    10.1496   116.8174   -81.5430   -76.3214     6.2887     6.3420     6.2920  -999.2500  -999.2500
  756.0000     0.2653   -49.6977     0.0198     2.5197    10.1486   113.7605   -81.5430   -76.3242     6.2848     6.3399     6.2890  -999.2500  -999.2500
  756.5000     0.2620   -49.0940     0.0047     2.5219    10.1476   116.4787   -81.5951   -76.3270     6.3311     6.3376     6.3317  -999.2500  -999.2500
  757.0000     0.2593   -45.8465     0.0077     2.5196    10.1467   121.9325   -81.9271   -76.4777     6.3678     6.3813     6.3748  -999.2500  -999.2500
  757.5000     0.2594   -45.8108     0.0091     2.5143    10.1509   124.3467   -82.2589   -76.6278     6.4105     6.4339     6.4176  -999.2500  -999.2500
  758.0000     0.2585   -45.7750     0.0060     2.5060    10.1556   123.7171   -82.5911   -76.9252     6.4755     6.5436     6.5081  -999.2500  -999.2500
  758.5000     0.2555   -41.9683    -0.0076     2.5030    10.1603   117.3168   -82.9232   -77.2225     6.6356     6.7038     6.6475  -999.2500  -999.2500
  759.0000     0.2534   -45.7034    -0.0136     2.5044    10.1649   113.0441   -83.2552   -77.5199     6.7766     6.8974     6.7899  -999.2500  -999.2500
  759.5000     0.2516   -49.4384    -0.0046     2.5082    10.1696   112.1149   -83.5872   -77.9652     6.9706     7.1473     7.0518  -999.2500  -999.2500
  760.0000     0.2510   -53.1734     0.0110     2.5126    10.1742   112.0770   -83.9193   -78.2626     7.2188     7.4604     7.4213  -999.2500  -999.2500
  760.5000     0.2483   -53.7394     0.0164     2.5141    10.1788   108.7324   -84.2513   -78.5599     7.6450     7.7320     7.7908  -999.2500  -999.2500
  761.0000     0.2522   -57.3338     0.0088     2.5140    10.1835   108.7150   -84.5833   -78.8573     7.9208     8.0121     8.2327  -999.2500  -999.2500
  761.5000     0.2556   -60.9282    -0.0033     2.5140    10.1856   110.8253   -84.9154   -79.1561     8.1488     8.3037     8.7175  -999.2500  -999.2500
  762.0000     0.2520   -60.7077    -0.0199     2.5139    10.1857   112.9362   -85.2474   -79.6000     8.3811     8.6661     8.9695  -999.2500  -999.2500
  762.5000     0.2474   -64.3021    -0.0351     2.5131    10.1857   108.5356   -85.5796   -79.7500     8.5639     8.9163     9.1608  -999.2500  -999.2500
  763.0000     0.2400   -67.8965    -0.0411     2.5138    10.1857   100.1350   -85.9119   -79.7526     8.7407     8.9785     9.2899  -999.2500  -999.2500
  763.5000     0.2337   -69.1986    -0.0137     2.5160    10.1857   105.2805   -86.2435   -79.6084     8.8622     8.9102     9.3532  -999.2500  -999.2500
  764.0000     0.2313   -71.2705     0.0161     2.5175    10.1857   108.6066   -86.3264   -79.4600     8.8554     8.9055     9.2813  -999.2500  -999.2500
  764.5000     0.2328   -67.2793     0.0266     2.5197    10.1857   110.1090   -86.1060   -79.0249     8.8500     8.6505     9.3449  -999.2500  -999.2500
  765.0000     0.2349   -67.1030     0.0054     2.5204    10.1857   110.3956   -85.8857   -78.5865     8.7796     8.6475     9.3408  -999.2500  -999.2500
  765.5000     0.2353   -66.9306    -0.0131     2.5204    10.1857   106.4225   -85.6653   -78.2948     8.7119     8.7071     9.4828  -999.2500  -999.2500
  766.0000     0.2368   -66.7062    -0.0158     2.5173    10.1857   102.1498   -85.4449   -78.0031     8.6433     8.7678     9.7453  -999.2500  -999.2500
  766.5000     0.2425   -66.5299     0.0023     2.5135    10.1857   100.9167   -85.2245   -77.8522     8.6380     8.8274     9.8827  -999.2500  -999.2500
  767.0000     0.2494   -66.3535     0.0158     2.5097    10.1857    99.9875   -85.0042   -77.4196     8.6325     8.7602     9.8067  -999.2500  -999.2500
  767.5000     0.2540   -62.4057     0.0233     2.5112    10.1857   100.3090   -84.7838   -76.9812     8.6269     8.6944     9.5911  -999.2500  -999.2500
  768.0000     0.2446   -62.1860     0.0052     2.5141    10.1857   102.3800   -84.5634   -76.8361     8.6405     8.6290     9.4432  -999.2500  -999.2500
  768.5000     0.2329   -62.0097     0.0096     2.5186    10.1857   103.2789   -84.3430   -76.5449     8.7420     8.6261     9.3121  -999.2500  -999.2500
  769.0000     0.2236   -61.8334     0.0248     2.5201    10.1857   102.6493   -84.1227   -76.2533     8.7985     8.6231     9.3083  -999.2500  -999.2500
  769.5000     0.2312   -57.8808     0.0231     2.5163    10.1854   101.4161   -83.9023   -76.1088     8.8797     8.8714     9.4396  -999.2500  -999.2500
  770.0000     0.2393   -57.6659     0.0095     2.5095    10.1868   100.7909   -83.6819   -75.9643     8.9799     9.2600     9.6509  -999.2500  -999.2500
  770.5000     0.2486   -53.7188     0.0034     2.5011    10.1650   106.8482   -83.4615   -75.8198     9.1047     9.3920     9.9902  -999.2500  -999.2500
  771.0000     0.2536   -53.5424     0.0019     2.4996    10.1664   109.5664   -83.2411   -76.1179     9.1636     9.2537     9.9861  -999.2500  -999.2500
  771.5000     0.2580   -53.3220     0.0018     2.5041    10.1661   111.6810   -83.0208   -76.4266     9.1566     9.1181     9.7686  -999.2500  -999.2500
  772.0000     0.2622   -53.1457     0.0018     2.5108    10.1661   111.6593   -82.8004   -76.8606     9.1510     9.1810     9.5550  -999.2500  -999.2500
  772.5000     0.2664   -52.9693     0.0032     2.5175    10.1661   109.4226   -82.5800   -77.3052     9.0796     9.2762     9.4144  -999.2500  -999.2500
  773.0000     0.2616   -52.7903     0.0017     2.5219    10.1661   107.9729   -82.3596   -77.6026     9.1399     9.4421     9.3430  -999.2500  -999.2500
  773.5000     0.2487   -52.5726     0.0001     2.5227    10.1661   108.2638   -82.1393   -78.0472     9.1341     9.5758     9.4077  -999.2500  -999.2500
