~VERSION INFORMATION
 VERS.                2.0:   CWLS LOG ASCII STANDARD - VERSION 2.0
 WRAP.                 NO:   ONE LINE PER DEPTH STEP
~WELL INFORMATION
#MNEM.UNIT      DATA TYPE    INFORMATION
#----------   ------------   ------------------------------
 STRT.F          200.0000:   START DEPTH
 STOP.F         3098.0000:   STOP DEPTH
 STEP.F            0.5000:   STEP LENGTH
 NULL.          -999.2500:   NO VALUE
 COMP.    FENIX & SCISSON:   COMPANY
 WELL.   FENIX "AX" #74-3:   WELL
 FLD .              N P R:   FIELD
 LOC .       S3 T38N R78W:   LOCATION
 CNTY.            NATRONA:   COUNTY
 STAT.            WYOMING:   STATE
 CTRY. UNITED STATES OF AMERICA:   COUNTRY
 SRVC.              WELEX:   SERVICE COMPANY
 DATE.        17-AUG-1977:   LOGDATE
 API .     49025104120000:   API NUMBER
~CURVE INFORMATION
#MNEM.UNIT       API CODE    CURVE DESCRIPTION
#----------   ------------   ------------------------------
 DEPT.F                  :   
 CALD.IN     45 280 60 00:   CALIPER FROM DENSITY LOG
 SPR .MV     07 010 01 00:   SPONTANEOUS POTENTIAL
 NPHI.DEC    42 890 00 00:   NEUTRON POROSITY
 GRD .GAPI   45 310 01 00:   GAMMA RAY FROM DENSITY LOG
 CORR.G/C3   45 356 01 00:   DENSITY CORRECTION
 RHOB.G/C3   45 350 01 00:   BULK DENSITY
 SGRD.OHMM   07 220 05 00:   SHALLOW SHORT GUARD RESISTIVITY
 ILD .OHMM   07 120 46 00:   DEEP INDUCTION RESISTIVITY
 ILM .OHMM   07 120 44 00:   INDUCTION LOG MEDIUM RESISTIVITY
~PARAMETER INFORMATION
#MNEM.UNIT          VALUE    DESCRIPTION
#----------   ------------   ------------------------------
 EKB .F         5141.0000:   Kelly bushing
 EGL .F         5131.0000:   Ground level
 EDF .F            0.0000:   Drilling floor
 TD  .F         3100.0000:   Total depth
 DATE.        17-AUG-1977:   Date logged
 CLNT.            A2DTECH:   Client Code
 SL  . 2272' FNL & 1060' FEL:   Surface Location
 PD  .                 GL:   Permanent Datum
 EPD .F              5131:   Elevation Permanent Datum
 LMF .                 KB:   Log Measured From
 DMF .                 KB:   Drilling Measured From
 DD  .F              3100:   Depth driller
 DL  .F              3100:   Depth logger
 BLI .F              3098:   Bottom log interval
 TLI .F               200:   Top log interval
 CS1 .IN            8.625:   Casing size
 CBD1.      8.625" @ 215':   Casing driller 1
 CBL1.F               218:   Casing logger 1
 BS1 .IN            7.875:   Bit size
 DFT .            KCL MUD:   Type fluid in hole
 DFD .                8.8:   Density
 DFV .                 33:   Viscosity
 DFPH.                9.5:   pH
 DFL .               10.6:   Fluid loss
 MSS .           FLOWLINE:   Source of sample
 RMS .OHMM            .67:   Rm
 MST .F                98:   Rm Meas. temp.
 RMF .OHMM            .64:   Rmf
 MFST.F                98:   Rmf Meas. temp.
 RMC .OHMM            .31:   Rmc
 MCST.F                98:   Rmc Meas. temp.
 MFSS.           MEASURED:   Source Rmf.
 RMB .OHMM            .57:   Rm. at BHT
 BHT .F               115:   BHT.
 TCS .HRS               3:   Time Circ. stopped
 MRT .F               115:   Maximum recorded temp.
 LUN .               8611:   Logging unit number
 LUL .             CASPER:   Logging unit location
 ENGI.            C. DOAK:   Recorded By
 WITN.     MR. PETTINGILL:   Witnessed by
 ORIG.           5" PRINT:   Origin of data
 UWI .     49025104120000:   Unique Well ID
 DICO. A2D TECHNOLOGIES, INC.:   Digitizing Company
 BSD1.               3100:   Depth drilled with bit1
~OTHER INFORMATION
~A   DEPT       CALD      SPR       NPHI          GRD      CORR        RHOB     SGRD        ILD        ILM   
# ...
  966.5000    10.7200   -71.2730     0.3130     8.5120     0.0400     2.4850     8.6540     7.5000     7.9300
  967.0000    10.7140   -71.2920     0.3140     8.8080     0.0400     2.4850     8.6540     7.4970     7.9170
  967.5000    10.7080   -71.3120     0.3140     8.6770     0.0420     2.4850     8.6540     7.4940     7.9040
  968.0000    10.7040   -71.3310     0.3150     8.4140     0.0450     2.4850     8.6550     7.4910     7.8910
  968.5000    10.6990   -71.3500     0.3150     8.1480     0.0480     2.4910     8.6510     7.4890     7.8790
  969.0000    10.6930   -71.3690     0.3130     7.8520     0.0510     2.4980     8.6470     7.4860     7.8660
  969.5000    10.6870   -71.3890     0.3120     7.9520     0.0540     2.5050     8.7290     7.4830     7.8530
  970.0000    10.6820   -71.4080     0.3100     9.0830     0.0570     2.5130     8.7330     7.4800     7.8400
  970.5000    10.6760   -71.4270     0.3110    10.1830     0.0600     2.5200     8.7870     7.4770     7.8270
  971.0000    10.6700   -71.4470     0.3110    11.2820     0.0600     2.5280     8.8350     7.4750     7.8250
  971.5000    10.6650   -71.4660     0.3110    12.3820     0.0570     2.5300     8.8820     7.4660     7.8510
  972.0000    10.6590   -71.4850     0.3120    13.4880     0.0530     2.5310     8.9290     7.4570     7.8920
  972.5000    10.6530   -71.5050     0.3110    14.4820     0.0500     2.5220     8.9760     7.4470     7.9320
  973.0000    10.6490   -71.5240     0.3100    13.9290     0.0460     2.5130     9.0240     7.4370     7.9730
  973.5000    10.6460   -71.5430     0.3090    13.3530     0.0430     2.5110     9.0600     7.4270     8.0130
  974.0000    10.6180   -71.5630     0.3090    13.0290     0.0440     2.5150     9.0590     7.4170     8.0540
  974.5000    10.5900   -71.5820     0.3080    13.5780     0.0500     2.5190     9.0590     7.4070     8.0940
  975.0000    10.5620   -71.6010     0.3090    14.1110     0.0550     2.5200     9.0590     7.3970     8.1350
  975.5000    10.5330   -71.6080     0.3110    13.6920     0.0610     2.5120     9.0440     7.3870     8.1750
  976.0000    10.4960   -71.6020     0.3130    12.1450     0.0620     2.5030     9.0190     7.3770     8.2160
  976.5000    10.5250   -71.5960     0.3130    10.6100     0.0560     2.4980     8.9940     7.3670     8.2670
  977.0000    10.5770   -71.5900     0.3120     9.2290     0.0510     2.5010     8.9690     7.3580     8.1910
  977.5000    10.6270   -71.5850     0.3100     9.3600     0.0470     2.5030     8.9440     7.3480     8.1910
  978.0000    10.6770   -71.5790     0.3080     9.4610     0.0420     2.4970     8.9190     7.3380     8.1170
  978.5000    10.7080   -71.5730     0.3050     9.5560     0.0420     2.4910     8.8940     7.3280     8.1060
  979.0000    10.7080   -71.5670     0.3050     9.6560     0.0410     2.4860     8.8690     7.3180     8.0840
  979.5000    10.7310   -71.5610     0.3110     9.8800     0.0380     2.4850     8.8440     7.3080     8.0630
  980.0000    10.7440   -71.5550     0.3170    10.1040     0.0370     2.4850     8.8190     7.2980     8.0430
  980.5000    10.7320   -71.5490     0.3240    10.3280     0.0390     2.4910     8.7940     7.2880     7.9690
  981.0000    10.7210   -71.5430     0.3280    10.5510     0.0400     2.4970     8.7700     7.2780     7.8970
  981.5000    10.7100   -71.5370     0.3320    10.7630     0.0420     2.5030     8.7450     7.2140     7.8300
  982.0000    10.6990   -71.5310     0.3350    10.8440     0.0440     2.5070     8.7200     7.0630     7.7140
  982.5000    10.6880   -71.5250     0.3360    10.4040     0.0460     2.5030     8.6950     6.9110     7.5970
  983.0000    10.6760   -71.5190     0.3340     9.9920     0.0460     2.4960     8.6700     6.7590     7.4800
  983.5000    10.6650   -71.5130     0.3330     8.7250     0.0440     2.4900     8.6540     6.6070     7.3640
  984.0000    10.6540   -71.5080     0.3350     7.1460     0.0430     2.4850     8.6540     6.5710     7.2470
  984.5000    10.6490   -71.5020     0.3370     5.1300     0.0420     2.4920     8.6420     6.5520     7.2060
  985.0000    10.6490   -71.4960     0.3390     5.4690     0.0400     2.5000     8.6170     6.5330     7.2060
  985.5000    10.6490   -71.4900     0.3410     8.7280     0.0390     2.5000     8.5910     6.5130     7.2060
  986.0000    10.6500   -71.4840     0.3420   -11.7740     0.0390     2.4980     8.5650     6.4940     7.2060
  986.5000    10.6340   -71.4780     0.3430   200.9750     0.0420     2.5070     8.5400     6.4750     7.2060
  987.0000    10.6160   -71.4720     0.3450   184.5640     0.0440     2.5180     8.5140     6.4550     7.2050
  987.5000    10.5980   -71.4660     0.3480   172.9040     0.0470     2.5280     8.4880     6.4360     7.2130
  988.0000    10.5910   -71.4600     0.3450   154.7560     0.0500     2.5220     8.4630     6.4170     7.1340
  988.5000    10.5910   -71.4540     0.3430   135.8670     0.0520     2.5130     8.4370     6.3970     7.1400
  989.0000    10.6060   -71.4480     0.3400   125.3650     0.0550     2.5130     8.4120     6.3780     7.0650
  989.5000    10.6320   -71.4420     0.3370   114.9070     0.0580     2.5180     8.3860     6.3590     7.0040
  990.0000    10.6380   -71.4360     0.3340   105.4560     0.0600     2.5230     8.3600     6.3380     6.9430
  990.5000    10.6440   -71.4300     0.3320   103.8330     0.0580     2.5180     8.3350     6.3840     6.8840
  991.0000    10.6490   -71.4250     0.3280   103.2220     0.0560     2.5140     8.3090     6.5900     7.0110
  991.5000    10.6490   -71.4190     0.3240   103.3750     0.0530     2.5090     8.2830     6.7960     7.2240
  992.0000    10.6490   -71.4080     0.3210   103.5430     0.0510     2.5090     8.2670     7.0020     7.4230
  992.5000    10.6490   -71.3580     0.3200   103.7150     0.0480     2.5090     8.3770     7.2080     7.6220
  993.0000    10.6430   -71.3090     0.3200   103.9000     0.0450     2.5000     8.9260     7.4140     7.8210
  993.5000    10.6370   -71.2610     0.3190   103.2370     0.0430     2.4910     9.4760     7.6200     8.0200
  994.0000    10.6310   -71.2120     0.3150   102.4830     0.0400     2.4850    10.0250     7.8260     8.2190
  994.5000    10.6250   -71.1630     0.3090   101.7280     0.0380     2.4820    10.6820     8.0330     8.4190
  995.0000    10.6190   -71.1140     0.3020   100.9740     0.0350     2.4760    10.6620     8.2670     8.4970
  995.5000    10.6130   -71.0650     0.3000   100.2160     0.0330     2.4710    10.6360     8.1910     8.4190
  996.0000    10.6070   -71.0160     0.2980    99.4840     0.0300     2.4700    10.6110     8.2670     8.6810
  996.5000    10.6010   -70.9670     0.2970    98.9140     0.0300     2.4770    10.5850     8.2890     8.7650
  997.0000    10.5950   -70.9190     0.2960    99.3940     0.0290     2.4750    10.6870     8.3500     8.8500
  997.5000    10.5910   -70.8700     0.2940    99.8280     0.0280     2.4750    10.7060     8.4120     8.9340
  998.0000    10.5870   -70.8210     0.2930   100.2660     0.0340     2.4800    10.7260     8.4190     8.9770
  998.5000    10.5780   -70.7720     0.2940   100.7030     0.0390     2.4870    10.7460     8.4190     8.9770
  999.0000    10.5680   -70.7230     0.2960   101.1410     0.0400     2.4860    10.7660     8.4190     8.9770
  999.5000    10.5590   -70.6740     0.2970   101.5780     0.0450     2.4860    10.7810     8.4190     8.9770
 1000.0000    10.5490   -70.6390     0.2980   102.0170     0.0520     2.4930    10.7810     8.4200     8.9770
 1000.5000    10.5400   -70.6410     0.2990   102.4510     0.0600     2.4990    10.7810     8.3920     8.9560
 1001.0000    10.5320   -70.6500     0.3000   102.7260     0.0670     2.5060    10.7560     8.3670     8.9340
 1001.5000    10.5310   -70.6590     0.2980   102.4600     0.0730     2.5130    10.6900     8.3430     8.9120
 1002.0000    10.5530   -70.6680     0.2970   102.1850     0.0720     2.5170    10.6240     8.3180     8.8890
 1002.5000    10.5510   -70.6770     0.2950   101.9100     0.0680     2.5090    10.5590     8.2930     8.8670
