~VERSION INFORMATION
 VERS.                2.0:   CWLS LOG ASCII STANDARD - VERSION 2.0
 WRAP.                 NO:   ONE LINE PER DEPTH STEP
~WELL INFORMATION
#MNEM.UNIT      DATA TYPE    INFORMATION
#----------   ------------   ------------------------------
 STRT.F            0.0000:   START DEPTH
 STOP.F         5673.0000:   STOP DEPTH
 STEP.F            0.5000:   STEP LENGTH
 NULL.          -999.2500:   NO VALUE
 COMP.       FLUOR DANIEL:   COMPANY
 WELL.   FLUOR "X" #63-10:   WELL
 FLD .             NPR #3:   FIELD
 LOC .      S10 T38N R78W:   LOCATION
 CNTY.            NATRONA:   COUNTY
 STAT.            WYOMING:   STATE
 CTRY. UNITED STATES OF AMERICA:   COUNTRY
 SRVC.      WESTERN ATLAS:   SERVICE COMPANY
 DATE.        02-MAR-1996:   LOGDATE
 API .     49025227690000:   API NUMBER
~CURVE INFORMATION
#MNEM.UNIT       API CODE    CURVE DESCRIPTION
#----------   ------------   ------------------------------
 DEPT.F                  :   
 GRD .GAPI   45 310 01 00:   GAMMA RAY FROM DENSITY LOG
 TEND.LBS    45 635 01 00:   TENSION FROM DENSITY LOG
 CALD.IN     45 280 60 00:   CALIPER FROM DENSITY LOG
 ZCOR.G/C3   45 356 01 00:   DENSITY CORRECTION
 ZDEN.G/C3   45 350 01 00:   BULK DENSITY
 CNC .DEC    42 890 03 00:   COMPENSATED NEUTRON POROSITY SANDSTONE
 SPR .MV     11 010 01 00:   SPONTANEOUS POTENTIAL FROM RESISTIVITY
 RD  .OHMM   11 220 10 00:   RESISTIVITY DEEP
 RS  .OHMM   11 220 09 00:   RESISTIVITY SHALLOW
~PARAMETER INFORMATION
#MNEM.UNIT          VALUE    DESCRIPTION
#----------   ------------   ------------------------------
 EKB .F         5196.0000:   Kelly bushing
 EGL .F         5186.0000:   Ground level
 EDF .F         5195.0000:   Drilling floor
 TD  .F         5674.0000:   Total depth
 CLNT.            A2DTECH:   Client Code
 SL  . 1688' FNL & 1730' FEL:   Surface Location
 PD  .                 GL:   Permanent Datum
 EPD .F              5186:   Elevation Permanent Datum
 LMF .                 KB:   Log Measured From
 DMF .                 KB:   Drilling Measured From
 DAPD.F                10:   Feet Above Permanent Datum
 DATE.        02-MAR-1996:   Date Logged [DD-MMM-YYYY]
 DD  .F              5674:   Depth driller
 DL  .F              5674:   Depth logger
 BLI .F              5663:   Bottom log interval
 CS1 .IN            9.625:   Casing size
 CBD1.      9.625" @ 448':   Casing driller 1
 CBL1.F               448:   Casing logger 1
 BS1 .IN             8.75:   Bit size
 BSD1.F              5674:   Depth drilled with bit1
 DFT .               CHEM:   Type fluid in hole
 DFD .                9.7:   Density
 DFV .                 53:   Viscosity
 DFPH.                9.0:   pH
 DFL .                9.2:   Fluid loss
 MSS .           FLOWLINE:   Source of sample
 RMS .OHMM          0.628:   Rm
 MST .F                71:   Rm Meas. temp.
 RMF .OHMM          0.477:   Rmf
 MFST.F                71:   Rmf Meas. temp.
 MFSS.               MEAS:   Source Rmf.
 RMC .OHMM          0.779:   Rmc
 MCST.F                71:   Rmc Meas. temp.
 MCSS.               MEAS:   Source Rmc.
 RMB .OHMM          0.251:   Rm. at BHT
 BHT .F               178:   BHT.
 TCS .F               4.5:   Time Circ. stopped
 MRT .HRS             178:   Maximum recorded temp.
 LUN .            HL-6530:   Logging unit number
 LUL .             CASPER:   Logging unit location
 ENGI.      PAT RASMUSSEN:   Recorded By
 ORIG.           5" PRINT:   Origin of data
 UWI .     49025227690000:   Unique Well ID
 WITN.         LAFRENIERE:   Witnessed by
 DICO.   A2D TECHNOLOGIES:   Digitizing Company
~OTHER INFORMATION
~A  DEPTH      GRD       TEND       CALD       ZCOR       ZDEN        CNC        SPR         RD         RS
# ...
 5292.5000    23.7053   -68.9664     9.9226     0.0092     2.6943     0.0716   -57.3987   191.2809   214.9859
 5293.0000    23.7109   -54.0617     9.9227     0.0122     2.6800     0.0848   -56.3489   157.7420   155.2973
 5293.5000    24.6216   -46.6356     9.9379     0.0167     2.6680     0.0947   -54.9990   104.8287   109.8828
 5294.0000    26.1333   -39.1921     9.9381     0.0197     2.6643     0.1029   -53.9492    90.0342    91.1517
 5294.5000    28.5486   -39.2804     9.9532     0.0107     2.6605     0.1062   -53.0498    82.2890    79.6848
 5295.0000    30.6626   -39.3676     9.9534    -0.0073     2.6560     0.1034   -51.9849    65.0499    72.0234
 5295.5000    34.2842   -39.4378     9.9536    -0.0148     2.6469     0.0971   -51.1012    58.6380    61.4216
 5296.0000    40.3139   -47.0043     9.9537    -0.0102     2.6379     0.0962   -50.6529    47.3260    47.5473
 5296.5000    66.8256   -39.5783     9.9538    -0.0072     2.6342     0.0983   -50.3549    41.1983    39.9895
 5297.0000   102.2731   -39.6661     9.9540    -0.0057     2.6350     0.1020   -49.9073    38.4549    38.0926
 5297.5000   133.4046   -32.2401     9.9542    -0.0027     2.6394     0.1038   -49.6086    38.9849    39.1534
 5298.0000   139.4343   -32.3102     9.9543     0.0003     2.6439     0.1032   -49.3107    40.0722    40.8021
 5298.5000   139.1387   -24.8842     9.9544     0.0018     2.6477     0.1017   -48.8631    42.3428    42.5222
 5299.0000   131.9759   -24.9720     9.9546     0.0033     2.6499     0.1008   -48.4154    43.5252    43.1081
 5299.5000   124.6936   -25.0422     9.9548     0.0079     2.6521     0.1005   -48.2672    42.6254    42.2018
 5300.0000   123.1918   -25.1124     9.9399     0.0169     2.6566     0.1005   -48.2707    40.3279    39.1118
 5300.5000   125.0067   -33.6313     9.9400     0.0274     2.6627     0.1022   -48.2742    37.8904    37.2565
 5301.0000   126.2172   -40.5643     9.9402     0.0319     2.6664     0.1095   -48.4274    36.8528    35.7355
 5301.5000   128.6326   -40.7797     9.9553     0.0289     2.6770     0.1113   -48.8813    36.0921    34.9934
 5302.0000   125.4932   -41.0412     9.9555     0.0244     2.6845     0.1115   -49.4863    36.8773    34.9867
 5302.5000   123.8248   -48.7495     9.9557     0.0215     2.6860     0.1122   -49.9402    38.3966    35.4670
 5303.0000   125.6392   -78.9464     9.9407     0.0185     2.6770     0.1157   -50.9957    40.2941    36.0001
 5303.5000   128.6570   -79.1604     9.9409     0.0185     2.6732     0.1184   -51.7548    43.1711    39.8737
 5304.0000   127.4579   -49.4385     9.9411     0.0170     2.6725     0.1196   -52.6561    45.3046    41.2704
 5304.5000   125.3552   -12.1161     9.9563     0.0170     2.6716     0.1196   -53.2604    44.6757    39.8583
 5305.0000   125.6636    10.1606     9.9714     0.0185     2.6695     0.1193   -53.5640    42.8559    37.7042
 5305.5000   130.7898    24.9498     9.9716     0.0185     2.6673     0.1175   -53.7172    41.3617    35.8891
 5306.0000   131.6991    39.6155     9.9868     0.0186     2.6650     0.1115   -53.9094    40.8206    34.6581
 5306.5000   126.8856    39.4037    10.0020     0.0126     2.6619     0.1055   -54.2724    41.0983    33.4716
 5307.0000   117.8566    39.1916    10.0021     0.0081     2.6590     0.1013   -54.3850    41.6648    34.1643
 5307.5000   113.0431    31.4835    10.0173     0.0051     2.6492     0.0998   -54.4781    42.8255    35.6022
 5308.0000   110.9389    31.2184    10.0325     0.0052     2.6335     0.1010   -54.5728    43.4172    36.3390
 5308.5000   112.1509    31.0064    10.0327     0.0111     2.6358     0.1040   -54.6705    43.1113    35.8282
 5309.0000   113.9639    38.3437    10.0478     0.0066     2.6403     0.1073   -54.8427    42.1921    34.1264
 5309.5000   116.3807    38.0787    10.0480     0.0007     2.6455     0.1133   -55.1053    39.1250    29.5063
 5310.0000   119.3985    45.3629    10.0782    -0.0068     2.6515     0.1255   -55.3649    34.7845    27.6934
 5310.5000   123.9223    52.6473    10.1084    -0.0083     2.6591     0.1442   -55.5234    32.6831    25.8584
 5311.0000   129.0485    52.3823    10.1387     0.0007     2.6771     0.1529   -55.5219    30.6228    23.7932
 5311.5000   133.8834    52.1702    10.1689     0.0127     2.6779     0.1607   -55.5223    29.0059    22.5069
 5312.0000   137.1939    51.9051    10.1841     0.0217     2.6681     0.1658   -55.5219    30.6484    22.9752
 5312.5000   136.2960    44.1970    10.1993     0.0158     2.6568     0.1580   -55.5224    34.2243    24.2713
 5313.0000   131.7837    43.9850    10.2145     0.0113     2.6522     0.1442   -55.5202    39.3427    26.9169
 5313.5000   124.8617    43.7729    10.2296     0.0083     2.6516     0.1276   -55.6695    43.8703    29.6451
 5314.0000   113.6485    43.5532    10.2448     0.0068     2.6493     0.1087   -55.8875    44.1680    30.2587
 5314.5000   100.7782    43.2960    10.2435     0.0053     2.6509     0.1024   -56.1077    42.0723    28.8195
 5315.0000    98.6755    50.5802    10.2301     0.0038     2.6571     0.1021   -56.3309    40.3558    26.3350
 5315.5000    98.6812    65.3608    10.2152     0.0038     2.6651     0.1069   -56.6642    36.3738    21.8443
 5316.0000   100.7954    72.6450    10.2153     0.0024     2.6689     0.1159   -56.9990    33.2425    19.9612
 5316.5000   103.2516    72.3800    10.2305     0.0039     2.6712     0.1243   -57.3336    32.3300    19.1077
 5317.0000   107.4348    72.1681    10.2457     0.0039     2.6742     0.1325   -57.6847    31.4425    18.3610
 5317.5000   111.9586    79.4602    10.2609     0.0039     2.6780     0.1393   -57.2618    30.3674    17.4885
 5318.0000   117.6872    64.2429    10.2911     0.0039     2.6817     0.1486   -56.6762    29.3305    16.7734
 5318.5000   121.6086    56.4867    10.3063     0.0039     2.6840     0.1579   -56.0883    28.5253    15.9766
 5319.0000   124.3438    48.7784    10.3516     0.0069     2.6855     0.1666   -55.5024    27.9347    15.5367
 5319.5000   125.8384    48.5663    10.3668     0.0115     2.6877     0.1712   -54.9185    27.5458    15.3184
 5320.0000   126.7478    48.3509    10.3970     0.0145     2.6900     0.1747   -54.3320    27.1612    15.4206
 5320.5000   128.5607    40.5931    10.4122     0.0175     2.6915     0.1804   -53.6660    26.5988    15.4166
 5321.0000   131.5785    32.8848    10.4274     0.0160     2.6915     0.1858   -52.6571    26.2286    15.4126
 5321.5000   133.6928    17.6805    10.4426     0.0115     2.6938     0.1910   -51.6886    25.4970    15.0912
 5322.0000   132.4950     2.4737    10.4578     0.0085     2.6991     0.1940   -50.3582    24.2983    14.6757
 5322.5000   129.4887    -5.2854    10.4579     0.0086     2.7006     0.1966   -48.8159    22.9871    14.2716
 5323.0000   125.2776    -5.4972    10.4731     0.0102     2.6931     0.2002   -47.2692    21.5970    13.3147
 5323.5000   120.7652     1.8399    10.4883     0.0296     2.6767     0.2087   -45.7178    18.6763    11.8866
 5324.0000   116.1712    24.0636    10.5035     0.1091     2.6465     0.2222   -44.5883    15.1762    10.5919
 5324.5000   111.7420    38.7911    10.5187     0.1812     2.6142     0.2404   -43.7321    13.4917     9.5459
 5325.0000   108.7357    53.5717    10.5188     0.1572     2.6119     0.2549   -42.8866    11.3491     8.5439
 5325.5000   106.3317    60.9089    10.5190     0.0792     2.6218     0.2618   -42.0389     9.8824     7.4277
 5326.0000   102.4218    60.6441    10.5191     0.0387     2.6127     0.2675   -41.6677     9.1324     6.8439
 5326.5000    99.0174    67.9283    10.5193     0.0462     2.5684     0.2756   -41.3508     8.4266     6.7482
 5327.0000    95.8082    75.2124    10.5194     0.0987     2.5631     0.2877   -40.9484     8.6014     6.9837
 5327.5000    91.5971    82.4968    10.5346     0.1527     2.5783     0.2928   -40.8524     9.0259     7.3290
 5328.0000    84.3739    82.2318    10.5498     0.1152     2.5940     0.2937   -40.8625     8.9538     7.2251
 5328.5000    69.6206    81.9668    10.5499     0.0522     2.5286     0.2819   -40.8633     6.8433     6.0766
