~VERSION INFORMATION
 VERS.                2.0:   CWLS LOG ASCII STANDARD - VERSION 2.0
 WRAP.                 NO:   ONE LINE PER DEPTH STEP
~WELL INFORMATION
#MNEM.UNIT      DATA TYPE    INFORMATION
#----------   ------------   ------------------------------
 STRT.F          213.5000:   START DEPTH
 STOP.F         3198.0000:   STOP DEPTH
 STEP.F            0.5000:   STEP LENGTH
 NULL.          -999.2500:   NO VALUE
 COMP.    FENIX & SCISSON:   COMPANY
 WELL.   FENIX "AX" #14-2:   WELL
 FLD .              NPR-3:   FIELD
 LOC .       S2 T38N R78W:   LOCATION
 CNTY.            NATRONA:   COUNTY
 STAT.            WYOMING:   STATE
 CTRY. UNITED STATES OF AMERICA:   COUNTRY
 SRVC.              WELEX:   SERVICE COMPANY
 DATE.        14-MAY-1977:   LOGDATE
 API .     49025103620000:   API NUMBER
~CURVE INFORMATION
#MNEM.UNIT       API CODE    CURVE DESCRIPTION
#----------   ------------   ------------------------------
 DEPT.F                  :   
 GRD .GAPI   45 310 01 00:   GAMMA RAY FROM DENSITY LOG
 CALD.IN     45 280 60 00:   CALIPER FROM DENSITY LOG
 CORR.G/C3   45 356 01 00:   DENSITY CORRECTION
 RHOB.G/C3   45 350 01 00:   BULK DENSITY
 SPR .MV     07 010 01 00:   SPONTANEOUS POTENTIAL FROM RES.
 ILD .OHMM   07 120 46 00:   DEEP INDUCTION RESISTIVITY
 ILM .OHMM   07 120 44 00:   INDUCTION LOG MEDIUM RESISTIVITY
 SGRD.OHMM   07 220 05 00:   SHALLOW SHORT GUARD RESISTIVITY
~PARAMETER INFORMATION
#MNEM.UNIT          VALUE    DESCRIPTION
#----------   ------------   ------------------------------
 EKB .F         5119.0000:   Kelly bushing
 EGL .F         5110.0000:   Ground level
 TD  .F         3200.0000:   Total depth
 CLNT.            A2DTECH:   Client Code
 SL  . 2400' FNL & 150' FWL:   Surface Location
 PD  .                 GL:   Permanent Datum
 EPD .F              5110:   Elevation Permanent Datum
 LMF .                 KB:   Log Measured From
 DMF .                 KB:   Drilling Measured From
 DAPD.F                 9:   Feet Above Permanent Datum
 DATE.        14-MAY-1977:   Date Logged [DD-MMM-YYYY]
 DD  .F              3200:   Depth driller
 DL  .F              3199:   Depth logger
 BLI .F              3197:   Bottom log interval
 TLI .F               217:   Top log interval
 CS1 .IN            8.625:   Casing size
 BS1 .IN            7.875:   Bit size
 BSD1.F              3200:   Depth drilled with bit1
 DFT .            KCL MUD:   Type fluid in hole
 DFD .                8.8:   Density
 TCS .HRS             2.5:   Time Circ. stopped
 MRT .F               130:   Maximum recorded temp.
 ENGI.          T. JOYNER:   Recorded By
 WITN.      W. PETTINGILL:   Witnessed by
 ORIG.           5" PRINT:   Origin of data
 UWI .     49025103620000:   Unique Well ID
 DICO. A2D TECHNOLOGIES, INC.:   Digitizing Company
 DFV .                 31:   Viscosity
 DFPH.                7.5:   pH
 DFL .                6.4:   Fluid loss
 MSS .          FLOW LINE:   Source of sample
 RMS .OHMM            .13:   Rm
 MST .F               62.:   Rm Meas. temp.
 RMF .OHMM            .12:   Rmf
 MFST.F                62:   Rmf Meas. temp.
 MFSS.           FANN KIT:   Source Rmf.
 RMC .OHMM            .28:   Rmc
 MCST.F                62:   Rmc Meas. temp.
 RMB .OHMM            .06:   Rm. at BHT
 BHT .F               130:   BHT.
~OTHER INFORMATION
~A   DEPT      GRD       CALD       CORR       RHOB        SPR        ILD        ILM       SGRD   
# ...
 1793.0000   136.4657     8.2059     0.0129     2.5119   -46.4298     6.0793     6.9115     9.3699
 1793.5000   134.6369     8.1919     0.0131     2.5097   -46.4096     6.0854     6.9177     9.3042
 1794.0000   132.0272     8.1933     0.0138     2.5090   -46.3895     6.0491     6.9239     9.1938
 1794.5000   130.2534     8.1945     0.0149     2.5090   -46.3693     6.0550     6.9302     9.1385
 1795.0000   129.3708     8.1805     0.0165     2.5068   -46.3491     6.0609     6.8885     9.0741
 1795.5000   130.5865     8.1820     0.0182     2.5031   -46.3290     6.0677     6.8953     9.0301
 1796.0000   131.7978     8.1831     0.0198     2.5009   -46.3086     6.0726     6.8537     8.9760
 1796.5000   133.0091     8.1843     0.0200     2.4994   -46.2878     6.0792     6.8597     8.9844
 1797.0000   133.3254     8.1857     0.0201     2.5002   -46.2634     6.0849     6.8182     8.9922
 1797.5000   132.1524     8.1869     0.0203     2.5002   -46.3967     6.1326     6.7761     9.0626
 1798.0000   130.0801     8.1732     0.0219     2.5033   -46.5249     6.1386     6.6911     9.0723
 1798.5000   129.4961     8.1743     0.0251     2.5070   -46.6480     6.1445     6.6508     9.0802
 1799.0000   130.7117     8.1755     0.0269     2.5123   -46.6279     6.1505     6.5999     9.0881
 1799.5000   132.2215     8.1766     0.0299     2.5168   -46.6077     6.1576     6.5576     9.1442
 1800.0000   131.6418     8.1778     0.0225     2.5094   -46.5875     6.1634     6.5296     9.2945
 1800.5000   132.0020     8.1790     0.0122     2.5057   -46.5668     6.1692     6.5368     9.3027
 1801.0000   133.7702     8.1804     0.0048     2.5042   -46.5422     6.1750     6.5425     9.3108
 1801.5000   135.5785     8.1815     0.0080     2.5087   -46.5220     6.2238     6.5938     9.3189
 1802.0000   133.4181     8.1827     0.0141     2.5140   -46.5018     6.2297     6.6918     9.1909
 1802.5000   131.4925     8.1690     0.0173     2.5178   -46.4817     6.2743     6.7455     9.1438
 1803.0000   130.2965     8.1701     0.0205     2.5219   -46.4432     6.2709     6.7984     9.1538
 1803.5000   128.5153     8.1624     0.0253     2.5271   -46.3171     6.2675     6.8360     9.2891
 1804.0000   127.1096     8.1511     0.0298     2.5325   -46.3004     6.2641     6.8958     9.2953
 1804.5000   125.9373     8.1397     0.0297     2.5272   -46.2837     6.2607     6.9556     9.3008
 1805.0000   128.6189     8.1284     0.0249     2.5191   -46.2671     6.2572     7.0082     9.3069
 1805.5000   131.9751     8.1170     0.0201     2.5087   -46.3988     6.2538     6.9654     9.4122
 1806.0000   127.8250     8.1057     0.0153     2.5027   -46.3822     6.2504     6.9725     9.5550
 1806.5000   124.5631     8.0991     0.0140     2.5019   -46.3655     6.2470     6.9435     9.5925
 1807.0000   127.8829     8.1003     0.0156     2.5044   -46.3487     6.2030     6.8876     9.4372
 1807.5000   127.3149     8.1013     0.0173     2.5075   -46.4806     6.1675     6.8953     9.2481
 1808.0000   127.0448     8.1024     0.0189     2.5097   -46.3114     6.1733     6.9481     9.0990
 1808.5000   129.4627     8.1036     0.0206     2.5061   -46.2947     6.1888     7.0021     9.0432
 1809.0000   130.4358     8.1044     0.0222     2.5046   -46.2781     6.2276     7.0699     9.1768
 1809.5000   130.7216     8.1055     0.0224     2.5062   -46.2614     6.2599     7.2101     9.3127
 1810.0000   131.3476     8.1065     0.0225     2.5078   -46.2448     6.2831     7.2495     9.4492
 1810.5000   131.9736     8.1145     0.0229     2.5109   -46.2281     6.2892     7.3756     9.5239
 1811.0000   132.5996     8.1382     0.0228     2.5148   -46.2115     6.2953     7.4550     9.6358
 1811.5000   133.8226     8.1394     0.0167     2.5140   -46.3435     6.3022     7.5416     9.6777
 1812.0000   135.0456     8.1428     0.0081     2.5066   -46.3264     6.3075     7.6316     9.7460
 1812.5000   134.7761     8.1561     0.0023     2.5007   -46.3093     6.3141     7.6591     9.7546
 1813.0000   132.0122     8.1572     0.0009     2.4970   -46.4416     6.3197     7.6654     9.6283
 1813.5000   128.2742     8.1730     0.0011     2.4933   -46.4208     6.3260     7.6726     9.5041
 1814.0000   126.2136     8.1740     0.0012     2.4994   -46.5566     6.3320     7.3661     9.4388
 1814.5000   126.8396     8.1750    -0.0002     2.5039   -46.5358     6.3381     7.1705     9.3048
 1815.0000   128.0626     8.1760    -0.0045     2.5018   -46.5192     6.3443     7.0772     9.2056
 1815.5000   129.8826     8.1772    -0.0074     2.4906   -46.5025     6.3504     7.0342     9.1726
 1816.0000   132.5982     8.1782    -0.0057     2.4832   -46.6384     6.3566     7.0890     9.0922
 1816.5000   134.7167     8.1791    -0.0025     2.4788   -46.4692     6.3628     7.0949     9.0369
 1817.0000   136.2863     8.1802     0.0021     2.4788   -46.4525     6.3689     7.1009     8.9835
 1817.5000   137.7597     8.1812     0.0068     2.4811   -46.4355     6.3758     7.1076     8.8676
 1818.0000   135.4079     8.1779     0.0084     2.4820   -46.4151     6.3813     7.1133     8.8137
 1818.5000   134.5414     8.1539     0.0101     2.4858   -46.3984     6.3875     6.9244     8.8208
 1819.0000   132.4808     8.1640     0.0117     2.4889   -46.3818     6.3939     6.8822     8.7678
 1819.5000   129.8232     8.1707     0.0104     2.4874   -46.3651     6.3999     6.9356     8.6775
 1820.0000   126.2701     8.1716     0.0075     2.4837   -46.3485     6.4069     6.9895     8.6012
 1820.5000   124.8060     8.1874     0.0032     2.4793   -46.4844     6.3993     6.9953     8.5506
 1821.0000   126.6509     8.1885    -0.0027     2.4749   -46.6119     6.3555     7.0022     8.5323
 1821.5000   128.7940     8.1897    -0.0085     2.4697   -46.5953     6.2929     6.9114     8.4965
 1822.0000   130.2739     8.1907    -0.0159     2.4795   -46.5786     6.2667     6.7733     8.4539
 1822.5000   130.3029     8.1766    -0.0098     2.4856   -46.7103     6.2160     6.5492     8.4018
 1823.0000   130.3318     8.1628    -0.0036     2.4879   -46.6895     6.0959     6.3758     8.4108
 1823.5000   130.6593     8.1493     0.0026     2.4910   -46.6729     5.9776     6.2484     8.4166
 1824.0000   131.5838     8.1355     0.0088     2.4963   -46.6562     5.8602     6.1682     8.4243
 1824.5000   132.2098     8.1365     0.0104     2.4994   -46.7921     5.8137     6.0882     8.4306
 1825.0000   132.8358     8.1377     0.0105     2.4946   -46.7713     5.7369     6.0933     8.4379
 1825.5000   131.6708     8.1387     0.0107     2.4845   -46.9071     5.6376     6.0993     8.4446
 1826.0000   131.4012     8.1397     0.0108     2.4786   -47.1831     5.5269     6.1466     8.4516
 1826.5000   131.7360     8.1407     0.0110     2.4727   -47.1664     5.3620     6.1079     8.4599
 1827.0000   130.5709     8.1417     0.0111     2.4675   -47.1498     5.1977     5.9882     8.4667
 1827.5000   128.5104     8.1428     0.0098     2.4593   -47.1328     4.9624     5.9106     7.6399
 1828.0000   125.8528     8.1440     0.0008     2.4474   -47.1157     4.7969     5.8087     6.2586
 1828.5000   125.1881     8.1450    -0.0082     2.4404   -47.0956     4.7354     5.7583     4.4046
 1829.0000   126.5078     8.1459    -0.0108     2.4438   -46.9306     5.0074     5.7631     4.5316
 1829.5000   128.3758     8.1470    -0.0061     2.4506   -46.6172     5.3939     5.7905     6.0192
 1830.0000   129.2523     8.1627     0.0015     2.4605   -46.6006     5.6477     5.8941     8.2953
 1830.5000   128.6842     8.1786     0.0092     2.4695   -46.4355     5.8522     6.0475     8.9998
 1831.0000   130.8100     8.1798     0.0123     2.4793   -46.4189     5.9439     6.2838     9.0695
 1831.5000   132.9286     8.1808     0.0140     2.4914   -46.2539     6.0293     6.4218     9.0768
 1832.0000   135.0471     8.1818     0.0126     2.4974   -46.0889     6.0760     6.5617     9.0841
 1832.5000   134.4718     8.1827     0.0111     2.4983   -46.0720     6.0885     6.7049     9.2390
 1833.0000   134.8065     8.1838     0.0054     2.4961   -46.0549     6.1733     6.8514     9.3535
