~VERSION INFORMATION
 VERS.                2.0:   CWLS LOG ASCII STANDARD - VERSION 2.0
 WRAP.                 NO:   ONE LINE PER DEPTH STEP
~WELL INFORMATION
#MNEM.UNIT      DATA TYPE    INFORMATION
#----------   ------------   ------------------------------
 STRT.F          297.0000:   START DEPTH
 STOP.F         2946.0000:   STOP DEPTH
 STEP.F            0.5000:   STEP LENGTH
 NULL.          -999.2500:   NO VALUE
 COMP.    FENIX & SCISSON:   COMPANY
 WELL. FENIX & SCISSON SH "X" #17-10:   WELL
 FLD .             NPR #3:   FIELD
 LOC .      S10 T38N R78W:   LOCATION
 CNTY.            NATRONA:   COUNTY
 STAT.            WYOMING:   STATE
 CTRY. UNITED STATES OF AMERICA:   COUNTRY
 SRVC.       SCHLUMBERGER:   SERVICE COMPANY
 DATE.        05-APR-1977:   LOGDATE
 API .     49025103310000:   API NUMBER
~CURVE INFORMATION
#MNEM.UNIT       API CODE    CURVE DESCRIPTION
#----------   ------------   ------------------------------
 DEPT.F                  :   
 SPR .MV     07 010 01 00:   SPONTANEOUS POTENTIAL
 ILD .OHMM   07 120 46 00:   DEEP INDUCTION RESISTIVITY
 ILM .OHMM   07 120 44 00:   INDUCTION LOG MEDIUM RESISTIVITY
 LL8 .OHMM   07 220 08 00:   LATEROLOG-8 RES.
 CALD.IN     45 280 60 00:   CALIPER FROM DENSITY LOG
 GRD .GAPI   45 310 01 00:   GAMMA RAY FROM DENSITY LOG
 CORR.G/C3   45 356 01 00:   DENSITY CORRECTION
 RHOB.G/C3   45 350 01 00:   BULK DENSITY
~PARAMETER INFORMATION
#MNEM.UNIT          VALUE    DESCRIPTION
#----------   ------------   ------------------------------
 EKB .F         5270.0000:   Kelly bushing
 EGL .F         5260.0000:   Ground level
 TD  .F         2950.0000:   Total depth
 CLNT.            A2DTECH:   Client Code
 SL  . 205' FWL & 1115' FSL:   Surface Location
 DATE.        05-APR-1977:   Date Logged [DD-MMM-YYYY]
 DD  .F              2950:   Depth driller
 DL  .F              2948:   Depth logger
 BLI .F              2946:   Bottom log interval
 TLI .F               310:   Top log interval
 CS1 .              10.75:   Casing size
 CBD1.      10.75" @ 300':   Casing driller 1
 CBL1.IN              310:   Casing logger 1
 BS1 .IN            8.625:   Bit size
 BSD1.F              2950:   Depth drilled with bit1
 DFT .                KCL:   Type fluid in hole
 DFD .                9.0:   Density
 DFV .                 33:   Viscosity
 DFL .                  9:   Fluid loss
 MSS .            MUD PIT:   Source of sample
 RMS .OHMM          0.153:   Rm
 MST .F                60:   Rm Meas. temp.
 RMF .OHMM          0.130:   Rmf
 MFST.F                60:   Rmf Meas. temp.
 MFSS.               MEAS:   Source Rmf.
 RMC .OHMM          0.229:   Rmc
 MCST.F                60:   Rmc Meas. temp.
 MCSS.               CALC:   Source Rmc.
 RMB .OHMM           0.08:   Rm. at BHT
 BHT .F               115:   BHT.
 TCS .HRS               6:   Time Circ. stopped
 MRT .F               115:   Maximum recorded temp.
 LUN .               7689:   Logging unit number
 LUL .               CODY:   Logging unit location
 ENGI.             RASMUS:   Recorded By
 WITN.              LYONS:   Witnessed by
 ORIG.         2.5" PRINT:   Origin of data
 UWI .     49025103310000:   Unique Well ID
 DICO. A2D TECHNOLOGIES, INC.:   Digitizing Company
 PD  .                 GL:   Permanent Datum
 EPD .               5260:   Elevation Permanent Datum
 LMF .                 KB:   Log Measured From
 DMF .                 KB:   Drilling Measured From
 DAPD.                 10:   Feet Above Permanent Datum
~OTHER INFORMATION
~A   DEPT      SPR        ILD        ILM        LL8       CALD        GRD       CORR       RHOB   
# ...
 2727.0000   -47.9176     5.3057     5.6070    13.2683     9.1243   131.0968    -0.0003     2.4907
 2727.5000   -47.9118     5.3065     5.6060    12.9611     9.1246   129.3496    -0.0003     2.4937
 2728.0000   -47.9059     5.3072     5.6051    13.6741     9.1543   128.1872    -0.0002     2.4982
 2728.5000   -47.7466     5.3079     5.6041    14.7619     9.1545   128.7793    -0.0002     2.4994
 2729.0000   -47.6000     5.3093     5.6804    15.2007     9.1548   128.1902    -0.0002     2.4964
 2729.5000   -47.5941     5.3825     5.6411    15.0201     9.1581   127.3317     0.0043     2.5022
 2730.0000   -47.5883     5.4574     5.6012    13.8581     9.1847   129.0921     0.0176     2.5068
 2730.5000   -47.5824     5.4582     5.6002    12.4984     9.1850   123.9363     0.0206     2.5048
 2731.0000   -47.5765     5.3847     5.5231    11.8979     9.1853   118.9991     0.0147     2.5003
 2731.5000   -47.2753     5.3854     5.5222    11.9804     9.1856   115.1332     0.0014     2.4952
 2732.0000   -47.2695     5.3862     5.5213    12.5714     9.1859   112.1750    -0.0002     2.4914
 2732.5000   -47.2637     5.3869     5.5203    13.5609     9.1862   108.7839     0.0088     2.4892
 2733.0000   -47.2578     5.4619     5.5194    14.4301     9.1865   107.5000     0.0133     2.4922
 2733.5000   -47.5471     5.4626     5.5945    14.9385     9.1868   108.8790     0.0148     2.5005
 2734.0000   -47.5403     5.4730     5.6346    14.9415     9.1871   109.3898     0.0147     2.5128
 2734.5000   -47.5344     5.5395     5.6696    13.8581     9.2167   107.5233     0.0118     2.5187
 2735.0000   -47.5286     5.5402     5.7110    12.5960     9.2170   105.7762     0.0055     2.5202
 2735.5000   -47.8169     5.6173     5.7458    12.6295     9.1880   104.6138     0.0001     2.5199
 2736.0000   -47.8110     5.6315     5.7884    14.6915     9.1882   106.0830     0.0004     2.5020
 2736.5000   -47.8052     5.6963     5.8230    15.8398     9.1732   109.5990     0.0019     2.4874
 2737.0000   -48.0935     5.6971     5.9022    16.5921     9.1596   115.4542     0.0050     2.4800
 2737.5000   -48.0876     5.6979     5.9012    15.9089     9.1305   122.4790     0.0065     2.4760
 2738.0000   -48.0818     5.6986     5.9002    15.5053     9.1015   128.9190     0.0091     2.4740
 2738.5000   -48.0760     5.6814     5.9805    15.2998     9.1018   135.0665     0.0086     2.4713
 2739.0000   -48.0701     5.6226     5.9794    15.1863     9.1021   135.9220     0.0035     2.4698
 2739.5000   -48.0643     5.5469     5.9784    14.6648     9.1024   127.1862     0.0003     2.4687
 2740.0000   -48.0584     5.5478     6.0255    14.1890     9.1027   123.9771     0.0003     2.4707
 2740.5000   -48.0526     5.5486     6.0587    14.1130     9.1030   126.0311     0.0033     2.4743
 2741.0000   -48.0468     5.4738     6.1412    14.7133     9.1033   127.2327     0.0093     2.4788
 2741.5000   -48.3350     5.4746     6.1401    16.4181     9.1329   124.5836     0.0122     2.4848
 2742.0000   -48.3292     5.5508     6.1389    15.7631     9.1332   124.2627     0.0137     2.4894
 2742.5000   -48.3234     5.5516     6.1378    15.1342     9.1628   126.9372     0.0152     2.4947
 2743.0000   -48.3175     5.5523     6.2215    14.9326     9.1631   129.2856     0.0152     2.4976
 2743.5000   -48.3117     5.5531     6.2203    14.7347     9.1927   129.5832     0.0152     2.4983
 2744.0000   -48.3058     5.5538     6.2192    14.9438     9.1930   126.6199     0.0153     2.4969
 2744.5000   -48.3000     5.5546     6.1336    15.1548     9.1933   124.7845     0.0153     2.4969
 2745.0000   -48.2942     5.5554     6.1326    15.2330     9.1945   121.3306     0.0153     2.4984
 2745.5000   -48.2882     5.5562     6.0482    14.9591     9.2232   120.2554     0.0153     2.4984
 2746.0000   -48.2824     5.5570     5.8839    14.3622     9.2234   125.4119     0.0168     2.4984
 2746.5000   -48.2764     5.4821     5.8029    13.7892     9.2273   129.3342     0.0169     2.4999
 2747.0000   -48.2706     5.4830     5.6453    13.7939     9.2534   128.0026     0.0169     2.5014
 2747.5000   -48.2647     5.4837     5.5676    13.8593     9.2536   125.9433     0.0169     2.5029
 2748.0000   -48.2588     5.3364     5.4163    13.8026     9.2539   123.8127     0.0169     2.5044
 2748.5000   -48.2529     5.2646     5.2692    13.6196     9.2542   121.0069     0.0169     2.5073
 2749.0000   -48.2471     5.2653     5.0564    13.0769     9.2465   117.6327     0.0170     2.5103
 2749.5000   -48.2412     5.1238     4.9868    11.8864     9.2255   115.2738     0.0170     2.5147
 2750.0000   -48.2353     5.0549     4.9860    11.5694     9.1964   113.5962     0.0170     2.5236
 2750.5000   -48.5241     4.9191     4.9173    11.4160     9.1674   111.8289     0.0163     2.5355
 2751.0000   -48.8696     4.7869     4.9165    10.8116     9.1384   110.1727     0.0237     2.5430
 2751.5000   -49.3947     4.5950     4.9157     8.5703     9.1094   109.2887     0.0367     2.5472
 2752.0000   -49.6830     4.4715     4.9148     7.8974     9.1097   106.8619     0.0519     2.5469
 2752.5000   -49.9713     4.3514     4.9140     7.7924     9.0806   103.4575     0.0426     2.5374
 2753.0000   -49.9647     4.3520     5.0713     9.0618     9.1103   102.2525     0.0254     2.5278
 2753.5000   -49.5848     4.3475     5.1422    10.1137     9.1106   101.9498     0.0165     2.5252
 2754.0000   -48.9863     4.4131     5.2178    10.9830     9.1402   103.1405     0.0083     2.5248
 2754.5000   -48.7706     4.5362     5.2868    10.5448     9.1699   100.6696     0.0020     2.5195
 2755.0000   -48.6716     4.7270     5.3606    10.1241     9.1701   103.1334    -0.0024     2.5090
 2755.5000   -48.4647     4.9258     5.3617     9.8541     9.1998   102.9402    -0.0038     2.5025
 2756.0000   -48.4588     5.0631     5.4366     9.8575     9.2000    98.4809    -0.0042     2.5002
 2756.5000   -48.3465     5.1336     5.4314    11.7809     9.2003    94.6870     0.0008     2.4980
 2757.0000   -48.1529     5.2050     5.3650    13.1485     9.1712    92.9398     0.0023     2.4973
 2757.5000   -48.1471     5.2775     5.2933    13.7042     9.1715    91.4851     0.0024     2.4995
 2758.0000   -48.1412     5.2065     5.2945    13.8978     9.1425    93.5391     0.0010     2.5047
 2758.5000   -48.1663     5.2072     5.3038    12.9830     9.1135    95.8855    -0.0005     2.5076
 2759.0000   -48.3086     5.2079     5.3783    11.4824     9.1138    97.9395     0.0011     2.5091
 2759.5000   -48.5506     5.2086     5.4445    10.7266     9.1140   100.5783     0.0041     2.5055
 2760.0000   -48.7058     5.2093     5.5306    10.5841     9.1144   102.3399     0.0056     2.5003
 2760.5000   -48.7000     5.2100     5.6084    12.1409     9.1234   100.3003     0.0072     2.4944
 2761.0000   -48.9883     5.2107     5.7539    13.7370     9.1538    97.3836     0.0072     2.4915
 2761.5000   -48.9823     5.2114     5.8343    15.3316     9.1843    97.3908     0.0073     2.4959
 2762.0000   -48.9765     5.2121     5.8228    16.1998     9.2035    98.5676     0.0058     2.5004
 2762.5000   -48.9706     5.2129     5.7444    15.5535     9.2038   102.0836     0.0044     2.5033
 2763.0000   -49.2588     5.2136     5.5772    12.4991     9.2041   106.4768     0.0047     2.5063
 2763.5000   -49.2529     5.2250     5.3793    11.8371     9.2044   109.1156     0.0075     2.5063
 2764.0000   -49.2471     5.2869     5.3074    14.3420     9.2047   110.8772     0.0090     2.5034
 2764.5000   -49.5341     5.2157     5.3086    14.5890     9.2050   112.6485     0.0058     2.4990
 2765.0000   -49.5283     5.2034     5.3096    11.3728     9.2053   113.5233     0.0014     2.4931
 2765.5000   -49.5225     5.1462     5.3107     9.6537     9.2056   113.5307    -0.0011     2.4856
 2766.0000   -49.8117     5.1470     5.2396     9.0182     9.2059   111.9590    -0.0026     2.4811
 2766.5000   -49.8049     5.0776     5.1696    10.4870     9.2062   111.2058    -0.0020     2.4751
 2767.0000   -49.7991     5.0784     5.1004    11.0808     9.2065   122.3253     0.0010     2.4675
