~VERSION INFORMATION
 VERS.                2.0:   CWLS LOG ASCII STANDARD - VERSION 2.0
 WRAP.                 NO:   ONE LINE PER DEPTH STEP
~WELL INFORMATION
#MNEM.UNIT      DATA TYPE    INFORMATION
#----------   ------------   ------------------------------
 STRT.F           70.0000:   START DEPTH
 STOP.F         2751.5000:   STOP DEPTH
 STEP.F            0.5000:   STEP LENGTH
 NULL.          -999.2500:   NO VALUE
 COMP.          INTEX OIL:   COMPANY
 WELL. INTEX N.P.R. "AX" #75-20:   WELL
 FLD .             TEAPOT:   FIELD
 LOC .      S20 T39N R78W:   LOCATION
 CNTY.            NATRONA:   COUNTY
 STAT.            WYOMING:   STATE
 CTRY. UNITED STATES OF AMERICA:   COUNTRY
 SRVC.       SCHLUMBERGER:   SERVICE COMPANY
 DATE.        06-MAY-1966:   LOGDATE
 API .     49025095120000:   API NUMBER
~CURVE INFORMATION
#MNEM.UNIT       API CODE    CURVE DESCRIPTION
#----------   ------------   ------------------------------
 DEPT.F                  :   
 CALD.IN     45 280 60 00:   CALIPER FROM DENSITY LOG
 GRD .GAPI   45 310 01 00:   GAMMA RAY FROM DENSITY LOG
 RHOB.G/C3   45 350 01 00:   BULK DENSITY
 CORR.G/C3   45 356 01 00:   DENSITY CORRECTION
 SPR .MV     05 010 01 00:   SPONTANEOUS POTENTIAL
 ILD .OHMM   05 120 46 00:   DEEP INDUCTION RESISTIVITY
 ASN .OHMM   05 041 16 00:   AMPLIFIED SHORT NORMAL 16"
~PARAMETER INFORMATION
#MNEM.UNIT          VALUE    DESCRIPTION
#----------   ------------   ------------------------------
 EKB .F         5016.3000:   Kelly bushing
 EGL .F         5006.0000:   Ground level
 EDF .F            0.0000:   Drilling floor
 TD  .F         2750.0000:   Total depth
 DATE.        06-MAY-1966:   Date logged
 CLNT.            A2DTECH:   Client Code
 PD  .                 GL:   Permanent Datum
 DD  .F              2750:   Depth driller
 DL  .F              2746:   Depth logger
 BLI .F              2745:   Bottom log interval
 CS1 .IN            10.75:   Casing size
 CBD1.       10.75" @ 30':   Casing driller 1
 BS1 .IN            7.875:   Bit size
 DFT .           OIL/EMUL:   Type fluid in hole
 DFD .                9.8:   Density
 DFV .                 43:   Viscosity
 DFPH.                  8:   pH
 DFL .               11.8:   Fluid loss
 MSS .         CIRCULATED:   Source of sample
 RMS .OHMM           1.84:   Rm
 MST .F                73:   Rm Meas. temp.
 RMF .OHMM           1.21:   Rmf
 MFST.F                74:   Rmf Meas. temp.
 MFSS.                 FP:   Source Rmf.
 RMB .OHMM           1.27:   Rm. at BHT
 BHT .F               106:   BHT.
 TCS .HRS             1.5:   Time Circ. stopped
 MRT .F               106:   Maximum recorded temp.
 LUN .               3527:   Logging unit number
 LUL .               CSPR:   Logging unit location
 ENGI.               HAUG:   Recorded By
 WITN.      TUTTLE/HUDSON:   Witnessed by
 ORIG.           5" PRINT:   Origin of data
 UWI .     49025095120000:   Unique Well ID
 DICO. A2D TECHNOLOGIES, INC.:   Digitizing Company
 DAPD.F              10.3:   Feet Above Permanent Datum
 BSD1.F              2750:   Depth drilled with bit1
 MCSS.                 FP:   Source Rmc.
 EPD .F              5006:   Elevation Permanent Datum
 LMF .                 KB:   Log Measured From
 DMF .                 KB:   Drilling Measured From
 TLI .F                88:   Top log interval
~OTHER INFORMATION
~A   DEPT     CALD        GRD       RHOB       CORR        SPR        ILD          ASN 
# ...
 2527.0000     8.1760   134.0800     2.4890     0.0100   -37.3780     4.2010     6.6320
 2527.5000     8.1760   134.8330     2.4860     0.0140   -37.1110     4.1810     6.4900
 2528.0000     8.1770   140.0110     2.4850     0.0180   -36.8080     4.1610     6.3570
 2528.5000     8.1690   148.1630     2.4900     0.0220   -36.4980     4.1400     6.3260
 2529.0000     8.1390   147.8500     2.4860     0.0230   -36.7540     4.1190     6.4350
 2529.5000     8.1090   142.4000     2.4800     0.0190   -37.3080     4.1340     6.6600
 2530.0000     8.0780   136.3840     2.4730     0.0150   -37.0510     4.1800     6.8890
 2530.5000     8.0490   132.6420     2.4690     0.0190   -36.6740     4.2250     6.9910
 2531.0000     8.0210   134.5480     2.4920     0.0270   -36.8120     4.2710     7.0570
 2531.5000     8.0200   136.2590     2.4960     0.0340   -37.1140     4.3170     7.0770
 2532.0000     8.0200   138.3200     2.4870     0.0300   -37.0600     4.3630     7.0690
 2532.5000     8.0200   139.8220     2.4750     0.0210   -36.8530     4.4090     7.1390
 2533.0000     8.0200   140.8450     2.4840     0.0240   -36.6420     4.4550     7.2100
 2533.5000     8.0200   141.8020     2.5070     0.0350   -36.6700     4.5010     7.2700
 2534.0000     8.0200   142.5530     2.5200     0.0450   -36.9790     4.6060     7.2870
 2534.5000     8.0200   140.9730     2.5190     0.0500   -37.1890     4.7700     7.3960
 2535.0000     8.0190   139.5450     2.5090     0.0390   -36.9090     4.9330     7.7190
 2535.5000     8.0200   135.6090     2.5000     0.0220   -36.5810     5.0970     8.1540
 2536.0000     8.0200   132.1200     2.4870     0.0120   -36.7740     5.2620     8.5890
 2536.5000     8.0190   125.0230     2.4930     0.0260   -36.9730     5.4260     9.0240
 2537.0000     8.0220   117.4080     2.5120     0.0400   -37.1560     5.5900     9.4610
 2537.5000     8.0010   113.2600     2.5240     0.0540   -36.5090     5.7540     9.8320
 2538.0000     7.9410   119.0950     2.5200     0.0540   -36.4150     5.8960     9.8160
 2538.5000     7.8690   124.1940     2.5110     0.0400   -36.5250     5.8740     9.6600
 2539.0000     7.8890   126.7830     2.5100     0.0380   -36.6390     5.8420     9.4850
 2539.5000     7.9160   128.4750     2.5250     0.0440   -36.7590     5.8100     9.2970
 2540.0000     7.9460   130.2710     2.5330     0.0400   -36.6080     5.7790     9.1110
 2540.5000     7.9720   131.0120     2.5310     0.0330   -36.3700     5.7470     8.9310
 2541.0000     8.0030   128.9310     2.5210     0.0260   -36.1290     5.7150     8.8670
 2541.5000     8.0210   125.2280     2.5110     0.0190   -36.0190     5.6820     8.9510
 2542.0000     8.0190   119.9480     2.5010     0.0120   -36.0680     5.6500     9.1400
 2542.5000     8.0210   115.5190     2.4910     0.0100   -36.1150     5.6220     9.3280
 2543.0000     8.0230   115.2160     2.4870     0.0070   -36.1680     5.4900     9.4840
 2543.5000     8.0250   116.4910     2.4820     0.0040   -36.3320     5.4680     9.3440
 2544.0000     8.0280   119.1230     2.4830     0.0010   -36.7650     5.4380     9.1550
 2544.5000     8.0300   125.3630     2.4860    -0.0020   -36.5990     5.4060     8.9680
 2545.0000     8.0320   126.8280     2.4850    -0.0020   -36.4140     5.3740     8.8100
 2545.5000     8.0340   126.3970     2.4760    -0.0010   -36.2260     5.3420     8.8520
 2546.0000     8.0360   120.3330     2.4720     0.0050   -36.3650     5.3100     9.1740
 2546.5000     8.0380   112.8780     2.4810     0.0120   -36.5760     5.2780     9.4970
 2547.0000     8.0400   108.9260     2.4910     0.0190   -36.7900     5.2460     9.5610
 2547.5000     8.0430   112.2660     2.5080     0.0250   -36.9480     5.2150     9.4750
 2548.0000     8.0450   121.1800     2.5270     0.0330   -36.3840     5.0900     9.1420
 2548.5000     8.0470   129.9110     2.5310     0.0360   -35.8280     4.9190     8.6870
 2549.0000     8.0490   134.9440     2.5130     0.0300   -35.8400     4.7480     8.2300
 2549.5000     8.0510   139.6380     2.4970     0.0230   -35.8880     4.5770     7.7980
 2550.0000     8.0530   141.3280     2.4920     0.0220   -35.9350     4.4060     7.5400
 2550.5000     8.0560   143.3090     2.4940     0.0280   -35.9810     4.2350     7.2740
 2551.0000     8.0570   143.3690     2.4940     0.0270   -36.0710     4.2100     7.0950
 2551.5000     8.0700   145.4370     2.4800     0.0100   -36.1840     4.2950     7.0450
 2552.0000     8.1000   144.6610     2.4670     0.0000   -36.2950     4.3900     7.0680
 2552.5000     8.1280   141.7430     2.4630     0.0010   -36.3630     4.4870     7.1310
 2553.0000     8.1600   136.6760     2.4750     0.0040   -36.1840     4.5830     7.1950
 2553.5000     8.1780   133.1110     2.4840     0.0070   -36.0110     4.6800     7.2590
 2554.0000     8.1710   133.6040     2.4950     0.0110   -36.3490     4.7770     7.3290
 2554.5000     8.1630   137.0440     2.5040     0.0100   -36.7290     4.8740     7.4900
 2555.0000     8.1550   139.1770     2.5040     0.0060   -36.6050     4.9680     7.6430
 2555.5000     8.1460   139.8300     2.4980     0.0070   -36.4000     5.1120     7.7950
 2556.0000     8.1380   139.7970     2.5020     0.0160   -36.2080     5.0920     7.9370
 2556.5000     8.1300   139.5740     2.5070     0.0200   -36.4510     5.0680     7.9160
 2557.0000     8.1210   140.4400     2.5020     0.0150   -36.7210     5.0450     7.7800
 2557.5000     8.1130   141.2940     2.4970     0.0070   -36.7090     5.0230     7.6440
 2558.0000     8.1050   139.8560     2.4950     0.0070   -36.6120     5.0010     7.5090
 2558.5000     8.0960   138.9750     2.5010     0.0200   -36.5140     4.9780     7.3690
 2559.0000     8.0880   138.0730     2.5090     0.0260   -36.4150     4.9560     7.3020
 2559.5000     8.0800   135.8820     2.5050     0.0220   -36.3150     4.9330     7.3170
 2560.0000     8.0710   134.0290     2.5110     0.0340   -36.2090     4.9110     7.3650
 2560.5000     8.0640   131.9920     2.5180     0.0520   -36.3940     4.8880     7.4150
 2561.0000     8.0460   130.1990     2.5170     0.0570   -36.6480     4.8660     7.4640
 2561.5000     8.0180   127.4830     2.4990     0.0540   -36.9160     4.8440     7.5130
 2562.0000     7.9920   129.8170     2.4850     0.0380   -36.7710     4.8210     7.5630
 2562.5000     7.9650   134.1070     2.4680     0.0200   -36.4800     4.7990     7.6130
 2563.0000     7.9430   135.8480     2.4560     0.0090   -36.2060     4.7760     7.6620
 2563.5000     7.9420   137.1880     2.4610     0.0110   -36.2910     4.7540     7.6300
 2564.0000     7.9480   138.5920     2.4730     0.0260   -36.3880     4.7310     7.6140
 2564.5000     7.9570   138.9250     2.4850     0.0400   -36.4860     4.7090     7.5970
 2565.0000     7.9650   137.9180     2.4970     0.0560   -36.5780     4.7090     7.5790
 2565.5000     7.9730   136.6780     2.5080     0.0570   -36.2670     4.7190     7.5800
 2566.0000     7.9810   135.4650     2.5070     0.0470   -35.8990     4.7290     7.6440
 2566.5000     7.9890   134.6620     2.5040     0.0360   -36.0570     4.7380     7.7060
 2567.0000     7.9970   136.4100     2.4880     0.0250   -36.4400     4.7480     7.7680
 2567.5000     8.0050   137.4390     2.4740     0.0170   -36.3710     4.7580     7.8210
 2568.0000     8.0140   137.4790     2.4890     0.0290   -36.0310     4.7680     7.8140
 2568.5000     8.0200   137.1890     2.5050     0.0370   -35.9110     4.7780     7.8040
 2569.0000     8.0220   138.1320     2.5010     0.0240   -36.3090     4.7880     7.7950
 2569.5000     8.0250   139.3170     2.4970     0.0140   -36.5100     4.7980     7.7840
 2570.0000     8.0280   140.6550     2.4890     0.0070   -36.1750     4.7860     7.7650
 2570.5000     8.0310   141.0360     2.4820     0.0070   -35.8580     4.6820     7.7010
 2571.0000     8.0340   139.5990     2.4810     0.0050   -35.6650     4.6440     7.6390
 2571.5000     8.0370   137.9730     2.4780     0.0050   -36.0380     4.6080     7.5430
 2572.0000     8.0400   139.6420     2.4720     0.0050   -36.0810     4.5730     7.4130
