~VERSION INFORMATION
 VERS.                2.0:   CWLS LOG ASCII STANDARD - VERSION 2.0
 WRAP.                 NO:   ONE LINE PER DEPTH STEP
~WELL INFORMATION
#MNEM.UNIT      DATA TYPE    INFORMATION
#----------   ------------   ------------------------------
 STRT.F           36.0000:   START DEPTH
 STOP.F         3014.5000:   STOP DEPTH
 STEP.F            0.5000:   STEP LENGTH
 NULL.          -999.2500:   NO VALUE
 COMP.    TESRO PETROLEUM:   COMPANY
 WELL. TESORO N.P.R. "A" #6-21:   WELL
 FLD .             TEAPOT:   FIELD
 LOC .      S21 T39N R78W:   LOCATION
 CNTY.            NATRONA:   COUNTY
 STAT.            WYOMING:   STATE
 CTRY. UNITED STATES OF AMERICA:   COUNTRY
 SRVC.              WELEX:   SERVICE COMPANY
 DATE.        16-JUL-1968:   LOGDATE
 API .     49025100180000:   API NUMBER
~CURVE INFORMATION
#MNEM.UNIT       API CODE    CURVE DESCRIPTION
#----------   ------------   ------------------------------
 DEPT.F                  :   
 SPR .MV     05 010 01 00:   SPONTANEOUS POTENTIAL FROM RES.
 ASN .OHMM   05 041 18 00:   AMPLIFIED SHORT NORMAL 18"
 IL  .OHMM   05 120 00 00:   INDUCTION LOG
 GRD .GAPI   45 310 01 00:   GAMMA RAY FROM DENSITY LOG
 CALD.IN     45 280 60 00:   CALIPER FROM DENSITY LOG
 GDEN.CPS    45 350 30 00:   GAMMA DENS
~PARAMETER INFORMATION
#MNEM.UNIT          VALUE    DESCRIPTION
#----------   ------------   ------------------------------
 EKB .F         5002.0000:   Kelly bushing
 EGL .F         4991.0000:   Ground level
 EDF .F         5001.0000:   Drilling floor
 TD  .F         3025.0000:   Total depth
 DATE.        16-JUL-1968:   Date logged
 CLNT.            A2DTECH:   Client Code
 PD  .                 GL:   Permanent Datum
 EPD .F              4991:   Elevation Permanent Datum
 LMF .                 KB:   Log Measured From
 DMF .                 KB:   Drilling Measured From
 DD  .F              3025:   Depth driller
 DL  .F              3019:   Depth logger
 BLI .F              3014:   Bottom log interval
 TLI .F              2670:   Top log interval
 CS1 .IN            10.75:   Casing size
 CBD1.      10.75" @ 325':   Casing driller 1
 CBL1.F               325:   Casing logger 1
 BS1 .IN                9:   Bit size
 BSD1.F              3025:   Depth drilled with bit1
 DFT .     WATER BASE MUD:   Type fluid in hole
 DFD .                9.7:   Density
 DFV .                 60:   Viscosity
 DFL .                6.4:   Fluid loss
 MSS .              CIRC.:   Source of sample
 RMS .OHMM            2.2:   Rm
 MST .F                84:   Rm Meas. temp.
 RMF .OHMM            1.6:   Rmf
 MFST.F                70:   Rmf Meas. temp.
 RMC .OHMM            3.3:   Rmc
 MCST.F                68:   Rmc Meas. temp.
 MFSS.               MEAS:   Source Rmf.
 RMB .OHMM           1.55:   Rm. at BHT
 BHT .F               120:   BHT.
 MRT .F               120:   Maximum recorded temp.
 LUN .               6869:   Logging unit number
 LUL .                 NC:   Logging unit location
 ENGI.          H. STEITZ:   Recorded By
 WITN.                MAY:   Witnessed by
 ORIG.           5" PRINT:   Origin of data
 UWI .     49025100180000:   Unique Well ID
 DICO. A2D TECHNOLOGIES, INC.:   Digitizing Company
~OTHER INFORMATION
~A   DEPT      SPR        ASN           IL      GRD       CALD       GDEN   
# ...
  712.0000   -42.1110    11.2110     8.9500  -999.2500  -999.2500  -999.2500
  712.5000   -42.5190    11.3740     8.9660  -999.2500  -999.2500  -999.2500
  713.0000   -42.9130    11.2720     8.9810  -999.2500  -999.2500  -999.2500
  713.5000   -43.0370    11.0260     8.9960  -999.2500  -999.2500  -999.2500
  714.0000   -43.1690    11.1050     9.0130  -999.2500  -999.2500  -999.2500
  714.5000   -43.2660    11.0480     9.0360  -999.2500  -999.2500  -999.2500
  715.0000   -42.8190    10.9650     9.2500  -999.2500  -999.2500  -999.2500
  715.5000   -42.7320    10.8790     9.5440  -999.2500  -999.2500  -999.2500
  716.0000   -43.0730    10.7440     9.8350  -999.2500  -999.2500  -999.2500
  716.5000   -42.7840    10.3360    10.1190  -999.2500  -999.2500  -999.2500
  717.0000   -42.4950     9.7490    10.4130  -999.2500  -999.2500  -999.2500
  717.5000   -42.6020     9.5890    10.5510  -999.2500  -999.2500  -999.2500
  718.0000   -43.1060     9.5810    10.7150  -999.2500  -999.2500  -999.2500
  718.5000   -44.0560     9.3070    11.3870  -999.2500  -999.2500  -999.2500
  719.0000   -44.0840     8.8730    14.6660  -999.2500  -999.2500  -999.2500
  719.5000   -44.4090     7.8730    19.4490  -999.2500  -999.2500  -999.2500
  720.0000   -45.0260     7.4490    17.3220  -999.2500  -999.2500  -999.2500
  720.5000   -44.2210     9.8210    10.0340  -999.2500  -999.2500  -999.2500
  721.0000   -43.0420     9.2530    10.2360  -999.2500  -999.2500  -999.2500
  721.5000   -43.3060     7.9490    15.9810  -999.2500  -999.2500  -999.2500
  722.0000   -43.3550     7.4280    18.4950  -999.2500  -999.2500  -999.2500
  722.5000   -43.6860     7.7280    15.4330  -999.2500  -999.2500  -999.2500
  723.0000   -43.3740     8.3180    12.5560  -999.2500  -999.2500  -999.2500
  723.5000   -42.9960     8.9240    10.7600  -999.2500  -999.2500  -999.2500
  724.0000   -42.7540     9.5380     8.9200  -999.2500  -999.2500  -999.2500
  724.5000   -43.0310     9.8530     8.4600  -999.2500  -999.2500  -999.2500
  725.0000   -42.8560     9.8490     8.7660  -999.2500  -999.2500  -999.2500
  725.5000   -42.5230     9.6370     9.2780  -999.2500  -999.2500  -999.2500
  726.0000   -43.1020     9.2580     9.5010  -999.2500  -999.2500  -999.2500
  726.5000   -42.2810     9.0700     8.9820  -999.2500  -999.2500  -999.2500
  727.0000   -42.1080     9.5240     8.3960  -999.2500  -999.2500  -999.2500
  727.5000   -42.4440     9.7690     8.0600  -999.2500  -999.2500  -999.2500
  728.0000   -42.5010     9.7920     8.0170  -999.2500  -999.2500  -999.2500
  728.5000   -42.3680     9.6890     8.0080  -999.2500  -999.2500  -999.2500
  729.0000   -42.3790     9.3880     8.1170  -999.2500  -999.2500  -999.2500
  729.5000   -43.7750     9.5580     8.1060  -999.2500  -999.2500  -999.2500
  730.0000   -44.4060     9.5830     8.5680  -999.2500  -999.2500  -999.2500
  730.5000   -43.4050     9.1820     9.4590  -999.2500  -999.2500  -999.2500
  731.0000   -43.8970     8.8000    12.4000  -999.2500  -999.2500  -999.2500
  731.5000   -43.8880     8.4440    13.1970  -999.2500  -999.2500  -999.2500
  732.0000   -43.8870     7.2790    29.0160  -999.2500  -999.2500  -999.2500
  732.5000   -43.8870     5.8980    42.4140  -999.2500  -999.2500  -999.2500
  733.0000   -43.8880     6.9860    24.9490  -999.2500  -999.2500  -999.2500
  733.5000   -43.8970     8.6810    14.2930  -999.2500  -999.2500  -999.2500
  734.0000   -43.6230     9.1670    16.5550  -999.2500  -999.2500  -999.2500
  734.5000   -43.4840     9.5120    15.6230  -999.2500  -999.2500  -999.2500
  735.0000   -43.8300    11.4540    12.8330  -999.2500  -999.2500  -999.2500
  735.5000   -43.5790    12.9980    11.7320  -999.2500  -999.2500  -999.2500
  736.0000   -43.4960    13.4240    11.8210  -999.2500  -999.2500  -999.2500
  736.5000   -43.6100    13.8940    12.6200  -999.2500  -999.2500  -999.2500
  737.0000   -43.6130    14.0900    12.8870  -999.2500  -999.2500  -999.2500
  737.5000   -43.3930    14.1830    13.0030  -999.2500  -999.2500  -999.2500
  738.0000   -43.1740    14.0980    12.7360  -999.2500  -999.2500  -999.2500
  738.5000   -43.0960    14.0180    12.3080  -999.2500  -999.2500  -999.2500
  739.0000   -43.3650    13.9370    11.9190  -999.2500  -999.2500  -999.2500
  739.5000   -43.9760    13.8710    11.6780  -999.2500  -999.2500  -999.2500
  740.0000   -44.2790    13.8230    11.4270  -999.2500  -999.2500  -999.2500
  740.5000   -43.8310    13.7750    11.2810  -999.2500  -999.2500  -999.2500
  741.0000   -43.5660    13.7270    11.2380  -999.2500  -999.2500  -999.2500
  741.5000   -43.8700    13.6780    11.2810  -999.2500  -999.2500  -999.2500
  742.0000   -44.1640    13.6300    11.5470  -999.2500  -999.2500  -999.2500
  742.5000   -44.1780    13.5820    11.8220  -999.2500  -999.2500  -999.2500
  743.0000   -44.0730    13.5330    12.5630  -999.2500  -999.2500  -999.2500
  743.5000   -44.4700    13.4910    12.5730  -999.2500  -999.2500  -999.2500
  744.0000   -45.0930    13.3790    13.0610  -999.2500  -999.2500  -999.2500
  744.5000   -45.3420    12.8140    14.9160  -999.2500  -999.2500  -999.2500
  745.0000   -45.4750    11.6610    20.3130  -999.2500  -999.2500  -999.2500
  745.5000   -45.6030    10.5730    26.6210  -999.2500  -999.2500  -999.2500
  746.0000   -45.7300     8.6010    37.9460  -999.2500  -999.2500  -999.2500
  746.5000   -45.8370     6.6870    50.0500  -999.2500  -999.2500  -999.2500
  747.0000   -45.2530     4.7290    50.0500  -999.2500  -999.2500  -999.2500
  747.5000   -44.6220     5.2690    50.0500  -999.2500  -999.2500  -999.2500
  748.0000   -43.9890     6.4600    43.2670  -999.2500  -999.2500  -999.2500
  748.5000   -43.9950     9.3600    26.5240  -999.2500  -999.2500  -999.2500
  749.0000   -44.1500    12.3010    12.2950  -999.2500  -999.2500  -999.2500
  749.5000   -44.4270    12.8140    12.1920  -999.2500  -999.2500  -999.2500
  750.0000   -44.6710    13.0080    11.9980  -999.2500  -999.2500  -999.2500
  750.5000   -44.4970    13.0460    13.2390  -999.2500  -999.2500  -999.2500
  751.0000   -44.2690    12.9980    13.8900  -999.2500  -999.2500  -999.2500
  751.5000   -43.3290    13.1610    13.4010  -999.2500  -999.2500  -999.2500
  752.0000   -42.3230    13.4600    12.3640  -999.2500  -999.2500  -999.2500
  752.5000   -41.7270    13.7630    11.3090  -999.2500  -999.2500  -999.2500
  753.0000   -42.2220    13.5180    11.1120  -999.2500  -999.2500  -999.2500
  753.5000   -42.3830    13.1820    11.2070  -999.2500  -999.2500  -999.2500
  754.0000   -42.4810    12.8470    10.6840  -999.2500  -999.2500  -999.2500
  754.5000   -42.7650    12.7680    10.6110  -999.2500  -999.2500  -999.2500
  755.0000   -42.8990    12.7310    10.6350  -999.2500  -999.2500  -999.2500
  755.5000   -42.9860    12.7010    10.6910  -999.2500  -999.2500  -999.2500
  756.0000   -43.0650    12.7380    10.7480  -999.2500  -999.2500  -999.2500
  756.5000   -43.0760    12.7730    10.8050  -999.2500  -999.2500  -999.2500
  757.0000   -42.5210    12.8080    10.8610  -999.2500  -999.2500  -999.2500
  757.5000   -42.3310    12.8430    10.9170  -999.2500  -999.2500  -999.2500
  758.0000   -42.8310    12.8790    10.9730  -999.2500  -999.2500  -999.2500
  758.5000   -43.1170    12.8410    10.9780  -999.2500  -999.2500  -999.2500
  759.0000   -42.4010    12.7020    10.8430  -999.2500  -999.2500  -999.2500
  759.5000   -41.9080    12.6190    10.7100  -999.2500  -999.2500  -999.2500
  760.0000   -41.9140    12.7160    10.5770  -999.2500  -999.2500  -999.2500
  760.5000   -41.9090    12.7940    10.4420  -999.2500  -999.2500  -999.2500
  761.0000   -41.7580    12.7400    10.3560  -999.2500  -999.2500  -999.2500
  761.5000   -41.5970    12.6860    10.2830  -999.2500  -999.2500  -999.2500
  762.0000   -41.4350    12.6320    10.2140  -999.2500  -999.2500  -999.2500
  762.5000   -41.2750    12.5790    10.2890  -999.2500  -999.2500  -999.2500
  763.0000   -41.1270    12.5250    10.3710  -999.2500  -999.2500  -999.2500
  763.5000   -41.7340    12.4710    10.4530  -999.2500  -999.2500  -999.2500
