~VERSION INFORMATION
 VERS.                2.0:   CWLS LOG ASCII STANDARD - VERSION 2.0
 WRAP.                 NO:   ONE LINE PER DEPTH STEP
~WELL INFORMATION
#MNEM.UNIT      DATA TYPE    INFORMATION
#----------   ------------   ------------------------------
 STRT.F          470.0000:   START DEPTH
 STOP.F         3791.5000:   STOP DEPTH
 STEP.F            0.5000:   STEP LENGTH
 NULL.          -999.2500:   NO VALUE
 COMP.    FENIX & SCISSON:   COMPANY
 WELL.   FENIX MDX #44-10:   WELL
 FLD .                NPR:   FIELD
 LOC .      S10 T38N R78W:   LOCATION
 CNTY.            NATRONA:   COUNTY
 STAT.            WYOMING:   STATE
 CTRY. UNITED STATES OF AMERICA:   COUNTRY
 SRVC.       SCHLUMBERGER:   SERVICE COMPANY
 DATE.        25-OCT-1977:   LOGDATE
 API .     49025104310000:   API NUMBER
~CURVE INFORMATION
#MNEM.UNIT       API CODE    CURVE DESCRIPTION
#----------   ------------   ------------------------------
 DEPT.F                  :   
 DT  .US/F   60 520 00 00:   DELTA TIME
 SPR .MV     11 010 01 00:   SPONTANEOUS POTENTIAL FROM RES.
 LLS .OHMM   11 220 09 00:   LATEROLOG LOG SHALLOW
 LLD .OHMM   11 220 10 00:   LATEROLOG LOG DEEP
 MSFL.OHMM   11 270 04 00:   MICRO SPHERICALLY FOCUSED
 NPOR.DEC    42 890 03 00:   ALPHA PROCESSED NEUTRON POROSITY
 RHOB.G/C3   45 350 01 00:   BULK DENSITY
 CORR.G/C3   45 356 01 00:   DENSITY CORRECTION
 GRD .GAPI   45 310 01 00:   GAMMA RAY FROM DENSITY LOG
 CALD.IN     45 280 60 00:   CALIPER FROM DENSITY LOG
~PARAMETER INFORMATION
#MNEM.UNIT          VALUE    DESCRIPTION
#----------   ------------   ------------------------------
 EKB .F         5239.0000:   Kelly bushing
 EGL .F         5229.0000:   Ground level
 EDF .F            0.0000:   Drilling floor
 EPD .F           10.0000:   Permanent datum
 TD  .F         3802.0000:   Total depth
 DATE.        25-OCT-1977:   Date logged
 CLNT.            A2DTECH:   Client Code
 SL  . 2640' FNL & 2640' FEL:   Surface Location
 PD  .                 GL:   Permanent Datum
 DD  .F              3802:   Depth driller
 DL  .F              3791:   Depth logger
 BLI .F              3789:   Bottom log interval
 TLI .F               505:   Top log interval
 CS1 .IN            8.625:   Casing size
 CBD1.       8.625 @ 505':   Casing driller 1
 CBL1.F               505:   Casing logger 1
 BS1 .IN            7.875:   Bit size
 DFT .            KCL MUD:   Type fluid in hole
 DFD .                9.1:   Density
 DFV .                 45:   Viscosity
 DFPH.               10.5:   pH
 DFL .                  8:   Fluid loss
 MSS .             MUDPIT:   Source of sample
 RMS .OHMM           .209:   Rm
 MST .F                72:   Rm Meas. temp.
 RMF .OHMM           .179:   Rmf
 MFST.F                72:   Rmf Meas. temp.
 RMC .OHMM           .314:   Rmc
 MCST.F                72:   Rmc Meas. temp.
 MFSS.               MEAS:   Source Rmf.
 RMB .OHMM           .122:   Rm. at BHT
 BHT .F               123:   BHT.
 TCS .HRS            1400:   Time Circ. stopped
 MRT .F               123:   Maximum recorded temp.
 LUN .               5642:   Logging unit number
 LUL .               CSPR:   Logging unit location
 ENGI.             SAYLER:   Recorded By
 WITN.         PETTINGILL:   Witnessed by
 ORIG.           5" PRINT:   Origin of data
 UWI .     49025104310000:   Unique Well ID
 DICO. A2D TECHNOLOGIES, INC.:   Digitizing Company
 DAPD.                 10:   Feet Above Permanent Datum
 BSD1.               3802:   Depth drilled with bit1
 MCSS.               CALC:   Source Rmc.
~OTHER INFORMATION
~A   DEPT        DT       SPR        LLS        LLD       MSFL       NPOR       RHOB       CORR        GRD       CALD   
# ...
 2681.0000    79.2580   -44.0470    11.9930    10.8870    14.5040     0.1660     2.5300     0.0060   106.6990     9.9600
 2681.5000    80.8960   -43.7020    11.0110     9.9460    13.5380     0.1690     2.5280     0.0030   112.1940     9.9610
 2682.0000    81.9870   -43.3580    10.0290     9.0060    11.9850     0.1770     2.5320    -0.0090   119.2000     9.9730
 2682.5000    83.9800   -43.0750     9.0470     8.0650    10.4310     0.1860     2.5350     0.0040   123.2550     9.9850
 2683.0000    85.6500   -43.1730     8.0650     7.1240     9.2690     0.1950     2.5300     0.0100   125.8230     9.9970
 2683.5000    86.6500   -43.2640     7.6390     6.9030     9.1840     0.2060     2.5250    -0.0050   127.6300    10.0100
 2684.0000    85.4380   -43.3550     7.6390     7.0820    10.1300     0.2170     2.5240     0.0090   126.0230    10.0220
 2684.5000    82.9500   -43.4450     8.0380     7.2280    10.9400     0.2250     2.5160    -0.0030   123.5920    10.0340
 2685.0000    83.8500   -43.7550     8.3760     7.2280    10.9400     0.2330     2.5210     0.0100   121.1690    10.0460
 2685.5000    83.6520   -44.2490     8.6100     7.2280     9.9780     0.2360     2.5140    -0.0070   119.1540    10.0570
 2686.0000    82.1640   -44.7460     9.1670     7.6380     9.9780     0.2310     2.5310    -0.0030   120.9800    10.0550
 2686.5000    81.9500   -45.2440    10.4130     8.6990    13.4820     0.2240     2.5380     0.0240   123.1510    10.0520
 2687.0000    79.6230   -45.7410    11.6590     9.7610    16.9350     0.2170     2.5340     0.0060   120.2990    10.0490
 2687.5000    77.3750   -46.2710    12.9050    10.8220    18.3240     0.2120     2.5310     0.0240   113.0220    10.0460
 2688.0000    76.0500   -46.8550    13.1530    11.5620    17.4650     0.1990     2.5390     0.0130   105.7770    10.0430
 2688.5000    76.9620   -47.4370    12.7460    11.1860    16.6050     0.1820     2.5390     0.0250    98.4600    10.0400
 2689.0000    78.2850   -48.0200    12.0730    10.7190    15.7450     0.1650     2.5360     0.0060    98.0390    10.0390
 2689.5000    78.9500   -48.6020    11.4010    10.3520    15.2420     0.1650     2.5430     0.0080   100.6100    10.0430
 2690.0000    79.1010   -49.1900    10.9400    10.2570    15.2420     0.1760     2.5430    -0.0030   103.2340    10.0460
 2690.5000    79.0200   -49.4030    10.9400    10.2570    15.3640     0.1820     2.5380    -0.0010   103.7720    10.0500
 2691.0000    78.8210   -49.4060    11.2050    10.2570    15.4840     0.1850     2.5390     0.0060   103.8840    10.0540
 2691.5000    78.4010   -49.4060    11.5260    10.5740    15.6050     0.1890     2.5270     0.0100   104.3060    10.0580
 2692.0000    77.8550   -49.4060    11.8470    10.9560    15.7250     0.1910     2.5350    -0.0040   102.1010    10.0790
 2692.5000    77.6340   -49.4050    12.1680    11.2470    15.8450     0.1940     2.5490     0.0110   102.1160    10.1010
 2693.0000    77.9070   -49.4140    12.2190    11.1220    15.9600     0.1960     2.5380     0.0200   104.4690    10.1230
 2693.5000    79.0240   -48.9080    11.6250    10.1890    15.5250     0.1970     2.5490    -0.0030   106.9220    10.1400
 2694.0000    80.8600   -48.1560    10.2930     9.0250    13.9800     0.2010     2.5300     0.0100   110.2170    10.1490
 2694.5000    82.4500   -47.3960     8.9620     7.9260    10.8630     0.2060     2.5280     0.0020   112.5350    10.1580
 2695.0000    83.0690   -46.6350     8.7710     7.9260     9.5290     0.2160     2.5340     0.0180   112.5660    10.1670
 2695.5000    82.8500   -45.8740     9.1320     8.5460     9.5290     0.2250     2.5300     0.0310   109.7550    10.1750
 2696.0000    81.2810   -45.1120     9.8880     9.1310    10.5970     0.2320     2.5480     0.0190   106.4920    10.1310
 2696.5000    79.6500   -44.3520    10.6440     9.7160    11.8710     0.2230     2.5310     0.0280   107.0650    10.0810
 2697.0000    80.1070   -44.2090    11.0420    10.2570    12.9130     0.2100     2.5130     0.0210   108.7290    10.0320
 2697.5000    80.9330   -44.0030    10.7380     9.9030    15.8440     0.2060     2.5310     0.0480   110.4060     9.9820
 2698.0000    81.9550   -43.8050    10.3920     9.5290    16.8670     0.2100     2.5440     0.0560   112.0560     9.9330
 2698.5000    82.0890   -43.6070    10.3520     9.4410    16.8670     0.2140     2.5120     0.0190   112.7620     9.8980
 2699.0000    81.8500   -43.4080    10.5450     9.7010    16.3610     0.2180     2.5130    -0.0020   110.5770     9.8780
 2699.5000    81.2550   -43.2100    10.8600     9.9930    16.2570     0.2200     2.5230     0.0050   108.0610     9.8560
 2700.0000    80.6060   -43.0100    11.1480    10.2840    16.8640     0.2070     2.5330    -0.0090   105.3960     9.8340
 2700.5000    80.0940   -42.7920    11.4370    10.5750    17.7360     0.2000     2.5430     0.0080   102.9980     9.8110
 2701.0000    79.9070   -42.4810    11.7260    10.8660    17.8250     0.1970     2.5500    -0.0040   103.1690     9.8030
 2701.5000    79.4500   -42.1800    12.0150    11.1580    17.6920     0.1950     2.5470     0.0060   105.4090     9.8100
 2702.0000    78.9720   -41.8780    12.2190    11.2470    17.4240     0.1940     2.5410     0.0060   105.5410     9.8160
 2702.5000    78.9790   -41.5830    12.2190    11.0420    17.1800     0.1970     2.5340    -0.0020   105.0990     9.8230
 2703.0000    79.4440   -41.0380    12.0710    10.5330    16.6630     0.1980     2.5290     0.0080   106.1550     9.8290
 2703.5000    79.9100   -40.4050    11.5610    10.0660    15.9120     0.1980     2.5330     0.0060   108.6200     9.8360
 2704.0000    80.6690   -39.7660    11.0500     9.6000    15.0660     0.2010     2.5470    -0.0060   110.8930     9.8390
 2704.5000    81.6500   -39.1260    10.5400     9.1330    14.1180     0.2090     2.5470     0.0110   111.2670     9.8390
 2705.0000    82.1500   -38.4870    10.0700     8.6670    13.1710     0.2170     2.5410    -0.0020   109.7990     9.8400
 2705.5000    82.0500   -37.8450    10.0700     8.5320    12.6770     0.2210     2.5350     0.0050   108.8070     9.8260
 2706.0000    81.5540   -37.2000    10.2630     8.5320    13.8970     0.2240     2.5320     0.0070   108.3720     9.8050
 2706.5000    80.4850   -36.7100    10.6690     9.1710    15.2420     0.2240     2.5430    -0.0010   107.7550     9.7850
 2707.0000    80.0320   -35.8240    11.0740     9.6030    15.2420     0.2080     2.5450     0.0090   107.1400     9.7640
 2707.5000    80.0500   -34.9460    11.4790    10.0360    14.6900     0.1990     2.5530     0.0000   106.5480     9.7440
 2708.0000    79.6490   -34.0620    11.8850    10.4010    15.7040     0.1970     2.5610     0.0180   106.2050     9.7240
 2708.5000    79.1890   -33.1780    12.2900    10.5820    17.1800     0.1960     2.5590     0.0070   105.8740     9.7080
 2709.0000    78.7440   -32.3040    12.6950    10.7630    17.1800     0.1920     2.5530    -0.0020   105.5410     9.6940
 2709.5000    78.5500   -32.1400    12.9480    10.9440    16.2130     0.1890     2.5470     0.0070   104.6710     9.6800
 2710.0000    79.0800   -31.7310    13.0230    11.0420    16.1080     0.1910     2.5350     0.0000   103.0600     9.6650
 2710.5000    78.9850   -31.1680    13.0970    10.9400    16.3250     0.1930     2.5440     0.0220   101.7790     9.6510
 2711.0000    78.9840   -31.1770    13.1530    10.8450    16.7980     0.1940     2.5630     0.0210   101.9870     9.6370
 2711.5000    79.2780   -31.2010    12.7100    10.7500    16.8670     0.1920     2.5470     0.0090   102.1740     9.6220
 2712.0000    79.5710   -31.5030    12.4460    10.6540    15.8690     0.1890     2.5480     0.0190   101.5870     9.6080
 2712.5000    79.8500   -31.8050    12.2190    10.5590    15.1020     0.1880     2.5660     0.0120   100.8700     9.5940
 2713.0000    79.7500   -32.1070    12.2190    10.5450    15.1020     0.1910     2.5770     0.0280    98.9850     9.5790
 2713.5000    79.1960   -32.4120    13.0100    11.2330    16.8450     0.1940     2.5760     0.0290    96.4580     9.5650
 2714.0000    77.6070   -32.8760    14.2310    12.2980    19.1530     0.1900     2.5850    -0.0010    94.0600     9.5510
