~VERSION INFORMATION
 VERS.                2.0:   CWLS LOG ASCII STANDARD - VERSION 2.0
 WRAP.                 NO:   ONE LINE PER DEPTH STEP
~WELL INFORMATION
#MNEM.UNIT      DATA TYPE    INFORMATION
#----------   ------------   ------------------------------
 STRT.F          148.0000:   START DEPTH
 STOP.F         3394.0000:   STOP DEPTH
 STEP.F            0.5000:   STEP LENGTH
 NULL.          -999.2500:   NO VALUE
 COMP.    FENIX & SCISSON:   COMPANY
 WELL.  FENIX "AX" #28-10:   WELL
 FLD .        TEAPOT DOME:   FIELD
 LOC .      S10 T38N R78W:   LOCATION
 CNTY.            NATRONA:   COUNTY
 STAT.            WYOMING:   STATE
 CTRY. UNITED STATES OF AMERICA:   COUNTRY
 SRVC.       SCHLUMBERGER:   SERVICE COMPANY
 DATE.        03-MAR-1981:   LOGDATE
 API .     49025108680000:   API NUMBER
~CURVE INFORMATION
#MNEM.UNIT       API CODE    CURVE DESCRIPTION
#----------   ------------   ------------------------------
 DEPT.F                  :   
 SFL .OHMM   07 220 01 00:   SHALLOW FOCUSED LOG RESISTIVITY
 ILD .OHMM   07 120 46 00:   INDUCTION LOG DEEP RESISTIVITY
 ILM .OHMM   07 120 44 00:   INDUCTION LOG MEDIUM RESISTIVITY
 TENR.LBS    07 635 01 00:   TENSION
 SPR .MV     07 010 01 00:   SPONTANEOUS POTENTIAL
 CALD.IN     45 280 60 00:   CALIPER FROM DENSITY LOG
 GRD .GAPI   45 310 01 00:   GAMMA RAY FROM DENSITY LOG
 TEND.LBS    45 635 01 00:   TENSION FROM DENSITY LOG
 CORR.G/C3   45 356 01 00:   DENSITY CORRECTION
 RHOB.G/C3   45 350 01 00:   BULK DENSITY
~PARAMETER INFORMATION
#MNEM.UNIT          VALUE    DESCRIPTION
#----------   ------------   ------------------------------
 EKB .F         5241.0000:   Kelly bushing
 EGL .F         5231.0000:   Ground level
 EDF .F            0.0000:   Drilling floor
 TD  .F         3381.0000:   Total depth
 DATE.        03-MAR-1981:   Date logged
 CLNT.            A2DTECH:   Client Code
 SL  . 640' FSL & 720' FWL:   Surface Location
 PD  .                 GL:   Permanent Datum
 EPD .F              5231:   Elevation Permanent Datum
 LMF .                 KB:   Log Measured From
 DMF .                 KB:   Drilling Measured From
 DAPD.F                10:   Feet Above Permanent Datum
 DD  .F              3361:   Depth driller
 DL  .F              3381:   Depth logger
 BLI .F              3375:   Bottom log interval
 TLI .F               233:   Top log interval
 CS1 .IN            8.625:   Casing size
 CBD1.      8.625" @ 224':   Casing driller 1
 CBL1.F               233:   Casing logger 1
 BS1 .IN            7.875:   Bit size
 BSD1.F              3361:   Depth drilled with bit1
 DFT .           CHEM/GEL:   Type fluid in hole
 DFD .                  9:   Density
 DFV .                 40:   Viscosity
 DFPH.                8.5:   pH
 DFL .                 11:   Fluid loss
 MSS .           MUD/TANK:   Source of sample
 RMS .OHMM           2.52:   Rm
 MST .F                66:   Rm Meas. temp.
 RMF .OHMM            1.8:   Rmf
 MFST.F                67:   Rmf Meas. temp.
 MFSS.               MEAS:   Source Rmf.
 RMB .OHMM           1.47:   Rm. at BHT
 BHT .F               118:   BHT.
 TCS .HRS            0500:   Time Circ. stopped
 TLAB.HRS            0830:   Time logger at bottom
 MRT .F               118:   Maximum recorded temp.
 LUN .               8035:   Logging unit number
 LUL .               CSPR:   Logging unit location
 ENGI.            BEATTLE:   Recorded By
 WITN.              FIVAS:   Witnessed by
 ORIG.           5" PRINT:   Origin of data
 UWI .     49025108680000:   Unique Well ID
 DICO. A2D TECHNOLOGIES, INC.:   Digitizing Company
~OTHER INFORMATION
~A   DEPT      SFL        ILD        ILM       TENR        SPR         CALD       GRD      TEND       CORR       RHOB   
# ...
  215.0000  -999.2500  -999.2500  -999.2500  -999.2500  -999.2500  -999.2500    73.5890  -999.2500  -999.2500  -999.2500
  215.5000  -999.2500  -999.2500  -999.2500  -999.2500  -999.2500  -999.2500    74.2160  -999.2500  -999.2500  -999.2500
  216.0000  -999.2500  -999.2500  -999.2500  -999.2500  -999.2500  -999.2500    74.7370  -999.2500  -999.2500  -999.2500
  216.5000  -999.2500  -999.2500  -999.2500  -999.2500  -999.2500  -999.2500    74.8610  -999.2500  -999.2500  -999.2500
  217.0000  -999.2500  -999.2500  -999.2500  -999.2500  -999.2500  -999.2500    72.6100  -999.2500  -999.2500  -999.2500
  217.5000  -999.2500  -999.2500  -999.2500  -999.2500  -999.2500  -999.2500    70.7040  -999.2500  -999.2500  -999.2500
  218.0000  -999.2500  -999.2500  -999.2500  -999.2500  -999.2500  -999.2500    68.5740  -999.2500  -999.2500  -999.2500
  218.5000  -999.2500  -999.2500  -999.2500  -999.2500  -999.2500  -999.2500    68.5340  -999.2500  -999.2500  -999.2500
  219.0000  -999.2500  -999.2500  -999.2500  -999.2500  -999.2500  -999.2500    69.6270  -999.2500  -999.2500  -999.2500
  219.5000  -999.2500  -999.2500  -999.2500  -999.2500  -999.2500  -999.2500    70.7160  -999.2500  -999.2500  -999.2500
  220.0000  -999.2500  -999.2500  -999.2500  -999.2500  -999.2500  -999.2500    71.7990  -999.2500  -999.2500  -999.2500
  220.5000  -999.2500  -999.2500  -999.2500  -999.2500  -999.2500  -999.2500    72.8970  -999.2500  -999.2500  -999.2500
  221.0000  -999.2500  -999.2500  -999.2500  -999.2500  -999.2500  -999.2500    73.9680  -999.2500  -999.2500  -999.2500
  221.5000  -999.2500  -999.2500  -999.2500  -999.2500  -999.2500  -999.2500    74.9470  -999.2500  -999.2500  -999.2500
  222.0000  -999.2500  -999.2500  -999.2500  -999.2500  -999.2500  -999.2500    75.0400  -999.2500  -999.2500  -999.2500
  222.5000  -999.2500  -999.2500  -999.2500  -999.2500  -999.2500  -999.2500    75.2670  -999.2500  -999.2500  -999.2500
  223.0000  -999.2500  -999.2500  -999.2500  -999.2500  -999.2500  -999.2500    75.5010  -999.2500  -999.2500  -999.2500
  223.5000  -999.2500  -999.2500  -999.2500  -999.2500  -999.2500  -999.2500    75.3170  -999.2500  -999.2500  -999.2500
  224.0000  -999.2500  -999.2500  -999.2500  -999.2500  -999.2500  -999.2500    74.4090  -999.2500  -999.2500  -999.2500
  224.5000  -999.2500  -999.2500  -999.2500  -999.2500  -999.2500  -999.2500    72.6110  -999.2500  -999.2500  -999.2500
  225.0000  -999.2500  -999.2500  -999.2500  -999.2500  -999.2500  -999.2500    70.4200  -999.2500  -999.2500  -999.2500
  225.5000  -999.2500  -999.2500  -999.2500  -999.2500  -999.2500  -999.2500    68.0160  -999.2500  -999.2500  -999.2500
  226.0000  -999.2500  -999.2500  -999.2500  -999.2500  -999.2500  -999.2500    67.7830  -999.2500  -999.2500     2.2080
  226.5000  -999.2500  -999.2500  -999.2500  -999.2500  -999.2500  -999.2500    69.1170  -999.2500  -999.2500     2.2130
  227.0000  -999.2500  -999.2500  -999.2500  -999.2500  -999.2500  -999.2500    71.9610  -999.2500  -999.2500     2.2170
  227.5000  -999.2500  -999.2500  -999.2500  -999.2500  -999.2500  -999.2500    74.8650  -999.2500  -999.2500     2.2220
  228.0000  -999.2500  -999.2500  -999.2500  -999.2500  -999.2500  -999.2500    77.2100  -999.2500  -999.2500     2.2270
  228.5000  -999.2500  -999.2500  -999.2500  -999.2500  -999.2500  -999.2500    75.9190  -999.2500  -999.2500     2.2310
  229.0000  -999.2500  -999.2500  -999.2500  -999.2500  -999.2500  -999.2500    74.7960  -999.2500  -999.2500     2.2360
  229.5000  -999.2500  -999.2500  -999.2500  -999.2500  -999.2500  -999.2500    75.6460  -999.2500  -999.2500     2.2380
  230.0000  -999.2500  -999.2500  -999.2500  -999.2500  -999.2500  -999.2500    77.4210  -999.2500  -999.2500     2.2300
  230.5000  -999.2500    10.8840  -999.2500  -999.2500  -999.2500  -999.2500    79.6030  -999.2500  -999.2500     2.2210
  231.0000  -999.2500     8.8480  -999.2500  -999.2500  -999.2500  -999.2500    79.1820  -999.2500  -999.2500     2.2140
  231.5000  -999.2500     7.4850   991.1790  -999.2500  -999.2500  -999.2500    76.6480  -999.2500  -999.2500     2.2300
  232.0000  -999.2500   176.6530  1025.3571  -999.2500  -999.2500     8.4400    74.6210  -999.2500  -999.2500     2.2540
  232.5000  -999.2500   464.0060  1059.8140   220.1080  -999.2500     8.4730    72.3290   291.2050  -999.2500     2.2420
  233.0000  -999.2500   769.5190  1088.4351   223.4690  -999.2500     8.4660    68.9740   291.3100  -999.2500     2.2140
  233.5000     0.2140   972.7960   825.5280   226.8290  -999.2500     8.4820    66.1570   291.4160    -0.1360     2.2330
  234.0000     0.2180   847.8510   524.4800   230.1900  -999.2500     8.4380    66.2130   291.5220     0.0630     2.2980
  234.5000     0.9170   534.3910  1838.4200   233.7400   -48.3270     8.7510    71.0800   291.6280     0.2050     2.3730
  235.0000     1.6430  1908.5551  2095.0559   233.7400   -73.1990     9.2470    75.5220   291.6800     0.1840     2.3430
  235.5000     6.8990  1601.5590  1734.9650   233.7400   -84.6990     9.7330    79.3420   291.7860     0.1520     2.2870
  236.0000     9.5480  1119.6910  1576.3840   233.9470   -90.9920     9.8570    81.7010   291.8920     0.1360     2.2730
  236.5000     9.1850     2.2590  1151.3110   233.7400   -92.7030     9.5490    83.0980   291.9980     0.1280     2.3490
  237.0000     8.8330     3.5720   577.0320   233.7400   -92.9190     9.4340    84.5070   292.1030     0.1250     2.3520
  237.5000     8.8620     6.7640    20.0220   233.7400   -92.9210     9.4590    86.1770   292.2090     0.1160     2.3640
  238.0000     8.3750   212.4840    11.3410   233.7400   -92.9020     9.5370    84.7730   292.3150     0.1210     2.3720
  238.5000     8.1950   728.1960     7.3610   233.7400   -87.3280     9.5900    82.8350   292.4200     0.1270     2.3800
  239.0000     8.1530  1048.4370     9.3590   233.7400   -79.0460     9.6400    80.7770   292.5260     0.1330     2.3890
  239.5000     8.1110   433.8730    12.1050   233.7400   -70.8260     9.7820    79.1500   292.6320     0.1370     2.4010
  240.0000     8.0670   204.4060    14.9630   233.7400   -63.4430    10.0150    77.9600   292.7370     0.1150     2.3920
  240.5000     7.0280    10.0990     5.6530   233.7400   -41.1290    10.5500    76.9350   292.8430     0.0980     2.3610
  241.0000     5.9450     4.3490     4.8110   233.7400   -35.0220    11.1150    75.9090   292.9490     0.0780     2.3310
  241.5000     4.8610     3.9710     4.0810   233.7400   -29.2280    11.7360    74.9630   293.0550     0.0590     2.3000
  242.0000     3.7780     3.5400     3.5770   233.7400   -25.8750    12.2200    75.7400   293.1600     0.0440     2.2740
  242.5000     2.6950     3.0970     3.1530   233.7400   -23.2080    12.3440    77.9910   293.2660     0.0660     2.2620
  243.0000     2.1410     2.6190     2.7300   233.7400   -22.8430    12.3830    80.0490   293.3720     0.0890     2.1780
  243.5000     1.7960     2.1410     2.3060   233.7400   -22.6310    12.4150    79.4250   293.4770     0.1270     2.0590
  244.0000     1.4550     1.6130     1.8380   233.7400   -22.3980    13.4570    75.8260   293.5830     0.1200     1.9710
  244.5000     1.2880     1.8440     1.6740   233.7400   -22.1850    16.0940    72.1060   293.6890     0.0800     1.9760
  245.0000     1.4870     2.2520     2.0410   233.7400   -21.9650    15.9690    69.8100   293.7950     0.0400     1.9850
  245.5000     1.8750     2.6600     2.6050   233.7400   -21.7430    14.2910    70.4630   293.9000     0.0190     1.9980
  246.0000     2.5750     3.0680     3.4200   233.7400   -21.5160    12.3490    74.1010   294.0060    -0.0090     2.0060
  246.5000     4.0360     3.4770    63.2460   233.7400   -21.2940    11.2630    77.6100   294.1120    -0.0030     2.1340
  247.0000     4.9370     3.8850   522.9340   233.7400   -21.0610    11.4650    81.7870   294.2170     0.0110     2.3100
  247.5000     5.7900     4.2030  1009.9090   233.7400   -20.8300    11.6880    82.4230   294.3230     0.0250     2.3410
  248.0000     6.4440     4.4090   164.3100   233.7400   -20.3930    11.4840    83.2500   294.4290     0.0400     2.3550
