~VERSION INFORMATION
 VERS.                2.0:   CWLS LOG ASCII STANDARD - VERSION 2.0
 WRAP.                 NO:   ONE LINE PER DEPTH STEP
~WELL INFORMATION
#MNEM.UNIT      DATA TYPE    INFORMATION
#----------   ------------   ------------------------------
 STRT.F           50.0000:   START DEPTH
 STOP.F         3270.0000:   STOP DEPTH
 STEP.F            0.5000:   STEP LENGTH
 NULL.          -999.2500:   NO VALUE
 COMP.   LAWRENCE ALLISON:   COMPANY
 WELL. LAWRENCE NPR 3 "AX" #12-11:   WELL
 FLD .                NPR:   FIELD
 LOC .      S11 T38N R78W:   LOCATION
 CNTY.            NATRONA:   COUNTY
 STAT.            WYOMING:   STATE
 CTRY. UNITED STATES OF AMERICA:   COUNTRY
 SRVC.      DRESSER ATLAS:   SERVICE COMPANY
 DATE.        18-JUL-1985:   LOGDATE
 API .     49025110460000:   API NUMBER
~CURVE INFORMATION
#MNEM.UNIT       API CODE    CURVE DESCRIPTION
#----------   ------------   ------------------------------
 DEPT.F                  :   
 TEND.LBS    45 635 01 00:   TENSION FROM DENSITY LOG
 RHOB.G/C3   45 350 01 00:   BULK DENSITY
 CORR.G/C3   45 356 01 00:   DENSITY CORRECTION
 NPHI.DEC    42 890 03 00:   NEUTRON POROSITY SANDSTONE
 TENR.LBS    07 635 01 00:   TENSION
 GRR .GAPI   07 310 01 00:   GAMMA RAY FROM RESISTIVITY
 RFOC.OHMM   07 220 01 00:   RESISTIVITY FOCUSED LOG RES.
 RILD.OHMM   07 120 46 00:   INDUCTION LOG DEEP RESISTIVITY
 RILM.OHMM   07 120 44 00:   INDUCTION LOG MEDIUM RESISTIVITY
 SN  .OHMM   01 040 00 00:   SHORT NORMAL
 ILD .OHMM   07 120 46 00:   INDUCTION LOG DEEP RESISTIVITY
 TENS.LBS    60 635 01 00:   TENSION FROM SONIC LOG
 DT  .US/F   60 520 00 00:   DELTA TIME
 SPR .MV     07 010 01 00:   SPONTANEOUS POTENTIAL
~PARAMETER INFORMATION
#MNEM.UNIT          VALUE    DESCRIPTION
#----------   ------------   ------------------------------
 EKB .F         5152.0000:   Kelly bushing
 EGL .F         5140.0000:   Ground level
 EDF .F            0.0000:   Drilling floor
 TD  .F         3271.0000:   Total depth
 DATE.        18-JUL-1985:   Date logged
 CLNT.            A2DTECH:   Client Code
 SL  . 1050' FNL & 150' FWL:   Surface Location
 PD  .                 GL:   Permanent Datum
 EPD .F              5140:   Elevation Permanent Datum
 LMF .                 KB:   Log Measured From
 DMF .                 KB:   Drilling Measured From
 DAPD.F                12:   Feet Above Permanent Datum
 DD  .F              3271:   Depth driller
 DL  .F              3262:   Depth logger
 BLI .F              3259:   Bottom log interval
 CS1 .IN            8.625:   Casing size
 CBD1.      8.625" @ 560':   Casing driller 1
 CBL1.F               560:   Casing logger 1
 BS1 .IN            7.875:   Bit size
 BSD1.F              3271:   Depth drilled with bit1
 DFT .            GEL/KCL:   Type fluid in hole
 DFD .                8.8:   Density
 DFV .                 40:   Viscosity
 DFPH.                  8:   pH
 DFL .                  8:   Fluid loss
 MSS .           MUD/TANK:   Source of sample
 RMS .OHMM            .31:   Rm
 MST .F                82:   Rm Meas. temp.
 RMF .OHMM            .25:   Rmf
 MFST.F                82:   Rmf Meas. temp.
 RMC .OHMM            .39:   Rmc
 MCST.F                82:   Rmc Meas. temp.
 MFSS.               MEAS:   Source Rmf.
 MCSS.               CALC:   Source Rmc.
 RMB .OHMM           .198:   Rm. at BHT
 BHT .F               128:   BHT.
 TCS .HRS               3:   Time Circ. stopped
 MRT .F               128:   Maximum recorded temp.
 LUN .            HL-6274:   Logging unit number
 LUL .           GILLETTE:   Logging unit location
 ENGI.             RAUTIO:   Recorded By
 WITN.             STRONG:   Witnessed by
 ORIG.           5" PRINT:   Origin of data
 UWI .     49025110460000:   Unique Well ID
 DICO. A2D TECHNOLOGIES, INC.:   Digitizing Company
~OTHER INFORMATION
~A   DEPT     TEND       RHOB       CORR       NPHI       TENR        GRR       RFOC       RILD       RILM           SN        ILD     TENS         DT         SPR  
# ...
 2696.0000   -36.0700     2.3920     0.0340     0.2160   -42.8170    78.2770    13.0040    17.9730    14.3040  -999.2500  -999.2500   -55.7770    78.1670    48.8860
 2696.5000   -23.8840     2.3950     0.0350     0.2180   -42.9300    75.9070    12.8470    17.8580    14.1090  -999.2500  -999.2500   -55.7770    78.2970    48.5540
 2697.0000   -35.4110     2.3990     0.0370     0.2200   -43.0430    73.6560    12.6900    17.7420    14.3400  -999.2500  -999.2500   -55.7770    78.1510    48.2220
 2697.5000   -46.9380     2.4030     0.0380     0.2200   -43.1550    71.8290    12.5330    17.6260    14.5620  -999.2500  -999.2500   -55.7770    78.0140    47.8880
 2698.0000   -58.4650     2.4030     0.0400     0.2170   -43.2680    71.1600    12.3760    17.5100    14.7720  -999.2500  -999.2500   -55.7770    77.5060    47.5610
 2698.5000   -69.9920     2.4030     0.0370     0.2130   -43.3800    69.1010    12.2930    17.4260    14.7240  -999.2500  -999.2500   -55.7770    76.9470    47.4250
 2699.0000   -72.0030     2.4030     0.0310     0.2090   -43.4930    68.2610    12.8520    17.4260    14.6700  -999.2500  -999.2500   -55.7770    76.3880    47.5540
 2699.5000   -64.1110     2.4030     0.0250     0.2120   -43.6060    71.6010    13.2910    17.4260    14.6160  -999.2500  -999.2500   -55.7770    76.1550    48.0260
 2700.0000   -56.2190     2.4040     0.0180     0.2200   -43.7180    74.8510    13.6000    17.4260    14.5620  -999.2500  -999.2500   -55.7770    76.5050    48.4970
 2700.5000   -48.3260     2.3960     0.0120     0.2190   -43.8310    75.8530    13.0320    17.4420    14.3700  -999.2500  -999.2500   -55.7770    77.1070    48.9800
 2701.0000   -44.1560     2.3900     0.0190     0.2200   -43.9430    74.0700    12.5150    17.4920    14.4830  -999.2500  -999.2500   -55.7770    77.7090    49.0230
 2701.5000   -41.5210     2.3920     0.0310     0.2200   -44.0560    74.1500    11.8500    17.5420    14.7070  -999.2500  -999.2500   -55.7770    77.9980    48.7240
 2702.0000   -38.8870     2.4000     0.0390     0.2160   -44.1680    75.4380    12.2220    17.5890    14.9080  -999.2500  -999.2500   -55.7770    77.8760    48.4270
 2702.5000   -36.2530     2.4080     0.0390     0.2110   -44.2810    76.7260    12.9460    17.5920    14.9080  -999.2500  -999.2500   -55.7770    77.7090    48.1180
 2703.0000   -33.6190     2.4050     0.0350     0.2080   -44.3940    76.0230    13.7250    17.5800    14.9080  -999.2500  -999.2500   -55.7770    77.5420    47.9680
 2703.5000   -30.9850     2.4020     0.0400     0.2040   -44.5060    73.2740    13.4050    18.2950    14.9080  -999.2500  -999.2500   -55.7770    77.4330    48.0410
 2704.0000   -28.3500     2.4030     0.0450     0.2010   -44.6190    70.4960    13.1360    18.7800    14.9080  -999.2500  -999.2500   -55.7770    77.5240    48.1590
 2704.5000   -28.1630     2.4100     0.0470     0.1970   -44.7310    70.1400    12.8680    19.2650    15.1690  -999.2500  -999.2500   -55.7770    77.5670    48.2740
 2705.0000   -41.5090     2.4140     0.0400     0.1980   -44.8440    71.7060    12.6660    19.7510    15.5370  -999.2500  -999.2500   -55.7770    77.3740    48.3880
 2705.5000   -54.8560     2.4070     0.0320     0.2030   -44.9570    70.5580    13.1240    20.2360    15.9050  -999.2500  -999.2500   -55.7770    77.1810    48.5030
 2706.0000   -65.0040     2.3990     0.0240     0.2110   -45.0690    66.2170    13.5180    20.7210    16.2740  -999.2500  -999.2500   -55.7770    76.9870    48.6160
 2706.5000   -59.6410     2.3910     0.0220     0.2130   -45.1820    63.7410    13.8520    21.1330    16.6420  -999.2500  -999.2500   -55.7770    76.7940    48.7160
 2707.0000   -54.2790     2.3900     0.0260     0.2100   -45.2940    65.6820    13.4750    21.0180    16.9530  -999.2500  -999.2500   -55.7770    76.6040    48.6320
 2707.5000   -48.9160     2.3910     0.0170     0.2100   -45.4070    68.2160    13.6750    20.8980    16.6230  -999.2500  -999.2500   -55.7770    76.6600    48.5330
 2708.0000   -43.5540     2.3970     0.0090     0.2070   -45.5190    69.0390    14.1090    20.7780    16.1880  -999.2500  -999.2500   -55.7770    76.7790    48.4330
 2708.5000   -38.1910     2.4020     0.0140     0.2000   -45.5940    64.9700    13.6240    20.6580    15.7530  -999.2500  -999.2500   -55.7770    77.1140    48.3320
 2709.0000   -37.1900     2.3980     0.0280     0.2020   -45.4820    63.5560    13.1210    20.4970    15.3180  -999.2500  -999.2500   -55.7770    77.4480    48.3060
 2709.5000   -39.0440     2.3910     0.0350     0.2040   -45.3710    65.3250    12.6190    20.1410    14.9080  -999.2500  -999.2500   -55.7770    77.3140    48.5390
 2710.0000   -40.8970     2.3870     0.0350     0.2060   -45.2590    69.6560    12.4070    19.7840    14.8260  -999.2500  -999.2500   -55.7770    77.0950    48.8130
 2710.5000   -42.7510     2.3920     0.0270     0.2060   -45.1470    77.1100    13.0180    19.4270    14.7210  -999.2500  -999.2500   -55.7770    76.8750    49.0900
 2711.0000   -44.6050     2.3990     0.0250     0.2060   -45.0350    80.1580    13.5360    19.1750    14.6160  -999.2500  -999.2500   -55.7770    76.8030    49.3490
 2711.5000   -46.6430     2.4030     0.0240     0.2050   -44.9230    80.9210    13.8520    18.9060    14.5110  -999.2500  -999.2500   -55.7770    76.9060    49.7190
 2712.0000   -49.2770     2.4040     0.0180     0.2010   -44.8110    79.6330    13.1910    18.6380    14.4060  -999.2500  -999.2500   -55.7770    77.2710    49.3630
 2712.5000   -51.9110     2.4050     0.0140     0.1950   -44.6990    78.6820    12.5210    18.2310    14.3010  -999.2500  -999.2500   -55.7770    77.6000    48.8320
 2713.0000   -54.5460     2.4100     0.0150     0.1980   -44.5870    78.6020    12.7080    17.7880    14.1840  -999.2500  -999.2500   -55.4930    77.4620    48.3030
 2713.5000   -53.6000     2.4140     0.0210     0.2040   -44.4750    78.5750    13.3520    17.3460    13.9140  -999.2500  -999.2500   -54.5630    77.3360    47.7720
 2714.0000   -44.5000     2.4040     0.0270     0.2120   -44.3630    75.6950    13.0690    16.9040    13.6440  -999.2500  -999.2500   -53.6340    77.2110    47.2420
 2714.5000   -35.4000     2.3910     0.0310     0.2090   -44.2510    64.5060    12.3770    16.4920    13.3740  -999.2500  -999.2500   -52.7040    77.1530    46.7130
 2715.0000   -26.3000     2.3910     0.0260     0.2120   -44.1390    61.5680    11.6860    16.3820    13.1090  -999.2500  -999.2500   -51.7740    77.5500    46.2530
 2715.5000   -17.2000     2.3970     0.0220     0.2180   -44.0270    67.9290    11.0110    15.9830    12.8130  -999.2500  -999.2500   -50.8450    77.9460    45.9900
 2716.0000   -33.9200     2.3940     0.0150     0.2220   -43.9150    73.1040    11.5140    15.4060    12.7190  -999.2500  -999.2500   -49.9150    78.3420    45.7200
 2716.5000   -55.9700     2.3810     0.0020     0.2200   -43.8030    76.6810    12.2930    14.8290    12.6260  -999.2500  -999.2500   -48.9860    78.6320    45.3600
 2717.0000   -49.2840     2.3680     0.0050     0.2180   -43.6910    75.8690    12.4070    14.3700    12.5320  -999.2500  -999.2500   -48.0560    78.7320    44.6980
 2717.5000   -35.9370     2.3590     0.0130     0.2150   -43.5800    75.1500    12.1910    14.4010    12.4390  -999.2500  -999.2500   -47.1260    78.8330    44.0510
 2718.0000   -22.5900     2.3740     0.0160     0.2110   -43.4680    74.4550    11.2910    14.4380    12.3450  -999.2500  -999.2500   -46.1970    78.8300    43.3680
 2718.5000   -11.5590     2.3950     0.0120     0.2070   -43.3560    75.9520    10.6130    14.4750    12.1810  -999.2500  -999.2500   -45.2670    78.5850    42.1260
 2719.0000   -28.2420     2.4240     0.0050     0.2070   -43.2440    78.7760    10.7110    14.5270    12.7500  -999.2500  -999.2500   -44.3370    78.0210    41.2540
 2719.5000   -44.9250     2.4530     0.0000     0.2110   -43.1320    81.8450    11.8480    14.6230    13.2060  -999.2500  -999.2500   -43.4080    77.4560    40.5300
 2720.0000   -61.6090     2.4720     0.0160     0.2250   -43.0200    82.6900    12.9290    14.7720    13.7150  -999.2500  -999.2500   -42.4780    76.8910    39.8130
