~VERSION INFORMATION
 VERS.                2.0:   CWLS LOG ASCII STANDARD - VERSION 2.0
 WRAP.                 NO:   ONE LINE PER DEPTH STEP
~WELL INFORMATION
#MNEM.UNIT      DATA TYPE    INFORMATION
#----------   ------------   ------------------------------
 STRT.F          210.5000:   START DEPTH
 STOP.F         3234.0000:   STOP DEPTH
 STEP.F            0.5000:   STEP LENGTH
 NULL.          -999.2500:   NO VALUE
 COMP.    FENIX & SCISSON:   COMPANY
 WELL.   FENIX "A" #21-10:   WELL
 FLD .              NPR-3:   FIELD
 LOC .      S10 T38N R78W:   LOCATION
 CNTY.            NATRONA:   COUNTY
 STAT.            WYOMING:   STATE
 CTRY. UNITED STATES OF AMERICA:   COUNTRY
 SRVC.      DRESSER ATLAS:   SERVICE COMPANY
 DATE.        31-AUG-1977:   LOGDATE
 API .     49025104260000:   API NUMBER
~CURVE INFORMATION
#MNEM.UNIT       API CODE    CURVE DESCRIPTION
#----------   ------------   ------------------------------
 DEPT.F                  :   
 GRD .GAPI   45 310 01 00:   GAMMA RAY FROM DENSITY LOG
 CALD.IN     45 280 60 00:   CALIPER FROM DENSITY LOG
 RHOB.G/C3   45 350 01 00:   BULK DENSITY
 CORR.G/C3   45 356 01 00:   DENSITY CORRECTION
 SPR .MV     11 010 01 00:   SPONTANEOUS POTENTIAL
 LLS .OHMM   11 220 09 00:   LATEROLOG SHALLOW
 LLD .OHMM   11 220 10 00:   LATEROLOG DEEP
 TEND.LBS    45 635 01 00:   TENSION FROM DENSITY LOG
 TENR.LBS    07 635 01 00:   TENSION
~PARAMETER INFORMATION
#MNEM.UNIT          VALUE    DESCRIPTION
#----------   ------------   ------------------------------
 EKB .F         5258.0000:   Kelly bushing
 EGL .F         5248.0000:   Ground level
 EDF .F            0.0000:   Drilling floor
 TD  .F         3222.0000:   Total depth
 DATE.        31-AUG-1977:   Date logged
 CLNT.            A2DTECH:   Client Code
 SL  . 330' FNL & 990' FWL:   Surface Location
 PD  .                 GL:   Permanent Datum
 EPD .F              5248:   Elevation Permanent Datum
 LMF .                 KB:   Log Measured From
 DMF .                 KB:   Drilling Measured From
 DAPD.F                10:   Feet Above Permanent Datum
 DD  .F              3222:   Depth driller
 DL  .F              3219:   Depth logger
 BLI .F              3218:   Bottom log interval
 TLI .F               221:   Top log interval
 CS1 .IN             8.75:   Casing size
 CBD1.       8.75" @ 219':   Casing driller 1
 CBL1.F               221:   Casing logger 1
 BS1 .IN            7.875:   Bit size
 BSD1.F              3222:   Depth drilled with bit1
 DFT .                KCL:   Type fluid in hole
 DFD .                9.1:   Density
 DFV .                 36:   Viscosity
 DFPH.                 11:   pH
 DFL .                  8:   Fluid loss
 MSS .           FLOWLINE:   Source of sample
 RMS .OHMM           0.14:   Rm
 MST .F                72:   Rm Meas. temp.
 RMF .OHMM           0.08:   Rmf
 MFST.F                72:   Rmf Meas. temp.
 RMC .OHMM           0.20:   Rmc
 MCST.F                72:   Rmc Meas. temp.
 MFSS.               CALC:   Source Rmf.
 MCSS.               CALC:   Source Rmc.
 RMB .OHMM           0.08:   Rm. at BHT
 BHT .F               125:   BHT.
 TCS .HRS               3:   Time Circ. stopped
 MRT .F               125:   Maximum recorded temp.
 LUN .               6080:   Logging unit number
 LUL .              WLSTN:   Logging unit location
 ENGI.               RALL:   Recorded By
 WITN.         PETTINGILL:   Witnessed by
 ORIG.           5" PRINT:   Origin of data
 UWI .     49025104260000:   Unique Well ID
 DICO. A2D TECHNOLOGIES, INC.:   Digitizing Company
~OTHER INFORMATION
~A   DEPT      GRD       CALD       RHOB       CORR        SPR        LLS        LLD       TEND        TENR  
# ...
  612.0000    77.1260    12.8530     2.4670     0.0290   -59.3090     7.3130     8.5240   350.2320   599.7780
  612.5000    78.7710    12.8060     2.4630     0.0280   -60.1820     7.3130     8.3250   350.7450   600.4250
  613.0000    80.3150    12.7610     2.4600     0.0260   -60.9680     7.0420     8.2360   351.2590   601.0730
  613.5000    81.3650    12.7410     2.4590     0.0250   -60.9830     6.6800     7.7630   351.7720   601.7210
  614.0000    82.2420    12.7070     2.4580     0.0230   -61.0230     6.3010     7.0550   352.2850   602.3690
  614.5000    85.1790    12.6990     2.4560     0.0220   -61.0650     5.5650     6.3470   352.7990   603.0170
  615.0000    88.1260    12.6930     2.4540     0.0240   -61.1050     4.6220     5.4740   353.3120   603.6650
  615.5000    90.5130    12.6870     2.4640     0.0260   -61.0420     3.4540     3.8200   353.8260   604.3130
  616.0000    89.3910    12.6630     2.4760     0.0280   -60.7790     3.5500     4.1200   354.3390   604.9610
  616.5000    84.4620    12.6030     2.4880     0.0300   -60.5200     4.5440     5.3050   354.8530   605.6080
  617.0000    79.2250    12.5440     2.5010     0.0320   -60.2610     5.9490     6.4790   355.3660   598.1330
  617.5000    73.9410    12.4840     2.5020     0.0340   -59.9970     7.2950     7.9850   355.8790   588.1830
  618.0000    70.4830    12.4250     2.5030     0.0340   -60.1650     8.3880     9.5340   356.3930   578.2320
  618.5000    71.2170    12.4000     2.5030     0.0330   -60.5460     8.2680     9.4310   356.9060   568.2820
  619.0000    73.1290    12.3770     2.5020     0.0330   -60.9210     8.1120     9.2980   357.4200   558.3320
  619.5000    75.1150    12.3530     2.5020     0.0320   -60.8820     7.9560     9.1640   357.9330   548.3810
  620.0000    77.1320    12.3290     2.5010     0.0310   -60.5590     7.7960     9.1080   358.4460   538.4310
  620.5000    79.1660    12.3050     2.5000     0.0310   -60.2390     7.8720     9.1300   358.9600   528.4810
  621.0000    78.3220    12.2810     2.5000     0.0310   -59.9190     7.9690     9.1580   359.4730   528.9110
  621.5000    76.5200    12.2570     2.5020     0.0320   -59.6000     8.0660     9.1860   359.9870   532.2280
  622.0000    74.9270    12.2330     2.5030     0.0340   -59.2800     8.1920     9.3740   360.5000   535.5450
  622.5000    73.6160    12.2090     2.5050     0.0360   -58.9610     8.3700     9.6060   361.0140   538.8610
  623.0000    72.3010    12.1840     2.5090     0.0380   -58.6410     8.5490     9.8380   361.5270   542.1780
  623.5000    71.1960    12.1580     2.5120     0.0400   -58.3220     8.7280    10.0700   362.0400   545.4950
  624.0000    72.7640    12.1330     2.5150     0.0420   -58.0030     8.9060    10.2830   362.5540   545.2520
  624.5000    74.3310    12.1080     2.5180     0.0430   -57.6810     9.0770    10.4830   363.0670   543.6970
  625.0000    75.8870    12.0830     2.5210     0.0440   -57.5560     9.2460    10.6830   363.5810   542.1430
  625.5000    77.5040    12.0620     2.5220     0.0450   -57.5550     9.4140    10.8820   364.0940   540.5880
  626.0000    77.0160    12.0500     2.5220     0.0450   -57.5540     9.5680    11.0820   364.6080   539.0330
  626.5000    75.8350    12.0390     2.5220     0.0450   -57.5540     9.8680    11.2990   365.1210   537.4780
  627.0000    74.6250    12.0270     2.5210     0.0460   -57.5540    10.1650    11.5860   365.6340   535.9240
  627.5000    73.3590    12.0150     2.5160     0.0460   -57.5570    10.1840    11.8720   366.1480   534.3690
  628.0000    74.3660    12.0030     2.5100     0.0430   -57.5720    10.2150    11.9840   366.6610   532.8140
  628.5000    76.0070    11.9910     2.5040     0.0410   -57.3580    10.2460    11.9190   367.1750   531.2590
  629.0000    76.9280    11.9800     2.5010     0.0380   -57.1290    10.2580    11.8550   367.6880   529.7050
  629.5000    75.8020    11.9680     2.4970     0.0360   -56.7610    10.1400    11.7910   368.2010   528.1500
  630.0000    75.2050    11.9550     2.4950     0.0340   -56.3720    10.0720    11.2400   368.7150   526.5950
  630.5000    75.8920    11.9300     2.4930     0.0310   -55.9840    10.1490    11.3600   369.2280   546.1770
  631.0000    76.2660    11.9080     2.4940     0.0300   -55.5990    10.2420    11.6450   369.7420   546.1770
  631.5000    75.0730    11.8860     2.4950     0.0300   -55.5710    10.3360    11.9300   370.2550   546.1770
  632.0000    73.8350    11.8630     2.4960     0.0310   -56.0520    10.4470    12.2050   370.7690   546.1770
  632.5000    73.1220    11.8400     2.4970     0.0310   -56.5280    10.4470    12.2050   371.2820   546.1770
  633.0000    73.0920    11.8180     2.4990     0.0310   -57.0030    10.4470    12.0300   371.7950   546.1770
  633.5000    75.1720    11.7950     2.4990     0.0310   -57.4780    10.4470    11.8190   372.3090   546.1770
  634.0000    77.2370    11.7840     2.4960     0.0310   -57.7540    10.3840    11.6090   372.8220   546.1770
  634.5000    76.1170    11.7700     2.4950     0.0310   -57.5630    10.2400    11.4480   373.3360   546.1770
  635.0000    74.5360    11.7570     2.4970     0.0310   -57.2740    10.0720    11.3440   373.8490   546.1770
  635.5000    74.6510    11.7440     2.4980     0.0310   -56.9830    10.1290    11.5080   374.3630   546.1770
  636.0000    75.0430    11.7300     2.4990     0.0320   -56.7480    10.2190    11.6410   374.8760   546.1770
  636.5000    75.4560    11.7160     2.5010     0.0320   -56.8970    10.3080    11.7740   375.3890   546.1770
  637.0000    76.7560    11.6860     2.5020     0.0320   -57.0580    10.3980    11.8740   375.9030   546.1770
  637.5000    78.1780    11.6170     2.5030     0.0320   -57.2200    10.4470    11.8160   376.4160   546.1770
  638.0000    79.6030    11.5050     2.5040     0.0320   -57.3830    10.5430    11.5830   376.9300   546.1770
  638.5000    81.0230    11.3930     2.5060     0.0320   -57.5450    10.3370    11.3500   377.4430   546.1770
  639.0000    82.2740    11.3730     2.5070     0.0320   -57.7070    10.1410    11.1170   377.9570   546.1770
  639.5000    82.6670    11.3570     2.5050     0.0330   -57.8700     9.9450    10.8450   378.4700   546.1770
  640.0000    82.2460    11.3420     2.5060     0.0340   -58.0310     9.7490    10.5540   378.9830   546.1770
  640.5000    80.8020    11.3260     2.5080     0.0350   -58.1540     9.5530    10.2630   379.4970   546.1770
  641.0000    80.3740    11.3090     2.5100     0.0360   -58.1390     9.3150    10.1330   380.0100   546.1770
  641.5000    81.8250    11.2930     2.5120     0.0370   -58.0850     9.1410    10.0640   380.5240   546.1770
  642.0000    82.3210    11.2770     2.5120     0.0380   -58.0320     8.9660     9.9950   381.0370   546.1770
  642.5000    82.1290    11.2610     2.5120     0.0380   -57.9800     8.9110     9.9260   381.5500   546.1770
  643.0000    81.8740    11.2450     2.5120     0.0390   -57.9280     8.8430     9.7990   382.0640   546.1770
  643.5000    81.6340    11.2300     2.5120     0.0390   -57.8750     8.7810     9.7100   382.5770   546.1770
  644.0000    81.8220    11.2240     2.5140     0.0400   -57.8230     8.8600     9.9320   383.0910   546.1770
  644.5000    82.6470    11.2180     2.5150     0.0400   -57.7700     8.9430    10.1390   383.6040   546.1770
  645.0000    82.4880    11.2120     2.5170     0.0410   -57.7180     8.6290     9.8110   384.1180   546.1770
  645.5000    81.5540    11.2060     2.5180     0.0410   -57.6650     8.3380     9.4090   384.6310   546.1770
  646.0000    80.6770    11.2000     2.5170     0.0420   -57.6130     8.0470     9.0250   385.1440   546.1770
  646.5000    81.1940    11.1940     2.5160     0.0420   -57.5620     8.0030     8.9430   385.6580   546.1770
  647.0000    81.8080    11.1880     2.5150     0.0420   -57.6630     7.9670     8.9430   386.1390   546.1770
  647.5000    82.2830    11.1820     2.5140     0.0420   -57.8840     7.9300     8.9430   386.1390   546.1770
  648.0000    81.6510    11.1760     2.5130     0.0420   -58.1050     7.8940     8.8960   386.1390   546.1770
