~VERSION INFORMATION
 VERS.                2.0:   CWLS LOG ASCII STANDARD - VERSION 2.0
 WRAP.                 NO:   ONE LINE PER DEPTH STEP
~WELL INFORMATION
#MNEM.UNIT      DATA TYPE    INFORMATION
#----------   ------------   ------------------------------
 STRT.F            0.0000:   START DEPTH
 STOP.F         3982.0000:   STOP DEPTH
 STEP.F            0.5000:   STEP LENGTH
 NULL.          -999.2500:   NO VALUE
 COMP.   LAWRENCE ALLISON:   COMPANY
 WELL. LAWRENCE NPR 3 "LX" #61-10:   WELL
 FLD .                NPR:   FIELD
 LOC .      S10 T38N R78W:   LOCATION
 CNTY.            NATRONA:   COUNTY
 STAT.            WYOMING:   STATE
 CTRY. UNITED STATES OF AMERICA:   COUNTRY
 SRVC.      DRESSER ATLAS:   SERVICE COMPANY
 DATE.        14-APR-1983:   LOGDATE
 API .     49025109180000:   API NUMBER
~CURVE INFORMATION
#MNEM.UNIT       API CODE    CURVE DESCRIPTION
#----------   ------------   ------------------------------
 DEPT.F                  :   
 CALD.IN     45 280 60 00:   CALIPER FROM DENSITY LOG
 RHOB.G/C3   45 350 01 00:   BULK DENSITY
 DRHO.G/C3   45 356 01 00:   DENSITY CORRECTION
 TEND.LBS    45 635 01 00:   TENSION FROM DENSITY LOG
 CNC .DEC    42 890 03 00:   NEUTRON PORISITY SANDSTONE
 GRR .GAPI   07 310 01 00:   GAMMA RAY FROM RESISTIVITY
 SPR .MV     07 010 01 00:   SPONTANEOUS POTENTIAL
 ILD .OHMM   07 120 46 00:   DEEP INDUCTION RESISTIVITY
 ILM .OHMM   07 120 44 00:   INDUCTION LOG MEDIUM RESISTIVITY
 SFL .OHMM   07 220 01 00:   SHALLOW FOCUSED LOG RESISTIVITY
 TENS.LBS    60 635 01 00:   TENSION FROM SONIC LOG
 DT  .US/F   60 520 00 00:   DELTA TIME
 TENR.LBS    07 635 01 00:   TENSION FROM RESISTIVITY
~PARAMETER INFORMATION
#MNEM.UNIT          VALUE    DESCRIPTION
#----------   ------------   ------------------------------
 EKB .F         5164.0000:   Kelly bushing
 EGL .F         5154.0000:   Ground level
 EDF .F            0.0000:   Drilling floor
 TD  .F         3985.0000:   Total depth
 DATE.        14-APR-1983:   Date logged
 CLNT.            A2DTECH:   Client Code
 SL  . 138' FNL & 1331' FEL:   Surface Location
 PD  .                 GL:   Permanent Datum
 EPD .F              5154:   Elevation Permanent Datum
 LMF .                 KB:   Log Measured From
 DMF .                 KB:   Drilling Measured From
 DD  .F              3985:   Depth driller
 DL  .F              3948:   Depth logger
 BLI .F              3945:   Bottom log interval
 CS1 .IN            8.625:   Casing size
 CBD1.      8.625" @ 442':   Casing driller 1
 CBL1.F               453:   Casing logger 1
 BS1 .IN            7.875:   Bit size
 DFT .                KCI:   Type fluid in hole
 DFD .                8.9:   Density
 DFV .                 40:   Viscosity
 DFPH.                8.5:   pH
 DFL .                 10:   Fluid loss
 MSS .           FLOWLINE:   Source of sample
 RMS .OHMM           0.38:   Rm
 MST .F                68:   Rm Meas. temp.
 RMF .OHMM           0.30:   Rmf
 MFST.F                68:   Rmf Meas. temp.
 RMC .OHMM           0.49:   Rmc
 MCST.F                68:   Rmc Meas. temp.
 MFSS.               MEAS:   Source Rmf.
 RMB .OHMM           0.22:   Rm. at BHT
 BHT .F               122:   BHT.
 TCS .HRS               4:   Time Circ. stopped
 MRT .F               122:   Maximum recorded temp.
 LUN .               6764:   Logging unit number
 LUL .              WLSTN:   Logging unit location
 ENGI.            QUICKEL:   Recorded By
 WITN.           JENNINGS:   Witnessed by
 ORIG.           5" PRINT:   Origin of data
 UWI .     49025109180000:   Unique Well ID
 DICO. A2D TECHNOLOGIES, INC.:   Digitizing Company
 DAPD.                 10:   Feet Above Permanent Datum
 BSD1.               3985:   Depth drilled with bit1
 MCSS.               CALC:   Source Rmc.
~OTHER INFORMATION
~A    DEPT    CALD       RHOB       DRHO       TEND        CNC         GRR       SPR        ILD        ILM        SFL       TENS         DT       TENR   
# ...
  442.0000  -999.2500  -999.2500  -999.2500  -999.2500  -999.2500    58.8830  -999.2500  -999.2500  -999.2500  -999.2500   329.2680    92.3370  -999.2500
  442.5000  -999.2500  -999.2500  -999.2500  -999.2500  -999.2500    59.4860  -999.2500  -999.2500  -999.2500  -999.2500   308.9430    92.3370  -999.2500
  443.0000  -999.2500  -999.2500  -999.2500  -999.2500  -999.2500    60.6720  -999.2500  -999.2500  -999.2500  -999.2500   308.9430    92.3370  -999.2500
  443.5000  -999.2500  -999.2500  -999.2500  -999.2500  -999.2500    61.4620  -999.2500  -999.2500  -999.2500  -999.2500   308.9430    92.3370  -999.2500
  444.0000  -999.2500  -999.2500  -999.2500  -999.2500  -999.2500    62.4080  -999.2500  -999.2500  -999.2500  -999.2500  -999.2500    92.3370  -999.2500
  444.5000  -999.2500  -999.2500  -999.2500  -999.2500  -999.2500    63.3350  -999.2500  -999.2500  -999.2500  -999.2500  -999.2500  -999.2500  -999.2500
  445.0000  -999.2500  -999.2500  -999.2500  -999.2500  -999.2500    64.2610  -999.2500  -999.2500  -999.2500  -999.2500  -999.2500  -999.2500  -999.2500
  445.5000  -999.2500  -999.2500  -999.2500  -999.2500  -999.2500    65.0200  -999.2500  -999.2500  -999.2500  -999.2500  -999.2500  -999.2500  -999.2500
  446.0000  -999.2500  -999.2500  -999.2500  -999.2500  -999.2500    68.7770  -999.2500  -999.2500  -999.2500  -999.2500  -999.2500  -999.2500  -999.2500
  446.5000  -999.2500  -999.2500  -999.2500  -999.2500  -999.2500    70.1580  -999.2500  -999.2500  -999.2500  -999.2500  -999.2500  -999.2500  -999.2500
  447.0000  -999.2500  -999.2500  -999.2500  -999.2500  -999.2500    70.2970  -999.2500  -999.2500  -999.2500  -999.2500  -999.2500  -999.2500  -999.2500
  447.5000  -999.2500  -999.2500  -999.2500  -999.2500  -999.2500    69.4000  -999.2500  -999.2500  -999.2500  -999.2500  -999.2500  -999.2500  -999.2500
  448.0000  -999.2500  -999.2500  -999.2500  -999.2500  -999.2500    68.3540  -999.2500  -999.2500  -999.2500  -999.2500  -999.2500  -999.2500  -999.2500
  448.5000  -999.2500  -999.2500  -999.2500  -999.2500     0.4110    68.0080  -999.2500  -999.2500  -999.2500  -999.2500  -999.2500  -999.2500  -999.2500
  449.0000  -999.2500  -999.2500  -999.2500  -999.2500     0.4280    68.9290  -999.2500  -999.2500  -999.2500  -999.2500  -999.2500  -999.2500  -999.2500
  449.5000  -999.2500  -999.2500  -999.2500  -999.2500     0.4380    70.4970  -999.2500  -999.2500  -999.2500  -999.2500  -999.2500  -999.2500  -999.2500
  450.0000  -999.2500  -999.2500  -999.2500  -999.2500     0.4430    71.8330  -999.2500  -999.2500  -999.2500  -999.2500  -999.2500  -999.2500  -999.2500
  450.5000  -999.2500  -999.2500  -999.2500  -999.2500     0.4430    71.5830  -999.2500  -999.2500  -999.2500  -999.2500  -999.2500  -999.2500  -999.2500
  451.0000  -999.2500  -999.2500  -999.2500  -999.2500     0.4430    69.2720  -999.2500  -999.2500  -999.2500  -999.2500  -999.2500  -999.2500  -999.2500
  451.5000  -999.2500  -999.2500  -999.2500  -999.2500     0.4380    66.9430  -999.2500  -999.2500  -999.2500  -999.2500  -999.2500  -999.2500  -999.2500
  452.0000  -999.2500  -999.2500  -999.2500  -999.2500     0.4290    65.5590  -999.2500  -999.2500  -999.2500  -999.2500  -999.2500  -999.2500  -999.2500
  452.5000  -999.2500  -999.2500  -999.2500  -999.2500     0.4190    66.9540  -999.2500   407.5290  2026.4139     0.3430  -999.2500  -999.2500   -47.0150
  453.0000  -999.2500  -999.2500  -999.2500  -999.2500     0.4090    73.3860   -30.0950   403.8320   135.2900     0.3620  -999.2500  -999.2500   -47.2620
  453.5000  -999.2500     2.2950     0.3500  -999.2500     0.4000    82.2200   -31.0910    40.3900    23.9490     1.8760  -999.2500  -999.2500   -47.5090
  454.0000  -999.2500     2.3340     0.3510  -999.2500     0.3900    87.5100   -32.0870     2.2200     4.7730     4.3170  -999.2500  -999.2500   -47.7560
  454.5000  -999.2500     2.3650     0.3560  -999.2500     0.3900    87.3400   -33.0830     2.2400     5.8580     5.0410  -999.2500  -999.2500   -48.0030
  455.0000  -999.2500     2.3800     0.3510  -999.2500     0.4130    87.9930   -34.0790     2.8390    10.6960     5.1030  -999.2500  -999.2500   -48.2500
  455.5000  -999.2500     2.3980     0.3410  -999.2500     0.4360    92.1550   -35.0980     4.3860    42.6700     5.1810  -999.2500  -999.2500   -48.4970
  456.0000  -999.2500     2.4060     0.3310  -999.2500     0.4440    93.2160   -36.1320     9.1150    93.1100     5.5980  -999.2500  -999.2500   -48.7450
  456.5000  -999.2500     2.4020     0.3230  -999.2500     0.4140    90.2420   -37.1660    15.8920    92.2660     5.8360  -999.2500  -999.2500   -48.9920
  457.0000  -999.2500     2.3910     0.3240  -999.2500     0.4010    90.0910   -38.2010    14.4760    63.6020     5.8470  -999.2500  -999.2500   -49.2390
  457.5000  -999.2500     2.3620     0.3240  -999.2500     0.3930    94.6910   -39.2350     9.5400    22.8820     5.8570  -999.2500  -999.2500   -49.4860
  458.0000  -999.2500     2.3330     0.3230  -999.2500     0.4070    98.8390   -42.3910     7.8780    14.1790     5.8680  -999.2500  -999.2500   -49.7330
  458.5000  -999.2500     2.2920     0.2780  -999.2500     0.4150    99.2750   -44.4550     7.6650    12.6540     5.8790  -999.2500  -999.2500   -49.9800
  459.0000     7.2130     2.2860     0.1870  -245.0200     0.3750    98.0410   -46.4470     7.5270    13.6110     5.8860  -999.2500  -999.2500   -50.2280
  459.5000     9.7150     2.3410     0.0670   494.5930     0.3380    96.7040   -48.1230     7.6310    13.8080     5.8870  -999.2500  -999.2500   -50.2950
  460.0000    10.1640     2.4180     0.0480   913.3470     0.3180    95.9570   -48.2510     7.5270    13.4880     5.8860  -999.2500  -999.2500   -50.4750
  460.5000    10.2620     2.4400     0.0460   657.0260     0.3180    97.3280   -49.6800     7.7380    10.4160     5.8860  -999.2500  -999.2500   -50.7220
  461.0000    10.3860     2.4620     0.0680   351.2680     0.3450    99.4180   -50.1270     8.0070     7.8210     5.8860  -999.2500  -999.2500   -50.9690
  461.5000    10.4290     2.4660     0.0940    -4.0130     0.3470    98.1730   -50.1220     8.3210     6.6660     5.8860  -999.2500  -999.2500   -51.2160
  462.0000    10.4680     2.4690     0.0950   -75.6970     0.3440    93.9570   -50.1750     7.7170     5.7270     5.9290  -999.2500  -999.2500   -51.4630
  462.5000    10.5190     2.4670     0.0800   -73.3150     0.3390    91.8560   -50.2090     6.5660     5.4150     5.9940  -999.2500  -999.2500   -51.7100
  463.0000    10.5840     2.4620     0.0770   -71.1330     0.3540    92.6860   -50.2410     6.2160     5.1340     5.6230  -999.2500  -999.2500   -51.9580
  463.5000    10.6490     2.4420     0.0930   -68.9500     0.3700    94.0560   -50.2990     6.1380     5.0410     5.0110  -999.2500  -999.2500   -52.2050
  464.0000    10.7100     2.4110     0.1100   -66.7680     0.3770    96.4570   -49.7860     6.0740     5.2060     4.2390  -999.2500  -999.2500   -52.4520
  464.5000    10.7230     2.4110     0.1110   -65.7370     0.3540    98.5660   -48.7700     6.1520     5.5220     4.1630  -999.2500  -999.2500   -52.6990
  465.0000    10.7350     2.4220     0.0990   -73.8050     0.3310    98.5150   -47.8450     6.2160     5.9740     5.1060  -999.2500  -999.2500   -52.9460
  465.5000    10.7470     2.4420     0.0880   -88.8650     0.3100    97.7180   -46.7180     6.2730     6.3460     6.0330  -999.2500  -999.2500   -53.1930
  466.0000    10.7600     2.4620     0.0790   -90.0800     0.3000    94.8090   -45.8420     7.1710     6.7180     6.6810  -999.2500  -999.2500   -53.4410
  466.5000    10.7720     2.4600     0.0880   -80.0400     0.3040    89.9510   -46.0140     7.9060     7.0900     6.9980  -999.2500  -999.2500   -53.6880
  467.0000    10.7840     2.4550     0.0970   -70.0000     0.3070    88.7480   -46.4750     8.6400     7.4620     7.0330  -999.2500  -999.2500   -53.9350
  467.5000    10.8330     2.4510     0.0810   -65.7370     0.3010    90.9460   -46.7840     9.1990     7.7230     7.0760  -999.2500  -999.2500   -54.1820
