~VERSION INFORMATION
 VERS.                2.0:   CWLS LOG ASCII STANDARD - VERSION 2.0
 WRAP.                 NO:   ONE LINE PER DEPTH STEP
~WELL INFORMATION
#MNEM.UNIT      DATA TYPE    INFORMATION
#----------   ------------   ------------------------------
 STRT.F            0.0000:   START DEPTH
 STOP.F         3474.0000:   STOP DEPTH
 STEP.F            0.5000:   STEP LENGTH
 NULL.          -999.2500:   NO VALUE
 COMP. LAWRENCE ALLISON & ASSOCIATES:   COMPANY
 WELL. LAWRENCE ALLISON #13-AX-14:   WELL
 FLD .            WILDCAT:   FIELD
 LOC .      S14 T38N R78W:   LOCATION
 CNTY.            NATRONA:   COUNTY
 STAT.            WYOMING:   STATE
 CTRY. UNITED STATES OF AMERICA:   COUNTRY
 SRVC.      DRESSER ATLAS:   SERVICE COMPANY
 DATE.        31-MAR-1986:   LOGDATE
 API .     49025110640000:   API NUMBER
~CURVE INFORMATION
#MNEM.UNIT       API CODE    CURVE DESCRIPTION
#----------   ------------   ------------------------------
 DEPT.F                  :   
 TEND.LBS    45 635 01 00:   TENSION FROM DENSITY LOG
 RHOB.G/C3   45 350 01 00:   BULK DENSITY
 CORR.G/C3   45 356 01 00:   DENSITY CORRECTION
 CALD.IN     45 280 60 00:   CALIPER FROM DENSITY LOG
 NPHI.DEC    42 890 00 00:   NEUTRON POROSITY
 TENR.LBS    07 635 01 00:   TENSION FROM RESISTIVITY
 RFOC.OHMM   07 220 01 00:   RESISTIVITY FOCUSED LOG RES.
 RILD.OHMM   07 120 46 00:   DEEP INDUCTION RESISTIVITY
 RILM.OHMM   07 120 44 00:   INDUCTION LOG MEDIUM RESISTIVITY
 GRR .GAPI   07 310 01 00:   GAMMA RAY FROM RESISTIVITY
 SPR .MV     07 010 01 00:   SPONTANEOUS POTENTIAL
 TENS.LBS    60 635 01 00:   TENSION FROM SONIC LOG
 DT  .US/F   60 520 00 00:   DELTA TIME
~PARAMETER INFORMATION
#MNEM.UNIT          VALUE    DESCRIPTION
#----------   ------------   ------------------------------
 EKB .F         5251.0000:   Kelly bushing
 EGL .F         5239.2000:   Ground level
 EDF .F         5248.1000:   Drilling floor
 TD  .F         3456.0000:   Total depth
 DATE.        31-MAR-1986:   Date logged
 CLNT.            A2DTECH:   Client Code
 SL  . 238' FWL & 1739' FNL:   Surface Location
 PD  .                 GL:   Permanent Datum
 EPD .F            5239.2:   Elevation Permanent Datum
 LMF .                 KB:   Log Measured From
 DMF .                 KB:   Drilling Measured From
 DAPD.F              11.8:   Feet Above Permanent Datum
 DD  .F              3450:   Depth driller
 DL  .F              3456:   Depth logger
 BLI .F              3450:   Bottom log interval
 CS1 .IN            8.625:   Casing size
 CBD1.      8.625" @ 689':   Casing driller 1
 CBL1.F               692:   Casing logger 1
 BS1 .IN            7.875:   Bit size
 BSD1.F              3450:   Depth drilled with bit1
 DFT .        POLYMER/KCL:   Type fluid in hole
 DFD .                9.1:   Density
 DFV .                 38:   Viscosity
 DFPH.                8.5:   pH
 DFL .               11.2:   Fluid loss
 MSS .           FLOWLINE:   Source of sample
 RMS .OHMM            .29:   Rm
 MST .F                65:   Rm Meas. temp.
 RMF .OHMM           .235:   Rmf
 MFST.F                65:   Rmf Meas. temp.
 RMC .OHMM           .378:   Rmc
 MCST.F                65:   Rmc Meas. temp.
 MFSS.               MEAS:   Source Rmf.
 MCSS.               MEAS:   Source Rmc.
 RMB .OHMM           .163:   Rm. at BHT
 BHT .F               115:   BHT.
 TCS .HRS               3:   Time Circ. stopped
 MRT .F               115:   Maximum recorded temp.
 LUN .            HL-6274:   Logging unit number
 LUL .           GILLETTE:   Logging unit location
 ENGI.             RAUTIO:   Recorded By
 WITN.             STRONG:   Witnessed by
 ORIG.           5" PRINT:   Origin of data
 UWI .     49025110640000:   Unique Well ID
 DICO. A2D TECHNOLOGIES, INC.:   Digitizing Company
~OTHER INFORMATION
~A    DEPT    TEND       RHOB       CORR       CALD       NPHI       TENR       RFOC       RILD       RILM          GRR      SPR       TENS         DT   
# ...
 3016.0000   -42.1830     2.4720    -0.0150     9.0880     0.3000   -60.5040     5.4370     4.3810     4.6900   135.3580   -22.1260   -54.8050    91.8940
 3016.5000   -43.2800     2.4670    -0.0210     9.0880     0.2910   -59.5070     5.5450     4.3910     4.7330   133.2710   -21.6000   -54.8050    92.2020
 3017.0000   -44.3770     2.4650    -0.0230     9.0880     0.2900   -58.5100     5.8310     4.3960     4.7490   133.5600   -21.6670   -54.8050    92.0310
 3017.5000   -43.3800     2.4660    -0.0170     9.0880     0.2940   -57.5130     6.0180     4.4060     4.7940   134.1270   -21.7170   -54.8050    91.7970
 3018.0000   -39.9760     2.4690    -0.0050     9.0880     0.2990   -56.5170     6.0330     4.4780     4.8390   135.5820   -21.7620   -54.8050    91.5840
 3018.5000   -36.5730     2.4700    -0.0010     9.0880     0.3040   -55.5200     6.0500     4.5500     4.8840   135.4010   -21.8120   -54.8050    91.5550
 3019.0000   -33.1690     2.4660     0.0010     9.0880     0.3080   -54.5230     6.0660     4.6230     4.9290   134.2930   -21.9530   -54.8050    91.5260
 3019.5000   -29.7660     2.4620     0.0010     9.0880     0.3120   -56.6470     6.0740     4.6950     4.9740   130.5020   -22.1080   -54.8050    91.3860
 3020.0000   -26.3630     2.4620    -0.0040     9.0880     0.3140   -59.1560     6.2610     4.7670     5.0190   125.8130   -22.2630   -61.5260    91.0550
 3020.5000   -28.2850     2.4670    -0.0080     9.0880     0.3160   -61.6660     6.4190     4.8220     5.0630   122.4930   -22.4080   -64.8150    90.6010
 3021.0000   -34.8650     2.4780    -0.0120     9.0880     0.3160   -64.1750     6.5400     4.8740     5.1080   125.0690   -22.4490   -64.8150    90.3720
 3021.5000   -41.4450     2.4860    -0.0120     9.0880     0.3130   -66.6840     6.4700     4.9270     5.2880   127.7430   -22.4850   -64.8150    90.1260
 3022.0000   -44.7950     2.4870    -0.0070     9.0880     0.3090   -69.1930     6.3590     4.9790     5.2790   126.7510   -22.5210   -64.8150    89.8790
 3022.5000   -44.7950     2.4820    -0.0100     9.0880     0.3090   -71.7020     6.2450     5.0310     5.2680   123.2910   -22.5570   -64.8150    89.7630
 3023.0000   -44.7950     2.4790    -0.0140     9.0880     0.3110   -74.2120     6.3030     5.0840     5.2580   122.1740   -22.5940   -64.8150    89.7080
 3023.5000   -44.3910     2.4790    -0.0110     9.0880     0.3110   -76.7210     6.4200     5.0960     5.2470   123.2230   -22.6230   -64.8150    89.6530
 3024.0000   -42.7460     2.4800    -0.0080     9.0880     0.2950   -79.2300     6.4800     5.0960     5.2390   124.7360   -22.7120   -64.8150    89.6000
 3024.5000   -41.1010     2.4810    -0.0080     9.0880     0.2810   -81.7390     6.3900     5.0960     5.3750   123.4520   -22.8040   -64.8150    89.2610
 3025.0000   -39.4560     2.4820    -0.0080     9.0880     0.2790   -84.5040     6.3030     5.0960     5.4760   121.1150   -22.8120   -64.8150    88.9320
 3025.5000   -37.8110     2.4870    -0.0060     9.0880     0.2800   -80.8090     6.4890     5.0960     5.5890   118.7700   -22.6560   -64.8150    88.3590
 3026.0000   -36.1660     2.4960     0.0070     9.0880     0.2830   -76.6970     6.6960     5.0960     5.5120   118.3650   -22.4400   -64.8150    87.4140
 3026.5000   -33.8360     2.4990     0.0070     9.0880     0.2780   -72.5840     6.9040     5.0960     5.3990   119.1790   -22.4080   -64.8150    86.3580
 3027.0000   -27.9140     2.4980     0.0040     9.0880     0.2730   -68.4720     7.1070     5.0980     5.2860   121.9600   -22.4870   -64.8150    85.8200
 3027.5000   -21.9920     2.4960     0.0010     9.0880     0.2750   -64.4430     6.7990     5.0440     5.1720   124.4480   -22.5750   -64.8150    86.2140
 3028.0000   -16.0700     2.4910    -0.0040     9.0880     0.2760   -67.0250     6.4290     4.9210     5.0590   125.6360   -22.6640   -64.8150    87.1770
 3028.5000   -10.1480     2.4840    -0.0100     9.0750     0.2740   -69.5560     6.1080     4.7980     4.9450   124.7890   -22.7540   -64.8150    88.4780
 3029.0000    -4.7550     2.4780    -0.0170     9.0620     0.2880   -72.0870     5.9900     4.6750     4.8320   123.4560   -22.8570   -64.8150    89.6000
 3029.5000   -16.0470     2.4780    -0.0200     9.0500     0.2990   -74.6170     5.8720     4.5510     4.7180   122.1960   -23.1410   -64.8150    90.1970
 3030.0000   -18.7150     2.4840    -0.0180     9.0800     0.3050   -77.1480     5.7470     4.4280     4.6050   123.7210   -23.2670   -64.8150    90.6010
 3030.5000   -21.3820     2.4890    -0.0170     9.0890     0.2990   -79.6790     5.8980     4.3050     4.4920   122.5500   -23.3480   -64.8150    90.4000
 3031.0000   -24.0500     2.4660    -0.0020     9.0910     0.2980   -82.2090     6.0740     4.1820     4.3860   122.1570   -23.4050   -64.8150    89.2930
 3031.5000   -26.7170     2.4360     0.0120     9.0920     0.2970   -84.5040     5.9630     4.1210     4.2990   125.6820   -23.2260   -64.8150    87.8790
 3032.0000   -29.3850     2.4230     0.0050     9.0930     0.2970   -82.8680     5.5410     4.0830     4.2370   131.9460   -22.8730   -64.8150    86.4640
 3032.5000   -32.0520     2.4370    -0.0070     9.0950     0.2900   -81.3730     4.8210     4.1310     4.4170   134.1460   -22.6020   -64.8150    85.2070
 3033.0000   -34.7200     2.4710    -0.0110     9.0960     0.2780   -79.8780     5.0060     4.1750     4.6010   130.1460   -22.6220   -64.8150    84.0550
 3033.5000   -37.3870     2.4940    -0.0050     9.0980     0.2670   -78.3820     5.5720     4.2200     4.7270   122.2260   -22.9220   -64.8150    82.9040
 3034.0000   -40.0550     2.4990    -0.0010     9.0990     0.2570   -76.8870     6.3410     4.3430     4.8520   117.7850   -23.2220   -64.8150    82.0630
 3034.5000   -42.7220     2.4980    -0.0080     9.1000     0.2560   -75.3910     6.2480     4.5150     4.9770   118.7800   -23.4000   -64.8150    81.9250
 3035.0000   -45.3900     2.4920    -0.0170     9.1020     0.2650   -73.8960     6.0180     4.6870     5.0550   120.3350   -23.4030   -64.8150    82.4720
 3035.5000   -48.0580     2.4860    -0.0260     9.1030     0.2730   -72.4010     6.0790     4.8580     5.1900   119.9770   -24.2030   -64.8150    82.9930
 3036.0000   -50.7250     2.4860    -0.0260     9.1040     0.2740   -70.9050     6.1300     5.0300     5.3250   116.8710   -24.7030   -64.8150    82.7470
 3036.5000   -53.3930     2.4920    -0.0160     9.1060     0.2700   -69.4100     6.6010     5.1990     5.4600   114.2380   -25.4120   -64.8150    82.2530
 3037.0000   -55.0850     2.4970    -0.0020     9.1070     0.2620   -67.9140     6.7240     5.3620     5.5950   113.3400   -25.4840   -64.2910    81.7600
 3037.5000   -55.6790     2.4980    -0.0020     9.1080     0.2560   -66.4190     6.7240     5.5250     5.7300   113.3530   -25.1000   -63.6940    81.4910
 3038.0000   -56.2740     2.5000    -0.0090     9.1080     0.2610   -64.9240     6.6580     5.6410     5.8650   113.4260   -24.7090   -63.0970    81.7310
 3038.5000   -56.8680     2.5020    -0.0190     9.1080     0.2620   -63.4280     6.6070     5.6550     6.0180   113.7970   -24.6040   -62.5000    81.9590
 3039.0000   -57.4630     2.5040    -0.0180     9.1080     0.2560   -61.9330     6.6010     5.7290     6.0070   115.2900   -24.6230   -61.9030    81.9900
 3039.5000   -58.0570     2.4990    -0.0030     9.1080     0.2490   -60.4370     6.7280     5.8000     5.9820   115.9970   -25.1060   -61.3050    81.5950
 3040.0000   -58.6520     2.4870     0.0040     9.1080     0.2460   -58.9420     6.9250     5.7510     5.9580   115.6920   -25.6150   -60.7080    81.2630
 3040.5000   -59.2470     2.4750     0.0110     9.1080     0.2440   -57.4470     7.0420     5.6370     5.9330   115.3550   -25.5990   -60.1110    80.8910
 3041.0000   -59.8410     2.4760     0.0140     9.1100     0.2430   -55.9510     7.0240     5.5240     5.9080   116.9140   -25.5980   -59.5140    80.8910
 3041.5000   -60.4360     2.4850     0.0120     9.1120     0.2440   -54.4130     6.9770     5.4100     5.7320   117.8740   -25.6830   -58.9170    81.2140
