~VERSION INFORMATION
 VERS.                2.0:   CWLS LOG ASCII STANDARD - VERSION 2.0
 WRAP.                 NO:   ONE LINE PER DEPTH STEP
~WELL INFORMATION
#MNEM.UNIT      DATA TYPE    INFORMATION
#----------   ------------   ------------------------------
 STRT.F           46.0000:   START DEPTH
 STOP.F         2736.5000:   STOP DEPTH
 STEP.F            0.5000:   STEP LENGTH
 NULL.          -999.2500:   NO VALUE
 COMP.          INTEX OIL:   COMPANY
 WELL. INTEX NPR 3 "AX" #72-20:   WELL
 FLD .             TEAPOT:   FIELD
 LOC .      S20 T39N R78W:   LOCATION
 CNTY.            NATRONA:   COUNTY
 STAT.            WYOMING:   STATE
 CTRY. UNITED STATES OF AMERICA:   COUNTRY
 SRVC.       SCHLUMBERGER:   SERVICE COMPANY
 DATE.        11-MAY-1966:   LOGDATE
 API .     49025095110000:   API NUMBER
~CURVE INFORMATION
#MNEM.UNIT       API CODE    CURVE DESCRIPTION
#----------   ------------   ------------------------------
 DEPT.F                  :   
 SPR .MV     05 010 01 00:   SPONTANEOUS POTENTIAL FROM RES.
 ILD .OHMM   05 120 46 00:   INDUCTION LOG DEEP
 ASN .OHMM   05 041 16 00:   AMPLIFIED SHORT NORMAL 16"
 CALD.IN     45 280 60 00:   CALIPER FROM DENSITY LOG
 CORR.G/C3   45 356 01 00:   DENSITY CORRECTION
 RHOB.G/C3   45 350 01 00:   BULK DENSITY
 GRD .GAPI   45 310 01 00:   GAMMA RAY FROM DENSITY LOG
~PARAMETER INFORMATION
#MNEM.UNIT          VALUE    DESCRIPTION
#----------   ------------   ------------------------------
 EKB .F         5042.3000:   Kelly bushing
 EGL .F         5032.0000:   Ground level
 EDF .F            0.0000:   Drilling floor
 EPD .F         5032.0000:   Permanent datum
 TD  .F         2740.0000:   Total depth
 DATE.        11-MAY-1966:   Date logged
 CLNT.            A2DTECH:   Client Code
 DAPD.F              10.3:   Feet Above Permanent Datum
 DD  .F              2740:   Depth driller
 DL  .F              2737:   Depth logger
 BLI .F              2736:   Bottom log interval
 TLI .F                88:   Top log interval
 CS1 .IN            10.75:   Casing size
 CBD1.       10.75" @ 24':   Casing driller 1
 BS1 .IN            7.875:   Bit size
 BSD1.F              2740:   Depth drilled with bit1
 DFT .           OIL EMUL:   Type fluid in hole
 DFD .                9.8:   Density
 DFV .                 58:   Viscosity
 MSS .         CIRCULATED:   Source of sample
 RMS .OHMM           3.04:   Rm
 MST .F                54:   Rm Meas. temp.
 RMF .OHMM           1.95:   Rmf
 MFST.F                55:   Rmf Meas. temp.
 MFSS.                 FR:   Source Rmf.
 RMB .OHMM           1.64:   Rm. at BHT
 BHT .F               100:   BHT.
 TCS .HRS               4:   Time Circ. stopped
 MRT .F               100:   Maximum recorded temp.
 LUN .               4507:   Logging unit number
 LUL .               CSPR:   Logging unit location
 ENGI.               HAUG:   Recorded By
 WITN.             TUTTLE:   Witnessed by
 ORIG.        2" 5" PRINT:   Origin of data
 UWI .     49025095110000:   Unique Well ID
 DICO. A2D TECHNOLOGIES, INC.:   Digitizing Company
~OTHER INFORMATION
~A   DEPT      SPR        ILD        ASN       CALD       CORR       RHOB         GRD  
# ...
 1320.0000   -49.0260     7.4880    10.8370     8.5790     0.0510     2.5110   111.7190
 1320.5000   -49.0540     7.4630    10.5990     8.5790     0.0550     2.5210   113.1640
 1321.0000   -49.0770     7.4390    10.2140     8.5790     0.0350     2.5280   114.7340
 1321.5000   -49.1020     7.4140    10.1520     8.5790     0.0330     2.4940   114.7750
 1322.0000   -49.1270     7.3910    10.1110     8.5790     0.0300     2.4800   113.2110
 1322.5000   -49.1510     7.3610    10.1570     8.5790     0.0290     2.4870   112.6000
 1323.0000   -49.1760     7.3880    10.1960     8.5790     0.0270     2.4900   113.1280
 1323.5000   -49.2000     7.4720    10.2390     8.5790     0.0260     2.4780   114.1800
 1324.0000   -49.2250     7.5490    10.2620     8.5790     0.0350     2.4830   116.8790
 1324.5000   -49.2490     7.6230    10.3990     8.5790     0.0430     2.4890   119.4090
 1325.0000   -49.2740     7.7140    10.4900     8.5790     0.0350     2.4980   117.1440
 1325.5000   -49.2990     7.6870    10.5480     8.5790     0.0280     2.5120   115.8690
 1326.0000   -49.3230     7.5450    10.4240     8.5790     0.0330     2.5030   117.5160
 1326.5000   -49.3480     7.4190    10.3020     8.5790     0.0190     2.4660   117.3280
 1327.0000   -49.3720     7.2870    10.1680     8.5790     0.0160     2.4770   116.7110
 1327.5000   -49.3980     7.1570    10.0450     8.5790     0.0210     2.4770   116.1560
 1328.0000   -49.4100     7.0270     9.9280     8.5790     0.0260     2.4760   117.4720
 1328.5000   -49.4090     6.8950     9.8280     8.5790     0.0270     2.4740   118.8780
 1329.0000   -49.4090     6.7700     9.7260     8.5790     0.0230     2.4730   120.3880
 1329.5000   -49.4090     6.6250     9.6270     8.5790     0.0200     2.4870   120.9430
 1330.0000   -49.4090     6.6160     9.5170     8.5790     0.0170     2.4890   121.1630
 1330.5000   -49.4090     6.7420     9.4780     8.5790     0.0290     2.4780   121.3810
 1331.0000   -49.4090     6.8480     9.4990     8.5790     0.0330     2.4890   121.5800
 1331.5000   -49.4090     6.9610     9.5650     8.5790     0.0310     2.4810   121.9400
 1332.0000   -49.4090     7.0740     9.6890     8.5790     0.0240     2.4870   120.8560
 1332.5000   -49.4090     7.1790     9.8020     8.5790     0.0510     2.4980   118.2670
 1333.0000   -49.4090     7.3120     9.9260     8.5790     0.0430     2.5070   116.0040
 1333.5000   -49.4090     7.2590     9.9850     8.5790     0.0380     2.5130   114.0960
 1334.0000   -49.4090     7.1430     9.9780     8.5790     0.0340     2.4950   114.1940
 1334.5000   -49.4090     7.1610     9.9810     8.5790     0.0350     2.5030   115.6070
 1335.0000   -49.4090     7.1560     9.9770     8.5790     0.0480     2.5140   116.7620
 1335.5000   -49.4090     7.1560     9.9890     8.5790     0.0590     2.5270   118.1480
 1336.0000   -49.4090     7.1570     9.9040     8.5790     0.0640     2.5350   119.0950
 1336.5000   -49.4090     7.1570     9.8080     8.5790     0.0470     2.5130   124.0030
 1337.0000   -49.4090     7.1570     9.8850     8.5790     0.0320     2.4750   125.6200
 1337.5000   -49.4090     7.1570     9.9630     8.5790     0.0120     2.4610   127.7100
 1338.0000   -49.4090     7.1570    10.0190     8.5790     0.0160     2.4620   127.0740
 1338.5000   -49.4090     7.1570    10.0640     8.5790     0.0230     2.4530   123.4120
 1339.0000   -49.4090     7.1570    10.0530     8.5790     0.0220     2.4510   121.4100
 1339.5000   -49.4090     7.1570    10.0460     8.5790     0.0240     2.4540   119.9380
 1340.0000   -49.4090     7.1560    10.0370     8.5790     0.0380     2.4770   120.0900
 1340.5000   -49.4090     7.1580    10.0280     8.5790     0.0500     2.5080   121.0280
 1341.0000   -49.4090     7.1410    10.0190     8.5790     0.0430     2.5150   120.1700
 1341.5000   -49.4090     7.1040    10.0100     8.5790     0.0300     2.4980   115.9360
 1342.0000   -49.4080     7.0700    10.0020     8.5790     0.0140     2.4710   113.1570
 1342.5000   -49.4110     7.0360     9.9910     8.5790     0.0140     2.4650   113.8020
 1343.0000   -49.3850     7.0010     9.9890     8.5790     0.0290     2.4780   115.4020
 1343.5000   -49.3280     6.9670     9.9300     8.5790     0.0330     2.4810   116.6880
 1344.0000   -49.2750     6.9320     9.8170     8.5790     0.0280     2.4750   118.2400
 1344.5000   -49.2210     6.8970     9.7120     8.5790     0.0250     2.4870   116.8600
 1345.0000   -49.1680     6.8630     9.6000     8.5790     0.0280     2.5010   119.1800
 1345.5000   -49.1140     6.8280     9.5250     8.5790     0.0310     2.4990   120.2870
 1346.0000   -49.0600     6.7940     9.4850     8.5790     0.0230     2.4850   119.2060
 1346.5000   -49.0070     6.7590     9.4400     8.5790     0.0130     2.4770   117.0570
 1347.0000   -48.9530     6.7250     9.3970     8.5790     0.0130     2.4780   117.8860
 1347.5000   -48.8990     6.6900     9.3540     8.5790     0.0190     2.4820   120.2810
 1348.0000   -48.8460     6.6550     9.3100     8.5790     0.0250     2.4860   123.0260
 1348.5000   -48.7920     6.6220     9.2660     8.5790     0.0300     2.4900   125.7320
 1349.0000   -48.7380     6.5830     9.2230     8.5790     0.0270     2.5010   127.6970
 1349.5000   -48.6850     6.5950     9.1790     8.5790     0.0330     2.5100   126.2560
 1350.0000   -48.6310     6.6590     9.1520     8.5790     0.0460     2.4990   123.8980
 1350.5000   -48.5770     6.7160     9.1990     8.5790     0.0440     2.4970   121.4860
 1351.0000   -48.5240     6.7750     9.2910     8.5790     0.0480     2.5080   119.4820
 1351.5000   -48.4700     6.8330     9.3780     8.5790     0.0570     2.5220   118.1630
 1352.0000   -48.4170     6.8930     9.4660     8.5790     0.0620     2.5420   117.4800
 1352.5000   -48.3630     6.9500     9.5540     8.5790     0.0500     2.5420   120.1590
 1353.0000   -48.3110     7.0090     9.6420     8.5790     0.0430     2.5160   121.8750
 1353.5000   -48.2520     7.0710     9.7280     8.5790     0.0540     2.4970   121.8230
 1354.0000   -48.2490     7.1150     9.8220     8.5790     0.0600     2.5130   120.5530
 1354.5000   -48.3040     7.2620     9.8530     8.5810     0.0520     2.5080   117.6120
 1355.0000   -48.3510     7.2940     9.8210     8.5840     0.0440     2.5040   116.0040
 1355.5000   -48.4010     7.1260     9.7920     8.5860     0.0360     2.4950   114.7440
 1356.0000   -48.4500     6.9860     9.7900     8.5890     0.0260     2.4850   111.7490
 1356.5000   -48.4990     6.8380     9.6900     8.5920     0.0140     2.4470   110.2260
 1357.0000   -48.5470     6.6900     9.4750     8.5950     0.0140     2.4520   113.8940
 1357.5000   -48.6000     6.5440     9.2750     8.5970     0.0230     2.4550   117.4400
 1358.0000   -48.6070     6.4000     9.0730     8.6000     0.0180     2.4660   120.2730
 1358.5000   -48.5670     6.2440     8.8640     8.6030     0.0230     2.4790   122.2220
 1359.0000   -48.5320     6.1840     8.7030     8.6060     0.0330     2.4930   124.1220
 1359.5000   -48.4960     6.2220     8.5950     8.6080     0.0360     2.4900   123.5620
 1360.0000   -48.4610     6.2470     8.4610     8.6110     0.0390     2.4910   122.7170
 1360.5000   -48.4250     6.2750     8.4760     8.6140     0.0510     2.5360   121.6230
 1361.0000   -48.3900     6.3030     8.6410     8.6170     0.0400     2.5210   121.5720
 1361.5000   -48.3540     6.3310     8.7850     8.6180     0.0290     2.4830   122.1820
 1362.0000   -48.3180     6.3590     8.9290     8.6180     0.0180     2.4800   124.8690
 1362.5000   -48.2840     6.3860     9.0970     8.6180     0.0070     2.4710   124.2500
 1363.0000   -48.2440     6.4140     9.0720     8.6180     0.0100     2.4760   125.2580
 1363.5000   -48.2440     6.4420     8.8630     8.6180     0.0140     2.4800   126.3220
 1364.0000   -48.2840     6.4700     8.6540     8.6180     0.0180     2.4790   126.5060
 1364.5000   -48.3180     6.4990     8.6290     8.6180     0.0250     2.4730   124.8950
 1365.0000   -48.3540     6.5250     8.7970     8.6180     0.0340     2.4810   123.4280
