~VERSION INFORMATION
 VERS.                2.0:   CWLS LOG ASCII STANDARD - VERSION 2.0
 WRAP.                 NO:   ONE LINE PER DEPTH STEP
~WELL INFORMATION
#MNEM.UNIT      DATA TYPE    INFORMATION
#----------   ------------   ------------------------------
 STRT.F          186.0000:   START DEPTH
 STOP.F         3060.0000:   STOP DEPTH
 STEP.F            0.5000:   STEP LENGTH
 NULL.          -999.2500:   NO VALUE
 COMP.    FENIX & SCISSON:   COMPANY
 WELL. FENIX NPR 3 "AX" #63-29:   WELL
 FLD .              N P R:   FIELD
 LOC .      S29 T39N R78W:   LOCATION
 CNTY.            NATRONA:   COUNTY
 STAT.            WYOMING:   STATE
 CTRY. UNITED STATES OF AMERICA:   COUNTRY
 SRVC.           BIRDWELL:   SERVICE COMPANY
 DATE.        28-FEB-1978:   LOGDATE
 API .     49025105960000:   API NUMBER
~CURVE INFORMATION
#MNEM.UNIT       API CODE    CURVE DESCRIPTION
#----------   ------------   ------------------------------
 DEPT.F                  :   
 CALD.IN     45 280 60 00:   CALIPER FROM DENSITY LOG
 GRD .GAPI   45 310 01 00:   GAMMA RAY FROM DENSITY LOG
 DEN .LBS    07 635 01 00:   
 CORR.G/C3   45 356 01 00:   DENSITY CORRECTION
 SPR .MV     05 010 01 00:   SPONTANEOUS POTENTIAL
 SN  .OHMM   05 040 00 00:   SHORT NORMAL
 ILD .OHMM   05 120 46 00:   DEEP INDUCTION RESISTIVITY
~PARAMETER INFORMATION
#MNEM.UNIT          VALUE    DESCRIPTION
#----------   ------------   ------------------------------
 EKB .F         4993.0000:   Kelly bushing
 EGL .F         4983.0000:   Ground level
 EDF .F            0.0000:   Drilling floor
 TD  .F         3060.0000:   Total depth
 DATE.        28-FEB-1978:   Date logged
 CLNT.            A2DTECH:   Client Code
 SL  . 1300' FNL & 1050' FEL:   Surface Location
 PD  .                 GL:   Permanent Datum
 DD  .F              3060:   Depth driller
 DL  .F              3056:   Depth logger
 BLI .F              5050:   Bottom log interval
 CS1 .IN            8.625:   Casing size
 CBD1.      8.625" @ 214':   Casing driller 1
 CBL1.F               218:   Casing logger 1
 BS1 .IN            7.875:   Bit size
 DFT .     LIGNOSULFONATE:   Type fluid in hole
 DFD .                  9:   Density
 DFV .                 34:   Viscosity
 DFPH.               10.5:   pH
 DFL .                  9:   Fluid loss
 MSS .           FLOWLINE:   Source of sample
 RMS .OHMM            1.8:   Rm
 MST .F                58:   Rm Meas. temp.
 RMF .OHMM             .9:   Rmf
 MFST.F                65:   Rmf Meas. temp.
 RMC .OHMM            2.5:   Rmc
 MCST.F                70:   Rmc Meas. temp.
 MFSS.               MEAS:   Source Rmf.
 RMB .OHMM             88:   Rm. at BHT
 BHT .F               118:   BHT.
 TCS .HRS               8:   Time Circ. stopped
 MRT .F               118:   Maximum recorded temp.
 LUN .               2959:   Logging unit number
 LUL .               CASP:   Logging unit location
 ENGI.             MILLER:   Recorded By
 WITN.         HARRINGTON:   Witnessed by
 ORIG.           5" PRINT:   Origin of data
 UWI .     49025105960000:   Unique Well ID
 DICO. A2D TECHNOLOGIES, INC.:   Digitizing Company
 BSD1.F              3060:   Depth drilled with bit1
 EPD .F              4983:   Elevation Permanent Datum
 LMF .                 KB:   Log Measured From
 DMF .                 KB:   Drilling Measured From
 TLI .F               800:   Top log interval
~OTHER INFORMATION
~A   DEPT     CALD         GRD       DEN       CORR        SPR         SN        ILD   
# ...
  595.5000    11.4340    92.9260     2.5280     0.0310  -999.2500  -999.2500  -999.2500
  596.0000    11.4340    94.9910     2.5200     0.0330  -999.2500  -999.2500  -999.2500
  596.5000    11.4340    96.4610     2.5120     0.0350  -999.2500  -999.2500  -999.2500
  597.0000    11.4340    97.2230     2.5090     0.0370  -999.2500  -999.2500  -999.2500
  597.5000    11.4340    97.8710     2.5100     0.0380  -999.2500  -999.2500  -999.2500
  598.0000    11.4340    96.7270     2.5120     0.0360  -999.2500  -999.2500  -999.2500
  598.5000    11.4340    95.6920     2.5140     0.0340  -999.2500  -999.2500  -999.2500
  599.0000    11.4340    95.1480     2.5160     0.0330  -999.2500  -999.2500  -999.2500
  599.5000    11.4340    95.2310     2.5180     0.0310  -999.2500  -999.2500  -999.2500
  600.0000    11.4340    95.2590     2.5200     0.0290  -999.2500  -999.2500  -999.2500
  600.5000    11.4340    95.2750     2.5220     0.0280  -999.2500  -999.2500  -999.2500
  601.0000    11.4340    95.3130     2.5230     0.0260  -999.2500  -999.2500  -999.2500
  601.5000    11.4340    95.3390     2.5180     0.0260  -999.2500  -999.2500  -999.2500
  602.0000    11.4340    95.3730     2.5120     0.0270  -999.2500  -999.2500  -999.2500
  602.5000    11.4340    95.4040     2.5090     0.0270  -999.2500  -999.2500  -999.2500
  603.0000    11.4340    95.4440     2.5100     0.0270  -999.2500  -999.2500  -999.2500
  603.5000    11.4340    95.4710     2.5110     0.0280  -999.2500  -999.2500  -999.2500
  604.0000    11.4340    95.4830     2.5120     0.0280  -999.2500  -999.2500  -999.2500
  604.5000    11.4340    95.5720     2.5130     0.0280  -999.2500  -999.2500  -999.2500
  605.0000    11.4340    95.5160     2.5110     0.0290  -999.2500  -999.2500  -999.2500
  605.5000    11.4340    95.3700     2.5070     0.0290  -999.2500  -999.2500  -999.2500
  606.0000    11.4340    91.9380     2.5040     0.0290  -999.2500  -999.2500  -999.2500
  606.5000    11.4340    88.5920     2.5000     0.0300  -999.2500  -999.2500  -999.2500
  607.0000    11.4340    84.9930     2.4990     0.0300  -999.2500  -999.2500  -999.2500
  607.5000    11.4340    83.3350     2.5000     0.0290  -999.2500  -999.2500  -999.2500
  608.0000    11.4340    83.0930     2.5010     0.0250  -999.2500  -999.2500  -999.2500
  608.5000    11.4340    84.4310     2.5030     0.0220  -999.2500  -999.2500  -999.2500
  609.0000    11.4340    86.6760     2.5040     0.0190  -999.2500  -999.2500  -999.2500
  609.5000    11.4340    88.6700     2.5060     0.0180  -999.2500  -999.2500  -999.2500
  610.0000    11.4340    91.2600     2.5090     0.0200  -999.2500  -999.2500  -999.2500
  610.5000    11.4340    90.2360     2.5060     0.0230  -999.2500  -999.2500  -999.2500
  611.0000    11.4350    88.1480     2.4960     0.0250  -999.2500  -999.2500  -999.2500
  611.5000    11.4580    89.3820     2.4890     0.0280  -999.2500  -999.2500  -999.2500
  612.0000    11.4850    90.9490     2.4950     0.0310  -999.2500  -999.2500  -999.2500
  612.5000    11.5130    91.7240     2.5000     0.0330  -999.2500  -999.2500  -999.2500
  613.0000    11.5400    91.8080     2.5070     0.0360  -999.2500  -999.2500  -999.2500
  613.5000    11.5670    91.9430     2.5090     0.0380  -999.2500  -999.2500  -999.2500
  614.0000    11.5950    92.0840     2.5120     0.0380  -999.2500  -999.2500  -999.2500
  614.5000    11.6230    92.2530     2.5140     0.0350  -999.2500  -999.2500  -999.2500
  615.0000    11.6340    92.4480     2.5160     0.0300  -999.2500  -999.2500  -999.2500
  615.5000    11.6330    95.8060     2.5190     0.0240  -999.2500  -999.2500  -999.2500
  616.0000    11.6320    98.4170     2.5170     0.0190  -999.2500  -999.2500  -999.2500
  616.5000    11.6310    97.1450     2.5110     0.0140  -999.2500  -999.2500  -999.2500
  617.0000    11.6310    95.4560     2.5060     0.0140  -999.2500  -999.2500  -999.2500
  617.5000    11.6300    93.7100     2.5030     0.0160  -999.2500  -999.2500  -999.2500
  618.0000    11.6290    92.2510     2.5020     0.0180  -999.2500  -999.2500  -999.2500
  618.5000    11.6290    91.1520     2.5010     0.0210  -999.2500  -999.2500  -999.2500
  619.0000    11.6280    90.0010     2.4940     0.0230  -999.2500  -999.2500  -999.2500
  619.5000    11.6270    88.8190     2.4840     0.0260  -999.2500  -999.2500  -999.2500
  620.0000    11.6260    88.1970     2.4750     0.0280  -999.2500  -999.2500  -999.2500
  620.5000    11.6260    89.4350     2.4790     0.0330  -999.2500  -999.2500  -999.2500
  621.0000    11.6250    91.2640     2.4870     0.0340  -999.2500  -999.2500  -999.2500
  621.5000    11.6240    93.1040     2.4940     0.0320  -999.2500  -999.2500  -999.2500
  622.0000    11.6240    93.7700     2.5020     0.0250  -999.2500  -999.2500  -999.2500
  622.5000    11.6230    94.0120     2.5090     0.0180  -999.2500  -999.2500  -999.2500
  623.0000    11.6220    94.9230     2.5160     0.0120  -999.2500  -999.2500  -999.2500
  623.5000    11.6220    96.0830     2.5140     0.0070  -999.2500  -999.2500  -999.2500
  624.0000    11.6210    97.3120     2.5080     0.0160  -999.2500  -999.2500  -999.2500
  624.5000    11.6200    95.5450     2.5010     0.0240  -999.2500  -999.2500  -999.2500
  625.0000    11.6200    90.7420     2.4940     0.0330  -999.2500  -999.2500  -999.2500
  625.5000    11.6190    85.9850     2.4890     0.0420  -999.2500  -999.2500  -999.2500
  626.0000    11.6180    81.1300     2.4890     0.0470  -999.2500  -999.2500  -999.2500
  626.5000    11.6180    78.3070     2.4960     0.0440  -999.2500  -999.2500  -999.2500
  627.0000    11.6170    81.5520     2.5040     0.0420  -999.2500  -999.2500  -999.2500
  627.5000    11.6160    86.0710     2.5120     0.0390  -999.2500  -999.2500  -999.2500
  628.0000    11.6160    90.1540     2.5190     0.0360  -999.2500  -999.2500  -999.2500
  628.5000    11.6150    94.0330     2.5270     0.0330  -999.2500  -999.2500  -999.2500
  629.0000    11.6140    91.9580     2.5350     0.0300  -999.2500  -999.2500  -999.2500
  629.5000    11.6130    88.2780     2.5340     0.0260  -999.2500  -999.2500  -999.2500
  630.0000    11.6130    87.3690     2.5200     0.0210  -999.2500  -999.2500  -999.2500
  630.5000    11.6120    88.8090     2.5040     0.0240  -999.2500  -999.2500  -999.2500
  631.0000    11.6110    89.9280     2.5000     0.0260  -999.2500  -999.2500  -999.2500
  631.5000    11.6110    88.9100     2.4980     0.0290  -999.2500  -999.2500  -999.2500
  632.0000    11.6100    87.7870     2.4960     0.0320  -999.2500  -999.2500  -999.2500
  632.5000    11.6090    86.7790     2.4940     0.0340  -999.2500  -999.2500  -999.2500
  633.0000    11.6090    86.5630     2.4920     0.0320  -999.2500  -999.2500  -999.2500
  633.5000    11.6080    86.3760     2.4900     0.0310  -999.2500  -999.2500  -999.2500
  634.0000    11.6070    86.0600     2.4970     0.0290  -999.2500  -999.2500  -999.2500
  634.5000    11.6070    86.1110     2.5080     0.0280  -999.2500  -999.2500  -999.2500
  635.0000    11.6060    86.8220     2.5180     0.0260  -999.2500  -999.2500  -999.2500
  635.5000    11.6050    90.9630     2.5180     0.0250  -999.2500  -999.2500  -999.2500
  636.0000    11.6050    94.9120     2.5150     0.0230  -999.2500  -999.2500  -999.2500
  636.5000    11.6040    95.5910     2.5130     0.0220  -999.2500  -999.2500  -999.2500
  637.0000    11.6030    95.6590     2.5110     0.0220  -999.2500  -999.2500  -999.2500
  637.5000    11.6030    95.5590     2.5080     0.0270  -999.2500  -999.2500  -999.2500
  638.0000    11.6020    96.8620     2.5060     0.0320  -999.2500  -999.2500  -999.2500
  638.5000    11.6010    98.4440     2.5040     0.0360  -999.2500  -999.2500  -999.2500
  639.0000    11.6000    98.7310     2.5010     0.0420  -999.2500  -999.2500  -999.2500
  639.5000    11.6000    95.3840     2.4990     0.0400  -999.2500  -999.2500  -999.2500
  640.0000    11.5990    92.4180     2.4980     0.0360  -999.2500  -999.2500  -999.2500
  640.5000    11.5980    90.7660     2.5070     0.0310  -999.2500  -999.2500  -999.2500
