~VERSION INFORMATION
 VERS.                2.0:   CWLS LOG ASCII STANDARD - VERSION 2.0
 WRAP.                 NO:   ONE LINE PER DEPTH STEP
~WELL INFORMATION
#MNEM.UNIT      DATA TYPE    INFORMATION
#----------   ------------   ------------------------------
 STRT.F          200.0000:   START DEPTH
 STOP.F         3209.0000:   STOP DEPTH
 STEP.F            0.5000:   STEP LENGTH
 NULL.          -999.2500:   NO VALUE
 COMP.    FENIX & SCISSON:   COMPANY
 WELL. FENIX & SCISSON "AX" #88-3:   WELL
 FLD .             NPR #3:   FIELD
 LOC .       S3 T38N R78W:   LOCATION
 CNTY.            NATRONA:   COUNTY
 STAT.            WYOMING:   STATE
 CTRY. UNITED STATES OF AMERICA:   COUNTRY
 SRVC.              WELEX:   SERVICE COMPANY
 DATE.        27-JUL-1977:   LOGDATE
 API .     49025104060000:   API NUMBER
~CURVE INFORMATION
#MNEM.UNIT       API CODE    CURVE DESCRIPTION
#----------   ------------   ------------------------------
 DEPT.F                  :   
 CALD.IN     45 280 60 00:   CALIPER FROM DENSITY LOG
 GRD .GAPI   45 310 01 00:   GAMMA RAY FROM DENSITY LOG
 RHOB.G/C3   45 350 01 00:   BULK DENSITY
 CORR.G/C3   45 356 01 00:   DENSITY CORRECTION
 NPHI.DEC    42 890 03 00:   NEUTRON POROSITY SANDSTONE
 SPR .MV     07 010 01 00:   SPONTANEOUS POTENTIAL
 SGRD.OHMM   07 220 05 00:   GUARD LOG RESISTIVITY
 FORX.OHMM   07 000 00 00:   
~PARAMETER INFORMATION
#MNEM.UNIT          VALUE    DESCRIPTION
#----------   ------------   ------------------------------
 EKB .F         5134.0000:   Kelly bushing
 EGL .F         5124.0000:   Ground level
 EDF .F            0.0000:   Drilling floor
 TD  .F         3211.0000:   Total depth
 CLNT.            A2DTECH:   Client Code
 SL  . 230' FSL & 380' FEL:   Surface Location
 PD  .                 GL:   Permanent Datum
 EPD .F              5124:   Elevation Permanent Datum
 LMF .                 KB:   Log Measured From
 DMF .                 KB:   Drilling Measured From
 DAPD.F                10:   Feet Above Permanent Datum
 DATE.        27-JUL-1977:   Date Logged [DD-MMM-YYYY]
 DD  .F              3200:   Depth driller
 DL  .F              3211:   Depth logger
 BLI .F              3210:   Bottom log interval
 TLI .F               200:   Top log interval
 CS1 .IN            8.625:   Casing size
 CBD1.      8.625" @ 218':   Casing driller 1
 CBL1.F               218:   Casing logger 1
 BS1 .IN            7.875:   Bit size
 BSD1.F              3200:   Depth drilled with bit1
 DFT .            KCL MUD:   Type fluid in hole
 DFD .                9.2:   Density
 DFV .                 36:   Viscosity
 DFPH.                9.5:   pH
 DFL .                9.6:   Fluid loss
 MSS .           FLOWLINE:   Source of sample
 RMS .OHMM           0.61:   Rm
 MST .F                85:   Rm Meas. temp.
 RMF .OHMM           0.53:   Rmf
 MFST.F                85:   Rmf Meas. temp.
 MFSS.               FANN:   Source Rmf.
 RMC .OHMM           0.48:   Rmc
 MCST.F                85:   Rmc Meas. temp.
 MCSS.                KIT:   Source Rmc.
 RMB .OHMM           0.42:   Rm. at BHT
 BHT .F               122:   BHT.
 TCS .HRS             2.5:   Time Circ. stopped
 MRT .F               122:   Maximum recorded temp.
 LUN .               8611:   Logging unit number
 LUL .             CASPER:   Logging unit location
 ENGI.            C. DOAK:   Recorded By
 WITN.      E. HARRINGTON:   Witnessed by
 ORIG.      2.5" 5" PRINT:   Origin of data
 UWI .     49025104060000:   Unique Well ID
 DICO. A2D TECHNOLOGIES, INC.:   Digitizing Company
~OTHER INFORMATION
~A   DEPT       CALD       GRD        RHOB      CORR        NPHI       SPR      SGRD         FORX 
# ...
  402.5000    11.7347    59.6587     2.4243     0.0843     0.2156   -60.5817     7.4228    10.3130
  403.0000    11.7222    56.9924     2.4228     0.0800     0.2132   -60.5633     7.9505    10.0372
  403.5000    11.7245    58.0574     2.4210     0.0757     0.2167   -60.6049     7.7374     9.6360
  404.0000    11.6970    60.4106     2.4125     0.0729     0.2229   -60.5832     7.0320     9.6385
  404.5000    11.6850    61.8463     2.3995     0.0701     0.2267   -60.5705     6.8886    10.0452
  405.0000    11.6724    61.7054     2.3966     0.0673     0.2286   -60.7640     7.4306    10.4689
  405.5000    11.6396    60.5445     2.3974     0.0653     0.2263   -61.0924     7.1331    10.6161
  406.0000    11.6025    59.1731     2.3982     0.0632     0.2224   -61.4024     7.0017    10.7791
  406.5000    11.5533    58.1841     2.3991     0.0620     0.2170   -61.7040    15.1478    14.0655
  407.0000    11.5247    57.4581     2.4022     0.0622     0.2218   -62.0168    25.8366    29.2772
  407.5000    11.4759    56.3284     2.4131     0.0579     0.2369   -62.3306    36.9595    49.9771
  408.0000    11.4617    55.5583     2.4323     0.0581     0.2357   -62.5009    25.0475    50.7695
  408.5000    11.4501    55.2734     2.4458     0.0588     0.2345   -62.3203    12.7556    25.1021
  409.0000    11.4643    55.3672     2.4377     0.0621     0.2357   -62.1442    11.2693    16.7821
  409.5000    11.5099    57.7138     2.4258     0.0632     0.2422   -61.9697    10.2815    14.8582
  410.0000    11.5918    60.5699     2.4199     0.0649     0.2500   -61.7784     9.1681    13.9935
  410.5000    11.6537    62.5304     2.4162     0.0652     0.2565   -61.7670     8.8022    13.4342
  411.0000    11.7234    63.5955     2.4141     0.0639     0.2606   -61.7632     8.4509    13.0749
  411.5000    11.7776    64.0635     2.4105     0.0626     0.2606   -61.7649     8.2255    12.7253
  412.0000    11.7804    63.9373     2.4076     0.0598     0.2618   -61.7605     8.1164    12.0506
  412.5000    11.7824    63.6563     2.3996     0.0585     0.2630   -61.6608     8.0087    11.5689
  413.0000    11.7848    63.8309     2.3896     0.0571     0.2661   -61.5462     7.9025    11.2596
  413.5000    11.7874    64.8959     2.3786     0.0574     0.2697   -61.4289     7.7976    10.9585
  414.0000    11.7897    66.8565     2.3698     0.0576     0.2789   -61.3139     7.6942    10.8124
  414.5000    11.8069    68.2201     2.3654     0.0593     0.2840   -61.1979     7.5921    10.6438
  415.0000    11.8092    69.2851     2.3709     0.0596     0.2856   -61.0820     7.5949    10.5260
  415.5000    11.8116    69.3054     2.3753     0.0597     0.2817   -60.9660     7.6601    10.6743
  416.0000    11.8144    68.2494     2.3768     0.0600     0.2796   -60.8500     8.5642    10.9325
  416.5000    11.8013    66.9269     2.3784     0.0602     0.2810   -60.7347     8.3380    11.5033
  417.0000    11.8039    65.7892     2.3793     0.0603     0.2820   -60.6174     7.5592    11.7571
  417.5000    11.7916    65.3617     2.3821     0.0591     0.2817   -60.5032     7.2473    11.2729
  418.0000    11.7849    65.8297     2.3843     0.0593     0.2808   -60.3879     7.2051    10.8368
  418.5000    11.7663    67.0670     2.3870     0.0595     0.2796   -60.2611     7.3073    10.6919
  419.0000    11.7538    68.4617     2.3849     0.0597     0.2790   -60.2112     7.5126    10.8425
  419.5000    11.7562    69.9204     2.3797     0.0599     0.2796   -60.2867     7.7236    11.1464
  420.0000    11.7590    69.6421     2.3753     0.0601     0.2790   -60.3497     7.8326    11.1696
  420.5000    11.7759    69.3639     2.3717     0.0574     0.2795   -60.4150     8.0526    10.7037
  421.0000    11.7785    70.2848     2.3703     0.0576     0.2819   -60.4818     7.7313    10.2759
  421.5000    11.7859    70.4543     2.3749     0.0578     0.2849   -60.5468     7.6229    10.2707
  422.0000    11.8128    69.8775     2.3802     0.0595     0.2855   -60.6127     7.5275    10.1416
  422.5000    11.8157    69.0023     2.3803     0.0627     0.2849   -60.6784     7.5303    10.1445
  423.0000    11.8178    69.4703     2.3826     0.0644     0.2831   -60.7441     7.6366    10.1473
  423.5000    11.8200    70.6846     2.3969     0.0665     0.2819   -60.8097     7.6719    10.1934
  424.0000    11.8228    70.7164     2.4075     0.0708     0.2831   -60.8753     7.7870    10.2927
  424.5000    11.8316    70.1997     2.4188     0.0725     0.2831   -60.9410     7.9649    10.2956
  425.0000    11.8423    70.1484     2.4166     0.0727     0.2831   -61.0067     7.9134    10.2984
  425.5000    11.8444    70.4723     2.4114     0.0729     0.2818   -61.0721     7.8620    10.2223
  426.0000    11.8468    71.0895     2.4093     0.0731     0.2798   -61.1383     7.7578    10.1640
  426.5000    11.8575    71.4083     2.4229     0.0718     0.2731   -61.2033     7.7608     9.8926
  427.0000    11.8669    72.0256     2.4237     0.0710     0.2674   -61.2686     7.7634     9.7608
  427.5000    11.8689    72.9414     2.4193     0.0708     0.2651   -61.3385     7.7660     9.7634
  428.0000    11.8862    72.9891     2.4164     0.0692     0.2646   -61.3760     7.8756     9.7659
  428.5000    11.9034    72.0799     2.4195     0.0676     0.2698   -61.3719     8.0968     9.7685
  429.0000    11.9061    71.3727     2.4249     0.0669     0.2747   -61.3727     8.2119     9.7711
  429.5000    11.9084    70.8930     2.4257     0.0671     0.2779   -61.3730     8.3433     9.7645
  430.0000    11.9255    70.3613     2.4235     0.0673     0.2782   -61.3725     8.5928     9.6434
  430.5000    11.9279    69.9267     2.4194     0.0705     0.2771   -61.3727     8.9472     9.5149
  431.0000    11.9229    69.2078     2.4162     0.0737     0.2759   -61.3716     9.1737     9.5177
  431.5000    11.9177    68.7820     2.4143     0.0785     0.2756   -61.3700     9.3033     9.5203
  432.0000    11.9206    68.2856     2.4123     0.0804     0.2758   -61.3761     9.3065     9.5229
  432.5000    11.9223    67.8993     2.4112     0.0849     0.2782   -61.3653     9.4380     9.6568
  433.0000    11.8950    67.6470     2.4113     0.0896     0.2818   -61.3740     9.4412     9.7278
  433.5000    11.8977    67.6724     2.4152     0.0928     0.2853   -61.3884     9.4444     9.7952
  434.0000    11.8847    68.1035     2.4280     0.0930     0.2883   -61.3002     9.3192     9.9334
  434.5000    11.8876    69.3172     2.4348     0.0932     0.2901   -62.2517     9.3229     9.9360
  435.0000    11.8897    70.2705     2.4117     0.0934     0.2883   -63.6685     9.3256     9.9387
  435.5000    11.8920    70.7385     2.4207     0.0892     0.2853   -63.5043     9.2762     9.9413
  436.0000    11.8795    70.3283     2.4360     0.0878     0.2817   -63.3192     9.2052     9.6755
  436.5000    11.8824    70.1821     2.4456     0.0896     0.2782   -63.1205     9.0832     9.0379
  437.0000    11.8692    70.8378     2.4532     0.0928     0.2752   -62.9608     8.8385     8.7963
  437.5000    11.8718    72.0187     2.4510     0.0945     0.2728   -63.1448     8.5858     8.6790
  438.0000    11.8746    72.4868     2.4369     0.0947     0.2710   -63.3127     8.3590     8.5633
  438.5000    11.8766    72.0593     2.4295     0.0939     0.2717   -63.4959     8.1521     8.5658
  439.0000    11.8792    71.4775     2.4244     0.0891     0.2762   -63.6739     8.1248     8.5682
  439.5000    11.8814    70.9007     2.4192     0.0847     0.2831   -63.7282     8.0466     8.5705
  440.0000    11.8689    72.4186     2.4148     0.0790     0.2855   -63.7258     8.0498     8.5728
  440.5000    11.8716    75.5732     2.4126     0.0762     0.2878   -63.7243     8.0526     8.5752
  441.0000    11.8585    76.3572     2.4105     0.0720     0.2900   -63.7259     8.0553     8.5775
  441.5000    11.8166    76.9621     2.4138     0.0722     0.2894   -63.7259     8.1697     8.5804
  442.0000    11.7891    77.1316     2.4226     0.0732     0.2852   -63.7231     8.1724     8.5826
  442.5000    11.7617    76.5549     2.4302     0.0777     0.2812   -63.7787     8.2877     8.5849
