~VERSION INFORMATION
 VERS.                2.0:   CWLS LOG ASCII STANDARD - VERSION 2.0
 WRAP.                 NO:   ONE LINE PER DEPTH STEP
~WELL INFORMATION
#MNEM.UNIT      DATA TYPE    INFORMATION
#----------   ------------   ------------------------------
 STRT.F          794.0000:   START DEPTH
 STOP.F         2828.0000:   STOP DEPTH
 STEP.F            0.5000:   STEP LENGTH
 NULL.          -999.2500:   NO VALUE
 COMP.           U S NAVY:   COMPANY
 WELL. U S NAVY NPR 3 "A" #10-33:   WELL
 FLD .        TEAPOT DOME:   FIELD
 LOC .      S33 T39N R78W:   LOCATION
 CNTY.            NATRONA:   COUNTY
 STAT.            WYOMING:   STATE
 CTRY. UNITED STATES OF AMERICA:   COUNTRY
 SRVC.         MCCULLOUGH:   SERVICE COMPANY
 DATE.        25-JUL-1968:   LOGDATE
 API .     49025102180000:   API NUMBER
~CURVE INFORMATION
#MNEM.UNIT       API CODE    CURVE DESCRIPTION
#----------   ------------   ------------------------------
 DEPT.F                  :   
 GRN .GAPI   35 310 01 00:   GAMMA RAY
 NEUT.NAPI   35 330 01 00:   NEUTRON
 TEMP.DEG    99 000 00 00:   TEMPERATURE AT TOOL
~PARAMETER INFORMATION
#MNEM.UNIT          VALUE    DESCRIPTION
#----------   ------------   ------------------------------
 EKB .F            0.0000:   Kelly bushing
 EGL .F            0.0000:   Ground level
 EDF .F            0.0000:   Drilling floor
 EPD .F            0.0000:   Permanent datum
 TD  .F         2829.0000:   Total depth
 DATE.        25-JUL-1968:   Date logged
 CLNT.            A2DTECH:   Client Code
 DL  .F              2829:   Depth logger
 BLI .F              2825:   Bottom log interval
 TLI .F               800:   Top log interval
 DFT .                DRY:   Type fluid in hole
 TCS .HRS               2:   Time Circ. stopped
 ENGI.           KIMBERRY:   Recorded By
 ORIG.        2" 5" PRINT:   Origin of data
 UWI .     49025102180000:   Unique Well ID
 DICO. A2D TECHNOLOGIES, INC.:   Digitizing Company
~OTHER INFORMATION
~A   DEPT       GRN      NEUT       TEMP   
# ...
 1704.0000    63.4950   441.1940  -999.2500
 1704.5000    63.7700   445.8410  -999.2500
 1705.0000    63.1410   443.3100  -999.2500
 1705.5000    62.3290   444.6570  -999.2500
 1706.0000    61.6820   445.9960  -999.2500
 1706.5000    60.1340   448.5900  -999.2500
 1707.0000    58.8920   453.5980  -999.2500
 1707.5000    58.8800   451.6470  -999.2500
 1708.0000    58.3880   437.5560  -999.2500
 1708.5000    57.9790   437.3030  -999.2500
 1709.0000    58.6950   433.9960  -999.2500
 1709.5000    58.4100   432.2150  -999.2500
 1710.0000    57.0380   428.7220  -999.2500
 1710.5000    56.0540   430.7270  -999.2500
 1711.0000    56.5150   429.9650  -999.2500
 1711.5000    57.3740   427.4940  -999.2500
 1712.0000    59.2250   423.8790  -999.2500
 1712.5000    61.2760   425.1860  -999.2500
 1713.0000    65.3870   431.7950  -999.2500
 1713.5000    65.7040   430.9610  -999.2500
 1714.0000    65.2880   434.6940  -999.2500
 1714.5000    64.7010   441.1430  -999.2500
 1715.0000    63.7250   441.8440  -999.2500
 1715.5000    64.0640   447.2280  -999.2500
 1716.0000    64.4040   453.6800  -999.2500
 1716.5000    65.6910   461.4840  -999.2500
 1717.0000    67.0790   482.4660  -999.2500
 1717.5000    68.5210   495.8890  -999.2500
 1718.0000    70.2290   478.8470  -999.2500
 1718.5000    71.2940   470.0130  -999.2500
 1719.0000    71.6390   467.7610  -999.2500
 1719.5000    71.7190   465.4600  -999.2500
 1720.0000    71.5710   457.4490  -999.2500
 1720.5000    71.7450   462.8960  -999.2500
 1721.0000    70.9120   459.7710  -999.2500
 1721.5000    70.2370   456.9030  -999.2500
 1722.0000    70.0470   454.2670  -999.2500
 1722.5000    69.6940   448.9560  -999.2500
 1723.0000    68.3210   455.4830  -999.2500
 1723.5000    67.1270   449.6690  -999.2500
 1724.0000    68.8360   449.0740  -999.2500
 1724.5000    69.1930   455.1240  -999.2500
 1725.0000    68.9300   456.8640  -999.2500
 1725.5000    68.7200   467.4500  -999.2500
 1726.0000    69.1620   475.8160  -999.2500
 1726.5000    70.6540   477.3030  -999.2500
 1727.0000    70.9490   478.7980  -999.2500
 1727.5000    73.8070   475.4040  -999.2500
 1728.0000    76.3410   458.1230  -999.2500
 1728.5000    78.8960   445.0900  -999.2500
 1729.0000    80.5270   445.3350  -999.2500
 1729.5000    84.1560   447.0580  -999.2500
 1730.0000    85.5580   451.3650  -999.2500
 1730.5000    85.5730   444.0270  -999.2500
 1731.0000    86.7720   442.8340  -999.2500
 1731.5000    88.3970   441.9900  -999.2500
 1732.0000    89.2650   443.7710  -999.2500
 1732.5000    90.8900   453.4170  -999.2500
 1733.0000    93.6060   460.2290  -999.2500
 1733.5000    96.3880   468.0830  -999.2500
 1734.0000    97.7790   479.0390  -999.2500
 1734.5000    97.3710   489.9240  -999.2500
 1735.0000    99.6400   499.3750  -999.2500
 1735.5000   102.5310   500.8200  -999.2500
 1736.0000   104.5930   493.6240  -999.2500
 1736.5000   105.2370   489.1870  -999.2500
 1737.0000   107.6190   487.4270  -999.2500
 1737.5000   110.8890   480.9250  -999.2500
 1738.0000   110.4850   480.1250  -999.2500
 1738.5000   107.6920   482.5860  -999.2500
 1739.0000   103.9570   485.1270  -999.2500
 1739.5000    96.2100   487.8680  -999.2500
 1740.0000    89.2920   496.5530  -999.2500
 1740.5000    88.7950   506.4490  -999.2500
 1741.0000    92.5870   510.2570  -999.2500
 1741.5000    93.1860   512.4560  -999.2500
 1742.0000    93.5200   514.9990  -999.2500
 1742.5000    93.4050   518.5720  -999.2500
 1743.0000    92.6730   515.9640  -999.2500
 1743.5000    91.8590   506.2290  -999.2500
 1744.0000    88.1200   496.5020  -999.2500
 1744.5000    88.2880   491.6860  -999.2500
 1745.0000    84.5210   489.1990  -999.2500
 1745.5000    79.6710   482.0280  -999.2500
 1746.0000    74.8290   470.7700  -999.2500
 1746.5000    71.9210   458.9130  -999.2500
 1747.0000    70.2590   461.8520  -999.2500
 1747.5000    69.2210   463.2610  -999.2500
 1748.0000    67.9590   447.1290  -999.2500
 1748.5000    68.2740   448.8280  -999.2500
 1749.0000    68.1010   450.3950  -999.2500
 1749.5000    67.9240   450.8340  -999.2500
 1750.0000    68.6650   412.3100  -999.2500
 1750.5000    68.3580   413.0390  -999.2500
 1751.0000    68.6680   409.3880  -999.2500
 1751.5000    69.4210   404.0050  -999.2500
 1752.0000    69.5180   410.6580  -999.2500
 1752.5000    69.6440   398.7550  -999.2500
 1753.0000    69.0460   392.6560  -999.2500
 1753.5000    70.0690   394.8420  -999.2500
 1754.0000    70.9630   397.8990  -999.2500
 1754.5000    72.0540   398.4670  -999.2500
 1755.0000    73.1750   400.4220  -999.2500
 1755.5000    73.2400   410.3540  -999.2500
 1756.0000    72.3730   403.0410  -999.2500
 1756.5000    71.8400   397.5690  -999.2500
 1757.0000    71.7330   395.5480  -999.2500
 1757.5000    72.1150   393.5650  -999.2500
 1758.0000    68.8240   387.9920  -999.2500
 1758.5000    68.1560   380.2280  -999.2500
 1759.0000    68.3490   372.3700  -999.2500
 1759.5000    66.4010   391.5260  -999.2500
 1760.0000    65.7350   415.5350  -999.2500
 1760.5000    64.9800   419.3370  -999.2500
 1761.0000    63.8920   423.6310  -999.2500
 1761.5000    64.0500   426.4270  -999.2500
 1762.0000    65.1520   415.9790  -999.2500
 1762.5000    66.1460   415.6450  -999.2500
 1763.0000    65.8050   424.3950  -999.2500
 1763.5000    64.6240   437.2440  -999.2500
 1764.0000    64.3580   439.8850  -999.2500
 1764.5000    64.8030   443.6900  -999.2500
 1765.0000    64.8110   448.9360  -999.2500
 1765.5000    64.8040   450.0990  -999.2500
 1766.0000    65.3030   448.4230  -999.2500
 1766.5000    66.2510   439.4820  -999.2500
 1767.0000    67.0740   438.6990  -999.2500
 1767.5000    66.7610   443.5890  -999.2500
 1768.0000    66.5300   443.6060  -999.2500
 1768.5000    67.7770   445.3860  -999.2500
 1769.0000    68.2860   447.1610  -999.2500
 1769.5000    68.4060   448.7510  -999.2500
 1770.0000    69.2020   441.8390  -999.2500
 1770.5000    69.1790   437.3360  -999.2500
 1771.0000    69.2500   427.8780  -999.2500
 1771.5000    70.0120   420.0160  -999.2500
 1772.0000    71.6190   428.5490  -999.2500
 1772.5000    71.9720   431.8420  -999.2500
 1773.0000    71.1590   436.9810  -999.2500
 1773.5000    70.6110   444.7220  -999.2500
 1774.0000    69.7660   452.1410  -999.2500
 1774.5000    68.4510   443.6070  -999.2500
 1775.0000    67.6720   445.4640  -999.2500
 1775.5000    67.8610   445.8310  -999.2500
 1776.0000    68.2400   439.8630  -999.2500
 1776.5000    70.8460   436.7140  -999.2500
 1777.0000    70.3590   431.9810  -999.2500
 1777.5000    71.7140   432.9100  -999.2500
 1778.0000    73.8500   438.6420  -999.2500
 1778.5000    74.1870   442.4380  -999.2500
 1779.0000    72.2550   441.2130  -999.2500
 1779.5000    70.9640   442.1040  -999.2500
 1780.0000    69.8960   437.7630  -999.2500
 1780.5000    70.0840   428.9660  -999.2500
 1781.0000    71.2560   431.8990  -999.2500
 1781.5000    71.9060   447.3990  -999.2500
 1782.0000    71.8480   455.0300  -999.2500
 1782.5000    71.8770   443.1380  -999.2500
 1783.0000    72.5870   444.4790  -999.2500
 1783.5000    74.2570   441.4800  -999.2500
 1784.0000    74.9200   437.7860  -999.2500
 1784.5000    74.3840   448.5800  -999.2500
 1785.0000    73.8170   468.6440  -999.2500
 1785.5000    72.3110   471.1780  -999.2500
 1786.0000    69.4680   467.0020  -999.2500
 1786.5000    69.7740   458.1860  -999.2500
 1787.0000    69.0710   450.7580  -999.2500
 1787.5000    68.6680   454.9870  -999.2500
 1788.0000    70.6000   455.3650  -999.2500
 1788.5000    72.8150   463.7900  -999.2500
 1789.0000    71.4720   463.3360  -999.2500
 1789.5000    70.0440   469.6300  -999.2500
 1790.0000    69.4220   468.7660  -999.2500
 1790.5000    69.1490   469.0000  -999.2500
 1791.0000    69.9270   478.7360  -999.2500
 1791.5000    69.6470   485.5550  -999.2500
 1792.0000    69.3460   485.6700  -999.2500
 1792.5000    69.0960   489.2690  -999.2500
 1793.0000    69.5800   487.1470  -999.2500
 1793.5000    69.6110   491.2560  -999.2500
 1794.0000    70.0410   498.2390  -999.2500
 1794.5000    70.3000   517.1100  -999.2500
