~VERSION INFORMATION
 VERS.                2.0:   CWLS LOG ASCII STANDARD - VERSION 2.0
 WRAP.                 NO:   ONE LINE PER DEPTH STEP
~WELL INFORMATION
#MNEM.UNIT      DATA TYPE    INFORMATION
#----------   ------------   ------------------------------
 STRT.F           80.0000:   START DEPTH
 STOP.F         2730.0000:   STOP DEPTH
 STEP.F            0.5000:   STEP LENGTH
 NULL.          -999.2500:   NO VALUE
 COMP.          U.S. NAVY:   COMPANY
 WELL. US NPR 3 "AX" #57-20:   WELL
 FLD .             TEAPOT:   FIELD
 LOC .      S20 T39N R78W:   LOCATION
 CNTY.            NATRONA:   COUNTY
 STAT.            WYOMING:   STATE
 CTRY. UNITED STATES OF AMERICA:   COUNTRY
 SRVC.       SCHLUMBERGER:   SERVICE COMPANY
 DATE.        31-JUL-1964:   LOGDATE
 API .     49025066320000:   API NUMBER
~CURVE INFORMATION
#MNEM.UNIT       API CODE    CURVE DESCRIPTION
#----------   ------------   ------------------------------
 DEPT.F                  :   
 SPR .MV     01 010 01 00:   SPONTANEOUS POTENTIAL FROM RES.
 LN  .OHMM   01 060 39 00:   LONG NORMAL 39"
 ASN .OHMM   01 041 16 00:   AMPLIFIED SHORT NORMAL 16"
 LAT .OHMM   01 070 00 00:   LATERAL
 GRN .GAPI   35 310 30 00:   GAMMA RAY
 NEUT.NAPI   35 330 01 00:   NEUTRON
~PARAMETER INFORMATION
#MNEM.UNIT          VALUE    DESCRIPTION
#----------   ------------   ------------------------------
 EKB .F         5019.0000:   Kelly bushing
 EGL .F         5011.0000:   Ground level
 TD  .F         2696.0000:   Total depth
 DATE.        31-JUL-1964:   Date logged
 CLNT.            A2DTECH:   Client Code
 PD  .                 GL:   Permanent Datum
 EPD .F              5011:   Elevation Permanent Datum
 LMF .                 KB:   Log Measured From
 DMF .                 KB:   Drilling Measured From
 DAPD.F                 8:   Feet Above Permanent Datum
 DD  .F              2690:   Depth driller
 DL  .F              2696:   Depth logger
 BLI .F              2695:   Bottom log interval
 TLI .F                82:   Top log interval
 CS1 .IN            12.25:   Casing size
 CBD1.       12.25" @ 15':   Casing driller 1
 BS1 .IN               11:   Bit size
 BSD1.F              2690:   Depth drilled with bit1
 DFT .                GEL:   Type fluid in hole
 MSS .           FLOWLINE:   Source of sample
 RMS .OHMM           2.48:   Rm
 MST .F                83:   Rm Meas. temp.
 RMF .OHMM           1.87:   Rmf
 MFST.F                83:   Rmf Meas. temp.
 MFSS.                 FP:   Source Rmf.
 MCSS.                 FP:   Source Rmc.
 TCS .HRS               4:   Time Circ. stopped
 LUN .               3527:   Logging unit number
 LUL .               CSPR:   Logging unit location
 ENGI.            WINKLER:   Recorded By
 WITN.          GORGENSEN:   Witnessed by
 ORIG.         2.5" PRINT:   Origin of data
 UWI .     49025066320000:   Unique Well ID
 DICO.   A2D TECHNOLOGIES:   Digitizing Company
~OTHER INFORMATION
~A   DEPT      SPR         LN        ASN        LAT        GRN       NEUT   
# ...
 2524.0000   -33.2210     4.5510     4.9590    10.2780    94.6770   536.9500
 2524.5000   -33.1740     4.3900     4.6890     9.0400    96.5810   539.6870
 2525.0000   -33.1390     4.2230     4.4530     8.2170    98.5420   534.4970
 2525.5000   -33.1380     4.1420     4.2320     7.9280    99.4270   525.2450
 2526.0000   -33.1370     4.1250     3.8360     7.5180    99.5000   514.7060
 2526.5000   -33.1380     4.1010     3.5160     7.2320    99.7620   509.9790
 2527.0000   -33.1370     4.0790     3.1580     6.8180   100.9850   505.8060
 2527.5000   -33.1370     4.0570     2.9640     6.1850   102.2800   501.7410
 2528.0000   -33.1370     4.0340     2.7620     5.6550   107.7100   497.4630
 2528.5000   -33.1370     4.0130     2.5950     5.1970   113.2570   493.3110
 2529.0000   -33.1370     3.9870     2.4570     4.7020   117.3950   489.6170
 2529.5000   -33.1370     3.9720     2.3400     4.1410   118.6570   487.7430
 2530.0000   -33.1370     3.9100     2.2160     3.5220   119.3770   485.1700
 2530.5000   -33.1370     3.8220     2.2690     3.2630   119.4860   488.8060
 2531.0000   -33.1370     3.7410     2.3540     3.3510   118.2110   503.8160
 2531.5000   -33.1370     3.6620     2.4470     3.3750   114.1200   517.8490
 2532.0000   -33.1370     3.5750     2.5280     3.4220   104.6550   532.7260
 2532.5000   -33.1370     3.5980     2.8450     3.5070    93.1650   547.2300
 2533.0000   -33.1370     3.6410     3.5930     3.9570    80.0260   559.3470
 2533.5000   -33.1370     3.6800     4.1620     4.4620    76.4870   553.5040
 2534.0000   -33.1370     3.7220     5.1470     4.9080    74.2980   547.9510
 2534.5000   -33.1370     3.7800     5.8510     5.5930    74.2760   544.2870
 2535.0000   -33.1370     4.0820     6.0100     5.4760    73.8690   535.5260
 2535.5000   -33.1370     4.3970     6.2160     5.3390    73.6180   521.7100
 2536.0000   -33.1370     4.7570     6.3050     5.1290    73.2670   520.0770
 2536.5000   -33.1370     4.9720     6.4390     5.1650    73.1230   522.2960
 2537.0000   -33.1370     4.9340     6.6760     5.5530    72.9750   529.5180
 2537.5000   -33.1370     5.0370     6.9350     5.9160    73.0030   536.4980
 2538.0000   -33.1370     5.1800     7.2200     6.2960    73.8790   550.0070
 2538.5000   -33.1370     5.3120     7.5250     6.6680    75.0580   566.3450
 2539.0000   -33.1370     5.4430     7.8270     7.0350    75.3890   582.6730
 2539.5000   -33.1370     5.6080     8.1330     7.4350    75.6690   594.8300
 2540.0000   -33.1370     5.8520     8.4690     7.6260    74.1110   604.0100
 2540.5000   -33.1370     6.0970     8.8740     7.4310    72.1180   609.7520
 2541.0000   -33.1370     6.3360     9.3050     7.2700    70.1590   611.8640
 2541.5000   -33.1370     6.5990     9.7650     7.0870    68.1340   614.7580
 2542.0000   -33.1370     6.7590    10.7250     6.9210    66.4910   617.4440
 2542.5000   -33.1370     6.7790    11.7740     6.7280    67.3610   616.7820
 2543.0000   -33.1370     6.8240    12.3710     6.6260    70.1000   596.3220
 2543.5000   -33.1370     6.8590    12.5770     6.6290    72.8770   577.8110
 2544.0000   -33.1370     6.8970    11.7080     6.6500    75.8680   565.7910
 2544.5000   -33.1370     6.9330    10.1060     6.4340    78.8130   558.1340
 2545.0000   -33.1370     6.9930     8.6120     5.9990    81.6720   550.2670
 2545.5000   -33.1380     7.0420     8.0380     5.6010    84.9180   542.5970
 2546.0000   -33.1230     7.1090     7.3660     5.1900    87.0650   534.8030
 2546.5000   -33.0710     7.0610     6.9550     4.7950    87.2810   527.0260
 2547.0000   -33.0210     6.8970     6.5710     4.5140    87.8840   522.0420
 2547.5000   -32.9690     6.7490     6.3800     4.2870    88.3610   526.8650
 2548.0000   -32.9180     6.5950     6.2260     4.0730    89.6040   525.0440
 2548.5000   -32.8660     6.4420     6.1900     3.8690    90.8170   525.5870
 2549.0000   -32.8150     6.2900     6.1530     3.7710    91.7740   519.8480
 2549.5000   -32.7630     6.1440     6.1150     3.6790    91.3870   514.0440
 2550.0000   -32.7120     6.0700     6.0520     3.5960    90.4470   516.7360
 2550.5000   -32.6610     6.0010     5.9860     3.4940    89.5370   519.5270
 2551.0000   -32.6090     5.9340     5.9170     3.5240    88.6060   525.4480
 2551.5000   -32.5580     5.8650     5.8710     3.6500    87.6880   533.1330
 2552.0000   -32.5060     5.7970     5.8600     3.7580    87.4360   541.4530
 2552.5000   -32.4550     5.7290     5.8410     3.8710    88.5380   544.5630
 2553.0000   -32.4030     5.6610     5.8270     3.9840    89.4360   547.6990
 2553.5000   -32.3520     5.5920     5.8060     4.0960    90.7350   550.2670
 2554.0000   -32.3000     5.5240     5.8240     4.2090    89.4700   554.0830
 2554.5000   -32.2490     5.4580     5.8680     4.3210    88.9820   553.0210
 2555.0000   -32.1980     5.3830     5.9100     4.4490    88.6410   550.7860
 2555.5000   -32.1460     5.3480     5.9490     4.6410    88.3970   555.0660
 2556.0000   -32.0950     5.3640     5.9940     4.8810    88.9000   550.1800
 2556.5000   -32.0440     5.3730     5.9610     5.1150    89.7000   539.3390
 2557.0000   -31.9890     5.3850     5.9100     5.3510    90.8490   529.1830
 2557.5000   -31.9600     5.3960     5.8470     5.5860    91.8640   526.5580
 2558.0000   -31.9800     5.4070     5.7660     5.8240    93.3550   522.8830
 2558.5000   -31.9950     5.4190     5.6830     6.0540    95.1300   514.5540
 2559.0000   -32.0140     5.4300     5.6020     6.3060    96.7310   507.6030
 2559.5000   -32.0310     5.4410     5.5180     6.4710    98.0420   499.7800
 2560.0000   -32.0480     5.4520     5.4800     6.5200    95.1900   493.3670
 2560.5000   -32.0660     5.4640     5.5210     6.5900    90.0700   485.2680
 2561.0000   -32.0830     5.4750     5.6120     6.6520    86.1740   497.6400
 2561.5000   -32.1010     5.4860     5.7020     6.7160    83.8800   505.8160
 2562.0000   -32.1180     5.4970     5.7920     6.7800    86.1780   508.4300
 2562.5000   -32.1360     5.5090     5.8780     6.8440    89.7380   518.6730
 2563.0000   -32.1530     5.5200     5.9110     6.9070    92.2400   531.2040
 2563.5000   -32.1710     5.5320     5.9390     6.9730    92.3750   534.0050
 2564.0000   -32.1880     5.5470     5.9640     7.0330    92.2470   536.6250
 2564.5000   -32.2060     5.6450     6.0110     7.1010    90.4410   537.8640
 2565.0000   -32.2230     5.7750     6.1350     7.1630    89.0570   545.7830
 2565.5000   -32.2410     5.9010     6.2950     7.2020    86.3650   556.9690
 2566.0000   -32.2580     6.0290     6.6040     6.9300    84.1270   562.6760
 2566.5000   -32.2760     6.1560     7.1970     6.6480    81.6820   568.4250
 2567.0000   -32.2930     6.2830     7.7030     6.5260    79.4460   572.9640
 2567.5000   -32.3110     6.4100     8.2560     6.4220    76.9350   565.3140
 2568.0000   -32.3280     6.5370     8.4660     6.3150    76.4920   557.0750
 2568.5000   -32.3460     6.6640     8.3670     6.2120    77.6160   537.1030
 2569.0000   -32.3530     6.7920     8.2250     6.0970    78.3400   517.6680
 2569.5000   -32.3530     6.9170     8.0850     6.0350    79.3610   500.8760
 2570.0000   -32.3530     7.0480     7.9070     6.0430    80.2120   500.8010
 2570.5000   -32.3530     7.1700     7.7010     6.0390    81.0630   505.1900
 2571.0000   -32.3530     7.3110     7.5080     6.0400    81.2900   513.7630
 2571.5000   -32.3530     7.2850     7.3010     6.0400    81.5010   522.2300
 2572.0000   -32.3530     7.2330     7.2450     6.0400    81.7230   527.8310
 2572.5000   -32.3530     7.1790     7.4710     6.0400    82.5330   531.8270
 2573.0000   -32.3530     7.1290     7.6770     6.0410    83.5720   533.4200
 2573.5000   -32.3530     7.0750     7.8130     6.0390    84.5980   520.8130
 2574.0000   -32.3530     7.0250     7.8670     6.0410    85.6090   508.2270
 2574.5000   -32.3530     6.9710     7.8410     6.0480    86.6500   493.7050
 2575.0000   -32.3530     6.9200     7.6250     6.1510    87.3190   490.7090
 2575.5000   -32.3530     6.8040     7.3960     6.2600    87.8370   490.0530
