~VERSION INFORMATION
 VERS.                2.0:   CWLS LOG ASCII STANDARD - VERSION 2.0
 WRAP.                 NO:   ONE LINE PER DEPTH STEP
~WELL INFORMATION
#MNEM.UNIT      DATA TYPE    INFORMATION
#----------   ------------   ------------------------------
 STRT.F          176.0000:   START DEPTH
 STOP.F         3380.0000:   STOP DEPTH
 STEP.F            0.5000:   STEP LENGTH
 NULL.          -999.2500:   NO VALUE
 COMP.    PENIX & SCISSON:   COMPANY
 WELL.  FENIX "AX" #85-15:   WELL
 FLD .             NPR #3:   FIELD
 LOC .      S15 T38N R78W:   LOCATION
 CNTY.            NATRONA:   COUNTY
 STAT.            WYOMING:   STATE
 CTRY. UNITED STATES OF AMERICA:   COUNTRY
 SRVC.       SCHLUMBERGER:   SERVICE COMPANY
 DATE.        28-APR-1981:   LOGDATE
 API .     49025108700000:   API NUMBER
~CURVE INFORMATION
#MNEM.UNIT       API CODE    CURVE DESCRIPTION
#----------   ------------   ------------------------------
 DEPT.F                  :   
 TEND.LBS    45 635 01 00:   TENSION FROM DENSITY LOG
 CALD.IN     45 280 60 00:   CALIPER FROM DENSITY LOG
 CORR.G/C3   45 356 01 00:   DENSITY CORRECTION
 GRD .GAPI   45 310 01 00:   GAMMA RAY FROM DENSITY LOG
 RHOB.G/C3   45 350 01 00:   BULK DENSITY
 SFL .OHMM   07 220 01 00:   SHALLOW FOCUSED LOG RESISTIVITY
 ILD .OHMM   07 120 46 00:   INDUCTIONLOG DEEP RESISTIVITY
 ILM .OHMM   07 120 44 00:   INDUCTION LOG MEDIUM RESISTIVITY
 TENR.LBS    07 635 01 00:   TENSION FROM RESISTIVITY
 SPR .MV     07 010 01 00:   SPONTANEOUS POTENTIAL
~PARAMETER INFORMATION
#MNEM.UNIT          VALUE    DESCRIPTION
#----------   ------------   ------------------------------
 EKB .F         5259.0000:   Kelly bushing
 EGL .F         5249.0000:   Ground level
 EDF .F            0.0000:   Drilling floor
 TD  .F         3333.0000:   Total depth
 DATE.        28-APR-1981:   Date logged
 CLNT.            A2DTECH:   Client Code
 SL  . 1927' FSL & 140' FEL:   Surface Location
 PD  .                 GL:   Permanent Datum
 DD  .F              3333:   Depth driller
 DL  .F              3382:   Depth logger
 BLI .F              3376:   Bottom log interval
 TLI .F               182:   Top log interval
 CS1 .IN            8.625:   Casing size
 CBD1.      8.625" @ 181':   Casing driller 1
 CBL1.F               182:   Casing logger 1
 BS1 .IN            7.875:   Bit size
 BSD1.F              3333:   Depth drilled with bit1
 DFT .                GEL:   Type fluid in hole
 DFD .                8.7:   Density
 DFV .                 35:   Viscosity
 DFPH.                9.5:   pH
 DFL .                  7:   Fluid loss
 MSS .               TANK:   Source of sample
 RMS .OHMM           1.79:   Rm
 MST .F                58:   Rm Meas. temp.
 RMF .OHMM           1.43:   Rmf
 MFST.F                58:   Rmf Meas. temp.
 MFSS.               MEAS:   Source Rmf.
 RMB .OHMM            .93:   Rm. at BHT
 BHT .F               112:   BHT.
 TCS .HRS             800:   Time Circ. stopped
 TLAB.HRS             200:   Time logger at bottom
 MRT .F               112:   Maximum recorded temp.
 LUN .               8039:   Logging unit number
 LUL .               CAPR:   Logging unit location
 ENGI.           HARRINER:   Recorded By
 WITN.              SCOTT:   Witnessed by
 ORIG.           5" PRINT:   Origin of data
 UWI .     49025108700000:   Unique Well ID
 DICO. A2D TECHNOLOGIES, INC.:   Digitizing Company
 EPD .               5249:   Elevation Permanent Datum
 LMF .                 KB:   Log Measured From
 DMF .                 KB:   Drilling Measured From
 DAPD.                 10:   Feet Above Permanent Datum
~OTHER INFORMATION
~A   DEPT     TEND       CALD       CORR         GRD      RHOB        SFL        ILD        ILM       TENR        SPR   
# ...
 1851.0000  1284.4260     8.8820     0.0130   107.6710     2.5520     8.6360     7.3570     6.6590  1355.5990   -28.8160
 1851.5000  1288.4750     8.8820     0.0060   107.5500     2.5460     8.8450     7.4530     6.7160  1355.5990   -28.7030
 1852.0000  1292.5240     8.8820    -0.0010   106.3220     2.5440     9.1860     7.5490     6.7720  1355.5990   -28.5570
 1852.5000  1296.5720     8.8820    -0.0030   105.2260     2.5470     9.0210     7.6440     6.8280  1355.5990   -28.5810
 1853.0000  1300.6210     8.8820    -0.0020   107.4600     2.5550     8.8720     7.7400     6.8770  1355.5990   -28.2270
 1853.5000  1304.6700     8.8820     0.0080   110.0600     2.5680     8.7000     7.8050     6.8770  1360.0341   -28.1480
 1854.0000  1308.7190     8.8820     0.0180   113.1410     2.5780     8.8590     7.8050     6.8770  1373.8979   -28.1410
 1854.5000  1312.7679     8.8820     0.0220   112.9730     2.5780     9.1190     7.9480     6.8770  1387.7629   -28.1680
 1855.0000  1316.8170     8.8820     0.0110   109.6410     2.5650     9.3530     7.9480     6.9020  1394.8920   -28.1950
 1855.5000  1320.8660     8.8820     0.0020   105.6840     2.5460     9.5410     7.9480     6.9300  1394.8920   -28.2360
 1856.0000  1324.9150     8.8820     0.0060   105.2770     2.5520     9.6020     7.9340     6.9590  1394.8920   -28.2730
 1856.5000  1325.8700     8.8820     0.0190   108.0970     2.5680     9.6980     7.9180     6.9870  1394.8920   -28.3100
 1857.0000  1324.3051     8.8820     0.0310   110.7980     2.5820     9.6000     7.9020     7.0030  1394.8920   -28.3480
 1857.5000  1322.7400     8.8820     0.0430   112.2900     2.5990     9.3760     7.8860     7.0020  1394.8920   -28.3850
 1858.0000  1321.1750     8.8820     0.0410   111.0110     2.5920     9.1520     7.8690     6.9790  1394.8920   -28.4230
 1858.5000  1319.6100     8.8820     0.0300   111.8690     2.5740     8.9280     7.8540     6.9510  1394.8920   -28.4600
 1859.0000  1318.0450     8.8820     0.0230   114.1390     2.5570     8.7000     7.8380     6.9220  1394.8920   -28.4960
 1859.5000  1316.4800     8.8820     0.0270   116.6720     2.5510     8.7000     7.8220     6.8930  1394.8920   -28.5380
 1860.0000  1314.9150     8.8820     0.0360   115.8950     2.5580     8.7000     7.8040     6.8750  1394.8920   -28.4970
 1860.5000  1313.3500     8.8820     0.0360   112.8860     2.5640     8.7000     7.6900     6.8760  1394.8920   -28.3610
 1861.0000  1311.7850     8.8820     0.0320   110.2350     2.5690     8.7000     7.6570     6.8770  1394.8920   -28.2300
 1861.5000  1310.2200     8.8820     0.0310   107.3650     2.5670     8.7000     7.6760     6.8770  1394.8920   -28.0970
 1862.0000  1308.6550     8.8820     0.0350   106.3460     2.5610     9.1860     7.5310     6.8580  1394.8920   -27.9650
 1862.5000  1307.0900     8.8820     0.0440   107.0630     2.5590     9.0840     7.5610     6.8330  1394.8920   -27.8320
 1863.0000  1305.5250     8.8820     0.0520   108.6150     2.5660     8.8590     7.5910     6.8080  1394.8920   -27.7000
 1863.5000  1303.9600     8.8820     0.0620   111.8430     2.5720     8.8590     7.6210     6.7830  1394.8920   -27.5680
 1864.0000  1302.3950     8.8820     0.0830   112.4430     2.5750     8.9490     7.6500     6.7560  1394.8920   -27.4300
 1864.5000  1300.8300     8.8820     0.0980   113.0040     2.5740     9.0210     7.6790     6.7640  1394.8920   -27.3530
 1865.0000  1299.2650     8.8820     0.0980   113.3460     2.5730     8.9690     7.7080     6.7770  1394.8920   -27.3670
 1865.5000  1297.7000     8.8820     0.0990   113.9390     2.5770     8.8590     7.7370     6.7900  1394.8920   -27.3860
 1866.0000  1296.1350     8.8820     0.0980   113.2750     2.5850     9.0210     7.7650     6.8020  1394.8920   -27.7440
 1866.5000  1294.5699     8.8820     0.1120   111.4810     2.5910     9.1230     7.7940     6.8150  1381.7290   -28.0860
 1867.0000  1293.0050     8.8820     0.1430   107.2780     2.6000     9.3710     7.8760     6.8280  1365.5530   -28.4840
 1867.5000  1291.4399     8.8820     0.1370   106.4510     2.5840     9.8750     7.9480     6.8410  1355.5990   -28.5050
 1868.0000  1289.8750     8.8820     0.0930   107.5630     2.5430     9.6860     7.9480     6.8530  1355.5990   -28.8410
 1868.5000  1288.3101     8.8820     0.1080   110.0030     2.5100     9.3580     7.9480     6.8660  1355.5990   -28.7070
 1869.0000  1287.1290     8.8820     0.1570   112.3320     2.5530     9.0290     7.7620     6.8770  1355.5990   -28.5240
 1869.5000  1287.1290     8.8820     0.2040   113.1430     2.5700     8.7000     7.6840     6.8640  1355.5990   -28.3130
 1870.0000  1287.1290     8.8820     0.2250   112.3440     2.5560     8.5440     7.6050     6.8260  1355.5990   -28.1670
 1870.5000  1287.1290     8.8820     0.2410   110.4570     2.5480     8.7000     7.5270     6.7890  1355.5990   -28.3170
 1871.0000  1290.4060     8.8820     0.2490   109.3160     2.5450     8.8590     7.4490     6.7510  1355.5990   -28.4340
 1871.5000  1293.7520     8.8820     0.2480   110.8140     2.5460     8.8590     7.3930     6.7130  1355.5990   -28.5430
 1872.0000  1297.0980     8.8820     0.2440   112.1810     2.5010     8.8590     7.2600     6.6750  1363.3270   -28.6240
 1872.5000  1300.4440     8.8820     0.2120   111.3580     2.3980     8.7010     7.2720     6.6320  1379.5020   -28.8830
 1873.0000  1303.7900     8.8820     0.1730   109.3690     2.3910     8.4650     7.3180     6.6320  1394.8920   -28.4770
 1873.5000  1307.1360     8.8820     0.1540   107.3610     2.4060     8.0930     7.3630     6.5130  1391.5800   -28.1580
 1874.0000  1310.4810     8.8820     0.1470   105.6240     2.4340     8.1940     7.4090     6.6320  1377.7150   -27.8000
 1874.5000  1313.8270     8.8820     0.1240   103.4450     2.4620     8.4310     7.4540     6.6320  1363.8510   -27.4610
 1875.0000  1317.1730     8.8820     0.1010   105.2980     2.4660     8.6680     7.5000     6.7530  1355.5990   -27.1010
 1875.5000  1320.5190     8.8820     0.0830   107.6310     2.4790     8.8590     7.5450     6.7530  1316.3060   -26.9390
 1876.0000  1323.8650     8.8820     0.0820   109.2820     2.4920     9.0210     7.5910     6.8060  1354.8130   -26.7350
 1876.5000  1326.7330     8.8820     0.0830   109.0590     2.5040     9.0210     7.6360     6.8490  1387.1639   -26.5470
 1877.0000  1326.7330     8.8820     0.0780   109.2120     2.5030     9.0210     7.7270     6.8930  1394.0890   -26.3460
 1877.5000  1326.7330     8.8820     0.0630   110.8260     2.4900     8.8590     7.8050     6.9370  1393.0341   -26.1820
 1878.0000  1326.7330     8.8820     0.0450   112.6390     2.4790     8.9740     7.8050     6.9810  1391.9790   -26.2710
 1878.5000  1326.7330     8.8820     0.0620   114.3620     2.4890     9.3190     7.7580     7.1300  1390.9240   -26.5430
 1879.0000  1326.7330     8.8820     0.0830   113.9310     2.4990     9.6980     7.6690     7.1300  1389.8690   -26.8110
 1879.5000  1326.7330     8.8820     0.1030   112.1950     2.5030     9.4030     7.5790     7.0320  1388.8140   -27.0810
 1880.0000  1326.7330     8.8820     0.1220   110.4460     2.5040     9.0750     7.4890     6.9230  1387.7590   -27.3510
 1880.5000  1326.7330     8.8820     0.1480   108.6270     2.5130     8.7480     7.3990     6.8140  1386.7050   -27.6210
 1881.0000  1326.7330     8.8820     0.1760   106.9140     2.5130     8.4210     7.3100     6.7050  1385.6500   -27.8930
 1881.5000  1326.7330     8.8820     0.1840   105.1370     2.4970     8.2410     7.2600     6.5970  1384.5950   -28.1500
 1882.0000  1326.7330     8.8820     0.1610   104.9810     2.4760     8.0930     7.2600     6.5240  1383.5400   -28.4120
 1882.5000  1326.7330     8.8820     0.1420   105.4430     2.4540     8.0930     7.2600     6.5720  1382.4850   -28.5710
 1883.0000  1326.7330     8.8820     0.1210   106.8850     2.4440     8.1660     7.1300     6.6190  1381.4301   -28.3600
 1883.5000  1326.7330     8.8820     0.1010   108.4170     2.4390     8.5120     7.1810     6.6660  1380.3750   -28.0170
 1884.0000  1326.7330     8.8820     0.0800   108.2870     2.4620     8.8580     7.3100     6.7130  1379.3199   -27.6940
