~VERSION INFORMATION
 VERS.                2.0:   CWLS LOG ASCII STANDARD - VERSION 2.0
 WRAP.                 NO:   ONE LINE PER DEPTH STEP
~WELL INFORMATION
#MNEM.UNIT      DATA TYPE    INFORMATION
#----------   ------------   ------------------------------
 STRT.F          794.0000:   START DEPTH
 STOP.F         2828.0000:   STOP DEPTH
 STEP.F            0.5000:   STEP LENGTH
 NULL.          -999.2500:   NO VALUE
 COMP.           U S NAVY:   COMPANY
 WELL. U S NAVY NPR 3 "A" #10-33:   WELL
 FLD .        TEAPOT DOME:   FIELD
 LOC .      S33 T39N R78W:   LOCATION
 CNTY.            NATRONA:   COUNTY
 STAT.            WYOMING:   STATE
 CTRY. UNITED STATES OF AMERICA:   COUNTRY
 SRVC.         MCCULLOUGH:   SERVICE COMPANY
 DATE.        25-JUL-1968:   LOGDATE
 API .     49025102180000:   API NUMBER
~CURVE INFORMATION
#MNEM.UNIT       API CODE    CURVE DESCRIPTION
#----------   ------------   ------------------------------
 DEPT.F                  :   
 GRN .GAPI   35 310 01 00:   GAMMA RAY
 NEUT.NAPI   35 330 01 00:   NEUTRON
 TEMP.DEG    99 000 00 00:   TEMPERATURE AT TOOL
~PARAMETER INFORMATION
#MNEM.UNIT          VALUE    DESCRIPTION
#----------   ------------   ------------------------------
 EKB .F            0.0000:   Kelly bushing
 EGL .F            0.0000:   Ground level
 EDF .F            0.0000:   Drilling floor
 EPD .F            0.0000:   Permanent datum
 TD  .F         2829.0000:   Total depth
 DATE.        25-JUL-1968:   Date logged
 CLNT.            A2DTECH:   Client Code
 DL  .F              2829:   Depth logger
 BLI .F              2825:   Bottom log interval
 TLI .F               800:   Top log interval
 DFT .                DRY:   Type fluid in hole
 TCS .HRS               2:   Time Circ. stopped
 ENGI.           KIMBERRY:   Recorded By
 ORIG.        2" 5" PRINT:   Origin of data
 UWI .     49025102180000:   Unique Well ID
 DICO. A2D TECHNOLOGIES, INC.:   Digitizing Company
~OTHER INFORMATION
~A   DEPT       GRN      NEUT       TEMP   
# ...
 2159.0000    79.0560   545.0970  -999.2500
 2159.5000    79.2990   549.9820  -999.2500
 2160.0000    78.2680   542.9120  -999.2500
 2160.5000    77.6740   560.1800  -999.2500
 2161.0000    77.9560   563.0240  -999.2500
 2161.5000    77.6770   564.9680  -999.2500
 2162.0000    78.5720   564.2830  -999.2500
 2162.5000    77.1060   574.7210  -999.2500
 2163.0000    75.3360   563.0950  -999.2500
 2163.5000    73.9500   567.7100  -999.2500
 2164.0000    72.6910   551.2990  -999.2500
 2164.5000    73.0430   567.1060  -999.2500
 2165.0000    74.3570   578.8940  -999.2500
 2165.5000    71.1190   584.5680  -999.2500
 2166.0000    69.3720   576.1100  -999.2500
 2166.5000    67.5220   564.2500  -999.2500
 2167.0000    68.0510   559.4520  -999.2500
 2167.5000    68.4670   560.9080  -999.2500
 2168.0000    68.5950   569.2190  -999.2500
 2168.5000    69.4310   582.5590  -999.2500
 2169.0000    69.9070   595.8180  -999.2500
 2169.5000    69.9610   618.0610  -999.2500
 2170.0000    67.2170   597.8350  -999.2500
 2170.5000    62.5000   601.9360  -999.2500
 2171.0000    59.6950   588.5710  -999.2500
 2171.5000    60.0760   598.5770  -999.2500
 2172.0000    62.9470   573.0560  -999.2500
 2172.5000    63.2770   593.7240  -999.2500
 2173.0000    64.6990   613.9700  -999.2500
 2173.5000    66.1040   620.4910  -999.2500
 2174.0000    67.1250   607.0980  -999.2500
 2174.5000    68.2330   605.5300  -999.2500
 2175.0000    68.7700   603.8340  -999.2500
 2175.5000    68.3090   599.5220  -999.2500
 2176.0000    68.7870   588.1090  -999.2500
 2176.5000    68.1600   591.8760  -999.2500
 2177.0000    67.4380   578.7120  -999.2500
 2177.5000    70.5230   562.4310  -999.2500
 2178.0000    73.1230   548.9390  -999.2500
 2178.5000    71.4710   556.3530  -999.2500
 2179.0000    70.6100   568.8940  -999.2500
 2179.5000    72.3120   578.9260  -999.2500
 2180.0000    72.0530   587.3050  -999.2500
 2180.5000    73.5840   575.4910  -999.2500
 2181.0000    74.9700   584.6740  -999.2500
 2181.5000    74.6690   591.0280  -999.2500
 2182.0000    76.9970   563.5020  -999.2500
 2182.5000    81.3010   567.2740  -999.2500
 2183.0000    82.4700   569.4960  -999.2500
 2183.5000    82.5130   561.1420  -999.2500
 2184.0000    83.0930   549.9970  -999.2500
 2184.5000    83.6950   561.6820  -999.2500
 2185.0000    84.8730   576.2400  -999.2500
 2185.5000    87.1070   575.1000  -999.2500
 2186.0000    86.1790   568.5550  -999.2500
 2186.5000    83.5330   552.3240  -999.2500
 2187.0000    81.1130   547.8250  -999.2500
 2187.5000    83.8530   532.3790  -999.2500
 2188.0000    84.6120   517.0960  -999.2500
 2188.5000    83.1560   495.6420  -999.2500
 2189.0000    82.4290   468.7140  -999.2500
 2189.5000    83.4500   455.0350  -999.2500
 2190.0000    80.3300   471.2520  -999.2500
 2190.5000    78.2190   473.6320  -999.2500
 2191.0000    78.0540   482.6120  -999.2500
 2191.5000    81.6940   494.5140  -999.2500
 2192.0000    82.7580   489.2890  -999.2500
 2192.5000    81.0410   487.9870  -999.2500
 2193.0000    79.4590   495.8070  -999.2500
 2193.5000    78.7680   496.9610  -999.2500
 2194.0000    79.9740   503.5250  -999.2500
 2194.5000    80.6990   522.8790  -999.2500
 2195.0000    81.7610   533.3490  -999.2500
 2195.5000    80.7500   541.8410  -999.2500
 2196.0000    76.4110   525.4140  -999.2500
 2196.5000    71.0140   518.3630  -999.2500
 2197.0000    70.4750   522.5920  -999.2500
 2197.5000    68.1080   528.6200  -999.2500
 2198.0000    66.2420   544.7970  -999.2500
 2198.5000    70.9870   533.5440  -999.2500
 2199.0000    72.8540   537.9290  -999.2500
 2199.5000    73.1410   524.9110  -999.2500
 2200.0000    71.1350   517.6690  -999.2500
 2200.5000    71.2470   538.6380  -999.2500
 2201.0000    74.8910   541.7680  -999.2500
 2201.5000    78.3020   534.0340  -999.2500
 2202.0000    79.5150   529.2170  -999.2500
 2202.5000    81.2780   533.1650  -999.2500
 2203.0000    83.2870   528.4000  -999.2500
 2203.5000    85.1210   524.8920  -999.2500
 2204.0000    85.5370   532.0250  -999.2500
 2204.5000    83.4390   535.4510  -999.2500
 2205.0000    81.4500   537.0430  -999.2500
 2205.5000    79.6910   560.7810  -999.2500
 2206.0000    78.8850   581.6860  -999.2500
 2206.5000    74.7290   592.8100  -999.2500
 2207.0000    72.9860   594.9360  -999.2500
 2207.5000    72.9650   583.6600  -999.2500
 2208.0000    73.0950   574.2070  -999.2500
 2208.5000    73.7040   575.1710  -999.2500
 2209.0000    74.1280   579.8430  -999.2500
 2209.5000    74.4870   570.6010  -999.2500
 2210.0000    75.4490   588.1880  -999.2500
 2210.5000    75.5390   556.0700  -999.2500
 2211.0000    75.0400   561.0910  -999.2500
 2211.5000    76.9230   552.5030  -999.2500
 2212.0000    78.7700   534.7900  -999.2500
 2212.5000    78.9530   523.2260  -999.2500
 2213.0000    77.7680   527.7890  -999.2500
 2213.5000    78.3580   532.1870  -999.2500
 2214.0000    79.3730   525.8750  -999.2500
 2214.5000    77.5440   533.8430  -999.2500
 2215.0000    75.2660   548.8620  -999.2500
 2215.5000    74.6250   527.9810  -999.2500
 2216.0000    74.3580   502.8860  -999.2500
 2216.5000    74.0570   481.1050  -999.2500
 2217.0000    73.0270   486.6920  -999.2500
 2217.5000    71.3010   493.3330  -999.2500
 2218.0000    71.4180   496.4040  -999.2500
 2218.5000    74.5150   531.6870  -999.2500
 2219.0000    72.0600   544.2960  -999.2500
 2219.5000    72.6270   552.2390  -999.2500
 2220.0000    75.1160   545.8830  -999.2500
 2220.5000    72.6080   568.3790  -999.2500
 2221.0000    72.6360   552.4030  -999.2500
 2221.5000    71.5100   547.8410  -999.2500
 2222.0000    72.9910   530.0350  -999.2500
 2222.5000    77.4680   511.7560  -999.2500
 2223.0000    78.0010   504.3720  -999.2500
 2223.5000    81.8630   520.0300  -999.2500
 2224.0000    83.1690   502.8920  -999.2500
 2224.5000    80.1640   491.0800  -999.2500
 2225.0000    79.5370   495.9850  -999.2500
 2225.5000    77.5360   495.7600  -999.2500
 2226.0000    76.3400   527.2350  -999.2500
 2226.5000    72.3770   503.8370  -999.2500
 2227.0000    68.0880   471.1390  -999.2500
 2227.5000    70.2670   456.9980  -999.2500
 2228.0000    71.7040   467.9490  -999.2500
 2228.5000    71.4730   460.9780  -999.2500
 2229.0000    71.9230   473.4930  -999.2500
 2229.5000    73.7550   463.6910  -999.2500
 2230.0000    77.1850   445.6650  -999.2500
 2230.5000    76.7960   461.2530  -999.2500
 2231.0000    79.2750   486.0830  -999.2500
 2231.5000    81.3090   498.7500  -999.2500
 2232.0000    82.5360   505.4130  -999.2500
 2232.5000    85.3130   510.8200  -999.2500
 2233.0000    82.9700   524.4040  -999.2500
 2233.5000    82.1420   536.1340  -999.2500
 2234.0000    81.5430   537.5910  -999.2500
 2234.5000    79.1850   509.8740  -999.2500
 2235.0000    78.0500   519.2760  -999.2500
 2235.5000    76.5420   506.4990  -999.2500
 2236.0000    75.8680   522.9040  -999.2500
 2236.5000    74.3410   522.6850  -999.2500
 2237.0000    73.2760   522.3690  -999.2500
 2237.5000    74.3320   533.4730  -999.2500
 2238.0000    75.6800   523.9850  -999.2500
 2238.5000    75.6970   513.6590  -999.2500
 2239.0000    74.4220   516.8970  -999.2500
 2239.5000    75.0850   517.1130  -999.2500
 2240.0000    77.1240   530.5480  -999.2500
 2240.5000    79.8400   520.3340  -999.2500
 2241.0000    79.9160   523.6970  -999.2500
 2241.5000    79.2640   526.5480  -999.2500
 2242.0000    78.4690   522.2240  -999.2500
 2242.5000    75.0940   521.6200  -999.2500
 2243.0000    71.3920   531.5850  -999.2500
 2243.5000    70.3230   539.0960  -999.2500
 2244.0000    69.3820   514.1290  -999.2500
 2244.5000    74.0270   508.7130  -999.2500
 2245.0000    76.7310   523.5480  -999.2500
 2245.5000    77.0540   535.4170  -999.2500
 2246.0000    77.1570   498.2290  -999.2500
 2246.5000    72.7190   470.0100  -999.2500
 2247.0000    68.6660   465.9090  -999.2500
 2247.5000    67.3280   471.5860  -999.2500
 2248.0000    64.0530   486.4710  -999.2500
 2248.5000    61.9070   473.8580  -999.2500
 2249.0000    59.5880   483.1290  -999.2500
 2249.5000    59.1720   459.5850  -999.2500
