~VERSION INFORMATION
 VERS.                2.0:   CWLS LOG ASCII STANDARD - VERSION 2.0
 WRAP.                 NO:   ONE LINE PER DEPTH STEP
~WELL INFORMATION
#MNEM.UNIT      DATA TYPE    INFORMATION
#----------   ------------   ------------------------------
 STRT.F          502.0000:   START DEPTH
 STOP.F         4210.0000:   STOP DEPTH
 STEP.F            0.5000:   STEP LENGTH
 NULL.          -999.2500:   NO VALUE
 COMP.   FENIX & SCISSION:   COMPANY
 WELL. FENIX NPR 3 "JX" #43-34:   WELL
 FLD .              N P R:   FIELD
 LOC .      S34 T39N R78W:   LOCATION
 CNTY.            NATRONA:   COUNTY
 STAT.            WYOMING:   STATE
 CTRY. UNITED STATES OF AMERICA:   COUNTRY
 SRVC.              WELEX:   SERVICE COMPANY
 DATE.        05-FEB-1979:   LOGDATE
 API .     49025107690000:   API NUMBER
~CURVE INFORMATION
#MNEM.UNIT       API CODE    CURVE DESCRIPTION
#----------   ------------   ------------------------------
 DEPT.F                  :   
 TENR.LBS    07 635 01 00:   TENSION FROM RESISTIVITY
 SPR .MV     07 010 01 00:   SPONTANEOUS POTENTIAL
 SFL .OHMM   07 220 01 00:   SHALLOW FOCUSED LOG RESISTIVITY
 ILD .OHMM   07 120 46 00:   DEEP INDUCTION RESISTIVITY
 ILM .OHMM   07 120 44 00:   INDUCTION LOG MEDIUM RESISTIVITY
 TEND.LBS    45 635 01 00:   TENSION FROM DENSITY LOG
 CALD.IN     45 280 60 00:   CALIPER FROM DENSITY LOG
 GRD .GAPI   45 310 01 00:   GAMMA RAY FROM DENSITY LOG
 CORR.G/C3   45 356 01 00:   DENSITY CORRECTION
 NPHI.DEC    42 890 03 00:   NEUTRON POROSITY SANDSTONE
 RHOB.G/C3   45 350 01 00:   BULK DENSITY
~PARAMETER INFORMATION
#MNEM.UNIT          VALUE    DESCRIPTION
#----------   ------------   ------------------------------
 EKB .F         5108.0000:   Kelly bushing
 EGL .F         5098.0000:   Ground level
 TD  .F         4204.0000:   Total depth
 DATE.        05-FEB-1979:   Date logged
 CLNT.            A2DTECH:   Client Code
 SL  . 1627' FNL & 2110' FWL:   Surface Location
 PD  .                 GL:   Permanent Datum
 DD  .F              4200:   Depth driller
 DL  .F              4204:   Depth logger
 BLI .F              4202:   Bottom log interval
 CS1 .IN            8.625:   Casing size
 CBD1.      8.625" @ 506':   Casing driller 1
 CBL1.F               506:   Casing logger 1
 BS1 .IN            7.875:   Bit size
 DFT .           CHEM/GEL:   Type fluid in hole
 DFD .                9.2:   Density
 DFV .                 55:   Viscosity
 DFPH.                9.5:   pH
 DFL .                5.7:   Fluid loss
 MSS .            MUD/PIT:   Source of sample
 RMS .OHMM            1.1:   Rm
 MST .F                52:   Rm Meas. temp.
 RMF .OHMM            .45:   Rmf
 MFST.F                52:   Rmf Meas. temp.
 RMC .OHMM            1.8:   Rmc
 MCST.F                52:   Rmc Meas. temp.
 MFSS.               MEAS:   Source Rmf.
 RMB .OHMM           5.06:   Rm. at BHT
 BHT .F               128:   BHT.
 TCS .HRS               8:   Time Circ. stopped
 MRT .F               128:   Maximum recorded temp.
 LUN .               9685:   Logging unit number
 LUL .             CASPER:   Logging unit location
 ENGI.        KEIN/JOINER:   Recorded By
 WITN.        J. DINSMORE:   Witnessed by
 ORIG.           5" PRINT:   Origin of data
 UWI .     49025107690000:   Unique Well ID
 DICO. A2D TECHNOLOGIES, INC.:   Digitizing Company
 DAPD.F                10:   Feet Above Permanent Datum
 BSD1.F              4200:   Depth drilled with bit1
 MCSS.               MEAS:   Source Rmc.
 EPD .F              5098:   Elevation Permanent Datum
 LMF .                 KB:   Log Measured From
 DMF .                 KB:   Drilling Measured From
 TLI .F               500:   Top log interval
~OTHER INFORMATION
~A   DEPT     TENR        SPR        SFL        ILD        ILM        TEND        CALD       GRD        CORR       NPHI       RHOB 
# ...
 3674.0000  1537.4910   -43.8420     2.8120     2.4720     2.3680  1701.3320     8.3440   182.3600     0.0350     0.2990     2.3950
 3674.5000  1537.5310   -43.8560     3.8460     2.4720     2.3390  1701.5950     8.3480   185.3470     0.0310     0.2990     2.4040
 3675.0000  1537.5720   -43.8700     3.7760     2.5530     2.3490  1701.8571     8.3510   186.6900     0.0330     0.2990     2.4020
 3675.5000  1537.6121   -43.8850     3.6490     2.6210     2.3730  1702.1200     8.3550   184.0520     0.0420     0.2990     2.4040
 3676.0000  1537.6520   -43.8990     3.4780     2.6610     2.3980  1702.3820     8.3590   180.6690     0.0490     0.2990     2.3700
 3676.5000  1537.6930   -43.9130     3.1990     2.6610     2.4230  1702.6450     8.3620   183.1390     0.0000     0.2990     2.3800
 3677.0000  1537.7330   -43.9270     3.3520     2.6610     2.4470  1702.9070     8.3660   184.5090    -0.0120     0.2990     2.4110
 3677.5000  1537.7740   -43.9420     3.5730     2.6610     2.4720  1703.1700     8.3690   183.8620    -0.0140     0.2990     2.4300
 3678.0000  1537.8140   -43.9560     3.2590     2.6610     2.4970  1703.4320     8.3730   182.0200    -0.0050     0.2990     2.4290
 3678.5000  1537.8540   -43.9700     2.8120     2.6680     2.5210  1703.6949     8.3760   179.8360     0.0030     0.2990     2.4380
 3679.0000  1537.8950   -43.9840     3.0230     2.6990     2.5460  1703.9570     8.3800   181.5060     0.0030     0.2990     2.4240
 3679.5000  1537.9351   -43.9990     3.3190     2.7310     2.5650  1704.2200     8.3750   183.9890     0.0110     0.2990     2.4000
 3680.0000  1537.9750   -44.0140     3.5650     2.7610     2.5760  1704.4821     8.3710   185.2530     0.0220     0.2990     2.3870
 3680.5000  1538.0160   -44.0180     3.8940     2.7280     2.5890  1704.7450     8.3670   186.2790     0.0350     0.2990     2.3510
 3681.0000  1538.0560   -43.9940     3.4970     2.6970     2.6090  1705.0070     8.3620   189.1660     0.0480     0.2990     2.3440
 3681.5000  1538.0970   -43.9710     3.1990     2.6610     2.5650  1705.2700     8.3580   193.0790     0.0490     0.2990     2.3270
 3682.0000  1538.1370   -43.9470     3.5080     2.5940     2.5000  1705.5320     8.3540   195.1310     0.0320     0.2990     2.3370
 3682.5000  1538.1770   -43.9230     3.2450     2.5160     2.4230  1705.7950     8.3490   195.7850     0.0490     0.2990     2.3540
 3683.0000  1538.2180   -43.8990     2.8440     2.4370     2.3390  1706.0570     8.3450   197.0020     0.0670     0.2990     2.3510
 3683.5000  1538.2581   -43.8750     2.5650     2.3590     2.2300  1706.3199     8.3410   202.7220     0.0700     0.2990     2.3510
 3684.0000  1538.2990   -43.8510     3.0590     2.2800     2.1270  1706.5820     8.3560   203.2790     0.0640     0.2990     2.3510
 3684.5000  1538.3390   -43.8280     2.8910     2.1710     2.0240  1706.8450     8.3740   193.5660     0.0610     0.2990     2.3660
 3685.0000  1538.3790   -43.8040     2.0560     2.0480     1.9220  1707.1071     8.3920   183.4870     0.0840     0.2860     2.3770
 3685.5000  1538.4200   -43.7800     1.9100     1.9100     1.8070  1707.3700     8.4110   180.1750     0.1110     0.2810     2.3670
 3686.0000  1538.4600   -43.7560     2.0060     1.9530     1.8840  1707.6320     8.4210   182.7060     0.0960     0.2750     2.3630
 3686.5000  1538.5010   -43.7320     2.2560     2.0410     1.9700  1707.8950     8.4200   185.1030     0.0640     0.2760     2.3980
 3687.0000  1538.5410   -43.7080     2.8120     2.1290     2.0570  1708.1570     8.4200   187.5890     0.0600     0.2780     2.4480
 3687.5000  1538.5811   -43.6850     2.7900     2.2170     2.1430  1708.4200     8.4200   188.9290     0.0700     0.2780     2.4550
 3688.0000  1538.6219   -43.6610     2.7610     2.2960     2.2290  1708.6820     8.4200   189.6620     0.1040     0.2780     2.4380
 3688.5000  1538.6620   -43.6360     3.0000     2.5260     2.3160  1708.9449     8.4250   190.4680     0.1080     0.2810     2.3890
 3689.0000  1538.7030   -43.6250     3.3400     2.7100     2.4020  1709.2070     8.4400   190.7040     0.1180     0.2880     2.3600
 3689.5000  1538.7430   -43.6260     3.7070     2.7460     2.4890  1709.4700     8.4550   190.3900     0.1270     0.2920     2.3360
 3690.0000  1538.7830   -43.6250     3.6010     2.7610     2.5650  1709.7321     8.4710   190.1180     0.1230     0.2930     2.3130
 3690.5000  1538.8240   -43.6250     3.3810     2.6890     2.5650  1709.9950     8.4860   189.8640     0.1150     0.2930     2.3060
 3691.0000  1538.8640   -43.6260     3.3330     2.6240     2.5650  1710.2620     8.4990   189.6110     0.1190     0.2970     2.2890
 3691.5000  1538.9050   -43.6250     3.1150     2.5600     2.5180  1710.2620     8.5010   189.2230     0.1210     0.3050     2.2490
 3692.0000  1538.9449   -43.6250     2.8340     2.4950     2.4250  1710.2620     8.4960   190.1920     0.1210     0.3080     2.2230
 3692.5000  1538.9850   -43.6250     2.7420     2.4270     2.3380  1710.2620     8.5390   192.8840     0.0960     0.3030     2.2440
 3693.0000  1539.0260   -43.6250     2.7170     2.3550     2.2510  1710.2620     8.6700   195.7880     0.0710     0.2960     2.2890
 3693.5000  1539.0660   -43.6250     2.5560     2.2800     2.1650  1710.2620     8.7420   199.0180     0.0440     0.2890     2.3410
 3694.0000  1539.1071   -43.6250     2.3480     2.2040     2.0780  1710.2620     8.6430   204.4560     0.0240     0.2830     2.3930
 3694.5000  1539.1470   -43.6250     2.1330     2.1280     2.0500  1710.2620     8.5430   208.6380     0.0100     0.2760     2.4110
 3695.0000  1539.1870   -43.6250     2.1700     2.0850     2.0420  1710.2620     8.4960   213.0470     0.0020     0.2710     2.4000
 3695.5000  1539.2280   -43.6250     2.2350     2.0670     2.0340  1710.2620     8.5010   217.3470     0.0030     0.2660     2.3930
 3696.0000  1539.2679   -43.6250     2.3000     2.0500     2.0270  1710.2620     8.5000   221.7270     0.0080     0.2610     2.3840
 3696.5000  1539.3080   -43.6250     2.3660     2.0330     2.0190  1710.2620     8.5000   227.7050     0.0120     0.2600     2.3700
 3697.0000  1539.3490   -43.6250     2.4310     2.0190     2.0190  1710.2620     8.5000   236.3850     0.0180     0.2600     2.3590
 3697.5000  1539.3890   -43.6250     2.4720     1.9830     1.9290  1710.2620     8.5000   244.9850     0.0180     0.2610     2.3580
 3698.0000  1539.4301   -43.6260     2.4720     1.9380     1.8520  1710.2620     8.5000   253.7240     0.0150     0.2650     2.3580
 3698.5000  1539.4700   -43.6260     2.3430     1.8820     1.7760  1710.2620     8.5000   261.5120     0.0180     0.2660     2.3490
 3699.0000  1539.5100   -43.6250     2.1260     1.8080     1.6990  1710.2620     8.5000   264.3970     0.0190     0.2650     2.3280
 3699.5000  1539.5510   -43.6260     1.9090     1.7350     1.6230  1710.2620     8.5000   261.6400     0.0210     0.2690     2.3140
 3700.0000  1539.5909   -43.6250     1.6480     1.6620     1.5310  1710.2620     8.5000   248.6660     0.0270     0.2720     2.3210
 3700.5000  1539.6320   -43.6250     1.5890     1.6180     1.5620  1710.2620     8.5000   241.2590     0.0330     0.2780     2.3470
 3701.0000  1539.6720   -43.6260     1.6160     1.6480     1.6010  1710.2620     8.5000   205.4790     0.0390     0.2800     2.3530
 3701.5000  1539.7120   -43.6170     1.7420     1.6780     1.6390  1710.2620     8.5020   194.1020     0.0440     0.2830     2.3330
 3702.0000  1539.7531   -43.5950     2.1270     1.7080     1.6780  1710.2620     8.5320   187.3770     0.0470     0.2870     2.3280
 3702.5000  1539.7930   -43.5730     2.3390     1.7380     1.7170  1710.2620     8.5630   188.1730     0.0320     0.2900     2.3330
 3703.0000  1539.8340   -43.5510     2.1710     1.7670     1.7550  1710.2620     8.5950   187.3300     0.0500     0.2920     2.3050
 3703.5000  1539.8740   -43.5300     2.0190     1.7970     1.8070  1710.2620     8.6270   187.6290     0.0670     0.2960     2.2800
 3704.0000  1539.9139   -43.5080     2.0660     1.8070     1.7970  1710.2620     8.6580   187.6030     0.0910     0.2980     2.2660
