~VERSION INFORMATION
 VERS.                2.0:   CWLS LOG ASCII STANDARD - VERSION 2.0
 WRAP.                 NO:   ONE LINE PER DEPTH STEP
~WELL INFORMATION
#MNEM.UNIT      DATA TYPE    INFORMATION
#----------   ------------   ------------------------------
 STRT.F            7.0000:   START DEPTH
 STOP.F         3304.0000:   STOP DEPTH
 STEP.F            0.5000:   STEP LENGTH
 NULL.          -999.2500:   NO VALUE
 COMP. LAWRENCE ALLISON ASSOC. WEST:   COMPANY
 WELL. LAWRENCE NPR  "X" #18-2:   WELL
 FLD .              N P R:   FIELD
 LOC .       S2 T38N R78W:   LOCATION
 CNTY.            NATRONA:   COUNTY
 STAT.            WYOMING:   STATE
 CTRY. UNITED STATES OF AMERICA:   COUNTRY
 SRVC.      DRESSER ATLAS:   SERVICE COMPANY
 DATE.        28-APR-1986:   LOGDATE
 API .     49025110710000:   API NUMBER
~CURVE INFORMATION
#MNEM.UNIT       API CODE    CURVE DESCRIPTION
#----------   ------------   ------------------------------
 DEPT.F                  :   
 TEND.LBS    45 635 01 00:   TENSION FROM DENSITY LOG
 DEN .G/C3   45 635 01 00:   DENSITY
 CORR.G/C3   45 356 01 00:   DENSITY CORRECTION
 CNC .DEC    42 890 03 00:   NEUTRON PORISITY SANDSTONE
 TENR.LBS    07 635 01 00:   TENSION FROM RESISTIVITY
 CALR.IN     07 280 01 00:   CALIPER FROM RESISTIVITY
 SPR .MV     07 010 01 00:   SPONTANEOUS POTENTIAL
 GRR .GAPI   07 310 01 00:   GAMMA RAY FROM RESISTIVITY
 RFOC.OHMM   07 220 04 00:   RESISTIVITY FOCUSED LOG RES.
 RILD.OHMM   07 120 46 00:   DEEP INDUCTION RESISTIVITY
 RILM.OHMM   07 120 44 00:   INDUCTION LOG MEDIUM RESISTIVITY
 TENS.LBS    60 635 01 00:   TENSION
 AC  .US/F   60 250 00 00:   ACCOUSTIC
~PARAMETER INFORMATION
#MNEM.UNIT          VALUE    DESCRIPTION
#----------   ------------   ------------------------------
 EKB .F         5142.0000:   Kelly bushing
 EGL .F         5130.0000:   Ground level
 EDF .F            0.0000:   Drilling floor
 EPD .F         5130.0000:   Permanent datum
 TD  .F         3296.0000:   Total depth
 DATE.        28-APR-1986:   Date logged
 CLNT.            A2DTECH:   Client Code
 SL  . 210' FSL & 204' FWL:   Surface Location
 PD  .                 GL:   Permanent Datum
 DD  .F              3295:   Depth driller
 DL  .F              3290:   Depth logger
 BLI .F              3296:   Bottom log interval
 CS1 .IN            8.625:   Casing size
 CBD1.      8.625" @ 563':   Casing driller 1
 CBL1.F               560:   Casing logger 1
 BS1 .IN            7.875:   Bit size
 BSD1.F              3295:   Depth drilled with bit1
 DFT .        POLYMER KCL:   Type fluid in hole
 DFD .                8.9:   Density
 DFV .                 38:   Viscosity
 DFPH.                8.5:   pH
 DFL .                9.2:   Fluid loss
 MSS .           FLOWLINE:   Source of sample
 RMS .OHMM           .435:   Rm
 MST .F                74:   Rm Meas. temp.
 RMF .OHMM            .33:   Rmf
 MFST.F                74:   Rmf Meas. temp.
 RMC .OHMM            .54:   Rmc
 MCST.F                74:   Rmc Meas. temp.
 MFSS.               CALC:   Source Rmf.
 MCSS.               CALC:   Source Rmc.
 RMB .OHMM            .77:   Rm. at BHT
 BHT .F               119:   BHT.
 TCS .HRS               4:   Time Circ. stopped
 MRT .F               119:   Maximum recorded temp.
 LUN .            HL 6264:   Logging unit number
 LUL .           GILLETTE:   Logging unit location
 ENGI.      P.M. FAHLSING:   Recorded By
 WITN.             STRONG:   Witnessed by
 ORIG.         2.5" PRINT:   Origin of data
 UWI .     49025110710000:   Unique Well ID
 DICO. A2D TECHNOLOGIES, INC.:   Digitizing Company
 DAPD.                 12:   Feet Above Permanent Datum
~OTHER INFORMATION
~A    DEPT    TEND        DEN       CORR        CNC       TENR       CALR        SPR         GRR      RFOC       RILD       RILM       TENS         AC   
# ...
  761.0000  -999.2500  -999.2500  -999.2500  -999.2500   -83.3330    11.1980   -18.7840    89.4020     6.7860     6.1280     6.1280  -999.2500  -999.2500
  761.5000  -999.2500  -999.2500  -999.2500  -999.2500   -83.3330    11.2310   -18.4070    90.9090     6.8150     6.1280     6.0590  -999.2500  -999.2500
  762.0000  -999.2500  -999.2500  -999.2500  -999.2500   -83.3330    11.2630   -18.0540    94.2630     6.8290     6.1280     5.9570  -999.2500  -999.2500
  762.5000  -999.2500  -999.2500  -999.2500  -999.2500   -83.3330    11.2960   -17.6760    98.5900     6.7580     6.1280     5.8550  -999.2500  -999.2500
  763.0000  -999.2500  -999.2500  -999.2500  -999.2500   -83.3330    11.3280   -17.3140    98.9380     6.5170     6.1280     5.7530  -999.2500  -999.2500
  763.5000  -999.2500  -999.2500  -999.2500  -999.2500   -83.3330    11.3610   -16.9480   102.1760     6.2770     6.1280     5.6500  -999.2500  -999.2500
  764.0000  -999.2500  -999.2500  -999.2500  -999.2500   -83.3330    11.3940   -16.5590   104.9110     6.0360     6.1280     5.5480  -999.2500  -999.2500
  764.5000  -999.2500  -999.2500  -999.2500  -999.2500   -83.3330    11.4250   -16.2540   102.8220     5.7960     6.1280     5.4000  -999.2500  -999.2500
  765.0000  -999.2500  -999.2500  -999.2500  -999.2500   -83.3330    11.4510   -16.1250    98.6370     5.5560     6.1280     5.4910  -999.2500  -999.2500
  765.5000  -999.2500  -999.2500  -999.2500  -999.2500   -83.3330    11.3840   -15.9750    94.2390     5.4000     6.1280     5.6540  -999.2500  -999.2500
  766.0000  -999.2500  -999.2500  -999.2500  -999.2500   -83.3330    11.2910   -16.3710    92.4000     5.6520     6.1280     5.8170  -999.2500  -999.2500
  766.5000  -999.2500  -999.2500  -999.2500  -999.2500   -83.3330    11.1980   -16.7980    94.0640     6.0890     6.1280     5.9810  -999.2500  -999.2500
  767.0000  -999.2500  -999.2500  -999.2500  -999.2500   -83.3330    11.1080   -17.2420    96.2220     6.5250     6.1280     6.1440  -999.2500  -999.2500
  767.5000  -999.2500  -999.2500  -999.2500  -999.2500   -83.3330    11.0130   -17.6760    96.8800     6.9540     6.1280     6.2390  -999.2500  -999.2500
  768.0000  -999.2500  -999.2500  -999.2500  -999.2500   -83.3330    10.9780   -18.1090    95.4880     6.9080     6.1280     6.2390  -999.2500  -999.2500
  768.5000  -999.2500  -999.2500  -999.2500  -999.2500   -83.3330    10.9810   -18.5480    94.6960     6.7110     6.1280     6.2130  -999.2500  -999.2500
  769.0000  -999.2500  -999.2500  -999.2500  -999.2500   -83.3330    10.9830   -18.7840    96.2170     6.5140     6.1280     6.1820  -999.2500  -999.2500
  769.5000  -999.2500  -999.2500  -999.2500  -999.2500   -83.3330    10.9850   -18.9080    98.5740     6.3170     6.1280     6.1510  -999.2500  -999.2500
  770.0000  -999.2500  -999.2500  -999.2500  -999.2500   -83.3330    10.9870   -19.0370   100.8720     6.1190     6.1280     5.9100  -999.2500  -999.2500
  770.5000  -999.2500  -999.2500  -999.2500  -999.2500   -83.3330    10.9890   -19.0970   102.2310     6.0180     6.1270     5.9100  -999.2500  -999.2500
  771.0000  -999.2500  -999.2500  -999.2500  -999.2500   -83.3330    10.9920   -19.1140   100.0670     6.0180     6.1260     5.9180  -999.2500  -999.2500
  771.5000  -999.2500  -999.2500  -999.2500  -999.2500   -83.3330    10.9940   -18.8750    96.6470     6.0180     6.1470     5.9300  -999.2500  -999.2500
  772.0000  -999.2500  -999.2500  -999.2500  -999.2500   -83.3330    10.9960   -18.3790    93.5820     6.0290     6.1890     5.9410  -999.2500  -999.2500
  772.5000  -999.2500  -999.2500  -999.2500  -999.2500   -83.3330    10.9990   -17.9100    91.2140     6.0430     6.2310     5.9520  -999.2500  -999.2500
  773.0000  -999.2500  -999.2500  -999.2500  -999.2500   -83.3330    11.0010   -17.4400    91.9390     6.0580     6.2720     5.9640  -999.2500  -999.2500
  773.5000  -999.2500  -999.2500  -999.2500  -999.2500   -83.3330    11.0030   -16.9670    94.7420     6.0720     6.3130     5.9750  -999.2500  -999.2500
  774.0000  -999.2500  -999.2500  -999.2500  -999.2500   -83.3330    11.0060   -16.4900    96.5920     6.0870     6.3540     5.9860  -999.2500  -999.2500
  774.5000  -999.2500  -999.2500  -999.2500  -999.2500   -83.3330    11.0080   -16.0240    96.4420     6.1010     6.3960     5.9980  -999.2500  -999.2500
  775.0000  -999.2500  -999.2500  -999.2500  -999.2500   -83.3330    11.0100   -15.5740    96.5110     6.1160     6.4370     6.0150  -999.2500  -999.2500
  775.5000  -999.2500  -999.2500  -999.2500  -999.2500   -83.3330    11.0120   -15.5630    97.8280     6.1270     6.4560     6.0070  -999.2500  -999.2500
  776.0000  -999.2500  -999.2500  -999.2500  -999.2500   -83.3330    11.0150   -15.5130    99.0730     6.0800     6.3920     5.9520  -999.2500  -999.2500
  776.5000  -999.2500  -999.2500  -999.2500  -999.2500   -83.3330    11.0170   -15.8730    99.5530     6.0220     6.3290     5.8980  -999.2500  -999.2500
  777.0000  -999.2500  -999.2500  -999.2500  -999.2500   -83.3330    11.0190   -16.4830    95.8200     5.9640     6.2660     5.8450  -999.2500  -999.2500
  777.5000  -999.2500  -999.2500  -999.2500  -999.2500   -83.3330    11.0220   -17.0460    92.4840     5.9050     6.2020     5.8050  -999.2500  -999.2500
  778.0000  -999.2500  -999.2500  -999.2500  -999.2500   -83.3330    11.0240   -17.6170    93.2890     5.8470     6.1390     5.8050  -999.2500  -999.2500
  778.5000  -999.2500  -999.2500  -999.2500  -999.2500   -83.3330    11.0260   -18.1890    94.9460     5.8050     6.0750     5.8050  -999.2500  -999.2500
  779.0000  -999.2500  -999.2500  -999.2500  -999.2500   -83.3330    11.0290   -18.6800    96.3830     5.8270     6.0180     5.8050  -999.2500  -999.2500
  779.5000  -999.2500  -999.2500  -999.2500  -999.2500   -83.3330    11.0310   -18.6950    96.5240     5.8720     6.0740     5.8050  -999.2500  -999.2500
  780.0000  -999.2500  -999.2500  -999.2500  -999.2500   -83.3330    11.0330   -18.7160    95.3060     5.9170     6.1250     5.8050  -999.2500  -999.2500
  780.5000  -999.2500  -999.2500  -999.2500  -999.2500   -83.3330    11.0350   -18.5940    92.6790     5.9620     6.1760     5.8050  -999.2500  -999.2500
  781.0000  -999.2500  -999.2500  -999.2500  -999.2500   -83.3330    11.0380   -18.2580    92.7320     6.0070     6.2260     5.8070  -999.2500  -999.2500
  781.5000  -999.2500  -999.2500  -999.2500  -999.2500   -83.3330    11.0400   -17.9310    95.3030     6.0180     6.2390     5.8010  -999.2500  -999.2500
  782.0000  -999.2500  -999.2500  -999.2500  -999.2500   -83.3330    11.0420   -17.5970    97.2770     6.0180     6.2390     5.7980  -999.2500  -999.2500
  782.5000  -999.2500  -999.2500  -999.2500  -999.2500   -83.3330    11.0450   -17.2640    97.1100     6.0100     6.2390     5.9210  -999.2500  -999.2500
  783.0000  -999.2500  -999.2500  -999.2500  -999.2500   -83.3330    11.0470   -16.9310    96.4500     5.9890     6.2390     5.9040  -999.2500  -999.2500
  783.5000  -999.2500  -999.2500  -999.2500  -999.2500   -83.3330    11.0490   -16.5990    98.5840     5.9680     6.2390     5.9210  -999.2500  -999.2500
  784.0000  -999.2500  -999.2500  -999.2500  -999.2500   -83.3330    11.0510   -16.2680    99.3140     5.9470     6.2390     5.9510  -999.2500  -999.2500
  784.5000  -999.2500  -999.2500  -999.2500  -999.2500   -83.3330    11.0540   -15.9310   100.4130     5.9260     6.2390     5.9770  -999.2500  -999.2500
  785.0000  -999.2500  -999.2500  -999.2500  -999.2500   -83.3330    11.0560   -15.6060    99.0310     5.9140     6.2390     6.0040  -999.2500  -999.2500
  785.5000  -999.2500  -999.2500  -999.2500  -999.2500   -83.3330    11.0590   -15.2710    96.5380     5.9280     6.2400     6.0310  -999.2500  -999.2500
  786.0000  -999.2500  -999.2500  -999.2500  -999.2500   -83.3330    11.0560   -15.1270    94.9500     5.9420     6.2390     6.0590  -999.2500  -999.2500
  786.5000  -999.2500  -999.2500  -999.2500  -999.2500   -83.3330    11.0510   -15.3870    94.8930     5.9560     6.2460     6.0860  -999.2500  -999.2500
