~VERSION INFORMATION
 VERS.                2.0:   CWLS LOG ASCII STANDARD - VERSION 2.0
 WRAP.                 NO:   ONE LINE PER DEPTH STEP
~WELL INFORMATION
#MNEM.UNIT      DATA TYPE    INFORMATION
#----------   ------------   ------------------------------
 STRT.F            0.0000:   START DEPTH
 STOP.F         3205.0000:   STOP DEPTH
 STEP.F            0.5000:   STEP LENGTH
 NULL.          -999.2500:   NO VALUE
 COMP. LAWRENCE-ALLISON AND ASSOCIATES:   COMPANY
 WELL. LAWRENCE "X" #64-28:   WELL
 FLD .          N.P.R. #3:   FIELD
 LOC .      S28 T39N R78W:   LOCATION
 CNTY.            NATRONA:   COUNTY
 STAT.            WYOMING:   STATE
 CTRY. UNITED STATES OF AMERICA:   COUNTRY
 SRVC.      DRESSER ATLAS:   SERVICE COMPANY
 DATE.        25-MAY-1986:   LOGDATE
 API .     49025110730000:   API NUMBER
~CURVE INFORMATION
#MNEM.UNIT       API CODE    CURVE DESCRIPTION
#----------   ------------   ------------------------------
 DEPT.F                  :   
 GRR .GAPI   07 310 01 00:   GAMMA RAY FROM RESISTIVITY
 SPR .MV     07 010 01 00:   SPONTANEOUS POTENTIAL
 RILD.OHMM   07 120 46 00:   DEEP INDUCTION RESISTIVITY
 RILM.OHMM   07 120 44 00:   INDUCTION LOG MEDIUM RESISTIVITY
 RSFL.OHMM   07 221 01 00:   AMPPLIFIED SHALLOW FOCUSED LOG RESISTIVITY
 TENR.LBS    07 635 01 00:   TENSION FROM RESISTIVITY
 CNC .DEC    42 890 03 00:   NEUTRON POROSITY SANDSTONE
 CALD.IN     45 280 60 00:   CALIPER FROM DENSITY LOG
 DEN .G/C3   45 350 01 00:   BULK DENSITY
 CORR.G/C3   45 356 01 00:   DENSITY CORRECTION
 TEND.LBS    45 635 01 00:   TENSION FROM DENSITY LOG
~PARAMETER INFORMATION
#MNEM.UNIT          VALUE    DESCRIPTION
#----------   ------------   ------------------------------
 EKB .F         5070.0000:   Kelly bushing
 EGL .F         5058.0000:   Ground level
 TD  .F         3205.0000:   Total depth
 DATE.        25-MAY-1986:   Date logged
 CLNT.            A2DTECH:   Client Code
 SL  . 2248' FNL & 1636' FEL:   Surface Location
 PD  .                 GL:   Permanent Datum
 EPD .F              5058:   Elevation Permanent Datum
 LMF .                 KB:   Log Measured From
 DMF .                 KB:   Drilling Measured From
 DAPD.F                12:   Feet Above Permanent Datum
 DD  .F              3205:   Depth driller
 DL  .F              3203:   Depth logger
 BLI .F              3201:   Bottom log interval
 CS1 .IN            8.625:   Casing size
 CBD1.      8.625" @ 476':   Casing driller 1
 CBL1.F               478:   Casing logger 1
 BS1 .IN            7.875:   Bit size
 BSD1.F              3205:   Depth drilled with bit1
 DFT .        POLYMER-KCL:   Type fluid in hole
 DFD .                  9:   Density
 DFV .                 37:   Viscosity
 DFPH.                8.5:   pH
 DFL .                 10:   Fluid loss
 MSS .           FLOWLINE:   Source of sample
 RMS .OHMM           0.31:   Rm
 MST .F                69:   Rm Meas. temp.
 RMF .OHMM           0.25:   Rmf
 MFST.F                69:   Rmf Meas. temp.
 RMC .OHMM           0.39:   Rmc
 MCST.F                69:   Rmc Meas. temp.
 MFSS.               MEAS:   Source Rmf.
 MCSS.               CALC:   Source Rmc.
 RMB .OHMM           0.19:   Rm. at BHT
 BHT .F               115:   BHT.
 TCS .HRS               4:   Time Circ. stopped
 MRT .F               115:   Maximum recorded temp.
 LUN .            HL-6274:   Logging unit number
 LUL .           GILLETTE:   Logging unit location
 ENGI.             RAUTIO:   Recorded By
 WITN.             STRONG:   Witnessed by
 ORIG.           5" PRINT:   Origin of data
 UWI .     49025110730000:   Unique Well ID
 DICO. A2D TECHNOLOGIES, INC.:   Digitizing Company
~OTHER INFORMATION
~A    DEPT     GRR        SPR       RILD       RILM       RSFL       TENR        CNC       CALD        DEN       CORR       TEND   
# ...
 2470.5000   105.1710   -51.8540     6.4400     6.2690     7.6540    30.5720     0.2870    10.9620     2.5530     0.0350   -75.0090
 2471.0000   102.9160   -51.7020     6.4690     6.2870     7.4720    27.7670     0.2720    10.9720     2.5610     0.0490   -79.6370
 2471.5000   102.1870   -51.5430     6.4860     6.3060     7.3200    24.9610     0.2650    10.9620     2.5680     0.0720   -82.8500
 2472.0000   101.9270   -51.3610     6.4860     6.3250     7.1670    22.1560     0.2600    10.9510     2.5710     0.0720   -76.4870
 2472.5000   103.2040   -51.2180     6.4860     6.3430     7.2190    19.3500     0.2680    10.9400     2.5670     0.0420   -70.1230
 2473.0000   103.0360   -51.2820     6.4860     6.3620     7.3900    16.5450     0.2790    10.9470     2.5620     0.0510   -63.5080
 2473.5000   103.5920   -51.4030     6.4860     6.4150     7.5840    14.4710     0.2860    10.9550     2.5570     0.0580   -68.9400
 2474.0000   106.2630   -51.4890     6.5550     6.4860     7.4840     7.3960     0.2760    10.9640     2.5530     0.0520   -74.5970
 2474.5000   107.2570   -51.5860     6.6570     6.5570     7.3690     1.7850     0.2790    10.9730     2.5530     0.0040   -80.2530
 2475.0000   105.9120   -51.6960     6.7290     6.6070     7.2430    -5.4890     0.2940    10.9850     2.5540     0.0120   -85.9090
 2475.5000   102.9560   -51.7930     6.5350     6.3980     7.3770     0.4320     0.3040    11.0110     2.5540     0.0350   -91.5660
 2476.0000   101.4560   -51.7670     6.3840     6.2380     7.5250     8.8490     0.2780    11.0130     2.5470     0.0550   -81.2500
 2476.5000   104.3680   -51.6950     6.1950     6.0770     7.6540    17.2650     0.2470    11.0000     2.5390     0.0140   -75.8570
 2477.0000   108.2330   -51.6480     6.1600     5.9540     7.4470    24.4510     0.2500    11.0420     2.5330     0.0010   -79.4930
 2477.5000   110.5840   -51.5900     6.1120     5.9020     7.0510    22.0390     0.2720    11.0710     2.5270    -0.0080   -83.1290
 2478.0000   113.4270   -51.5310     6.0620     5.8510     6.6550    19.9350     0.2760    11.0240     2.5210     0.0130   -86.7660
 2478.5000   115.9890   -51.4780     6.0060     5.8090     6.2520    17.8310     0.2700    11.0030     2.5140     0.0370   -90.4020
 2479.0000   114.7670   -51.4220     5.9240     5.7020     6.4820    15.7270     0.2660    11.0100     2.5150     0.0350   -93.7500
 2479.5000   112.0040   -51.3580     5.8030     5.6110     6.9200    12.4350     0.2600    11.0170     2.5200     0.0320   -89.5240
 2480.0000   112.3680   -51.3200     5.6810     5.5210     7.0210     7.3850     0.2500    11.0270     2.5250     0.0300   -85.6080
 2480.5000   116.1560   -51.2350     5.5600     5.4300     6.6460     2.3350     0.2420    11.0410     2.5170     0.0210   -84.8650
 2481.0000   119.4750   -51.2230     5.4390     5.3210     6.2700    -2.7150     0.2440    11.0500     2.5070     0.0140   -87.2330
 2481.5000   118.4670   -51.5030     5.3180     5.2010     6.2570    -0.9380     0.2470    11.0590     2.5040     0.0110   -89.6010
 2482.0000   118.2000   -51.8360     5.1960     5.0810     6.4270     9.1620     0.2550    11.0350     2.5040     0.0090   -91.9680
 2482.5000   120.1690   -52.0100     5.0610     4.9610     6.0520    19.2610     0.2690    11.0460     2.5060     0.0080   -94.3360
 2483.0000   120.7110   -52.1150     5.0310     4.9230     5.7010    20.9440     0.2720    11.0910     2.5040     0.0030   -96.7040
 2483.5000   121.8490   -52.1660     5.0610     4.9230     5.3490    13.7300     0.2630    11.1260     2.4930     0.0060   -99.0720
 2484.0000   120.8700   -52.0850     5.2020     5.0380     5.3810     4.4910     0.2530    11.1400     2.4820     0.0150  -101.4390
 2484.5000   116.5070   -51.8790     5.3530     5.2010     6.1350     7.7840     0.2510    11.1540     2.4810     0.0220  -103.8310
 2485.0000   112.0670   -51.6550     5.5170     5.3640     6.6680    14.0970     0.2570    11.1530     2.4920     0.0110   -99.5100
 2485.5000   107.4130   -51.4700     5.6820     5.5270     6.6760    20.4090     0.2540    11.1410     2.5050     0.0050   -95.1470
 2486.0000   103.4050   -51.2300     5.8460     5.6740     6.4860    24.4510     0.2510    11.1300     2.5150    -0.0110   -90.7830
 2486.5000   102.1820   -51.0190     5.9620     5.8070     6.7890    16.6270     0.2590    11.1220     2.5190     0.0050   -86.4200
 2487.0000   103.0220   -51.0570     6.0420     5.9050     7.1110     9.8940     0.2660    11.1290     2.5120    -0.0080   -82.0560
 2487.5000   103.1340   -51.1690     6.1210     5.9780     7.5140     4.4910     0.2640    11.1360     2.5040    -0.0190   -77.6930
 2488.0000   102.5840   -51.1250     6.2010     6.0510     7.2630    10.5390     0.2510    11.1450     2.5020    -0.0190   -73.5890
 2488.5000   104.0110   -50.9860     6.2800     6.1250     7.0110    15.5890     0.2380    11.1560     2.5100    -0.0050   -82.5770
 2489.0000   106.6220   -50.8270     6.3020     6.1950     6.8430    20.6390     0.2380    11.1660     2.5190     0.0020   -91.0620
 2489.5000   103.6390   -50.6800     6.2880     6.1790     6.7290    24.4510     0.2550    11.1770     2.5260     0.0110   -94.8370
 2490.0000    98.0530   -50.5990     6.2750     6.1640     6.8820    21.8310     0.2610    11.1880     2.5290     0.0340   -96.4280
 2490.5000    99.7690   -50.6050     6.2620     6.1480     7.0460    19.7270     0.2530    11.1980     2.5260     0.0480   -98.0190
 2491.0000   105.4850   -50.5970     6.2520     6.1330     7.0840    17.6230     0.2540    11.2090     2.5200     0.0500   -99.6090
 2491.5000   110.2250   -50.6060     6.3100     6.1170     7.1290    15.5190     0.2550    11.2200     2.5170     0.0250  -101.2000
 2492.0000   112.7160   -50.7540     6.3530     6.1020     7.1770    13.4150     0.2550    11.2100     2.5180     0.0000  -102.7910
 2492.5000   111.8990   -50.9080     6.4150     6.0820     6.9910    11.3110     0.2480    11.1990     2.5220    -0.0170   -99.4200
 2493.0000   110.1680   -51.0320     6.4760     6.1480     6.7860     9.2070     0.2410    11.1880     2.5280     0.0130   -86.6940
 2493.5000   108.3110   -51.1930     6.5370     6.2390     6.5820     7.1020     0.2390    11.1760     2.5340     0.0430   -73.9670
 2494.0000   106.0850   -51.3080     6.5990     6.3300     6.3680     4.4910     0.2430    11.1650     2.5400     0.0550   -65.3230
 2494.5000   103.9110   -51.4780     6.6600     6.4210     6.8120     1.0070     0.2590    11.1670     2.5360     0.0450   -75.5040
 2495.0000   101.1580   -51.5890     6.7220     6.5120     7.3770    -3.5840     0.2620    11.1790     2.5330     0.0250   -85.6850
 2495.5000    98.5280   -51.3940     6.7830     6.6030     7.4830    -8.1750     0.2590    11.1900     2.5370     0.0260   -95.8670
 2496.0000    98.0440   -51.1560     6.8450     6.6940     7.6180   -12.7650     0.2520    11.2020     2.5400     0.0370  -103.8310
 2496.5000    98.4430   -50.9470     6.9180     6.7290     7.7240   -15.4690     0.2540    11.2140     2.5430     0.0460  -101.4160
 2497.0000    98.8600   -50.7210     6.8650     6.7290     7.5910    -7.1130     0.2610    11.2080     2.5380     0.0200   -99.0480
 2497.5000    99.6790   -50.6960     6.7920     6.6370     7.4810    -0.2270     0.2660    11.1810     2.5310     0.0060   -96.6800
 2498.0000    98.9300   -50.8830     6.6900     6.4900     7.3770     6.6590     0.2630    11.1800     2.5260     0.0210   -94.3120
 2498.5000    98.8610   -51.1130     6.5690     6.3430     7.1540    14.4710     0.2630    11.1800     2.5340     0.0330   -91.9430
 2499.0000   100.7800   -51.0420     6.4480     6.1960     6.9410     8.7740     0.2650    11.1810     2.5410     0.0360   -89.5750
 2499.5000   102.7670   -50.8260     6.3280     6.0490     6.7280     2.1920     0.2670    11.2120     2.5470     0.0390   -87.2070
 2500.0000   106.9740   -50.9170     6.1950     5.9170     6.5160    -4.3900     0.2670    11.2010     2.5460     0.0420   -84.8390
 2500.5000   109.8620   -51.0810     6.0700     5.8090     6.3680   -10.9720     0.2640    11.1740     2.5450     0.0590   -86.2500
