~VERSION INFORMATION
 VERS.                2.0:   CWLS LOG ASCII STANDARD - VERSION 2.0
 WRAP.                 NO:   ONE LINE PER DEPTH STEP
~WELL INFORMATION
#MNEM.UNIT      DATA TYPE    INFORMATION
#----------   ------------   ------------------------------
 STRT.F           60.0000:   START DEPTH
 STOP.F         3178.0000:   STOP DEPTH
 STEP.F            0.5000:   STEP LENGTH
 NULL.          -999.2500:   NO VALUE
 COMP. LAWRENCE-ALLISON & ASSOSCIATES:   COMPANY
 WELL. LAWRENCE "AX" #46-21:   WELL
 FLD .             NPR #3:   FIELD
 LOC .      S21 T39N R78W:   LOCATION
 CNTY.            NATRONA:   COUNTY
 STAT.            WYOMING:   STATE
 CTRY. UNITED STATES OF AMERICA:   COUNTRY
 SRVC.       SCHLUMBERGER:   SERVICE COMPANY
 DATE.        03-JUN-1982:   LOGDATE
 API .     49025108890000:   API NUMBER
~CURVE INFORMATION
#MNEM.UNIT       API CODE    CURVE DESCRIPTION
#----------   ------------   ------------------------------
 DEPT.F                  :   
 TEND.LBS    45 635 01 00:   TENSION FORM DENSITY LOG
 CALD.IN     45 280 60 00:   CALIPER FROM DENSITY LOG
 CORR.G/C3   45 356 01 00:   DENSITY CORRECTION
 RHOB.G/C3   45 350 01 00:   BULK DENSITY
 NPHI.DEC    42 890 03 00:   NEUTRON POROSITY SANDSTONE
 GRR .GAPI   07 310 01 00:   GAMMA RAY FROM RESISTIVITY
 SPR .MV     07 010 01 00:   SPONTANEOUS POTENTIAL
 SFL .OHMM   07 220 01 00:   SHALLOW FOCUSED LOG RESISTIVITY
 ILD .OHMM   07 120 46 00:   DEEP INDUCTION RESISTIVITY
 ILM .OHMM   07 120 44 00:   INDUCTION LOG MEDIUM RESISTIVITY
 TENR.LBS    07 635 01 00:   TENSION FROM RESISTIVITY
~PARAMETER INFORMATION
#MNEM.UNIT          VALUE    DESCRIPTION
#----------   ------------   ------------------------------
 EKB .F         5008.0000:   Kelly bushing
 EGL .F         4998.0000:   Ground level
 EDF .F         5007.0000:   Drilling floor
 TD  .F         3230.0000:   Total depth
 CLNT.            A2DTECH:   Client Code
 SL  . 1864' FSL & 2484' FWL:   Surface Location
 PD  .                 GL:   Permanent Datum
 EPD .F              4998:   Elevation Permanent Datum
 LMF .                 KB:   Log Measured From
 DMF .                 KB:   Drilling Measured From
 DAPD.F                10:   Feet Above Permanent Datum
 DATE.        03-JUN-1982:   Date Logged [DD-MMM-YYYY]
 DD  .F              3230:   Depth driller
 DL  .F              3200:   Depth logger
 BLI .F              3190:   Bottom log interval
 TLI .F               475:   Top log interval
 CS1 .IN            9.625:   Casing size
 CBD1.      9.625" @ 465':   Casing driller 1
 CBL1.F               475:   Casing logger 1
 BS1 .IN             8.75:   Bit size
 BSD1.F              3230:   Depth drilled with bit1
 DFT .   FORM WATER / AIR:   Type fluid in hole
 TCS .HRS            1530:   Time Circ. stopped
 TLAB.HRS            1900:   Time logger at bottom
 MRT .F               135:   Maximum recorded temp.
 LUN .               8035:   Logging unit number
 LUL .               CSPR:   Logging unit location
 ENGI.              PENNY:   Recorded By
 WITN.           JENNINGS:   Witnessed by
 ORIG.      2.5" 5" PRINT:   Origin of data
 UWI .     49025108890000:   Unique Well ID
 DICO. A2D TECHNOLOGIES, INC.:   Digitizing Company
~OTHER INFORMATION
~A   DEPT     TEND       CALD       CORR       RHOB       NPHI        GRR        SPR        SFL        ILD        ILM       TENR   
# ...
 1890.0000  1742.6799     8.9547    -0.0092     2.4495  -999.2500   210.6818  -999.2500  -999.2500     8.8931     8.9975  1793.9202
 1890.5000  1740.6379     8.9558    -0.0016     2.4562  -999.2500   210.9332  -999.2500  -999.2500     8.8925     8.9969  1793.6326
 1891.0000  1739.0133     8.9571     0.0022     2.4630  -999.2500   212.0702  -999.2500  -999.2500     9.0172     9.1228  1793.3334
 1891.5000  1751.9724     8.9584     0.0030     2.4698  -999.2500   212.9902  -999.2500  -999.2500     9.0165     9.1220  1793.0304
 1892.0000  1749.9304     8.9598     0.0030     2.4744  -999.2500   212.5465  -999.2500  -999.2500     9.0159     9.1214  1792.7273
 1892.5000  1748.1315     8.9611     0.0031     2.4751  -999.2500   206.1937  -999.2500  -999.2500     9.1424     9.2491  1792.4243
 1893.0000  1746.1884     8.9627     0.0024     2.4706  -999.2500   198.9290  -999.2500  -999.2500     9.1417     9.2485  1792.1212
 1893.5000  1744.1178     8.9640     0.0032     2.4713  -999.2500   198.4881  -999.2500  -999.2500     9.1411     9.2478  1761.4595
 1894.0000  1742.3020     8.9652     0.0032     2.4721  -999.2500   201.2262  -999.2500  -999.2500     9.1405     9.2472  1761.1718
 1894.5000  1755.2953     8.9665     0.0033     2.4721  -999.2500   199.7439  -999.2500  -999.2500     9.2688     9.3767  1760.8840
 1895.0000  1753.3632     8.9678     0.0026     2.4676  -999.2500   198.3484  -999.2500  -999.2500     9.2680     9.3760  1760.5964
 1895.5000  1751.3682     8.9691     0.0003     2.4600  -999.2500   197.4076  -999.2500  -999.2500     9.2674     9.3753  1760.3030
 1896.0000  1759.5090     8.9704     0.0004     2.4571  -999.2500   197.7031  -999.2500  -999.2500     9.2667     9.3746  1760.0000
 1896.5000  1762.4812     8.9717     0.0004     2.4624  -999.2500   203.5586  -999.2500  -999.2500     9.2660     9.3739  1759.6969
 1897.0000  1760.5382     8.9732     0.0027     2.4661  -999.2500   208.1149  -999.2500  -999.2500     9.2654     9.3733  1759.3939
 1897.5000  1758.5948     8.9745     0.0065     2.4691  -999.2500   210.8530  -999.2500  -999.2500     9.2647     9.2207  1759.0908
 1898.0000  1756.4193     8.9758    -0.0047     2.4534  -999.2500   212.2275  -999.2500  -999.2500     9.1353     9.0897  1758.7878
 1898.5000  1754.5343     8.9771    -0.0106     2.4406  -999.2500   210.3763  -999.2500  -999.2500     9.1305     8.9612  1758.4387
 1899.0000  1752.6492     8.9784    -0.0114     2.4361  -999.2500   208.6129  -999.2500  -999.2500     9.0071     8.8344  1758.1511
 1899.5000  1750.7640     8.9796    -0.0105     2.4413  -999.2500   213.5615  -999.2500  -999.2500     8.8813     8.8321  1757.8634
 1900.0000  1736.2682     8.9809    -0.0067     2.4489  -999.2500   223.0297  -999.2500  -999.2500     8.8807     8.7072  1757.5757
 1900.5000  1743.9648     8.9660    -0.0022     2.4439  -999.2500   229.1667  -999.2500  -999.2500     8.7566     8.8274  1757.2727
 1901.0000  1751.6614     8.9646    -0.0029     2.4392  -999.2500   230.6940  -999.2500  -999.2500     8.7560     8.8471  1756.9696
 1901.5000  1759.3448     8.9633    -0.0012     2.4490  -999.2500   220.2998  -999.2500  -999.2500     8.8787     8.9805  1756.6666
 1902.0000  1757.8475     8.9619     0.0063     2.4671  -999.2500   203.6124  -999.2500  -999.2500     8.8781     9.1158  1752.4540
 1902.5000  1756.0741     8.9606     0.0102     2.4739  -999.2500   200.0225  -999.2500  -999.2500     9.0027     9.1949  1744.6188
 1903.0000  1754.8582     8.9593     0.0095     2.4672  -999.2500   200.5668  -999.2500  -999.2500     9.1290     9.1924  1736.7834
 1903.5000  1753.3632     8.9451     0.0088     2.4613  -999.2500   201.5197  -999.2500  -999.2500     9.1283     9.1893  1728.9481
 1904.0000  1751.7136     8.9465     0.0066     2.4542  -999.2500   202.6365  -999.2500  -999.2500     9.2564     9.0594  1721.1128
 1904.5000  1750.3737     8.9476    -0.0053     2.4433  -999.2500   203.8802  -999.2500  -999.2500     9.2557     9.0570  1713.2776
 1905.0000  1748.8789     8.9488    -0.0166     2.4253  -999.2500   205.0455  -999.2500  -999.2500     9.2551     9.0545  1705.4423
 1905.5000  1762.3005     8.9499    -0.0243     2.4074  -999.2500   205.5054  -999.2500  -999.2500     9.1258     9.0521  1700.3031
 1906.0000  1760.8370     8.9510    -0.0081     2.4194  -999.2500   205.0552  -999.2500  -999.2500     9.0575     9.0496  1700.6370
 1906.5000  1767.8593     8.9522     0.0032     2.4466  -999.2500   204.6045  -999.2500  -999.2500     8.9976     9.0471  1700.9265
 1907.0000  1773.0083     8.9533     0.0116     2.4662  -999.2500   203.7003  -999.2500  -999.2500     8.9993     9.0445  1701.2161
 1907.5000  1771.3003     8.9545     0.0072     2.4645  -999.2500   203.2500  -999.2500  -999.2500     9.0682     9.0420  1703.5426
 1908.0000  1763.3787     8.9558     0.0011     2.4595  -999.2500   202.7757  -999.2500  -999.2500     9.1226     9.0395  1732.1212
 1908.5000  1753.2153     8.9570    -0.0002     2.4618  -999.2500   202.3497  -999.2500  -999.2500     9.1220     9.0370  1732.4243
 1909.0000  1751.8684     8.9580     0.0044     2.4649  -999.2500   202.4574  -999.2500  -999.2500     9.1212     8.9086  1732.7273
 1909.5000  1750.3738     8.9592     0.0075     2.4657  -999.2500   203.4106  -999.2500  -999.2500     8.9938     8.9062  1733.0303
 1910.0000  1748.8549     8.9457    -0.0075     2.4507  -999.2500   206.1821  -999.2500  -999.2500     8.9932     8.9038  1733.3333
 1910.5000  1747.4012     8.9468    -0.0203     2.4244  -999.2500   210.5377  -999.2500  -999.2500     8.9926     8.9014  1733.6904
 1911.0000  1760.8372     8.9482    -0.0255     2.4138  -999.2500   211.7242  -999.2500  -999.2500     8.9920     8.8991  1733.9800
 1911.5000  1759.3422     8.9494    -0.0276     2.4155  -999.2500   206.9235  -999.2500  -999.2500     8.9914     8.8966  1734.2694
 1912.0000  1772.6936     8.9505    -0.0193     2.4268  -999.2500   204.6551  -999.2500  -999.2500     8.8658     8.8941  1764.8621
 1912.5000  1775.0383     8.9516    -0.0094     2.4502  -999.2500   208.2958  -999.2500  -999.2500     8.8652     8.8916  1765.1515
 1913.0000  1784.7532     8.9527     0.0027     2.4743  -999.2500   213.7547  -999.2500  -999.2500     8.8645     8.8891  1765.4546
 1913.5000  1783.4014     8.9392     0.0171     2.4781  -999.2500   214.4364  -999.2500  -999.2500     8.7407     8.8336  1765.7576
 1914.0000  1796.7114     8.9404     0.0096     2.4675  -999.2500   210.8668  -999.2500  -999.2500     8.7401     8.7609  1766.0607
 1914.5000  1793.9290     8.9418     0.0022     2.4499  -999.2500   207.2410  -999.2500  -999.2500     8.7394     8.7580  1766.3636
 1915.0000  1778.7744     8.9427    -0.0038     2.4422  -999.2500   206.0449  -999.2500  -999.2500     8.7388     8.7556  1766.6666
 1915.5000  1777.2794     8.9440    -0.0084     2.4392  -999.2500   206.9591  -999.2500  -999.2500     8.7382     8.7533  1766.9697
 1916.0000  1775.5278     8.9451    -0.0119     2.4295  -999.2500   205.9089  -999.2500  -999.2500     8.7376     8.7509  1767.3230
 1916.5000  1772.2633     8.9463    -0.0141     2.4198  -999.2500   204.2409  -999.2500  -999.2500     8.7370     8.7486  1767.6124
 1917.0000  1757.5520     8.9474    -0.0110     2.4251  -999.2500   204.7008  -999.2500  -999.2500     8.7364     8.7462  1767.9020
 1917.5000  1741.4052     8.9486    -0.0056     2.4440  -999.2500   207.4325  -999.2500  -999.2500     8.7358     8.7437  1768.1915
 1918.0000  1739.6970     8.9350    -0.0003     2.4593  -999.2500   211.9823  -999.2500  -999.2500     8.7352     8.7122  1738.1779
 1918.5000  1723.4679     8.9364     0.0103     2.4606  -999.2500   215.1685  -999.2500  -999.2500     8.7346     8.6176  1738.4849
 1919.0000  1721.9729     8.9226     0.0102     2.4546  -999.2500   216.5365  -999.2500  -999.2500     8.7340     8.6152  1738.7878
 1919.5000  1720.4783     8.9240     0.0029     2.4449  -999.2500   216.9954  -999.2500  -999.2500     8.6714     8.6128  1739.0909
 1920.0000  1718.6927     8.9251     0.0083     2.4434  -999.2500   216.0303  -999.2500  -999.2500     8.6113     8.6099  1739.3940
