~VERSION INFORMATION
 VERS.                2.0:   CWLS LOG ASCII STANDARD - VERSION 2.0
 WRAP.                 NO:   ONE LINE PER DEPTH STEP
~WELL INFORMATION
#MNEM.UNIT      DATA TYPE    INFORMATION
#----------   ------------   ------------------------------
 STRT.F           15.0000:   START DEPTH
 STOP.F         3245.5000:   STOP DEPTH
 STEP.F            0.5000:   STEP LENGTH
 NULL.          -999.2500:   NO VALUE
 COMP. LAWRENCE ALLISON AND ASSOCIATES:   COMPANY
 WELL. LAWRENCE ALLISON 11 X34 #3-3:   WELL
 FLD .             NPR #3:   FIELD
 LOC .       S3 T38N R78W:   LOCATION
 CNTY.            NATRONA:   COUNTY
 STAT.            WYOMING:   STATE
 CTRY. UNITED STATES OF AMERICA:   COUNTRY
 SRVC.      DRESSER ATLAS:   SERVICE COMPANY
 DATE.        23-MAY-1985:   LOGDATE
 API .     49025110530000:   API NUMBER
~CURVE INFORMATION
#MNEM.UNIT       API CODE    CURVE DESCRIPTION
#----------   ------------   ------------------------------
 DEPT.F                  :   
 SPR .MV     07 010 01 00:   SPONTANEOUS POTENTIAL
 GRR .GAPI   07 310 01 00:   GAMMA RAY FROM RESISTIVITY
 SFL .OHMM   07 220 01 00:   SHALLOW FOCUSED LOG RES.
 ILD .OHMM   07 120 46 00:   INDUCTION LOG DEEP RESISTIVITY
 ILM .OHMM   07 120 44 00:   INDUCTION LOG MEDIUM RESISTIVITY
 TENR.LBS    07 635 01 00:   TENSION
 CALR.IN     07 280 01 00:   CALIPER FROM RESISTIVITY
 RHOB.G/C3   45 350 01 00:   BULK DENSITY
 CORR.G/C3   45 356 01 00:   DENSITY CORRECTION
 CNC .DEC    42 890 03 00:   NEUTRON POROSITY SANDSTONE
~PARAMETER INFORMATION
#MNEM.UNIT          VALUE    DESCRIPTION
#----------   ------------   ------------------------------
 EKB .F         5099.0000:   Kelly bushing
 EGL .F         5087.0000:   Ground level
 EDF .F            0.0000:   Drilling floor
 EPD .F         5087.0000:   Permanent datum
 TD  .F         3240.0000:   Total depth
 DATE.         2-MAY-1985:   Date logged
 CLNT.            A2DTECH:   Client Code
 PD  .                 GL:   Permanent Datum
 DD  .F              3239:   Depth driller
 DL  .F              3242:   Depth logger
 BLI .F              3240:   Bottom log interval
 TLI .F                15:   Top log interval
 CS1 .IN            8.625:   Casing size
 CBD1.      8.625" @ 487':   Casing driller 1
 CBL1.F               487:   Casing logger 1
 BSD1.F              3239:   Depth drilled with bit1
 DFT .            KCL GEL:   Type fluid in hole
 ENGI.      MACK. EDWARDS:   Recorded By
 WITN.         MR. STRONG:   Witnessed by
 ORIG.           5" PRINT:   Origin of data
 UWI .     49025110530000:   Unique Well ID
 DICO. A2D TECHNOLOGIES, INC.:   Digitizing Company
 DAPD.IN               12:   Feet Above Permanent Datum
 BS1 .              7.875:   Bit size
 DFD .                9.1:   Density
 DFV .                 35:   Viscosity
 DFPH.                  8:   pH
 DFL .                9.8:   Fluid loss
 MSS .           FLOWLINE:   Source of sample
 RMS .OHMM            .27:   Rm
 MST .F                68:   Rm Meas. temp.
 RMF .OHMM             .2:   Rmf
 MFST.F                68:   Rmf Meas. temp.
 MFSS.               MEAS:   Source Rmf.
 RMC .OHMM            .34:   Rmc
 MCST.F                68:   Rmc Meas. temp.
 MCSS.               CALC:   Source Rmc.
 RMB .OHMM            .15:   Rm. at BHT
 BHT .F               126:   BHT.
 TCS .HRS               3:   Time Circ. stopped
 MRT .F               126:   Maximum recorded temp.
 LUN .               6274:   Logging unit number
 LUL .               GLTE:   Logging unit location
~OTHER INFORMATION
~A   DEPT      SPR        GRR        SFL        ILD        ILM       TENR       CALR       RHOB       CORR        CNC   
# ...
 1924.5000   -63.9873    94.4652     8.8515     8.3768     7.3658   -50.4192  -999.2500  -999.2500  -999.2500  -999.2500
 1925.0000   -63.5905    92.3819     8.8515     8.3768     7.3658   -50.4192  -999.2500  -999.2500  -999.2500  -999.2500
 1925.5000   -63.1937    92.6795     8.8515     8.3768     7.3658   -40.4391  -999.2500  -999.2500  -999.2500  -999.2500
 1926.0000   -63.1937    94.7629     8.8515     8.3768     7.3658   -40.4391  -999.2500  -999.2500  -999.2500  -999.2500
 1926.5000   -63.1937    94.7629     8.8515     8.3768     7.3658   -30.4591  -999.2500  -999.2500  -999.2500  -999.2500
 1927.0000   -63.1937    92.3819     8.8515     8.3768     7.3658   -30.4591  -999.2500  -999.2500  -999.2500  -999.2500
 1927.5000   -63.1937    90.5962     8.8515     8.3768     7.3658   -40.4391  -999.2500  -999.2500  -999.2500  -999.2500
 1928.0000   -63.3921    89.7033     8.8515     8.3768     7.3658   -30.4591  -999.2500  -999.2500  -999.2500  -999.2500
 1928.5000   -63.1937    90.0010     8.8515     8.3549     7.3658   -40.4391  -999.2500  -999.2500  -999.2500  -999.2500
 1929.0000   -63.5905    91.4890     9.0156     8.3330     7.3658   -50.4192  -999.2500  -999.2500  -999.2500  -999.2500
 1929.5000   -63.9873    91.4890     9.0156     8.3112     7.3658   -50.4192  -999.2500  -999.2500  -999.2500  -999.2500
 1930.0000   -64.1857    90.5962     9.1828     8.2894     7.3658   -50.4192  -999.2500  -999.2500  -999.2500  -999.2500
 1930.5000   -64.1857    91.1914     9.1828     8.2677     7.3658   -40.4391  -999.2500  -999.2500  -999.2500  -999.2500
 1931.0000   -63.9873    93.8700     9.0156     8.2461     7.2973   -40.4391  -999.2500  -999.2500  -999.2500  -999.2500
 1931.5000   -63.8559    96.2510     9.0156     8.2243     7.2294   -50.4192  -999.2500  -999.2500  -999.2500  -999.2500
 1932.0000   -64.1857    97.7390     9.0156     8.2243     7.1622   -60.3992  -999.2500  -999.2500  -999.2500  -999.2500
 1932.5000   -63.9873    99.2271     9.0156     8.2243     7.0956   -50.4192  -999.2500  -999.2500  -999.2500  -999.2500
 1933.0000   -64.1857   101.6081     8.6903     8.2243     7.0296   -50.4192  -999.2500  -999.2500  -999.2500  -999.2500
 1933.5000   -64.1857   103.0962     8.3768     8.2243     6.9708   -50.4192  -999.2500  -999.2500  -999.2500  -999.2500
 1934.0000   -64.1857   102.7986     8.2243     8.0745     6.9708   -70.3792  -999.2500  -999.2500  -999.2500  -999.2500
 1934.5000   -64.1857    95.0605     8.2243     7.9275     7.0591   -60.3992  -999.2500  -999.2500  -999.2500  -999.2500
 1935.0000   -64.1857    91.7867     8.6903     8.0745     7.1486   -60.3992  -999.2500  -999.2500  -999.2500  -999.2500
 1935.5000   -63.9873    93.5724     9.0156     8.0745     7.2392   -50.4192  -999.2500  -999.2500  -999.2500  -999.2500
 1936.0000   -63.9873    95.9533     9.1828     8.2243     7.3309   -50.4192  -999.2500  -999.2500  -999.2500  -999.2500
 1936.5000   -63.9873    96.5486     9.0156     8.2243     7.4238   -70.3792  -999.2500  -999.2500  -999.2500  -999.2500
 1937.0000   -63.9873    91.1914     9.0156     8.3768     7.5179   -60.3992  -999.2500  -999.2500  -999.2500  -999.2500
 1937.5000   -63.5905    87.6200     9.0156     8.3768     7.6415   -60.3992  -999.2500  -999.2500  -999.2500  -999.2500
 1938.0000   -63.7889    85.2390     9.0156     8.3768     7.6415   -60.3992  -999.2500  -999.2500  -999.2500  -999.2500
 1938.5000   -63.3921    85.2390     9.0156     8.3768     7.6415   -60.3992  -999.2500  -999.2500  -999.2500  -999.2500
 1939.0000   -63.5905    86.1319     9.1828     8.2243     7.4163   -60.3992  -999.2500  -999.2500  -999.2500  -999.2500
 1939.5000   -63.5905    85.8343     8.8515     8.2243     7.2317   -60.3992  -999.2500  -999.2500  -999.2500  -999.2500
 1940.0000   -63.3921    84.6438     8.6903     8.2243     7.2317   -60.3992  -999.2500  -999.2500  -999.2500  -999.2500
 1940.5000   -63.1937    83.4533     8.5321     8.2243     7.2317   -60.3992  -999.2500  -999.2500  -999.2500  -999.2500
 1941.0000   -63.1937    84.0486     8.5321     8.2243     7.2317   -60.3992  -999.2500  -999.2500  -999.2500  -999.2500
 1941.5000   -63.1937    87.3224     8.8515     8.2243     7.2317   -60.3992  -999.2500  -999.2500  -999.2500  -999.2500
 1942.0000   -63.1937    88.5129     9.1828     8.2243     7.3658   -60.3992  -999.2500  -999.2500  -999.2500  -999.2500
 1942.5000   -62.9952    87.3224     9.1828     8.2243     7.3386   -60.3992  -999.2500  -999.2500  -999.2500  -999.2500
 1943.0000   -62.9952    87.6200     9.0156     8.2243     7.3116   -60.3992  -999.2500  -999.2500  -999.2500  -999.2500
 1943.5000   -63.1937    88.5129     8.6903     8.2243     7.2847   -60.3992  -999.2500  -999.2500  -999.2500  -999.2500
 1944.0000   -63.1937    89.7033     8.6903     8.2243     7.2578   -60.3992  -999.2500  -999.2500  -999.2500  -999.2500
 1944.5000   -64.1857    89.7033     8.8515     8.2243     7.2317   -50.4192  -999.2500  -999.2500  -999.2500  -999.2500
 1945.0000   -64.5825    90.0010     9.0156     8.2243     7.2317   -50.4192  -999.2500  -999.2500  -999.2500  -999.2500
 1945.5000   -64.7810    91.4890     9.0156     8.2243     7.2125   -50.4192  -999.2500  -999.2500  -999.2500  -999.2500
 1946.0000   -64.9794    92.0843     9.0156     8.2243     7.1934   -70.3792  -999.2500  -999.2500  -999.2500  -999.2500
 1946.5000   -64.5825    93.2748     9.0156     8.2243     7.1743   -60.3992  -999.2500  -999.2500  -999.2500  -999.2500
 1947.0000   -64.3841    93.8700     9.0156     8.2243     7.1552   -60.3992  -999.2500  -999.2500  -999.2500  -999.2500
 1947.5000   -63.9873    94.4652     9.0156     8.2243     7.1363   -60.3992  -999.2500  -999.2500  -999.2500  -999.2500
 1948.0000   -63.9873    94.7629     8.8515     8.2243     7.1173   -60.3992  -999.2500  -999.2500  -999.2500  -999.2500
 1948.5000   -63.6893    95.3581     8.8515     8.2243     7.1000   -60.3992  -999.2500  -999.2500  -999.2500  -999.2500
 1949.0000   -63.7889    94.7629     8.8515     8.2243     7.1000   -60.3992  -999.2500  -999.2500  -999.2500  -999.2500
 1949.5000   -63.5905    91.1914     9.0156     8.1897     7.0198   -60.3992  -999.2500  -999.2500  -999.2500  -999.2500
 1950.0000   -63.5905    88.8105     9.1828     8.1552     6.9404   -60.3992  -999.2500  -999.2500  -999.2500  -999.2500
 1950.5000   -63.3921    89.7033     8.6903     8.1209     6.8620   -60.3992  -999.2500  -999.2500  -999.2500  -999.2500
 1951.0000   -63.3921    89.4057     8.5321     8.0867     6.8438   -60.3992  -999.2500  -999.2500  -999.2500  -999.2500
 1951.5000   -63.3921    87.9176     8.2243     8.0527     6.8438   -60.3992  -999.2500  -999.2500  -999.2500  -999.2500
 1952.0000   -63.5905    89.1081     8.6903     8.0188     6.8438   -60.3992  -999.2500  -999.2500  -999.2500  -999.2500
 1952.5000   -64.1857    90.2986     8.8515     7.9850     6.8438   -60.3992  -999.2500  -999.2500  -999.2500  -999.2500
 1953.0000   -63.5905    90.2986     9.0156     7.9514     6.8438   -60.3992  -999.2500  -999.2500  -999.2500  -999.2500
 1953.5000   -63.5905    90.0010     9.0156     7.9275     6.8438   -60.3992  -999.2500  -999.2500  -999.2500  -999.2500
 1954.0000   -63.7889    90.0010     8.8515     7.9171     6.8438   -60.3992  -999.2500  -999.2500  -999.2500  -999.2500
 1954.5000   -63.7889    90.5962     8.5321     7.9068     6.8162   -60.3992  -999.2500  -999.2500  -999.2500  -999.2500
 1955.0000   -63.7889    90.5962     8.3768     7.8964     6.8438   -60.3992  -999.2500  -999.2500  -999.2500  -999.2500
 1955.5000   -63.7889    90.2986     8.2243     7.8861     6.8438   -60.3992  -999.2500  -999.2500  -999.2500  -999.2500
 1956.0000   -63.7889    89.7033     8.2243     7.8757     6.8106   -60.3992  -999.2500  -999.2500  -999.2500  -999.2500
 1956.5000   -63.7889    87.6200     8.2243     7.8654     6.7775   -70.3792  -999.2500  -999.2500  -999.2500  -999.2500
 1957.0000   -63.9496    86.7271     8.2243     7.8551     6.7446   -70.3792  -999.2500  -999.2500  -999.2500  -999.2500
 1957.5000   -63.9873    88.2152     8.2243     7.8448     6.7192   -70.3792  -999.2500  -999.2500  -999.2500  -999.2500
