~VERSION INFORMATION
 VERS.                2.0:   CWLS LOG ASCII STANDARD - VERSION 2.0
 WRAP.                 NO:   ONE LINE PER DEPTH STEP
~WELL INFORMATION
#MNEM.UNIT      DATA TYPE    INFORMATION
#----------   ------------   ------------------------------
 STRT.F          196.5000:   START DEPTH
 STOP.F         3202.0000:   STOP DEPTH
 STEP.F            0.5000:   STEP LENGTH
 NULL.          -999.2500:   NO VALUE
 COMP.    FENIX & SCISSON:   COMPANY
 WELL.   FENIX "AX" #26-3:   WELL
 FLD .              NPR-3:   FIELD
 LOC .       S3 T38N R78W:   LOCATION
 CNTY.            NATRONA:   COUNTY
 STAT.            WYOMING:   STATE
 CTRY. UNITED STATES OF AMERICA:   COUNTRY
 SRVC.              WELEX:   SERVICE COMPANY
 DATE.        19-JUN-1977:   LOGDATE
 API .     49025103800000:   API NUMBER
~CURVE INFORMATION
#MNEM.UNIT       API CODE    CURVE DESCRIPTION
#----------   ------------   ------------------------------
 DEPT.F                  :   
 CALD.IN     45 280 60 00:   CALIPER FROM DENSITY LOG
 GRD .GAPI   45 310 01 00:   GAMMA RAY FROM DENSITY LOG
 RHOB.G/C3   45 350 01 00:   BULK DENSITY
 CORR.G/C3   45 356 01 00:   DENSITY CORRECTION
 SPR .MV     07 010 01 00:   SPONTANEOUS POTENTIAL
 ILD .OHMM   07 120 46 00:   DEEP INDUCTION RESISTIVITY
 ILM .OHMM   07 120 44 00:   INDUCTION LOG MEDIUM RESISTIVITY
 SGRD.OHMM   07 220 05 00:   SHALLOW SHORT GUARD RESISTIVITY
~PARAMETER INFORMATION
#MNEM.UNIT          VALUE    DESCRIPTION
#----------   ------------   ------------------------------
 EKB .F         5231.0000:   Kelly bushing
 EGL .F         5221.0000:   Ground level
 EDF .F            0.0000:   Drilling floor
 TD  .F         3204.0000:   Total depth
 CLNT.            A2DTECH:   Client Code
 SL  . 1320' FSL & 740' FWL:   Surface Location
 PD  .                 GL:   Permanent Datum
 EPD .F              5221:   Elevation Permanent Datum
 LMF .                 KB:   Log Measured From
 DMF .                 KB:   Drilling Measured From
 DAPD.F                10:   Feet Above Permanent Datum
 DATE.        19-JUN-1977:   Date Logged [DD-MMM-YYYY]
 DD  .F              3200:   Depth driller
 DL  .F              3204:   Depth logger
 BLI .F              3202:   Bottom log interval
 TLI .F               220:   Top log interval
 CS1 .IN            8.625:   Casing size
 CBD1.      8.625" @ 220':   Casing driller 1
 CBL1.F               220:   Casing logger 1
 BS1 .IN            7.875:   Bit size
 BSD1.F              3200:   Depth drilled with bit1
 DFT .                KCL:   Type fluid in hole
 DFD .                9.1:   Density
 RMS .OHMM           1.19:   Rm
 MST .F                65:   Rm Meas. temp.
 TCS .HRS               4:   Time Circ. stopped
 MRT .F               115:   Maximum recorded temp.
 LUN .               8766:   Logging unit number
 ENGI.          T. JOYNER:   Recorded By
 WITN.         PETTINGILL:   Witnessed by
 ORIG.           5" PRINT:   Origin of data
 UWI .     49025103800000:   Unique Well ID
 DICO. A2D TECHNOLOGIES, INC.:   Digitizing Company
 DFPH.                7.5:   pH
 DFL .                4.2:   Fluid loss
 MSS .            MUD PIT:   Source of sample
 RMF .OHMM           1.19:   Rmf
 MFST.F                65:   Rmf Meas. temp.
 MFSS.               MEAS:   Source Rmf.
 RMC .OHMM           2.01:   Rmc
 MCST.F                65:   Rmc Meas. temp.
 MCSS.               MEAS:   Source Rmc.
 RMB .OHMM            .67:   Rm. at BHT
 BHT .F               115:   BHT.
~OTHER INFORMATION
~A   DEPT     CALD         GRD      RHOB       CORR        SPR        ILD        ILM       SGRD   
# ...
 1978.5000     9.3228   111.7264     2.4150     0.0110   -59.4275     7.6078     8.6715    10.1710
 1979.0000     9.3092   113.8573     2.4151     0.0111   -59.4081     7.7169     8.6773    10.1090
 1979.5000     9.2812   115.0865     2.4152     0.0112   -59.3950     7.7210     8.6816    10.0449
 1980.0000     9.2831   114.8298     2.4160     0.0113   -59.3779     7.7251     8.7468    10.0514
 1980.5000     9.2695   113.3717     2.4161     0.0114   -59.3478     7.6236     8.7516    10.0312
 1981.0000     9.2715   112.4893     2.4155     0.0115   -59.1982     7.6276     8.8781     9.9585
 1981.5000     9.2730   109.9094     2.4126     0.0108   -59.1820     7.6317     8.8830     9.9329
 1982.0000     9.2895   108.4539     2.4104     0.0109   -59.0151     7.5484     8.8887     9.8710
 1982.5000     9.2911   109.9904     2.4075     0.0102   -58.8478     7.5320     8.8934     9.8093
 1983.0000     9.2927   110.3280     2.4084     0.0103   -58.5384     7.4370     8.7760     9.9534
 1983.5000     9.2944   110.9629     2.4069     0.0104   -58.5013     7.4412     8.6591    10.0286
 1984.0000     9.2960   110.4090     2.4040     0.0105   -58.2111     7.4452     8.5459    10.1044
 1984.5000     9.2978   107.9579     2.4019     0.0106   -58.0474     7.4492     8.4276    10.2512
 1985.0000     9.2994   112.5706     2.4013     0.0114   -58.0316     7.4531     8.3219    10.4017
 1985.5000     9.3010   112.9079     2.4021     0.0114   -58.0159     7.4059     8.2121    10.4083
 1986.0000     9.3026   111.7597     2.4022     0.0115   -58.0000     7.3591     8.1462    10.1316
 1986.5000     9.3041   114.7821     2.4015     0.0109   -57.9837     7.3640     8.1080     9.8623
 1987.0000     9.3058   114.8226     2.4002     0.0110   -57.9646     7.2671     8.1697     9.2111
 1987.5000     9.3074   114.2687     2.3988     0.0110   -57.9512     7.2710     8.2307     8.7827
 1988.0000     9.3094   113.7047     2.3974     0.0111   -57.9349     7.2749     8.3803     8.6084
 1988.5000     9.3107   112.8638     2.3945     0.0112   -57.9174     7.1792     8.5303     8.9967
 1989.0000     9.2977   112.0128     2.3938     0.0105   -57.9620     7.1338     8.6536     9.8271
 1989.5000     9.2991   110.8579     2.3939     0.0106   -58.0340     7.1377     8.7183    10.1782
 1990.0000     9.3009   109.9755     2.3948     0.0099   -58.0180     7.1917     8.7834    10.1846
 1990.5000     9.3025   109.7568     2.3949     0.0093   -58.2981     7.1955     8.7264    10.0500
 1991.0000     9.3041   110.6990     2.3950     0.0086   -58.2784     7.2490     8.4942     9.7276
 1991.5000     9.3057   109.5508     2.3966     0.0087   -57.9668     7.2529     8.3821     9.5242
 1992.0000     9.3073   105.7279     2.3974     0.0088   -57.9510     7.3069     8.2715     9.3998
 1992.5000     9.3237   104.8668     2.3975     0.0089   -57.6394     7.3108     8.1624     9.4072
 1993.0000     9.3256   106.4033     2.3984     0.0089   -57.3278     7.3653     8.1678     9.6099
 1993.5000     9.3120   107.3353     2.3984     0.0075   -57.0162     7.4210     8.2859     9.8848
 1994.0000     9.3140   108.2713     2.3963     0.0061   -56.7041     7.4250     8.3478    10.0978
 1994.5000     9.3156   108.9034     2.3941     0.0054   -56.3890     7.4289     8.3523    10.1042
 1995.0000     9.3172   108.0613     2.3912     0.0055   -56.3732     7.4329     8.4147     9.9721
 1995.5000     9.3040   106.3086     2.3890     0.0056   -56.3575     7.4368     8.3612     9.9040
 1996.0000     9.3055   108.1422     2.3930     0.0057   -56.2968     7.4408     8.4248     9.8480
 1996.5000     9.3071   108.1827     2.3954     0.0058   -56.1780     7.4448     8.5466     9.7789
 1997.0000     9.3236   109.4119     2.3954     0.0066   -56.3107     7.4533     8.5769     9.7263
 1997.5000     9.3252   103.4988     2.3962     0.0067   -56.2944     7.5052     8.6748     9.6648
 1998.0000     9.3268   109.4929     2.3986     0.0068   -56.4266     7.4567     8.6794     9.6057
 1998.5000     9.3287   109.2351     2.3987     0.0061   -56.4082     7.3596     8.6841     9.6121
 1999.0000     9.3248   108.6161     2.3980     0.0054   -56.3935     7.2608     8.5695     9.6848
 1999.5000     9.3418   107.5341     2.3981     0.0055   -56.3376     7.2662     8.5743     9.7594
 2000.0000     9.3435   107.8819     2.3967     0.0056   -56.2117     7.2207     8.5798     9.7900
 2000.5000     9.3453   109.4083     2.3953     0.0057   -56.1959     7.2252     8.5844     9.9069
 2001.0000     9.3470   110.0432     2.3939     0.0058   -56.3284     7.2804     8.5890     9.9374
 2001.5000     9.3487   110.3808     2.3963     0.0059   -56.4603     7.2847     8.7131    10.0141
 2002.0000     9.3653   110.7084     2.4008     0.0059   -56.4406     7.3394     8.7177    10.0641
 2002.5000     9.3670   109.8663     2.4002     0.0060   -56.4248     7.4382     8.8036    10.1407
 2003.0000     9.3539   109.9080     2.3981     0.0053   -56.7049     7.6055     8.8526    10.2170
 2003.5000     9.3557   111.7315     2.3974     0.0054   -56.6892     7.7156     8.8579    10.2248
 2004.0000     9.3578   107.9087     2.3960     0.0056   -56.9732     7.8274     8.9294    10.3021
 2004.5000     9.3443   108.4241     2.3961     0.0063   -57.2494     7.8872     8.9933    10.3799
 2005.0000     9.3464   106.2389     2.3962     0.0064   -57.2336     7.8919     9.0611    10.3865
 2005.5000     9.3482   104.0538     2.3970     0.0072   -57.3651     7.8966     9.1288    10.3931
 2006.0000     9.3648   101.8686     2.3994     0.0080   -57.7932     7.9559     9.1349    10.3996
 2006.5000     9.3665   102.8250     2.4015     0.0081   -58.0733     7.9607     9.1404    10.4064
 2007.0000     9.3682   105.8722     2.4036     0.0096   -58.2056     7.9654     9.2731    10.5531
 2007.5000     9.3848   108.7667     2.4057     0.0105   -58.3378     7.9704     9.1514    10.5595
 2008.0000     9.3870   109.0639     2.4078     0.0113   -58.3182     7.9762     9.1582    10.5658
 2008.5000     9.3734   108.7667     2.4099     0.0121   -58.3025     8.0360     9.0380    10.6455
 2009.0000     9.3756   108.7667     2.4107     0.0137   -58.2868     8.0409     8.9193    10.6532
 2009.5000     9.3773   108.7667     2.4123     0.0145   -58.2707     8.1012     8.8800    10.5848
 2010.0000     9.3790   108.1724     2.4147     0.0146   -58.2514     8.1061     8.8073    10.6660
 2010.5000     9.3808   108.8621     2.4148     0.0147   -58.2357     8.0553     8.6918    10.6723
 2011.0000     9.3825   109.4882     2.4158     0.0147   -57.9242     7.9966     8.6972    10.6787
 2011.5000     9.3842   111.6001     2.4188     0.0148   -57.6126     7.7932     8.7026    10.4608
 2012.0000     9.3860   110.4431     2.4204     0.0149   -57.4490     7.6385     8.7088    10.0498
 2012.5000     9.3878   108.0974     2.4160     0.0135   -57.1374     7.4869     8.7140     9.7823
 2013.0000     9.3899   112.0004     2.4131     0.0120   -56.9734     7.5208     8.8402     9.5205
 2013.5000     9.3763   108.4659     2.4083     0.0113   -56.9541     7.5997     8.9072    10.3494
 2014.0000     9.3785   107.3010     2.4032     0.0092   -56.9384     7.7101     8.9752    11.0184
 2014.5000     9.3649   110.6096     2.3977     0.0078   -56.7748     7.8371     9.1049    10.7993
 2015.0000     9.3671   106.1836     2.3956     0.0071   -56.7591     7.9356     9.2383    10.3516
 2015.5000     9.3539   104.7216     2.3935     0.0072   -56.8953     7.9952     9.3725    10.1618
 2016.0000     9.3557   109.2188     2.3913     0.0073   -56.8757     8.0553     9.3966    10.6722
 2016.5000     9.3579   108.3183     2.3982     0.0081   -56.8595     8.2283     9.5143    11.1295
 2017.0000     9.3596   108.9930     2.4020     0.0089   -56.8403     8.4050     9.5200    11.4476
 2017.5000     9.3613   111.9886     2.4044     0.0097   -57.1205     8.5266     9.5258    11.6135
 2018.0000     9.3631   108.7593     2.4052     0.0098   -57.2527     8.6502     9.5317    11.7008
 2018.5000     9.3648   109.6825     2.4016     0.0091   -57.3888     8.7162     9.5376    11.7891
