~VERSION INFORMATION
 VERS.                2.0:   CWLS LOG ASCII STANDARD - VERSION 2.0
 WRAP.                 NO:   ONE LINE PER DEPTH STEP
~WELL INFORMATION
#MNEM.UNIT      DATA TYPE    INFORMATION
#----------   ------------   ------------------------------
 STRT.F            0.5000:   START DEPTH
 STOP.F         4149.0000:   STOP DEPTH
 STEP.F            0.5000:   STEP LENGTH
 NULL.          -999.2500:   NO VALUE
 COMP. LAWRENCE ALLISON & ASSOSCIATES:   COMPANY
 WELL. LAWRENCE "X" #34-3:   WELL
 FLD .             NPR #3:   FIELD
 LOC .       S3 T38N R78W:   LOCATION
 CNTY.            NATRONA:   COUNTY
 STAT.            WYOMING:   STATE
 CTRY. UNITED STATES OF AMERICA:   COUNTRY
 SRVC.      DRESSER ATLAS:   SERVICE COMPANY
 DATE.        19-NOV-1983:   LOGDATE
 API .     49025109500000:   API NUMBER
~CURVE INFORMATION
#MNEM.UNIT       API CODE    CURVE DESCRIPTION
#----------   ------------   ------------------------------
 DEPT.F                  :   
 CALD.IN     45 280 60 00:   CALIPER FROM DENSITY LOG
 TEND.LBS    45 635 01 00:   TENSION FORM DENSITY LOG
 DEN .G/C3   45 350 01 00:   BULK DENSITY
 CNC .DEC    42 890 01 00:   NEUTRON POROSITY LIMESTONE
 CORR.G/C3   45 356 01 00:   DENSITY CORRECTION
 TENR.LBS    06 635 01 00:   TENSION FROM RESISTIVITY
 GRR .GAPI   07 310 01 00:   GAMMA RAY FROM RESISTIVITY
 RFOC.OHMM   07 220 04 00:   RESISTIVITY FOCUSED LOG RES.
 RILD.OHMM   07 120 46 00:   DEEP INDUCTION RESISTIVITY
 RILM.OHMM   07 120 44 00:   INDUCTION LOG MEDIUM RESISTIVITY
 SPR .MV     07 010 01 00:   SPONTANEOUS POTENTIAL
 TENS.LBS    60 635 01 00:   TENSION FROM SONIC
 DT  .US/F   60 520 00 00:   DELTA TIME
~PARAMETER INFORMATION
#MNEM.UNIT          VALUE    DESCRIPTION
#----------   ------------   ------------------------------
 EKB .F         5187.0000:   Kelly bushing
 EGL .F         5174.0000:   Ground level
 TD  .F         4140.0000:   Total depth
 CLNT.            A2DTECH:   Client Code
 SL  . 1621' FWL & 1958' FNL:   Surface Location
 PD  .                 GL:   Permanent Datum
 EPD .F              5174:   Elevation Permanent Datum
 LMF .                 KB:   Log Measured From
 DMF .                 KB:   Drilling Measured From
 DAPD.F                13:   Feet Above Permanent Datum
 DATE.        19-NOV-1983:   Date Logged [DD-MMM-YYYY]
 DD  .F              4136:   Depth driller
 DL  .F              4140:   Depth logger
 BLI .F              4138:   Bottom log interval
 TLI .F                 0:   Top log interval
 CS1 .IN            8.625:   Casing size
 CBD1.      8.625" @ 615':   Casing driller 1
 CBL1.F               615:   Casing logger 1
 BS1 .IN            7.875:   Bit size
 BSD1.F              4136:   Depth drilled with bit1
 DFT .            GEL-KCL:   Type fluid in hole
 DFD .                  9:   Density
 DFV .                 45:   Viscosity
 DFPH.                8.5:   pH
 DFL .                 12:   Fluid loss
 MSS .           FLOWLINE:   Source of sample
 RMS .OHMM          0.768:   Rm
 MST .F                74:   Rm Meas. temp.
 RMF .OHMM          0.576:   Rmf
 MFST.F                74:   Rmf Meas. temp.
 MFSS.               CALC:   Source Rmf.
 RMC .OHMM           0.96:   Rmc
 MCST.F                74:   Rmc Meas. temp.
 MCSS.               CALC:   Source Rmc.
 RMB .OHMM          0.418:   Rm. at BHT
 BHT .F               136:   BHT.
 TCS .HRS               4:   Time Circ. stopped
 MRT .F               136:   Maximum recorded temp.
 LUN .               6307:   Logging unit number
 LUL .               GLTE:   Logging unit location
 ENGI.           FAHLSING:   Recorded By
 WITN.           JENNINGS:   Witnessed by
 ORIG.      2.5" 5" PRINT:   Origin of data
 UWI .     49025109500000:   Unique Well ID
 DICO. A2D TECHNOLOGIES, INC.:   Digitizing Company
~OTHER INFORMATION
~A    DEPT    CALD       TEND        DEN        CNC       CORR       TENR         GRR      RFOC       RILD       RILM        SPR       TENS         DT   
# ...
 3172.5000     8.3921     0.0000     2.4233     0.2661     0.0493   -58.6419   163.9058     2.6629     2.1306     1.7428   -86.4482    -7.0312    95.1679
 3173.0000     8.3914     0.0000     2.4187     0.2685     0.0528   -58.3333   171.8845     2.4080     2.1923     1.8586   -86.7501    -7.1875    96.8648
 3173.5000     8.3906     0.0000     2.4171     0.2661     0.0738   -57.9918   186.7021     2.3748     2.2886     2.0340   -87.2037    -7.3438    98.5618
 3174.0000     8.4197     0.0000     2.4231     0.2595     0.1088   -65.4562   224.7032     2.6614     2.5009     2.2941   -87.6580    -7.5237    97.7064
 3174.5000     8.4189     0.0000     2.4365     0.1842     0.0826   -65.1235   235.2271     2.9827     2.9562     2.7776   -87.9607    -7.6777    94.7627
 3175.0000     8.4182     0.0000     2.4469     0.1602     0.0556   -64.7771   229.7449     3.9670     3.8186     3.6104   -88.1094    -7.8317    87.4879
 3175.5000     8.4174     0.0000     2.4647     0.1518     0.0425   -64.5061   207.7993     9.8850     5.4486     4.6268   -88.1064    -7.9688    83.5889
 3176.0000     8.4167     0.0000     2.4631     0.1458     0.0509   -64.1975   126.8602    24.2826     7.3447     7.9314   -87.9510    -8.1250    74.4060
 3176.5000     8.4253     0.0000     2.4585     0.1411     0.0766   -71.5875    84.7926    28.4043    10.6299    10.1642   -87.8720    -8.2940    69.7674
 3177.0000     8.4451     0.0000     2.4555     0.1430     0.0811   -79.0123    61.4750    29.2227    11.9966    11.7104   -87.4877    -8.4480    68.9908
 3177.5000     8.4549     0.0000     2.4589     0.1460     0.0779   -78.7037    55.7641    29.6375    12.4320    12.3905   -87.1798   -10.1222    68.6784
 3178.0000     8.4734     0.0000     2.4716     0.1500     0.0877   -86.1141    57.9009    28.3894    11.0977    12.2120   -86.7195   -16.5687    69.1393
 3178.5000     8.4844     0.0000     2.4935     0.1584     0.0936   -89.9110    64.7188    27.5858     9.4927    11.2117   -86.4116   -16.7227    69.6776
 3179.0000     8.5015     0.0000     2.5310     0.1678     0.0995   -93.2098    75.6756    23.5747     7.5629     9.7178   -86.1037   -16.8768    70.2933
 3179.5000     8.5007     0.0000     2.5443     0.1899     0.0983   -92.8491    89.4007    12.6710     5.8150     8.0435   -85.7952   -17.1086    72.3784
 3180.0000     8.5000     0.0000     2.5527     0.2189     0.0808   -92.5926   119.5892     8.2860     4.9296     5.6831   -84.8775   -25.0000    76.1925
 3180.5000     8.4993     0.0000     2.5538     0.2409     0.0489   -92.2454   138.8021     6.7694     4.4239     4.5148   -84.2648   -25.1562    79.9518
 3181.0000     8.4985     0.0000     2.5534     0.2414     0.0440   -96.0388   144.0668     5.4182     4.1069     4.2042   -83.6521   -25.3125    83.5773
 3181.5000     8.4978     0.0000     2.5488     0.2347     0.0483   -99.4333   147.5023     5.2649     3.9358     4.0853   -83.0393   -25.4688    89.8895
 3182.0000     8.4806     0.0000     2.5423     0.2274     0.0646   -99.0560   149.3371     5.3396     4.1080     4.0840   -82.5790   -25.6250    91.8539
 3182.5000     8.4665     0.0000     2.5270     0.2066     0.1171   -98.7655   148.8854     5.6522     4.2270     4.1411   -82.4236   -34.9629    91.3831
 3183.0000     8.4656     0.0000     2.5125     0.2005     0.1243   -96.6423   147.2482     6.0691     4.3495     4.1993   -82.4206   -41.5625    90.2984
 3183.5000     8.4649     0.0000     2.5115     0.1962     0.1162   -90.4321   142.5606     6.4245     4.4439     4.3185   -82.4176   -41.7394    88.7509
 3184.0000     8.4939     0.0000     2.5297     0.1952     0.0766   -90.1235   135.1840     6.7046     4.5403     4.3792   -82.1098   -41.8935    85.6540
 3184.5000     8.4932     0.0000     2.5502     0.2003     0.0539   -89.7552   128.7871     6.6687     4.5409     4.4087   -81.7891   -44.2822    83.8720
 3185.0000     8.5223     0.0000     2.5591     0.2037     0.0729   -89.5036   123.7622     6.4211     4.5739     4.4387   -81.4939   -57.8266    82.5541
 3185.5000     8.5513     0.0000     2.5665     0.2061     0.0727   -89.1975   119.6520     6.0638     4.5101     4.5007   -81.4903   -57.9807    82.1643
 3186.0000     8.5505     0.0000     2.5650     0.2042     0.0606   -88.8748   118.2856     6.0628     4.4787     4.4993   -81.4873   -73.7598    82.1612
 3186.5000     8.5498     0.0000     2.5574     0.2027     0.0455   -88.5227   118.7485     6.5118     4.4161     4.4978   -81.7892   -81.7263    81.6940
 3187.0000     8.5490     0.0000     2.5498     0.2008     0.0334   -88.2716   119.6687     6.6972     4.3545     4.4328   -82.0911   -74.0625    80.6855
 3187.5000     8.5483     0.0000     2.5468     0.2005     0.0273   -87.9630   121.5035     6.7440     4.2330     4.3380   -82.3937   -74.2220    80.2183
 3188.0000     8.5476     0.0000     2.5407     0.2017     0.0182   -87.6423   122.8875     6.6835     4.1150     4.1855   -82.6956   -66.5625    79.1324
 3188.5000     8.5171     0.0000     2.5347     0.2060     0.0210   -87.3404   127.2039     6.5051     4.1155     4.0961   -82.6919   -58.9051    79.7481
 3189.0000     8.5163     0.0000     2.5286     0.2086     0.0359   -87.0370   135.6985     6.0561     4.1454     4.1239   -82.3840   -58.3818    80.8278
 3189.5000     8.5156     0.0000     2.5285     0.2085     0.0418   -86.7284   136.6173     5.7601     4.2354     4.1359   -82.3810   -43.5883    81.8301
 3190.0000     8.5148     0.0000     2.5284     0.2052     0.0420   -86.3594   135.2510     5.4786     4.3274     4.2201   -82.3781   -43.7808    82.5231
 3190.5000     8.5141     0.0000     2.5299     0.2016     0.0115   -86.0576   133.2000     5.7172     4.4846     4.3350   -82.3750   -43.9349    82.4426
 3191.0000     8.5134     0.0000     2.5268     0.2004     0.0054   -84.3316   130.0044     6.1389     4.6111     4.4848   -82.3975   -44.0890    81.5114
 3191.5000     8.5126     0.0000     2.5237     0.1986     0.0023   -75.9682   125.2081     6.4065     4.7482     4.6125   -82.6740   -44.2430    80.6576
 3192.0000     8.5119     0.0000     2.5298     0.1890     0.0020   -69.7198   120.6405     6.4211     4.8169     4.7438   -82.6702   -44.3970    79.4943
 3192.5000     8.5112     0.0000     2.5475     0.1896     0.0350   -61.7020   117.9022     6.1356     4.8865     4.6755   -82.6672   -44.5512    79.8498
 3193.0000     8.5095     0.0000     2.5460     0.1974     0.0678   -53.7037   119.2798     6.0477     4.8872     4.6081   -82.3594   -44.7052    80.1842
 3193.5000     8.4799     0.0000     2.5429     0.2003     0.0706   -53.3823   120.6574     6.0466     4.8189     4.6392   -82.3564   -44.8593    80.4402
 3194.0000     8.4792     0.0000     2.5397     0.1991     0.0580   -37.6482   118.7543     6.0888     4.8195     4.7375   -82.2017   -45.0134    80.5953
 3194.5000     8.4784     0.0000     2.5382     0.1985     0.0395   -37.3457   117.0099     5.9586     4.8892     4.8041   -82.3512   -37.3164    80.6391
 3195.0000     8.4777     0.0000     2.5384     0.1997     0.0157   -37.0371   118.8462     5.6673     4.9249     4.8712   -82.6523   -45.3125    80.7905
 3195.5000     8.4769     0.0000     2.5435     0.2003     0.0102   -36.7284   120.6810     5.6261     4.9607     5.0095   -82.6493   -42.2509    80.8656
 3196.0000     8.4762     0.0000     2.5531     0.1943     0.0182   -36.3654   121.6012     5.9555     5.0683     5.0799   -82.9512   -37.8125    80.6296
 3196.5000     8.5053     0.0000     2.5664     0.1859     0.0588   -36.1111   118.8629     6.3041     5.1416     5.1509   -83.1832   -37.9712    80.2398
 3197.0000     8.5045     0.0000     2.5642     0.1853     0.0667   -35.8025   117.0392     6.5787     5.0338     5.0763   -83.5550   -38.1250    79.6953
 3197.5000     8.5037     0.0000     2.5581     0.1877     0.0665   -35.4599   116.9760     6.7680     4.8934     4.8632   -84.0086   -38.2812    79.0735
 3198.0000     8.5030     0.0000     2.5519     0.1978     0.0664   -35.1580   120.0229     6.7667     4.7569     4.7786   -84.1588   -38.4375    78.4516
