~VERSION INFORMATION
 VERS.                2.0:   CWLS LOG ASCII STANDARD - VERSION 2.0
 WRAP.                 NO:   ONE LINE PER DEPTH STEP
~WELL INFORMATION
#MNEM.UNIT      DATA TYPE    INFORMATION
#----------   ------------   ------------------------------
 STRT.F          211.5000:   START DEPTH
 STOP.F         3103.0000:   STOP DEPTH
 STEP.F            0.5000:   STEP LENGTH
 NULL.          -999.2500:   NO VALUE
 COMP.    FENIX & SCISSON:   COMPANY
 WELL. FENIX NPR 3 "AX" #38-10:   WELL
 FLD .  TEAPOT DOME - NPR:   FIELD
 LOC .      S10 T38N R78W:   LOCATION
 CNTY.            NATRONA:   COUNTY
 STAT.            WYOMING:   STATE
 CTRY. UNITED STATES OF AMERICA:   COUNTRY
 SRVC.           BIRDWELL:   SERVICE COMPANY
 DATE.        01-JUL-1978:   LOGDATE
 API .     49025106550000:   API NUMBER
~CURVE INFORMATION
#MNEM.UNIT       API CODE    CURVE DESCRIPTION
#----------   ------------   ------------------------------
 DEPT.F                  :   
 CALD.IN     45 280 60 00:   CALIPER FROM DENSITY LOG
 GRD .GAPI   45 310 01 00:   GAMMA RAY FROM DENSITY LOG
 RHOB.G/C3   45 350 01 00:   BULK DENSITY
 CORR.G/C3   45 356 01 00:   DENSITY CORRECTION
 NPOR.DEC    42 890 03 00:   ALPHA PROCESSED NEUTRON POROSITY
 SPR .MV     05 010 01 00:   SPONTANEOUS POTENTIAL
 SN  .OHMM   05 040 00 00:   SHORT NORMAL
 ILD .OHMM   05 120 46 00:   DEEP INDUCTION RESISTIVITY
~PARAMETER INFORMATION
#MNEM.UNIT          VALUE    DESCRIPTION
#----------   ------------   ------------------------------
 EKB .F         5240.0000:   Kelly bushing
 EGL .F         5230.0000:   Ground level
 TD  .F         3103.0000:   Total depth
 DATE.        01-JUL-1978:   Date logged
 CLNT.            A2DTECH:   Client Code
 SL  . 200' FSL & 2100' FWL:   Surface Location
 PD  .                 GL:   Permanent Datum
 EPD .F              5230:   Elevation Permanent Datum
 LMF .                 KB:   Log Measured From
 DMF .                 KB:   Drilling Measured From
 DAPD.F                10:   Feet Above Permanent Datum
 DD  .F              3100:   Depth driller
 DL  .F              3103:   Depth logger
 BLI .F              3096:   Bottom log interval
 TLI .F               228:   Top log interval
 CS1 .IN            8.625:   Casing size
 CBD1.      8.625" @ 224':   Casing driller 1
 CBL1.F               228:   Casing logger 1
 BS1 .IN            7.875:   Bit size
 BSD1.F              3100:   Depth drilled with bit1
 DFT .            MUD/GEL:   Type fluid in hole
 DFD .                8.7:   Density
 DFV .                 31:   Viscosity
 DFPH.               10.5:   pH
 DFL .                  7:   Fluid loss
 MSS .           FLOWLINE:   Source of sample
 BHT .F               109:   BHT.
 TCS .HRS             4.5:   Time Circ. stopped
 MRT .F               109:   Maximum recorded temp.
 LUN .               2958:   Logging unit number
 LUL .               CASP:   Logging unit location
 ENGI.             MILLER:   Recorded By
 ORIG.      2.5" 5" PRINT:   Origin of data
 UWI .     49025106550000:   Unique Well ID
 DICO. A2D TECHNOLOGIES, INC.:   Digitizing Company
~OTHER INFORMATION
~A   DEPT     CALD         GRD      RHOB       CORR       NPOR        SPR         SN        ILD   
# ...
 1750.5000    10.7353    83.2237     2.5375     0.0174  -999.2500   -17.7300     8.0627     7.4245
 1751.0000    10.7351    92.6974     2.5340     0.0114  -999.2500   -17.7300     8.1365     7.5614
 1751.5000    10.7351    91.9079     2.5341     0.0074  -999.2500   -17.9278     8.2110     7.5611
 1752.0000    10.7351    88.1405     2.5291     0.0036  -999.2500   -18.1256     8.4394     7.5608
 1752.5000    10.7351    86.7589     2.5271     0.0016  -999.2500   -18.1256     8.7540     7.5604
 1753.0000    10.7351    86.9563     2.5242     0.0016  -999.2500   -18.1256     8.5947     7.5601
 1753.5000    10.7351    87.3511     2.5143     0.0016  -999.2500   -18.1256     8.5943     7.5597
 1754.0000    10.7154    86.9563     2.5123    -0.0002  -999.2500   -18.3234     8.5939     7.5594
 1754.5000    10.7154    86.5616     2.5143    -0.0002  -999.2500   -18.1256     8.5935     7.6988
 1755.0000    10.6956    84.9826     2.5203    -0.0002  -999.2500   -17.9278     8.5931     7.7693
 1755.5000    10.6956    82.4168     2.5243     0.0038  -999.2500   -17.9278     8.5927     7.7690
 1756.0000    10.6956    82.8289     2.5161     0.0058  -999.2500   -17.9278     8.5923     7.7686
 1756.5000    10.6956    80.6405     2.5233     0.0058  -999.2500   -17.9278     8.5920     7.7683
 1757.0000    10.6759    79.8684     2.5313     0.0060  -999.2500   -17.9278     8.5916     7.7679
 1757.5000    10.6759    80.4605     2.5333     0.0060  -999.2500   -17.9278     8.5912     7.7675
 1758.0000    10.6759    86.1668     2.5333     0.0040  -999.2500   -17.7300     8.5907     7.7672
 1758.5000    10.6759    92.4826     2.5314     0.0020  -999.2500   -17.7300     8.5903     7.7668
 1759.0000    10.6759    94.4563     2.5214     0.0022  -999.2500   -17.7300     8.5899     7.7665
 1759.5000    10.6759    94.4737     2.5224     0.0022  -999.2500   -17.7300     8.5896     7.7661
 1760.0000    10.6759    92.8947     2.5304     0.0022  -999.2500   -17.9278     8.5892     7.7658
 1760.5000    10.6759    92.5000     2.5324     0.0022  -999.2500   -18.1256     8.5888     7.7654
 1761.0000    10.7154    88.1405     2.5334     0.0002  -999.2500   -18.1256     8.5884     7.7651
 1761.5000    10.7154    85.7895     2.5384    -0.0016  -999.2500   -18.1256     8.5880     7.7647
 1762.0000    10.7154    85.3947     2.5235    -0.0056  -999.2500   -18.1256     8.5876     7.7644
 1762.5000    10.7154    86.1842     2.5226    -0.0036  -999.2500   -18.1256     8.5872     7.7640
 1763.0000    10.7154    86.1842     2.5256     0.0024  -999.2500   -18.1256     8.5868     7.7637
 1763.5000    10.7154    85.7895     2.5256     0.0064  -999.2500   -18.1256     8.5865     7.7632
 1764.0000    10.7154    88.3379     2.5226     0.0064  -999.2500   -18.1256     8.5861     7.7629
 1764.5000    10.7154    90.7063     2.5167     0.0066  -999.2500   -18.3234     8.5856     7.7625
 1765.0000    10.7154    91.1184     2.5197     0.0066  -999.2500   -18.1256     8.5852     7.8336
 1765.5000    10.7154    91.1184     2.5046     0.0066  -999.2500   -18.1256     8.5848     7.7618
 1766.0000    10.7154    87.3684     2.5106     0.0126  -999.2500   -17.7300     8.5844     7.7615
 1766.5000    10.7154    85.7895     2.5267     0.0106  -999.2500   -17.7300     8.5841     7.7611
 1767.0000    10.7154    84.8026     2.5267     0.0206  -999.2500   -17.7300     8.5837     7.7608
 1767.5000    10.7154    84.4079     2.5337     0.0166  -999.2500   -17.7300     8.5833     7.7604
 1768.0000    10.7154    84.6053     2.5297     0.0088  -999.2500   -17.5322     8.5829     7.7601
 1768.5000    10.7154    85.5921     2.5176     0.0048  -999.2500   -17.3344     8.5825     7.7597
 1769.0000    10.7154    86.1842     2.5266     0.0010  -999.2500   -17.3344     8.5821     7.7594
 1769.5000    10.6956    86.7763     2.5326     0.0010  -999.2500   -17.3344     8.5817     7.7590
 1770.0000    10.6956    86.9737     2.5326     0.0010  -999.2500   -17.3344     8.5813     7.7586
 1770.5000    10.6759    86.9737     2.5267    -0.0030  -999.2500   -17.3344     8.5810     7.7583
 1771.0000    10.6759    85.0000     2.5197    -0.0030  -999.2500   -17.3344     8.8197     7.7579
 1771.5000    10.6759    83.2237     2.5287    -0.0008  -999.2500   -17.3344     8.8192     7.7576
 1772.0000    10.6759    82.2368     2.5257    -0.0008  -999.2500   -17.3344     8.8188     7.7572
 1772.5000    10.6759    82.2368     2.5397     0.0012  -999.2500   -17.5322     8.8184     7.8283
 1773.0000    10.6759    82.8289     2.5307     0.0012  -999.2500   -17.5322     8.8180     7.9727
 1773.5000    10.6759    84.4079     2.5278     0.0012  -999.2500   -17.7300     8.8176     7.9723
 1774.0000    10.6759    85.3947     2.5298     0.0072  -999.2500   -17.7300     8.8172     7.6851
 1774.5000    10.6562    88.1579     2.5368     0.0112  -999.2500   -17.7300     8.8168     7.8989
 1775.0000    10.6562    89.3247     2.5459     0.0174  -999.2500   -17.7300     8.8164     7.9712
 1775.5000    10.6562    89.3247     2.5410     0.0174  -999.2500   -17.7300     8.8160     7.9709
 1776.0000    10.6562    89.7195     2.5460     0.0094  -999.2500   -17.7300     8.8154     8.1179
 1776.5000    10.6562    90.7063     2.5448     0.0074  -999.2500   -17.5322     8.8152     7.9701
 1777.0000    10.6562    91.4958     2.5299     0.0076  -999.2500   -17.3344     8.8148     7.9697
 1777.5000    10.6562    92.4826     2.5249     0.0076  -999.2500   -17.3344     8.8144     7.9694
 1778.0000    10.6562    93.2895     2.5200     0.0096  -999.2500   -17.3344     8.8139     7.9690
 1778.5000    10.6759    91.1184     2.5170     0.0076  -999.2500   -17.3344     8.8135     7.9686
 1779.0000    10.6759    88.1405     2.5121     0.0096  -999.2500   -17.3344     8.8132     7.8956
 1779.5000    10.6759    86.7589     2.5201     0.0156  -999.2500   -17.3344     8.8128     7.8953
 1780.0000    10.6759    85.9868     2.5340     0.0118  -999.2500   -17.1366     8.8124     7.8949
 1780.5000    10.6759    84.2105     2.5430     0.0158  -999.2500   -16.9388     8.8120     7.9672
 1781.0000    10.6759    83.6184     2.5460     0.0098  -999.2500   -16.9388     8.8116     7.8942
 1781.5000    10.6759    88.5353     2.5370     0.0098  -999.2500   -16.9388     8.8112     7.9665
 1782.0000    10.6759    90.7063     2.5331     0.0098  -999.2500   -16.5432     8.8917     7.9661
 1782.5000    10.6562    92.6800     2.5263     0.0080  -999.2500   -17.3344     8.8104     7.9658
 1783.0000    10.6562    93.0747     2.5254     0.0040  -999.2500   -17.3344     8.9729     7.9654
 1783.5000    10.6562    93.6668     2.5254     0.0040  -999.2500   -17.1366     9.0551     8.0383
 1784.0000    10.6956    92.6800     2.5254     0.0040  -999.2500   -17.7300     9.0546     8.0379
 1784.5000    10.6956    89.9168     2.5254     0.0042  -999.2500   -17.3344     9.0542     8.0376
 1785.0000    10.6956    87.3684     2.5254     0.0062  -999.2500   -17.7300     9.0538     8.0372
 1785.5000    10.6956    85.9868     2.5284     0.0062  -999.2500   -17.9278     9.0533     8.0368
 1786.0000    10.6956    83.2237     2.5305     0.0062  -999.2500   -17.5322     8.8886     8.0365
 1786.5000    10.6956    80.0658     2.5432     0.0062  -999.2500   -18.1256     9.0525     8.0361
 1787.0000    10.6956    79.6711     2.5235     0.0044  -999.2500   -18.1256     8.9696     8.0357
 1787.5000    10.6956    80.4605     2.5246     0.0064  -999.2500   -18.1256     8.8874     8.1093
 1788.0000    10.6956    82.4342     2.5285     0.0084  -999.2500   -17.9278     8.8870     8.1090
 1788.5000    10.6956    85.0000     2.5316     0.0104  -999.2500   -17.5322     8.8055     7.8888
 1789.0000    10.6956    86.3642     2.5306     0.0104  -999.2500   -17.5322     8.7248     7.8884
 1789.5000    10.7154    87.1537     2.5326     0.0124  -999.2500   -17.7300     8.6449     7.8161
 1790.0000    10.7154    88.1579     2.5356     0.0166  -999.2500   -16.9388     8.6445     7.8157
 1790.5000    10.7154    90.7237     2.5346     0.0186  -999.2500   -17.5322     8.6440     7.7441
