~VERSION INFORMATION
 VERS.                2.0:   CWLS LOG ASCII STANDARD - VERSION 2.0
 WRAP.                 NO:   ONE LINE PER DEPTH STEP
~WELL INFORMATION
#MNEM.UNIT      DATA TYPE    INFORMATION
#----------   ------------   ------------------------------
 STRT.F          204.0000:   START DEPTH
 STOP.F         3024.0000:   STOP DEPTH
 STEP.F            0.5000:   STEP LENGTH
 NULL.          -999.2500:   NO VALUE
 COMP.    FENIX & SCISSON:   COMPANY
 WELL. FENIX NPR 3 "AX" #87-33:   WELL
 FLD .      NPR - WILDCAT:   FIELD
 LOC .      S33 T39N R78W:   LOCATION
 CNTY.            NATRONA:   COUNTY
 STAT.            WYOMING:   STATE
 CTRY. UNITED STATES OF AMERICA:   COUNTRY
 SRVC.              WELEX:   SERVICE COMPANY
 DATE.        20-JUN-1977:   LOGDATE
 API .     49025103840000:   API NUMBER
~CURVE INFORMATION
#MNEM.UNIT       API CODE    CURVE DESCRIPTION
#----------   ------------   ------------------------------
 DEPT.F                  :   
 SPR .MV     07 010 01 00:   SPONTANEOUS POTENTIAL
 ILD .OHMM   07 120 46 00:   DEEP INDUCTION RESISTIVITY
 ILM .OHMM   07 120 44 00:   INDUCTION LOG MEDIUM RESISTIVITY
 SGRD.OHMM   07 220 05 00:   SHALLOW SHORT GUARD RESISTIVITY
 CALD.IN     45 280 60 00:   CALIPER FROM DENSITY LOG
 GRD .GAPI   45 310 01 00:   GAMMA RAY FROM DENSITY LOG
 RHOB.G/C3   45 350 01 00:   BULK DENSITY
 CORR.G/C3   45 356 01 00:   DENSITY CORRECTION
~PARAMETER INFORMATION
#MNEM.UNIT          VALUE    DESCRIPTION
#----------   ------------   ------------------------------
 EKB .F         5170.0000:   Kelly bushing
 EGL .F         5160.0000:   Ground level
 TD  .F         3040.0000:   Total depth
 DATE.        20-JUN-1977:   Date logged
 CLNT.            A2DTECH:   Client Code
 SL  . 800' FSL & 100' FEL:   Surface Location
 PD  .                 GL:   Permanent Datum
 EPD .F              5160:   Elevation Permanent Datum
 LMF .                 KB:   Log Measured From
 DMF .                 KB:   Drilling Measured From
 DD  .F              3040:   Depth driller
 DL  .F              3027:   Depth logger
 BLI .F              3025:   Bottom log interval
 TLI .F               200:   Top log interval
 CS1 .IN            8.625:   Casing size
 CBD1.      8.625" @ 230':   Casing driller 1
 CBL1.F               210:   Casing logger 1
 BS1 .IN            7.875:   Bit size
 BSD1.F              3040:   Depth drilled with bit1
 DFT .                KCL:   Type fluid in hole
 DFD .                9.2:   Density
 DFV .                 38:   Viscosity
 DFPH.                7.5:   pH
 DFL .                5.4:   Fluid loss
 MSS .           FLOWLINE:   Source of sample
 RMS .OHMM            .60:   Rm
 MST .F                92:   Rm Meas. temp.
 RMF .OHMM            .29:   Rmf
 MFST.F                92:   Rmf Meas. temp.
 RMC .OHMM            .76:   Rmc
 MCST.F                92:   Rmc Meas. temp.
 MFSS.               MEAS:   Source Rmf.
 MCSS.               MEAS:   Source Rmc.
 RMB .OHMM            .49:   Rm. at BHT
 BHT .F               112:   BHT.
 TCS .HRS               2:   Time Circ. stopped
 MRT .F               112:   Maximum recorded temp.
 LUN .               8611:   Logging unit number
 LUL .           GILLETTE:   Logging unit location
 ENGI.            C. DOAK:   Recorded By
 WITN.      B. HARRINGTON:   Witnessed by
 ORIG.     2.5", 5" PRINT:   Origin of data
 UWI .     49025103840000:   Unique Well ID
 DICO. A2D TECHNOLOGIES, INC.:   Digitizing Company
~OTHER INFORMATION
~A   DEPT      SPR        ILD        ILM       SGRD         CALD       GRD        RHOB      CORR  
# ...
 2067.0000   -60.7270     7.7530     8.9190    11.3330     9.0440   145.1670     2.4790    -0.0050
 2067.5000   -60.7190     7.7230     8.9920    12.1970     9.0480   145.9240     2.4710    -0.0060
 2068.0000   -60.7100     7.6950     9.1290    12.2700     9.0510   146.3020     2.4620    -0.0070
 2068.5000   -60.7020     7.6670     9.3090    12.2700     9.0550   146.6690     2.4660    -0.0090
 2069.0000   -60.6930     7.6660     9.5240    12.2700     9.0590   146.2870     2.4710    -0.0100
 2069.5000   -60.6850     7.6650     9.5240    12.0520     9.0630   145.2540     2.4640    -0.0110
 2070.0000   -60.6770     7.6650     9.4390    11.8340     9.0680   143.2050     2.4560    -0.0120
 2070.5000   -60.6680     7.6650     9.2910    11.5040     9.0720   141.0280     2.4520    -0.0130
 2071.0000   -60.6600     7.6650     9.1360    11.0080     9.0760   138.8360     2.4600    -0.0130
 2071.5000   -60.6510     7.6650     8.9800    10.9090     9.0810   136.6450     2.4620    -0.0150
 2072.0000   -60.6430     7.6650     8.8240    10.8100     9.0850   136.6830     2.4510    -0.0170
 2072.5000   -60.6340     7.6650     8.6690    11.6220     9.0890   136.9330     2.4390    -0.0190
 2073.0000   -60.6260     7.6650     8.5440    11.5180     9.0930   136.1850     2.4260    -0.0230
 2073.5000   -60.6180     7.6650     8.3230    11.4130     9.0980   134.6180     2.4200    -0.0280
 2074.0000   -60.6090     7.6650     8.1380    11.4130     9.1020   132.9320     2.4160    -0.0290
 2074.5000   -60.6010     7.6650     7.9530    11.4130     9.1060   131.4340     2.4150    -0.0280
 2075.0000   -60.5920     7.6650     7.8050    10.6160     9.1100   131.4240     2.4140    -0.0280
 2075.5000   -60.5840     7.6650     7.9810    10.2390     9.1110   131.6850     2.4180    -0.0260
 2076.0000   -60.5750     7.6650     8.1270    11.0240     9.1090   132.7050     2.4250    -0.0230
 2076.5000   -60.5670     7.6650     8.2740    11.6690     9.1070   133.6930     2.4380    -0.0200
 2077.0000   -60.5590     7.6650     8.3910    11.7280     9.1040   135.5540     2.4480    -0.0160
 2077.5000   -60.5500     7.6650     8.3910    11.7870     9.1020   138.3500     2.4550    -0.0110
 2078.0000   -60.5420     7.6650     8.3910    11.8340     9.0990   140.8370     2.4590    -0.0110
 2078.5000   -60.5330     7.6650     8.0400    11.4130     9.0970   140.2260     2.4590    -0.0140
 2079.0000   -60.5250     7.6650     7.8050    10.8010     9.0940   142.0550     2.4530    -0.0160
 2079.5000   -60.5170     7.6650     7.8470    10.1880     9.0880   144.3600     2.4450    -0.0180
 2080.0000   -60.5080     7.6660     7.9520     9.6980     9.0780   147.0460     2.4400    -0.0190
 2080.5000   -60.5000     7.6640     8.0560    11.8340     9.0680   149.7060     2.4390    -0.0170
 2081.0000   -60.4910     7.6750     8.1610    11.7540     9.0580   151.6550     2.4490    -0.0150
 2081.5000   -60.4830     7.6930     8.2660    11.6220     9.0480   151.8020     2.4480    -0.0130
 2082.0000   -60.4740     7.7110     8.3910    11.6980     9.0370   151.2190     2.4500    -0.0120
 2082.5000   -60.4660     7.7290     8.4080    11.7730     9.0270   151.7890     2.4540    -0.0100
 2083.0000   -60.4580     7.7450     8.4510    11.8340     9.0170   150.7910     2.4530    -0.0090
 2083.5000   -60.4490     7.7630     8.4930    11.8340     9.0070   148.9680     2.4520    -0.0080
 2084.0000   -60.4410     7.7830     8.5440    11.8340     8.9970   147.1150     2.4520    -0.0070
 2084.5000   -60.4320     7.7980     8.5440    11.8340     8.9870   146.4520     2.4560    -0.0060
 2085.0000   -60.4240     7.9030     8.6040    11.8340     8.9770   146.4410     2.4480    -0.0060
 2085.5000   -60.4160     8.0660     8.7030    11.8340     8.9660   146.4520     2.4370    -0.0100
 2086.0000   -60.4070     8.2280     8.8030    13.1910     8.9560   145.5030     2.4250    -0.0150
 2086.5000   -60.3990     8.3910     8.9020    13.3860     8.9460   143.9880     2.4170    -0.0190
 2087.0000   -60.3900     8.3910     9.0210    13.6770     8.9360   142.5260     2.4160    -0.0200
 2087.5000   -60.3820     8.3910     9.0210    13.6770     8.9260   142.5070     2.4220    -0.0210
 2088.0000   -60.3730     8.3000     8.9540    12.0500     8.9160   143.4030     2.4310    -0.0190
 2088.5000   -60.3650     8.2080     8.8850    12.5020     8.9050   144.3250     2.4400    -0.0160
 2089.0000   -60.3580     8.1160     8.8580    12.9550     8.8960   145.2220     2.4480    -0.0130
 2089.5000   -60.3230     8.0250     8.8590    11.3250     8.8930   144.2400     2.4560    -0.0090
 2090.0000   -60.2480     7.9330     8.8590    10.2390     8.8910   142.5390     2.4580    -0.0080
 2090.5000   -60.1760     7.8050     8.8590    12.0500     8.8890   140.8300     2.4590    -0.0070
 2091.0000   -60.1030     7.8190     8.8580    12.2700     8.8870   138.8190     2.4580    -0.0060
 2091.5000   -60.0290     7.8430     8.8580    12.1820     8.8850   136.6060     2.4650    -0.0040
 2092.0000   -59.9560     7.8670     8.8590    12.0500     8.8820   134.3760     2.4710    -0.0020
 2092.5000   -59.8830     7.8910     8.7800    11.8790     8.8800   133.5610     2.4740     0.0000
 2093.0000   -59.8100     7.9140     8.7150    11.6220     8.8780   133.7590     2.4680    -0.0010
 2093.5000   -59.7360     7.9480     8.6490    11.8810     8.8760   132.3500     2.4670    -0.0030
 2094.0000   -59.6630     7.9250     8.5840    12.2700     8.8800   130.8580     2.4690    -0.0040
 2094.5000   -59.5900     7.8880     8.5440    11.4130     8.8850   130.2710     2.4670    -0.0060
 2095.0000   -59.5170     7.8510     8.5440    11.6040     8.8900   131.7510     2.4670    -0.0080
 2095.5000   -59.4430     7.8140     8.5160    12.0500     8.8950   131.0880     2.4680    -0.0090
 2096.0000   -59.3700     7.7770     8.4820    11.9960     8.9010   128.9670     2.4690    -0.0110
 2096.5000   -59.2970     7.7400     8.4470    11.9060     8.9060   126.6940     2.4660    -0.0120
 2097.0000   -59.2210     7.7030     8.4120    11.8340     8.9110   124.0070     2.4570    -0.0130
 2097.5000   -59.1490     7.6660     8.3020    12.5060     8.9180   118.4640     2.4420    -0.0150
 2098.0000   -59.0800     7.6640     8.0810    12.9550     8.9260   117.5980     2.4350    -0.0160
 2098.5000   -59.0090     7.6640     7.9480    10.9770     8.9350   118.6590     2.4300    -0.0170
 2099.0000   -58.9370     7.6660     7.9480     8.3910     8.9430   121.4840     2.4260    -0.0140
 2099.5000   -58.8660     7.6600     8.2800    10.1000     8.9520   124.3150     2.4240    -0.0120
 2100.0000   -58.7950     7.6650     8.6960    11.5250     8.9600   126.8500     2.4260    -0.0100
 2100.5000   -58.7240     7.8050     9.1120    12.9550     8.9680   129.3710     2.4280    -0.0080
 2101.0000   -58.6520     8.0180     9.5280    13.4620     8.9740   130.8890     2.4270    -0.0070
 2101.5000   -58.5810     8.4010     9.9440    13.9710     8.9740   131.4210     2.4230    -0.0090
 2102.0000   -58.5100     8.8120    10.3590    14.5630     8.9740   132.2240     2.4200    -0.0120
 2102.5000   -58.4390     9.2220    10.6970    14.8500     8.9740   133.6890     2.4140    -0.0160
 2103.0000   -58.3670     9.6330    10.9080    15.2310     8.9740   135.8270     2.4070    -0.0190
 2103.5000   -58.2960    10.0560    11.1180    15.6130     8.9740   137.7230     2.4000    -0.0220
 2104.0000   -58.2250    10.0560    11.2090    15.9950     8.9740   137.9840     2.3940    -0.0250
 2104.5000   -58.1540    10.1080    11.4660    16.3900     8.9740   138.3210     2.3880    -0.0260
 2105.0000   -58.0820    10.1530    11.6860    16.3900     8.9740   138.9140     2.3820    -0.0270
 2105.5000   -58.0070    10.1980    11.9070    16.0770     8.9740   140.0240     2.3810    -0.0260
 2106.0000   -57.8920    10.2430    12.1270    15.8080     8.9740   138.1300     2.3910    -0.0230
 2106.5000   -57.7700    10.2880    12.2700    15.5240     8.9740   136.2520     2.4110    -0.0140
 2107.0000   -57.6480    10.3330    12.2700    16.2180     8.9740   134.1000     2.4280    -0.0060
