~VERSION INFORMATION
 VERS.                2.0:   CWLS LOG ASCII STANDARD - VERSION 2.0
 WRAP.                 NO:   ONE LINE PER DEPTH STEP
~WELL INFORMATION
#MNEM.UNIT      DATA TYPE    INFORMATION
#----------   ------------   ------------------------------
 STRT.F           58.0000:   START DEPTH
 STOP.F         5662.0000:   STOP DEPTH
 STEP.F            0.5000:   STEP LENGTH
 NULL.          -999.2500:   NO VALUE
 COMP. DEPARTMENT OF ENERGY:   COMPANY
 WELL. DEPARTMENT NPR 3 67 "X" #1-10:   WELL
 FLD .              NPR 3:   FIELD
 LOC .      S10 T38N R78W:   LOCATION
 CNTY.            NATRONA:   COUNTY
 STAT.            WYOMING:   STATE
 CTRY. UNITED STATES OF AMERICA:   COUNTRY
 SRVC.       SCHLUMBERGER:   SERVICE COMPANY
 DATE.        05-FEB-2002:   LOGDATE
 API .     49025230400000:   API NUMBER
~CURVE INFORMATION
#MNEM.UNIT       API CODE    CURVE DESCRIPTION
#----------   ------------   ------------------------------
 DEPT.F                  :   
 TEND.LBS    45 635 01 00:   TENSION FROM DENSITY LOG
 PEFZ.B/E    45 358 01 00:   HILT PHOTOELECTRIC FACTOR
 HDRA.G/C3   45 356 01 00:   DELTA RHO HIP TOOL
 NPHI.DEC    42 890 03 00:   NEUTRON POROSITY SANDSTONE
 TENS.LBS    60 635 01 00:   TENSION
 DT  .US/F   60 520 00 00:   DELTA TIME
 TENR.LBS    07 635 01 00:   TENSION FROM RESISTIVITY
 CALR.IN     07 280 01 00:   CALIPER FROM RESISTIVITY
 GRR .GAPI   07 310 01 00:   GAMMA RAY FROM RESISTIVITY
 RXOZ.OHMM   11 270 04 00:   STD. RES. INVADED ZONE RESISTIVITY
 HLLD.OHMM   11 220 10 00:   LATEROLOG DEEP RES.
 HLLS.OHMM   11 220 09 00:   LATEROLOG SHALLOW RES.
 HRLD.OHMM   11 120 46 00:   HIGH RESOULATION DEEP RESISTIVITY
 RHOZ.G/C3   45 350 01 00:   HILT BULK DENSITY
~PARAMETER INFORMATION
#MNEM.UNIT          VALUE    DESCRIPTION
#----------   ------------   ------------------------------
 EKB .F         5205.7000:   Kelly bushing
 EGL .F         5195.7000:   Ground level
 EDF .F            0.0000:   Drilling floor
 EPD .F         5195.7000:   Permanent datum
 TD  .F         5654.0000:   Total depth
 DATE.        05-FEB-2002:   Date logged
 CLNT.            A2DTECH:   Client Code
 SL  . 1503' FEL & 721' FSL:   Surface Location
 PD  .                 GL:   Permanent Datum
 DAPD.F                10:   Feet Above Permanent Datum
 DD  .F              5650:   Depth driller
 DL  .F              5654:   Depth logger
 BLI .F              5646:   Bottom log interval
 TLI .F               499:   Top log interval
 CS1 .IN            9.625:   Casing size
 CBD1.      9.625" @ 505':   Casing driller 1
 CBL1.F               499:   Casing logger 1
 BS1 .IN            8.875:   Bit size
 BSD1.F              5650:   Depth drilled with bit1
 DFT .           GEL/CHEM:   Type fluid in hole
 DFD .                9.2:   Density
 DFV .                 52:   Viscosity
 DFPH.                8.5:   pH
 DFL .                6.8:   Fluid loss
 MSS .           FLOWLINE:   Source of sample
 RMS .OHMM           .954:   Rm
 MST .F                57:   Rm Meas. temp.
 RMF .OHMM           .734:   Rmf
 MFST.F                57:   Rmf Meas. temp.
 MFSS.              PRESS:   Source Rmf.
 RMB .OHMM           .403:   Rm. at BHT
 BHT .F               143:   BHT.
 TLAB.HRS            1208:   Time logger at bottom
 MRT .F               143:   Maximum recorded temp.
 LUN .               2211:   Logging unit number
 LUL .             CASPER:   Logging unit location
 ENGI.           R. SROUR:   Recorded By
 WITN.        M. MILLIKEN:   Witnessed by
 ORIG.           5" PRINT:   Origin of data
 UWI .     49025230400000:   Unique Well ID
 DICO. A2D TECHNOLOGIES, INC.:   Digitizing Company
 RMC .               1.24:   Rmc
 MCST.                 57:   Rmc Meas. temp.
 MCSS.              PRESS:   Source Rmc.
 TCS .                200:   Time Circ. stopped
~OTHER INFORMATION
~A   DEPT     TEND       PEFZ       HDRA       NPHI       TENS         DT       TENR       CALR         GRR      RXOZ       HLLD       HLLS       HRLD       RHOZ   
# ...
 4590.5000  2370.9590     3.0010    -0.0010     0.0960  1805.0060    67.9180  2350.1470    10.7550    72.3950    37.0420    30.9780    33.9740    32.4380     2.6650
 4591.0000  2372.7290     3.0340     0.0030     0.0940  1800.9950    71.8570  2352.0271    10.7690    73.8970    37.2510    31.5480    33.6860    32.7740     2.6730
 4591.5000  2374.4990     3.0660     0.0070     0.0920  1800.9950    75.0320  2353.5249    10.7830    75.9270    38.4100    31.9780    34.6510    33.4520     2.6850
 4592.0000  2376.2690     3.0960     0.0070     0.0900  1800.9950    75.3410  2353.5249    10.7970    75.8850    43.1220    32.2030    35.6090    34.1260     2.6950
 4592.5000  2378.1089     3.1270     0.0040     0.0870  1800.9950    73.4660  2353.5249    10.8100    73.3830    42.0210    32.4760    36.5760    34.9410     2.6900
 4593.0000  2378.1089     3.1700     0.0000     0.0850  1800.9950    70.7870  2354.9939    10.8250    71.8530    38.0920    30.0260    33.3790    32.3190     2.6790
 4593.5000  2378.1089     3.2160     0.0000     0.0900  1800.9950    67.1250  2356.8569    10.8390    72.7630    33.9950    26.9210    29.1380    26.3150     2.6720
 4594.0000  2378.1089     3.2640     0.0090     0.0990  1820.2100    64.6340  2358.7190    10.8780    75.6780    32.4760    24.7760    27.8380    26.5560     2.6730
 4594.5000  2378.1089     3.3460     0.0300     0.1190  1814.6930    62.7270  2360.5820    10.8830    81.6580    23.1860    22.8860    25.9680    17.2770     2.6720
 4595.0000  2378.1089     3.5220     0.0620     0.1560  1809.1760    61.9400  2362.4441    10.8850    89.4020    11.3890    18.7320    22.4450    19.2820     2.6710
 4595.5000  2378.1089     3.6920     0.0870     0.1860  1803.6591    61.9000  2364.3059    10.8870    98.8860     8.4650    15.4130    18.7600    15.6980     2.6770
 4596.0000  2378.1089     3.7410     0.1000     0.2100  1812.4050    62.4380  2366.1689    10.8900   107.7840     8.5430    13.7840    16.6260    14.0970     2.6840
 4596.5000  2378.1089     3.6880     0.0500     0.2460  1834.4720    63.1960  2368.0310    10.8930   116.9050    13.4970    13.1890    15.1040    13.8860     2.6890
 4597.0000  2378.1089     3.6350     0.0190     0.2620  1840.3650    63.9670  2369.8940    10.8960   121.4250    11.5680    12.3170    13.8720    12.5440     2.6730
 4597.5000  2378.1089     3.5810     0.0020     0.2730  1838.9880    64.3280  2371.7561    10.8990   120.5210    10.2580    12.4300    12.7760    12.5440     2.6650
 4598.0000  2378.1089     3.5280    -0.0050     0.2120  1837.6100    64.1750  2373.3860    10.8900   113.3840    14.3500    14.9420    15.6810    14.1370     2.6710
 4598.5000  2378.1089     3.4500    -0.0010     0.1640  1836.2321    63.5810  2354.2151    10.8780   104.6200    19.8060    23.5790    21.7430    16.5050     2.6820
 4599.0000  2378.1089     3.3740     0.0000     0.1300  1834.8550    62.7650  2360.0239    10.8650    95.8230    23.2740    24.0240    26.3420    25.3690     2.6840
 4599.5000  2378.1089     3.3730     0.0010     0.1160  1833.4771    61.9490  2365.8340    10.8530    87.0400    24.4580    24.4580    28.7430    27.1140     2.6740
 4600.0000  2378.1089     3.3730     0.0020     0.1090  1832.0990    61.5010  2371.6431    10.8390    78.3320    31.5440    28.5530    30.3410    28.8350     2.6700
 4600.5000  2378.1089     3.3720     0.0030     0.0990  1830.7220    61.5420  2369.6289    10.8220    73.7570    38.6980    30.3430    31.9400    30.6750     2.6810
 4601.0000  2378.1089     3.3570     0.0000     0.0950  1829.3440    62.0400  2364.2610    10.7970    72.6990    38.9940    31.0240    33.3790    32.1800     2.6820
 4601.5000  2378.1089     3.3490    -0.0030     0.0990  1827.9659    62.7980  2358.8931    10.7950    73.3940    37.5470    31.1030    31.5970    31.7220     2.6690
 4602.0000  2378.1089     3.3440    -0.0050     0.1030  1826.5890    63.4910  2353.5249    10.7930    76.5370    34.9410    31.3090    32.1800    31.5970     2.6630
 4602.5000  2378.1089     3.3400    -0.0010     0.1130  1825.2111    64.1290  2348.1570    10.7910    83.8210    30.7430    28.8200    30.2460    29.3660     2.6710
 4603.0000  2378.1089     3.3330    -0.0010     0.1370  1823.8330    64.3280  2342.7900    10.7880    90.6520    26.4250    24.9090    28.3120    24.4580     2.6750
 4603.5000  2378.1089     3.4020    -0.0020     0.1780  1822.4561    64.3280  2337.4221    10.7860    99.8560    20.8230    19.8480    24.4580    19.2930     2.6670
 4604.0000  2378.1089     3.5000    -0.0050     0.2170  1821.0780    64.0630  2336.3730    10.7830   108.6930    14.9780    14.9020    17.0360    14.1280     2.6590
 4604.5000  2378.1089     3.5710    -0.0050     0.2380  1823.6689    63.8310  2345.3999    10.7810   117.4250    11.6590    12.5440    14.3890    10.6400     2.6620
 4605.0000  2378.1089     3.5560    -0.0050     0.2310  1826.8660    64.7160  2354.4280    10.7780   120.0240    11.6590    13.2660    14.0000    11.8750     2.6700
 4605.5000  2378.1089     3.5420    -0.0040     0.2230  1830.0630    66.2030  2363.4561    10.7610   120.1160    12.3530    14.0680    14.9720    13.0120     2.6690
 4606.0000  2378.1089     3.5300    -0.0020     0.2220  1833.2600    67.3300  2373.3860    10.7470   122.1850    12.9290    14.7890    15.7670    12.4460     2.6650
 4606.5000  2378.1089     3.5180    -0.0040     0.2550  1836.4561    67.8110  2370.7959    10.7330   123.6350    13.0480    13.1190    13.6210    11.9840     2.6620
 4607.0000  2378.1089     3.4260    -0.0040     0.2500  1839.6530    66.6060  2367.9170    10.6860   120.5170    13.7520    11.4480    14.8700    11.1380     2.6690
 4607.5000  2378.1089     3.2980    -0.0010     0.2160  1840.4320    65.2440  2365.0391    10.6340   109.1560    15.2010    12.4720    17.1200    11.8240     2.6850
 4608.0000  2378.1089     3.1710     0.0030     0.1540  1839.8660    63.9300  2362.1609    10.5840    96.6720    14.6550    30.3260    25.5840    15.8460     2.6980
 4608.5000  2378.1089     3.1480     0.0020     0.1060  1839.3000    63.4330  2359.2820    10.5380    83.9670    28.0540    40.0560    33.2780    26.2400     2.7060
 4609.0000  2378.1089     3.1400     0.0000     0.0850  1838.7330    63.9010  2356.4041    10.5330    75.6950    34.9410    41.4630    39.7520    34.2740     2.6980
 4609.5000  2378.1089     3.1340    -0.0020     0.0750  1838.1670    64.8260  2353.5249    10.5290    68.2200    37.2510    42.7290    43.9180    39.7140     2.6760
 4610.0000  2378.1089     3.0850    -0.0040     0.0690  1837.6010    67.1410  2350.6470    10.5240    65.3620    37.2510    39.4860    40.5840    38.7680     2.6580
 4610.5000  2378.1089     3.0280    -0.0020     0.0730  1837.0341    69.4020  2347.7690    10.5200    64.6690    34.3080    36.2430    37.2510    37.4160     2.6480
 4611.0000  2378.1089     2.9790     0.0040     0.0750  1836.4680    71.6630  2344.8899    10.5150    64.8400    35.9500    37.5930    39.3530    36.0650     2.6650
 4611.5000  2378.1089     3.0420     0.0090     0.0750  1835.9020    72.2890  2342.0120    10.5100    64.6740    37.5930    36.3890    38.6390    34.7130     2.6670
 4612.0000  2378.1089     3.1060     0.0080     0.0740  1835.3350    70.4860  2339.1331    10.5060    64.4840    34.7150    33.9790    36.7980    32.6250     2.6620
 4612.5000  2378.1089     3.1460     0.0070     0.0800  1834.7690    67.5120  2336.2549    10.5010    64.2900    32.4760    32.4760    34.6230    30.2630     2.6420
 4613.0000  2378.1089     3.1010     0.0050     0.0830  1834.2030    64.8320  2333.6641    10.4970    64.1890    34.4730    32.4760    33.9950    30.6560     2.6410
 4613.5000  2378.1089     3.0590    -0.0010     0.0810  1833.6360    63.3330  2335.6150    10.4840    64.2330    36.2900    32.4760    35.1240    31.0240     2.6450
 4614.0000  2378.1089     3.0350    -0.0070     0.0820  1833.0699    62.6370  2337.3879    10.4990    65.3470    38.2870    32.7740    36.5760    30.6580     2.6580
 4614.5000  2378.1089     3.0350    -0.0130     0.0870  1832.5040    62.7260  2339.1621    10.5060    68.9390    37.4370    31.6200    36.9120    29.9840     2.6520
