~VERSION INFORMATION
 VERS.                2.0:   CWLS LOG ASCII STANDARD - VERSION 2.0
 WRAP.                 NO:   ONE LINE PER DEPTH STEP
~WELL INFORMATION
#MNEM.UNIT      DATA TYPE    INFORMATION
#----------   ------------   ------------------------------
 STRT.F            0.5000:   START DEPTH
 STOP.F         5663.0000:   STOP DEPTH
 STEP.F            0.5000:   STEP LENGTH
 NULL.          -999.2500:   NO VALUE
 COMP.         U. S. NAVY:   COMPANY
 WELL.         US TP #1-3:   WELL
 FLD . TEAPOT NAVAL RESERVE:   FIELD
 LOC .       S3 T38N R78W:   LOCATION
 CNTY.            NATRONA:   COUNTY
 STAT.            WYOMING:   STATE
 CTRY. UNITED STATES OF AMERICA:   COUNTRY
 SRVC.       SCHLUMBERGER:   SERVICE COMPANY
 DATE.        27-FEB-1953:   LOGDATE
 API .     49025064250000:   API NUMBER
~CURVE INFORMATION
#MNEM.UNIT       API CODE    CURVE DESCRIPTION
#----------   ------------   ------------------------------
 DEPT.F                  :   
 SPR .MV     01 010 01 00:   SPONTANEOUS POTENTIAL FROM RES.
 ASN .OHMM   01 041 16 00:   AMPLIFIED SHORT NORMAL 16"
 LAT .OHMM   01 070 00 00:   LATERAL
 LN  .OHMM   01 060 64 00:   LONG NORMAL 64"
 GRN .CPS    35 310 01 00:   GAMMA RAY
 NEUT.NAPI   35 330 01 00:   NEUTRON
~PARAMETER INFORMATION
#MNEM.UNIT          VALUE    DESCRIPTION
#----------   ------------   ------------------------------
 EKB .F            0.0000:   Kelly bushing
 EGL .F            0.0000:   Ground level
 EDF .F            0.0000:   Drilling floor
 EPD .F            0.0000:   Permanent datum
 TD  .F         5653.0000:   Total depth
 DATE.        27-FEB-1953:   Date logged
 CLNT.            A2DTECH:   Client Code
 DD  .F              5653:   Depth driller
 DL  .F              5653:   Depth logger
 BLI .F              5652:   Bottom log interval
 TLI .F               446:   Top log interval
 CBD1.F               445:   Casing driller 1
 CBL1.F               446:   Casing logger 1
 BS1 .IN                9:   Bit size
 BSD1.F              5653:   Depth drilled with bit1
 DFT .          LIMA/BASE:   Type fluid in hole
 DFD .                9.9:   Density
 DFV .                 43:   Viscosity
 RMS .OHMM            1.1:   Rm
 MST .F                55:   Rm Meas. temp.
 RMB .OHMM            .34:   Rm. at BHT
 BHT .F               166:   BHT.
 TCS .HRS               1:   Time Circ. stopped
 MRT .F               166:   Maximum recorded temp.
 LUN .                728:   Logging unit number
 LUL .               CSPR:   Logging unit location
 ENGI.            EVENSON:   Recorded By
 WITN.              MILLS:   Witnessed by
 ORIG.      1" 2.5" PRINT:   Origin of data
 UWI .     49025064250000:   Unique Well ID
 DICO. A2D TECHNOLOGIES, INC.:   Digitizing Company
~OTHER INFORMATION
~A  DEPTH      SPR        ASN        LAT         LN        GRN       NEUT
# ...
 1092.5000   -39.8961     7.4080    11.9624    10.6116    61.3721   214.2155
 1093.0000   -39.8995     7.3692    11.9624    10.5709    60.6430   223.7467
 1093.5000   -39.9028     7.3688    11.9624    10.5132    60.4001   228.8010
 1094.0000   -39.9062     7.3426    11.9624    10.3877    60.0502   233.8165
 1094.5000   -39.9094     7.3428    11.9624    10.3015    59.6422   193.3890
 1095.0000   -39.7989     7.3160    11.9624    10.3007    59.0288   185.7955
 1095.5000   -39.6930     7.2893    11.9392    10.1910    58.1398   190.0629
 1096.0000   -39.6515     7.2895    11.8280    10.0599    57.3283   193.3333
 1096.5000   -39.6550     7.2897    11.8280     9.9801    55.6310   195.8396
 1097.0000   -39.6582     7.2899    11.8280     9.9142    54.6328   193.2952
 1097.5000   -39.6618     7.2838    11.8280     9.7626    55.8175   184.7226
 1098.0000   -39.5161     7.2633    11.8280     9.7620    56.8898   173.0541
 1098.5000   -39.4001     7.2635    11.8280     9.7484    57.6422   164.2871
 1099.0000   -39.4035     7.2637    11.8714     9.7011    56.3898   147.7625
 1099.5000   -39.4068     7.2567    11.9370     9.6538    55.6203   131.8122
 1100.0000   -39.4102     7.2372    12.0296     9.5365    54.7620   103.5391
 1100.5000   -39.4135     7.2312    12.1601     9.3576    54.1360    87.1017
 1101.0000   -39.4169     7.2106    12.2312     9.3275    53.8859    88.8246
 1101.5000   -39.4202     7.2108    12.2312     9.2453    55.3904    99.6888
 1102.0000   -39.4236     7.1784    12.2312     9.1883    56.4462   108.8882
 1102.5000   -39.4269     7.1621    12.3079     9.1410    57.6473   114.8013
 1103.0000   -39.4303     7.1306    12.3656     9.0868    59.1843   117.3987
 1103.5000   -39.4336     7.0710    12.3656     9.0827    60.4017   119.8205
 1104.0000   -39.4370     6.9963    12.3656     8.9517    61.6592   122.3232
 1104.5000   -39.3056     6.9350    12.3656     8.8639    61.9975   125.5926
 1105.0000   -39.1756     6.8349    12.3656     8.8168    60.9086   132.3842
 1105.5000   -39.1790     6.7257    12.3656     8.7881    57.4479   139.2383
 1106.0000   -39.1823     6.6197    12.3656     8.7059    54.6442   146.4134
 1106.5000   -39.1857     6.5929    12.3656     8.6811    52.6109   152.5315
 1107.0000   -39.1890     6.5274    12.3656     8.6805    51.3948   157.5664
 1107.5000   -39.1924     6.5125    12.3656     8.6797    50.3854   152.4924
 1108.0000   -39.1957     6.4491    12.3656     8.6791    49.5489   148.6707
 1108.5000   -39.1991     6.4051    12.3656     8.6785    49.1335   142.3523
 1109.0000   -39.2024     6.3977    12.3656     8.6778    50.8334   142.3359
 1109.5000   -39.2058     6.3416    12.3656     8.6771    53.1448   147.3637
 1110.0000   -39.2091     6.3221    12.2866     8.6764    54.6741   156.5987
 1110.5000   -39.2125     6.2980    12.2312     8.6758    55.7719   167.2840
 1111.0000   -39.2158     6.2982    12.2312     8.6751    55.4023   175.0868
 1111.5000   -39.2192     6.2985    12.2312     8.6745    54.4844   180.1216
 1112.0000   -39.2230     6.2987    12.2312     8.6738    52.6467   172.8957
 1112.5000   -39.2259     6.2921    12.2312     8.6731    51.0496   164.6931
 1113.0000   -39.2298     6.2721    12.2312     8.6725    51.1442   154.8853
 1113.5000   -39.2326     6.2993    12.2312     8.6718    51.9125   134.5889
 1114.0000   -39.2359     6.2995    12.1465     8.6711    52.7669   121.9444
 1114.5000   -39.2394     6.2997    12.0968     8.7489    53.6523   132.0246
 1115.0000   -39.2426     6.2999    11.9624     8.8035    54.8184   145.9599
 1115.5000   -39.2460     6.3001    11.8630     8.8028    56.1598   162.2885
 1116.0000   -39.2493     6.3272    11.6935     8.8021    55.7743   172.4245
 1116.5000   -39.2527     6.3323    11.6798     8.9350    50.8980   180.3451
 1117.0000   -39.2560     6.3816    11.2903     8.9345    50.3972   181.3445
 1117.5000   -39.2600     6.4087    11.1559     9.0140    51.3816   175.0161
 1118.0000   -39.2627     6.4089    10.8486     9.0668    52.6542   162.1947
 1118.5000   -39.1339     6.4361    10.6183     9.0662    53.8164   151.4080
 1119.0000   -39.0015     6.4492    10.4627     9.0654    55.1617   131.8526
 1119.5000   -39.0047     6.4808    10.2816     9.1611    56.0698   121.7359
 1120.0000   -39.0080     6.5094    10.0806     9.1979    56.6668   106.0606
 1120.5000   -39.0020     6.5177    10.0806     9.1972    57.4215    91.3938
 1121.0000   -38.9117     6.5179     9.9462     9.1569    57.6249    83.1823
 1121.5000   -38.8214     6.5181     9.9462     9.0910    57.9217    76.2032
 1122.0000   -38.7222     6.5183    10.0345     9.0615    58.3370    70.9094
 1122.5000   -38.5945     6.5185    10.0806     9.0608    58.6749    66.0460
 1123.0000   -38.4913     6.5187    10.2151     9.0602    58.6754    60.9970
 1123.5000   -38.4953     6.5190    10.2151     9.0594    58.9268    61.8811
 1124.0000   -38.4987     6.4900    10.3495     9.0588    59.0539    71.0589
 1124.5000   -38.5020     6.4116    10.3495     9.0582    59.1786   105.0049
 1125.0000   -38.5054     6.4117    10.3495     9.1243    59.1792   182.1309
 1125.5000   -38.5087     6.3849    10.3495     9.1905    59.0356   194.9801
 1126.0000   -38.5121     6.3582    10.3495     9.1898    58.6793   183.5872
 1126.5000   -38.5154     6.3956    10.3495     9.1892    57.2031   166.9247
 1127.0000   -38.5188     6.4621    10.3495     9.1884    51.9136   157.7410
 1127.5000   -38.3903     6.5111    10.3495     9.1878    50.9117   153.5983
 1128.0000   -38.2574     6.5477    10.3495     9.0535    52.3561   165.5531
 1128.5000   -38.2607     6.5878    10.3495     9.0528    55.4242   184.5233
 1129.0000   -38.1427     6.6020    10.3439     9.0521    59.5828   192.0834
 1129.5000   -37.9990     6.6292    10.2618     9.0515    59.7928   186.6576
 1130.0000   -38.0031     6.6025    10.2151     9.0508    59.6115   181.9433
 1130.5000   -37.8525     6.6018    10.2151     9.0501    58.6848   179.4003
 1131.0000   -37.7413     6.5689    10.2151     9.0401    57.9336   176.8537
 1131.5000   -37.7446     6.5359    10.2151     8.9579    58.0968   185.8913
 1132.0000   -37.7480     6.5223    10.2151     8.9144    59.6893   207.1176
 1132.5000   -37.7513     6.5104    10.2151     8.9138    61.9831   214.6777
 1133.0000   -37.7547     6.4592    10.2151     8.8668    62.9487   223.2076
 1133.5000   -37.7583     6.4152    10.2151     8.7787    62.5917   225.9065
 1134.0000   -37.9129     6.4116    10.3495     8.7781    58.1881   222.1970
 1134.5000   -38.0328     6.3687    10.4405     8.7168    57.1861   212.0743
 1135.0000   -38.0362     6.3187    10.5830     8.6430    57.7818   180.9964
 1135.5000   -38.0395     6.2993    10.6800     8.6424    58.6911   164.0698
 1136.0000   -38.0429     6.2512    10.8441     8.6417    59.8345   174.1408
 1136.5000   -38.0462     6.2008    11.0215     8.6410    59.6949   185.9538
 1137.0000   -38.0497     6.1869    11.1052     8.6154    59.1604   194.3037
 1137.5000   -38.0529     6.1540    11.1559     8.5060    58.6936   199.3386
 1138.0000   -38.0563     6.1205    11.1559     8.5053    58.1930   191.7394
 1138.5000   -38.0597     6.0937    11.0215     8.4458    59.8020   181.3761
 1139.0000   -38.0634     6.0670    10.9760     8.3703    60.7005   168.0529
 1139.5000   -38.0664     6.0311    10.8871     8.2359    61.2707   153.8059
 1140.0000   -38.0703     5.9865    10.8871     8.2353    61.7043   144.6970
 1140.5000   -38.0731     5.9867    10.8270     8.2345    60.6385   133.5647
 1141.0000   -38.0764     5.9870    10.7351     8.1003    58.9487   127.1671
 1141.5000   -38.0798     6.0030    10.6804     8.0996    57.4455   120.8994
 1142.0000   -38.0831     6.0413    10.6183     8.0989    55.6339   118.3585
 1142.5000   -38.0867     6.0954    10.6183     8.0983    53.9380   120.8681
 1143.0000   -38.0898     6.1225    10.5810     8.0976    52.4862   120.8447
 1143.5000   -38.3616     6.1663    10.4392     8.0969    50.4305   120.8270
 1144.0000   -38.3646     6.2195    10.3258     8.0962    48.8973   120.8056
