~VERSION INFORMATION
 VERS.                2.0:   CWLS LOG ASCII STANDARD - VERSION 2.0
 WRAP.                 NO:   ONE LINE PER DEPTH STEP
~WELL INFORMATION
#MNEM.UNIT      DATA TYPE    INFORMATION
#----------   ------------   ------------------------------
 STRT.F          417.0000:   START DEPTH
 STOP.F         4133.0000:   STOP DEPTH
 STEP.F            0.5000:   STEP LENGTH
 NULL.          -999.2500:   NO VALUE
 COMP.    FENIX & SCISSON:   COMPANY
 WELL. FENIX  "LX" #18-11:   WELL
 FLD .              NPR 3:   FIELD
 LOC .      S11 T38N R78W:   LOCATION
 CNTY.            NATRONA:   COUNTY
 STAT.            WYOMING:   STATE
 CTRY. UNITED STATES OF AMERICA:   COUNTRY
 SRVC.       SCHLUMBERGER:   SERVICE COMPANY
 DATE.        14-JAN-1978:   LOGDATE
 API .     49025105590000:   API NUMBER
~CURVE INFORMATION
#MNEM.UNIT       API CODE    CURVE DESCRIPTION
#----------   ------------   ------------------------------
 DEPT.F                  :   
 SPR .MV     07 010 01 00:   SPONTANEOUS POTENTIAL
 SFL .OHMM   07 220 01 00:   SHALLOW FOCUSED LOG RESISTIVITY
 ILD .OHMM   07 120 46 00:   DEEP INDUCTION RESISTIVITY
 ILM .OHMM   07 120 44 00:   INDUCTION LOG MEDIUM RESISTIVITY
 CALD.IN     45 280 60 00:   CALIPER FROM DENSITY LOG
 GRD .GAPI   45 310 01 00:   GAMMA RAY FROM DENSITY LOG
 RHOB.G/C3   45 350 01 00:   BULK DENSITY
 CORR.G/C3   45 356 01 00:   DENSITY CORRECTION
 NPHI.DEC    42 890 03 00:   NEUTRON POROSITY SANDSTONE
~PARAMETER INFORMATION
#MNEM.UNIT          VALUE    DESCRIPTION
#----------   ------------   ------------------------------
 EKB .F         5220.0000:   Kelly bushing
 EGL .F         5210.0000:   Ground level
 EDF .F            0.0000:   Drilling floor
 TD  .F         4125.0000:   Total depth
 DATE.        14-JAN-1978:   Date logged
 CLNT.            A2DTECH:   Client Code
 SL  . 330' FSL & 530' FWL:   Surface Location
 PD  .                 GL:   Permanent Datum
 EPD .F              5210:   Elevation Permanent Datum
 LMF .                 KB:   Log Measured From
 DMF .                 KB:   Drilling Measured From
 DAPD.F                10:   Feet Above Permanent Datum
 DD  .F              4125:   Depth driller
 DL  .F              4121:   Depth logger
 BLI .F              4116:   Bottom log interval
 TLI .F               427:   Top log interval
 CS1 .IN            8.625:   Casing size
 CBD1.      8.625" @ 513':   Casing driller 1
 CBL1.F               427:   Casing logger 1
 BS1 .IN            7.875:   Bit size
 BSD1.F              4125:   Depth drilled with bit1
 DFT .                KCL:   Type fluid in hole
 DFD .                8.8:   Density
 DFV .                 40:   Viscosity
 DFPH.                 12:   pH
 DFL .                7.4:   Fluid loss
 MSS .           MUD TANK:   Source of sample
 RMS .OHMM           .418:   Rm
 MST .F                60:   Rm Meas. temp.
 RMF .OHMM           .343:   Rmf
 MFST.F                60:   Rmf Meas. temp.
 MFSS.               MEAS:   Source Rmf.
 RMB .OHMM            .20:   Rm. at BHT
 BHT .F               123:   BHT.
 TCS .HRS            0600:   Time Circ. stopped
 TLAB.HRS            0845:   Time logger at bottom
 MRT .F               123:   Maximum recorded temp.
 LUN .               8035:   Logging unit number
 LUL .               CSPR:   Logging unit location
 ENGI.             MARTIN:   Recorded By
 WITN.         HARRINGTON:   Witnessed by
 ORIG.      2.5" 5" PRINT:   Origin of data
 UWI .     49025105590000:   Unique Well ID
 DICO. A2D TECHNOLOGIES, INC.:   Digitizing Company
~OTHER INFORMATION
~A   DEPT      SPR        SFL        ILD        ILM       CALD         GRD      RHOB       CORR       NPHI   
# ...
 3373.5000   -26.9320    11.3790     7.8840     7.8360     8.6220   137.5760     2.5150     0.0180     0.2170
 3374.0000   -27.0800    11.9730     8.2290     8.1900     8.6180   134.9500     2.5180     0.0260     0.2180
 3374.5000   -27.2270    12.5670     8.5750     8.5440     8.6140   129.0090     2.5220     0.0230     0.2180
 3375.0000   -27.3740    13.1610     8.9210     8.8980     8.6110   123.1310     2.5100     0.0160     0.2160
 3375.5000   -27.5210    13.7550     9.1550     9.4130     8.6090   117.2930     2.5020     0.0050     0.2130
 3376.0000   -27.6680    14.1390     9.1550     9.3170     8.6120   112.0260     2.5100     0.0080     0.2100
 3376.5000   -27.8170    13.2860     9.1550     9.1430     8.6160   113.6130     2.5230     0.0110     0.2060
 3377.0000   -27.8930    12.1580     9.1020     8.9680     8.6190   121.6490     2.5370     0.0190     0.2030
 3377.5000   -27.9540    11.6930     8.8610     8.9050     8.6230   131.2850     2.5310     0.0150     0.2070
 3378.0000   -28.0140    11.6010     8.6200     8.9050     8.6270   139.4680     2.5190     0.0090     0.2170
 3378.5000   -27.8940    11.5090     8.3790     8.9050     8.6300   139.2160     2.5070     0.0020     0.2250
 3379.0000   -27.6000    11.3030     8.1380     8.6660     8.6340   134.7110     2.4960    -0.0020     0.2220
 3379.5000   -27.3050    10.4630     7.8970     8.3400     8.6370   130.6590     2.4960    -0.0010     0.2180
 3380.0000   -27.0150     9.6230     7.6550     8.0140     8.6410   128.1770     2.5000     0.0020     0.2140
 3380.5000   -26.9650     8.9580     7.4140     7.6880     8.6450   125.9930     2.5050     0.0060     0.2100
 3381.0000   -27.2410     8.8230     7.1220     7.3620     8.6480   123.8050     2.5070     0.0100     0.2210
 3381.5000   -27.5160     8.9030     6.8040     7.1320     8.6490   127.1540     2.5050     0.0110     0.2350
 3382.0000   -27.5640     8.9930     6.4860     7.1320     8.6510   130.6470     2.5010     0.0070     0.2490
 3382.5000   -27.4190     9.0840     6.1680     7.1320     8.6520   135.0410     2.5040     0.0080     0.2490
 3383.0000   -27.2680     9.1550     5.8330     6.8530     8.6540   135.8420     2.5100     0.0090     0.2460
 3383.5000   -27.3410     8.1940     5.4860     6.3820     8.6560   136.9950     2.5290     0.0210     0.2440
 3384.0000   -27.4590     6.6400     5.1380     5.9110     8.6570   138.0760     2.5350     0.0230     0.2420
 3384.5000   -27.5770     5.2470     4.7910     5.4390     8.6590   145.1900     2.5230     0.0210     0.2600
 3385.0000   -27.6950     4.6610     4.4440     4.9680     8.6600   151.6860     2.5100     0.0150     0.2880
 3385.5000   -27.8120     4.7410     4.2190     4.4970     8.6620   158.5400     2.4990     0.0130     0.3000
 3386.0000   -27.9250     4.7920     4.0230     4.1560     8.6640   162.5110     2.4940     0.0100     0.3180
 3386.5000   -28.0740     4.8100     3.9100     4.0750     8.6650   161.8410     2.4900     0.0080     0.3250
 3387.0000   -28.9600     4.8390     3.8740     3.9940     8.6670   159.8580     2.4850     0.0070     0.3200
 3387.5000   -29.3570     4.8680     3.8840     3.9460     8.6680   157.8940     2.4810     0.0050     0.3120
 3388.0000   -29.5290     4.8970     3.9170     3.9460     8.6700   155.8310     2.4790     0.0020     0.3040
 3388.5000   -29.6270     4.9270     3.9510     3.9460     8.6720   155.7260     2.4750     0.0000     0.3020
 3389.0000   -29.5770     5.0320     3.9850     3.9460     8.6730   156.6350     2.4700    -0.0020     0.2990
 3389.5000   -29.5310     5.1410     4.0180     3.9460     8.6750   158.1350     2.4660    -0.0040     0.2960
 3390.0000   -29.4850     5.2500     4.0520     3.9460     8.6760   158.9230     2.4700    -0.0030     0.2940
 3390.5000   -29.4320     5.3590     4.0850     3.9460     8.6780   158.6700     2.4750     0.0010     0.2910
 3391.0000   -29.2200     5.4550     4.2360     4.1580     8.6800   160.5120     2.4800     0.0040     0.2890
 3391.5000   -29.0110     5.4260     4.5140     4.3520     8.6810   164.5720     2.4840     0.0060     0.2860
 3392.0000   -28.6660     5.4050     4.7930     4.5460     8.6830   168.2850     2.4760    -0.0010     0.2890
 3392.5000   -27.7810     5.6800     5.0710     4.8030     8.6840   171.8830     2.4660    -0.0080     0.2930
 3393.0000   -27.5590     6.7000     5.3490     5.1500     8.6860   171.2040     2.4630    -0.0070     0.2930
 3393.5000   -27.3260     8.0070     5.6270     5.4980     8.6870   164.6520     2.4770    -0.0060     0.2830
 3394.0000   -27.0900     9.3260     6.1540     5.8740     8.6890   155.9950     2.4910     0.0000     0.2660
 3394.5000   -26.8560    10.3930     6.9300     6.6070     8.6910   146.8240     2.5070     0.0050     0.2500
 3395.0000   -26.8780    11.5540     7.7070     7.4060     8.6920   140.2560     2.5160     0.0100     0.2330
 3395.5000   -26.9150    12.7150     8.4830     8.2050     8.6940   138.3420     2.5210     0.0110     0.2170
 3396.0000   -26.9510    13.4950     9.2590     9.0030     8.6950   138.6810     2.5290     0.0130     0.2000
 3396.5000   -26.9860    13.7520     9.7060     9.5890     8.6970   142.2140     2.5380     0.0140     0.1890
 3397.0000   -27.0220    13.1990     9.7670     9.8810     8.6980   144.0710     2.5390     0.0140     0.1890
 3397.5000   -27.1050    12.6540     9.8280    10.1530     8.7000   143.3270     2.5420     0.0090     0.1960
 3398.0000   -27.2930    13.4870     9.8890    10.4250     8.7010   141.6510     2.5460     0.0060     0.2040
 3398.5000   -27.4780    14.3710     9.9500    10.6970     8.7030   142.5480     2.5530     0.0020     0.2080
 3399.0000   -27.6640    15.2250     9.9500    10.9690     8.7040   143.3080     2.5640    -0.0020     0.2040
 3399.5000   -27.8490    14.4970     9.9500    11.1180     8.7060   144.9970     2.5750    -0.0030     0.1980
 3400.0000   -28.0350    13.1660     9.3070    11.1180     8.7070   148.5230     2.5630     0.0020     0.1890
 3400.5000   -28.2200    11.5360     8.5710    10.5620     8.7090   154.0950     2.5500     0.0060     0.1850
 3401.0000   -28.3980    10.1660     7.8690     9.6950     8.7100   161.8050     2.5350     0.0080     0.1870
 3401.5000   -28.9180     9.2290     7.3230     8.8270     8.7120   170.8600     2.5280     0.0030     0.1900
 3402.0000   -29.2050     8.2910     6.7770     7.9600     8.7130   175.2390     2.5210     0.0000     0.2000
 3402.5000   -29.1270     7.3890     6.2310     7.0920     8.7150   169.3640     2.5160     0.0010     0.2110
 3403.0000   -29.0330     6.7410     5.6850     6.2250     8.7160   163.5800     2.5200     0.0060     0.2220
 3403.5000   -28.5050     6.0930     5.1390     5.6160     8.7180   161.5570     2.5220     0.0100     0.2340
 3404.0000   -27.9500     5.4600     4.5930     4.9980     8.7190   165.2240     2.5120     0.0080     0.2450
 3404.5000   -27.3760     4.9680     4.1130     4.3790     8.7200   170.3510     2.4950     0.0080     0.2570
 3405.0000   -27.1910     4.9200     3.7870     4.1050     8.7230   170.7410     2.4840     0.0090     0.2680
 3405.5000   -27.1160     4.8820     3.4610     3.9810     8.7240   173.7510     2.4770     0.0100     0.2780
 3406.0000   -27.0410     4.8370     3.1350     3.8560     8.7240   179.1910     2.4710     0.0190     0.2760
 3406.5000   -26.8890     4.3280     2.8090     3.5900     8.7560   195.1260     2.4390     0.0300     0.2740
 3407.0000   -26.5810     3.7870     2.6390     3.0880     8.8570   204.9930     2.4080     0.0380     0.2790
 3407.5000   -26.2190     3.2470     2.5260     2.6520     8.9600   203.7240     2.3450     0.0670     0.2910
 3408.0000   -25.7810     2.7060     2.4130     2.6270     9.0540   201.5080     2.2700     0.1030     0.3370
 3408.5000   -25.4870     2.0850     2.3510     2.7770     9.1430   178.9570     2.1530     0.1200     0.3750
 3409.0000   -25.8030     2.8410     2.6460     3.0730     8.9600   153.2660     2.1590     0.0570     0.4050
 3409.5000   -26.1410     3.9270     3.0680     3.3470     8.7870   155.6600     2.2160     0.0270     0.3820
