~VERSION INFORMATION
 VERS.                2.0:   CWLS LOG ASCII STANDARD - VERSION 2.0
 WRAP.                 NO:   ONE LINE PER DEPTH STEP
~WELL INFORMATION
#MNEM.UNIT      DATA TYPE    INFORMATION
#----------   ------------   ------------------------------
 STRT.F            4.0000:   START DEPTH
 STOP.F         3266.0000:   STOP DEPTH
 STEP.F            0.5000:   STEP LENGTH
 NULL.          -999.2500:   NO VALUE
 COMP. LAWRENCE ALLISON & ASSOSCIATES:   COMPANY
 WELL. LAWRENCE "X" #27-11:   WELL
 FLD .          N.P.R. #3:   FIELD
 LOC .      S11 T38N R78W:   LOCATION
 CNTY.            NATRONA:   COUNTY
 STAT.            WYOMING:   STATE
 CTRY. UNITED STATES OF AMERICA:   COUNTRY
 SRVC.      DRESSER ATLAS:   SERVICE COMPANY
 DATE.        22-AUG-1986:   LOGDATE
 API .     49025111070000:   API NUMBER
~CURVE INFORMATION
#MNEM.UNIT       API CODE    CURVE DESCRIPTION
#----------   ------------   ------------------------------
 DEPT.F                  :   
 SPR .MV     07 010 01 00:   SPONTANEOUS POTENTIAL
 TENR.LBS    06 635 01 00:   TENSION FROM RESISTIVITY
 GRR .GAPI   07 310 01 00:   GAMMA RAY FROM RESISTIVITY
 RILD.OHMM   07 120 46 00:   DEEP INDUCTION RESISTIVITY
 RILM.OHMM   07 120 44 00:   INDUCTION LOG MEDIUM RESISTIVITY
 RFOC.OHMM   07 220 04 00:   RESISTIVITY FOCUSED LOG RES.
 NPHI.DEC    42 890 03 00:   NEUTRON POROSITY SANDSTONE
 CALD.IN     45 280 60 00:   CALIPER FROM DENSITY LOG
 RHOB.G/C3   45 350 01 00:   BULK DENSITY
 CORR.G/C3   45 356 01 00:   DENSITY CORRECTION
 TEND.LBS    45 635 01 00:   TENSION FORM DENSITY LOG
~PARAMETER INFORMATION
#MNEM.UNIT          VALUE    DESCRIPTION
#----------   ------------   ------------------------------
 EKB .F         5206.0000:   Kelly bushing
 EGL .F         5194.0000:   Ground level
 EDF .F         5205.0000:   Drilling floor
 EPD .F         5194.0000:   Permanent datum
 TD  .F         3250.0000:   Total depth
 CLNT.            A2DTECH:   Client Code
 SL  . 1197' FSL & 1088' FWL:   Surface Location
 PD  .                 GL:   Permanent Datum
 DAPD.F                12:   Feet Above Permanent Datum
 DATE.        22-AUG-1986:   Date Logged [DD-MMM-YYYY]
 DD  .F              3250:   Depth driller
 DL  .F              3246:   Depth logger
 BLI .F              3243:   Bottom log interval
 TLI .F               683:   Top log interval
 CS1 .IN            8.625:   Casing size
 CBD1.      8.625" @ 672':   Casing driller 1
 CBL1.F               673:   Casing logger 1
 BS1 .IN            7.875:   Bit size
 BSD1.F              3250:   Depth drilled with bit1
 DFT .            KCL-GEL:   Type fluid in hole
 DFD .                8.9:   Density
 DFV .                 35:   Viscosity
 MSS .               TANK:   Source of sample
 RMS .OHMM           0.31:   Rm
 MST .F                70:   Rm Meas. temp.
 RMF .OHMM           0.29:   Rmf
 MFST.F                67:   Rmf Meas. temp.
 MFSS.               CALC:   Source Rmf.
 RMC .OHMM           0.46:   Rmc
 MCST.F                70:   Rmc Meas. temp.
 MCSS.               CALC:   Source Rmc.
 RMB .OHMM           0.16:   Rm. at BHT
 BHT .F               136:   BHT.
 TCS .HRS               4:   Time Circ. stopped
 MRT .F               136:   Maximum recorded temp.
 LUN .            HL-6426:   Logging unit number
 LUL .          RK. SPGS.:   Logging unit location
 ENGI.               RALL:   Recorded By
 WITN.             STRONG:   Witnessed by
 ORIG.           5" PRINT:   Origin of data
 UWI .     49025111070000:   Unique Well ID
 DICO. A2D TECHNOLOGIES, INC.:   Digitizing Company
~OTHER INFORMATION
~A    DEPT     SPR       TENR         GRR      RILD       RILM       RFOC       NPHI       CALD       RHOB       CORR       TEND   
# ...
  858.0000   -80.9483   -77.8254   119.1093     6.0121     6.1362     6.6860  -999.2500  -999.2500  -999.2500  -999.2500  -999.2500
  858.5000   -80.9466   -77.8254   119.7665     5.9702     5.9252     6.6876  -999.2500  -999.2500  -999.2500  -999.2500  -999.2500
  859.0000   -80.9587   -77.8254   119.8428     5.8847     5.7170     6.6896  -999.2500  -999.2500  -999.2500  -999.2500  -999.2500
  859.5000   -80.5741   -77.8254   119.5414     5.6852     5.5249     6.6912  -999.2500  -999.2500  -999.2500  -999.2500  -999.2500
  860.0000   -80.0728   -77.8254   119.0554     5.5285     5.4104     6.5997  -999.2500  -999.2500  -999.2500  -999.2500  -999.2500
  860.5000   -79.5609   -77.8254   117.8153     5.3387     5.2983     6.4640  -999.2500  -999.2500  -999.2500  -999.2500  -999.2500
  861.0000   -79.0501   -77.8254   116.7227     5.2279     5.2617     6.1994  -999.2500  -999.2500  -999.2500  -999.2500  -999.2500
  861.5000   -78.5399   -77.8254   116.8337     5.1554     5.2257     5.9875  -999.2500  -999.2500  -999.2500  -999.2500  -999.2500
  862.0000   -78.0325   -77.8254   118.9369     5.1195     5.2265     5.8644  -999.2500  -999.2500  -999.2500  -999.2500  -999.2500
  862.5000   -77.6615   -77.8254   119.9266     5.0484     5.3012     5.9556  -999.2500  -999.2500  -999.2500  -999.2500  -999.2500
  863.0000   -77.5188   -77.8254   118.2530     5.1650     5.4150     6.1194  -999.2500  -999.2500  -999.2500  -999.2500  -999.2500
  863.5000   -77.3725   -77.8254   115.0448     5.3387     5.5701     6.2508  -999.2500  -999.2500  -999.2500  -999.2500  -999.2500
  864.0000   -77.2268   -77.8254   116.0524     5.4518     5.6895     6.3405  -999.2500  -999.2500  -999.2500  -999.2500  -999.2500
  864.5000   -77.0797   -77.8254   119.4891     5.6063     5.8524     6.3865  -999.2500  -999.2500  -999.2500  -999.2500  -999.2500
  865.0000   -76.9274   -77.8254   119.4253     5.7652     6.0200     6.4782  -999.2500  -999.2500  -999.2500  -999.2500  -999.2500
  865.5000   -77.1643   -77.8254   115.7722     5.8464     6.1060     6.7584  -999.2500  -999.2500  -999.2500  -999.2500  -999.2500
  866.0000   -77.4508   -77.8254   112.1978     5.9287     6.1499     7.1064  -999.2500  -999.2500  -999.2500  -999.2500  -999.2500
  866.5000   -77.7631   -77.8254   110.3907     5.9702     6.1510     7.4059  -999.2500  -999.2500  -999.2500  -999.2500  -999.2500
  867.0000   -78.6235   -77.8254   112.6920     5.9702     6.1518     7.1528  -999.2500  -999.2500  -999.2500  -999.2500  -999.2500
  867.5000   -79.4639   -77.8254   115.0448     5.9287     6.1960     6.9568  -999.2500  -999.2500  -999.2500  -999.2500  -999.2500
  868.0000   -80.3073   -77.8254   118.3500     5.9287     6.1968     6.8613  -999.2500  -999.2500  -999.2500  -999.2500  -999.2500
  868.5000   -80.5088   -77.8254   121.6946     5.9287     6.1543     6.7678  -999.2500  -999.2500  -999.2500  -999.2500  -999.2500
  869.0000   -80.7365   -77.8254   124.8095     5.9287     6.1551     6.7222  -999.2500  -999.2500  -999.2500  -999.2500  -999.2500
  869.5000   -80.9874   -77.8254   127.0613     5.9287     6.1560     6.7238  -999.2500  -999.2500  -999.2500  -999.2500  -999.2500
  870.0000   -81.1144   -77.8254   125.4331     5.9287     6.2004     6.7258  -999.2500  -999.2500  -999.2500  -999.2500  -999.2500
  870.5000   -81.0171   -77.8254   122.6049     5.9702     6.2013     6.6800  -999.2500  -999.2500  -999.2500  -999.2500  -999.2500
  871.0000   -80.9106   -77.8254   120.7591     6.0121     6.2021     6.6349  -999.2500  -999.2500  -999.2500  -999.2500  -999.2500
  871.5000   -80.5630   -77.8254   118.8384     6.0543     6.1593     6.6836  -999.2500  -999.2500  -999.2500  -999.2500  -999.2500
  872.0000   -80.0788   -77.8254   115.9771     6.0967     6.1603     6.7321  -999.2500  -999.2500  -999.2500  -999.2500  -999.2500
  872.5000   -79.3393   -77.8254   116.3186     6.1825     6.2046     6.7337  -999.2500  -999.2500  -999.2500  -999.2500  -999.2500
  873.0000   -78.6268   -77.8254   118.2703     6.2695     6.2933     6.8304  -999.2500  -999.2500  -999.2500  -999.2500  -999.2500
  873.5000   -77.9446   -77.8254   119.4629     6.2695     6.2943     6.9287  -999.2500  -999.2500  -999.2500  -999.2500  -999.2500
  874.0000   -77.3204   -77.8254   121.5790     6.2695     6.2952     6.9787  -999.2500  -999.2500  -999.2500  -999.2500  -999.2500
  874.5000   -77.2026   -77.8254   125.2101     6.2695     6.2960     6.8836  -999.2500  -999.2500  -999.2500  -999.2500  -999.2500
  875.0000   -77.0990   -77.8254   123.5836     6.1825     6.2969     6.7895  -999.2500  -999.2500  -999.2500  -999.2500  -999.2500
  875.5000   -76.9937   -77.8254   119.1504     6.1395     6.2536     6.7433  -999.2500  -999.2500  -999.2500  -999.2500  -999.2500
  876.0000   -76.8877   -77.8254   115.0568     6.0967     6.2107     6.6514  -999.2500  -999.2500  -999.2500  -999.2500  -999.2500
  876.5000   -76.7855   -77.8254   117.4103     6.0967     6.1681     6.5147  -999.2500  -999.2500  -999.2500  -999.2500  -999.2500
  877.0000   -76.8432   -77.8254   119.6563     6.0967     6.2126     6.4256  -999.2500  -999.2500  -999.2500  -999.2500  -999.2500
  877.5000   -77.2409   -77.8254   121.2083     6.0543     6.3014     6.3823  -999.2500  -999.2500  -999.2500  -999.2500  -999.2500
  878.0000   -77.6349   -77.8254   119.9500     6.0543     6.3022     6.3842  -999.2500  -999.2500  -999.2500  -999.2500  -999.2500
  878.5000   -78.0723   -77.8254   115.7220     6.0967     6.3475     6.4306  -999.2500  -999.2500  -999.2500  -999.2500  -999.2500
  879.0000   -78.5311   -77.8254   112.2417     6.0967     6.3484     6.4773  -999.2500  -999.2500  -999.2500  -999.2500  -999.2500
  879.5000   -79.1159   -77.8254   112.6959     6.0967     6.3468     6.5702  -999.2500  -999.2500  -999.2500  -999.2500  -999.2500
  880.0000   -79.7079   -77.8254   115.0472     6.0967     6.3057     6.5718  -999.2500  -999.2500  -999.2500  -999.2500  -999.2500
  880.5000   -80.2975   -77.8254   115.2114     6.1267     6.3067     6.5274  -999.2500  -999.2500  -999.2500  -999.2500  -999.2500
  881.0000   -80.7897   -77.8254   113.9314     6.1395     6.3076     6.4382  -999.2500  -999.2500  -999.2500  -999.2500  -999.2500
  881.5000   -80.9416   -77.8254   111.4269     6.1825     6.3977     6.4401  -999.2500  -999.2500  -999.2500  -999.2500  -999.2500
  882.0000   -81.1027   -77.8254   108.2471     6.2259     6.4437     6.4416  -999.2500  -999.2500  -999.2500  -999.2500  -999.2500
  882.5000   -81.0488   -77.8254   109.1106     6.2259     6.4900     6.5340  -999.2500  -999.2500  -999.2500  -999.2500  -999.2500
  883.0000   -80.8249   -77.8254   113.2675     6.2259     6.4909     6.5815  -999.2500  -999.2500  -999.2500  -999.2500  -999.2500
  883.5000   -80.3134   -77.8254   118.0190     6.1825     6.4463     6.5831  -999.2500  -999.2500  -999.2500  -999.2500  -999.2500
  884.0000   -79.8204   -77.8254   118.4654     6.0967     6.3129     6.5850  -999.2500  -999.2500  -999.2500  -999.2500  -999.2500
  884.5000   -79.3280   -77.8254   116.6599     6.0543     6.2694     6.5406  -999.2500  -999.2500  -999.2500  -999.2500  -999.2500
  885.0000   -78.8361   -77.8254   114.4100     6.0121     6.2263     6.4508  -999.2500  -999.2500  -999.2500  -999.2500  -999.2500
  885.5000   -78.3431   -77.8254   112.8348     6.0093     6.2274     6.4073  -999.2500  -999.2500  -999.2500  -999.2500  -999.2500
  886.0000   -77.8594   -77.8254   113.1174     5.9666     6.3164     6.3640  -999.2500  -999.2500  -999.2500  -999.2500  -999.2500
  886.5000   -77.3760   -77.8254   114.7177     5.9287     6.3135     6.3659  -999.2500  -999.2500  -999.2500  -999.2500  -999.2500
  887.0000   -76.8967   -77.8254   118.2411     5.9287     6.2299     6.4122  -999.2500  -999.2500  -999.2500  -999.2500  -999.2500
  887.5000   -76.5013   -77.8254   119.6188     5.9287     6.2310     6.4589  -999.2500  -999.2500  -999.2500  -999.2500  -999.2500
  888.0000   -76.5070   -77.8254   119.1753     5.9287     6.2318     6.4607  -999.2500  -999.2500  -999.2500  -999.2500  -999.2500
