~VERSION INFORMATION
 VERS.                2.0:   CWLS LOG ASCII STANDARD - VERSION 2.0
 WRAP.                 NO:   ONE LINE PER DEPTH STEP
~WELL INFORMATION
#MNEM.UNIT      DATA TYPE    INFORMATION
#----------   ------------   ------------------------------
 STRT.F          186.0000:   START DEPTH
 STOP.F         3060.0000:   STOP DEPTH
 STEP.F            0.5000:   STEP LENGTH
 NULL.          -999.2500:   NO VALUE
 COMP.    FENIX & SCISSON:   COMPANY
 WELL. FENIX NPR 3 "AX" #63-29:   WELL
 FLD .              N P R:   FIELD
 LOC .      S29 T39N R78W:   LOCATION
 CNTY.            NATRONA:   COUNTY
 STAT.            WYOMING:   STATE
 CTRY. UNITED STATES OF AMERICA:   COUNTRY
 SRVC.           BIRDWELL:   SERVICE COMPANY
 DATE.        28-FEB-1978:   LOGDATE
 API .     49025105960000:   API NUMBER
~CURVE INFORMATION
#MNEM.UNIT       API CODE    CURVE DESCRIPTION
#----------   ------------   ------------------------------
 DEPT.F                  :   
 CALD.IN     45 280 60 00:   CALIPER FROM DENSITY LOG
 GRD .GAPI   45 310 01 00:   GAMMA RAY FROM DENSITY LOG
 DEN .LBS    07 635 01 00:   
 CORR.G/C3   45 356 01 00:   DENSITY CORRECTION
 SPR .MV     05 010 01 00:   SPONTANEOUS POTENTIAL
 SN  .OHMM   05 040 00 00:   SHORT NORMAL
 ILD .OHMM   05 120 46 00:   DEEP INDUCTION RESISTIVITY
~PARAMETER INFORMATION
#MNEM.UNIT          VALUE    DESCRIPTION
#----------   ------------   ------------------------------
 EKB .F         4993.0000:   Kelly bushing
 EGL .F         4983.0000:   Ground level
 EDF .F            0.0000:   Drilling floor
 TD  .F         3060.0000:   Total depth
 DATE.        28-FEB-1978:   Date logged
 CLNT.            A2DTECH:   Client Code
 SL  . 1300' FNL & 1050' FEL:   Surface Location
 PD  .                 GL:   Permanent Datum
 DD  .F              3060:   Depth driller
 DL  .F              3056:   Depth logger
 BLI .F              5050:   Bottom log interval
 CS1 .IN            8.625:   Casing size
 CBD1.      8.625" @ 214':   Casing driller 1
 CBL1.F               218:   Casing logger 1
 BS1 .IN            7.875:   Bit size
 DFT .     LIGNOSULFONATE:   Type fluid in hole
 DFD .                  9:   Density
 DFV .                 34:   Viscosity
 DFPH.               10.5:   pH
 DFL .                  9:   Fluid loss
 MSS .           FLOWLINE:   Source of sample
 RMS .OHMM            1.8:   Rm
 MST .F                58:   Rm Meas. temp.
 RMF .OHMM             .9:   Rmf
 MFST.F                65:   Rmf Meas. temp.
 RMC .OHMM            2.5:   Rmc
 MCST.F                70:   Rmc Meas. temp.
 MFSS.               MEAS:   Source Rmf.
 RMB .OHMM             88:   Rm. at BHT
 BHT .F               118:   BHT.
 TCS .HRS               8:   Time Circ. stopped
 MRT .F               118:   Maximum recorded temp.
 LUN .               2959:   Logging unit number
 LUL .               CASP:   Logging unit location
 ENGI.             MILLER:   Recorded By
 WITN.         HARRINGTON:   Witnessed by
 ORIG.           5" PRINT:   Origin of data
 UWI .     49025105960000:   Unique Well ID
 DICO. A2D TECHNOLOGIES, INC.:   Digitizing Company
 BSD1.F              3060:   Depth drilled with bit1
 EPD .F              4983:   Elevation Permanent Datum
 LMF .                 KB:   Log Measured From
 DMF .                 KB:   Drilling Measured From
 TLI .F               800:   Top log interval
~OTHER INFORMATION
~A   DEPT     CALD         GRD       DEN       CORR        SPR         SN        ILD   
# ...
  777.5000    11.8330   101.2920     2.4930     0.0250  -999.2500  -999.2500  -999.2500
  778.0000    11.8150   101.9500     2.4940     0.0250  -999.2500  -999.2500  -999.2500
  778.5000    11.7910   102.6910     2.4950     0.0240  -999.2500  -999.2500  -999.2500
  779.0000    11.7670   103.4270     2.4960     0.0240  -999.2500  -999.2500  -999.2500
  779.5000    11.7440   103.8820     2.4970     0.0230  -999.2500  -999.2500  -999.2500
  780.0000    11.7200   102.6290     2.4980     0.0230  -999.2500  -999.2500  -999.2500
  780.5000    11.7100   101.1720     2.4990     0.0220  -999.2500  -999.2500  -999.2500
  781.0000    11.7030    99.4940     2.4980     0.0210  -999.2500  -999.2500  -999.2500
  781.5000    11.6960    99.5630     2.4970     0.0180  -999.2500  -999.2500  -999.2500
  782.0000    11.6880   102.0620     2.4950     0.0150  -999.2500  -999.2500  -999.2500
  782.5000    11.6810   104.3510     2.4960     0.0140  -999.2500  -999.2500  -999.2500
  783.0000    11.6730   105.7980     2.4990     0.0160  -999.2500  -999.2500  -999.2500
  783.5000    11.6660   101.3790     2.5010     0.0170  -999.2500  -999.2500  -999.2500
  784.0000    11.6580    98.5720     2.4990     0.0180  -999.2500  -999.2500  -999.2500
  784.5000    11.6510    99.3660     2.4980     0.0190  -999.2500  -999.2500  -999.2500
  785.0000    11.6430    99.3100     2.4960     0.0200  -999.2500  -999.2500  -999.2500
  785.5000    11.6360    98.3670     2.4950     0.0210  -999.2500  -999.2500  -999.2500
  786.0000    11.6280    98.8070     2.4950     0.0220  -999.2500  -999.2500  -999.2500
  786.5000    11.6210    99.8860     2.4960     0.0240  -999.2500  -999.2500  -999.2500
  787.0000    11.6130   100.7120     2.4970     0.0270  -999.2500  -999.2500  -999.2500
  787.5000    11.6060    98.6680     2.4980     0.0290  -999.2500  -999.2500  -999.2500
  788.0000    11.5980    95.9720     2.4990     0.0250  -999.2500  -999.2500  -999.2500
  788.5000    11.5910    93.2390     2.4990     0.0230  -999.2500  -999.2500  -999.2500
  789.0000    11.5830    90.4310     2.5010     0.0210  -999.2500  -999.2500  -999.2500
  789.5000    11.5760    89.1050     2.5020     0.0190  -999.2500  -999.2500  -999.2500
  790.0000    11.5680    89.8020     2.5030     0.0240   -56.0240    11.4030  -999.2500
  790.5000    11.5610    90.6220     2.4970     0.0280   -56.0830    11.4030    10.3180
  791.0000    11.5550    90.8540     2.4910     0.0330   -56.2060    11.4030  -999.2500
  791.5000    11.5630    90.9890     2.4850     0.0380   -56.3290    11.3860  -999.2500
  792.0000    11.5720    91.1520     2.4840     0.0330   -56.4260    11.3610    10.3180
  792.5000    11.5820    89.5370     2.5020     0.0270   -56.4260    11.3350    10.3180
  793.0000    11.5910    87.0750     2.5190     0.0200   -56.4260    11.2970    10.3180
  793.5000    11.5960    84.5450     2.5250     0.0140   -56.5210    11.3750    10.3880
  794.0000    11.6010    83.5140     2.5140     0.0090   -56.4260    11.2710    10.3180
  794.5000    11.6070    84.1010     2.5020     0.0120   -56.4260    11.2460    10.3180
  795.0000    11.6130    85.3050     2.4900     0.0160   -56.4260    11.2200    10.3180
  795.5000    11.6180    86.4800     2.4790     0.0200   -56.4260    11.1950    10.3180
  796.0000    11.6240    86.7490     2.4680     0.0250   -56.4260    11.1690    10.3180
  796.5000    11.6290    86.6090     2.4670     0.0300   -56.4260    11.1440    10.3180
  797.0000    11.6350    86.4960     2.4760     0.0350   -56.4260    11.1180    10.3180
  797.5000    11.6410    88.0480     2.4870     0.0330   -56.4260    11.0920    10.3180
  798.0000    11.6460    89.6000     2.4980     0.0310   -56.4260    11.0670    10.3180
  798.5000    11.6520    91.1650     2.5100     0.0300   -56.4260    11.0410    10.3180
  799.0000    11.6580    92.7930     2.5170     0.0280   -56.4260    11.0160    10.3180
  799.5000    11.6630    91.3410     2.5100     0.0260   -56.4260    10.9900    10.3180
  800.0000    11.6690    88.8690     2.5040     0.0240   -56.4260    10.9650    10.3180
  800.5000    11.6740    87.1330     2.4970     0.0230   -56.4260    10.9390    10.3180
  801.0000    11.6800    88.1880     2.4940     0.0220   -56.4260    10.9140    10.3180
  801.5000    11.6860    89.5160     2.4920     0.0270   -56.4260    10.8880    10.3180
  802.0000    11.6910    88.8700     2.4910     0.0320   -56.4260    10.8630    10.3180
  802.5000    11.6970    87.7350     2.4970     0.0370   -56.4260    10.8370    10.3180
  803.0000    11.7030    87.2580     2.5020     0.0320   -56.4260    10.8110    10.3070
  803.5000    11.7080    87.4330     2.5080     0.0270   -56.4260    10.7900    10.2900
  804.0000    11.7130    87.3840     2.5130     0.0220   -56.4260    10.7690    10.2730
  804.5000    11.7150    84.7380     2.5110     0.0180   -56.4250    10.7520    10.2570
  805.0000    11.7180    81.5680     2.5070     0.0140   -56.4260    10.7340    10.2400
  805.5000    11.7210    83.1210     2.5030     0.0160   -56.3930    10.7160    10.2240
  806.0000    11.7240    86.8400     2.4950     0.0180   -56.3460    10.6980    10.2070
  806.5000    11.7270    91.4990     2.4850     0.0210   -56.3000    10.6800    10.1910
  807.0000    11.7300    90.6220     2.4760     0.0230   -56.2540    10.6620    10.1740
  807.5000    11.7330    87.7750     2.4760     0.0260   -56.2080    10.6440    10.1580
  808.0000    11.7360    88.3390     2.4810     0.0280   -56.1620    10.6260    10.1410
  808.5000    11.7390    90.3910     2.4850     0.0290   -56.1160    10.6080    10.1250
  809.0000    11.7420    91.2420     2.4900     0.0230   -56.0700    10.5900    10.1080
  809.5000    11.7450    91.0620     2.4950     0.0190   -56.0240    10.5730    10.0920
  810.0000    11.7480    87.9910     2.4970     0.0150   -55.9780    10.5550    10.0760
  810.5000    11.7510    84.8580     2.4950     0.0160   -55.9320    10.5370    10.0590
  811.0000    11.7540    82.5080     2.4940     0.0170   -55.8850    10.5190    10.0430
  811.5000    11.7570    85.0480     2.4930     0.0190   -55.8390    10.5010    10.0260
  812.0000    11.7600    83.7360     2.4940     0.0200   -55.7930    10.4830    10.0100
  812.5000    11.7630    81.7060     2.4940     0.0210   -55.7470    10.4650     9.9930
  813.0000    11.7660    83.7060     2.4950     0.0230   -55.7010    10.4470     9.9770
  813.5000    11.7690    86.1270     2.4940     0.0240   -55.6530    10.4290     9.9600
  814.0000    11.7720    88.0960     2.4920     0.0260   -55.6380    10.4120     9.9440
  814.5000    11.7750    84.4650     2.4900     0.0260   -55.6970    10.3940     9.9270
  815.0000    11.7780    83.4060     2.4890     0.0270   -55.7530    10.3760     9.9110
  815.5000    11.7800    86.0310     2.4890     0.0280   -55.8120    10.3580     9.8940
  816.0000    11.7830    87.5080     2.4900     0.0280   -55.8690    10.3400     9.8780
  816.5000    11.7860    86.3560     2.4930     0.0290   -55.9270    10.3220     9.8610
  817.0000    11.7890    84.8500     2.4960     0.0300   -55.9890    10.3040     9.8450
  817.5000    11.7930    85.6800     2.5000     0.0300   -56.0220    10.2870     9.8280
  818.0000    11.7870    87.4310     2.5030     0.0310   -55.9980    10.2690     9.8110
  818.5000    11.7710    88.2180     2.5060     0.0310   -55.9800    10.2510     9.7940
  819.0000    11.7560    88.4250     2.5090     0.0320   -55.9610    10.2330     9.7760
  819.5000    11.7400    88.6880     2.5130     0.0320   -55.9410    10.2150     9.7610
  820.0000    11.7250    88.9550     2.5160     0.0330   -55.9220    10.1240     9.6090
  820.5000    11.7100    89.2200     2.5190     0.0330   -55.9030    10.0060     9.4770
  821.0000    11.6940    89.4540     2.5200     0.0340   -55.8840     9.8890     9.3440
  821.5000    11.6790    89.7620     2.5170     0.0290   -55.8650     9.7720     9.2400
  822.0000    11.6630    90.0760     2.5170     0.0240   -55.8450     9.6610     9.2350
  822.5000    11.6480    91.8440     2.5270     0.0190   -55.8260     9.6610     9.2300
