~VERSION INFORMATION
 VERS.                2.0:   CWLS LOG ASCII STANDARD - VERSION 2.0
 WRAP.                 NO:   ONE LINE PER DEPTH STEP
~WELL INFORMATION
#MNEM.UNIT      DATA TYPE    INFORMATION
#----------   ------------   ------------------------------
 STRT.F          150.0000:   START DEPTH
 STOP.F         2980.0000:   STOP DEPTH
 STEP.F            0.5000:   STEP LENGTH
 NULL.          -999.2500:   NO VALUE
 COMP. FENIX & SCISSION U.S. NAVY:   COMPANY
 WELL.   FENIX "A" #84-20:   WELL
 FLD .             NPR #3:   FIELD
 LOC .      S20 T39N R78W:   LOCATION
 CNTY.            NATRONA:   COUNTY
 STAT.            WYOMING:   STATE
 CTRY. UNITED STATES OF AMERICA:   COUNTRY
 SRVC.       SCHLUMBERGER:   SERVICE COMPANY
 DATE.        21-FEB-1977:   LOGDATE
 API .     49025103020000:   API NUMBER
~CURVE INFORMATION
#MNEM.UNIT       API CODE    CURVE DESCRIPTION
#----------   ------------   ------------------------------
 DEPT.F                  :   
 NPHI.DEC    42 890 03 00:   NEUTRON POROSITY SANDSTONE
 GRD .GAPI   45 310 01 00:   GAMMA RAY FROM DENSITY LOG
 CALD.IN     45 280 60 00:   CALIPER FROM DENSITY LOG
 RHOB.G/C3   45 350 01 00:   BULK DENSITY
 DCOR.G/C3   45 356 01 00:   DENSITY CORRECTION
 SPR .MV     07 010 01 00:   SPONTANEOUS POTENTIAL
 LLD .OHMM   11 220 10 00:   LATEROLOG DEEP
 LLS .OHMM   11 220 09 00:   LATEROLOG SHALLOW
 MSFL.OHMM   07 270 04 00:   MICRO SPHERICALLY FOCUSED RES.
~PARAMETER INFORMATION
#MNEM.UNIT          VALUE    DESCRIPTION
#----------   ------------   ------------------------------
 EKB .F         5006.0000:   Kelly bushing
 EGL .F         4996.0000:   Ground level
 EDF .F            0.0000:   Drilling floor
 TD  .F         2973.0000:   Total depth
 DATE.        21-FEB-1977:   Date logged
 CLNT.            A2DTECH:   Client Code
 SL  . 330' FEL & 2310' FNL:   Surface Location
 PD  .                 GL:   Permanent Datum
 EPD .F              4996:   Elevation Permanent Datum
 LMF .                 KB:   Log Measured From
 DMF .                 KB:   Drilling Measured From
 DAPD.F                10:   Feet Above Permanent Datum
 DD  .F              2973:   Depth driller
 DL  .F              2971:   Depth logger
 BLI .F              2970:   Bottom log interval
 TLI .F               164:   Top log interval
 CS1 .IN            8.625:   Casing size
 CBD1.      8.625" @ 167':   Casing driller 1
 CBL1.F               164:   Casing logger 1
 BS1 .IN            7.875:   Bit size
 BSD1.F              2973:   Depth drilled with bit1
 DFT .            KCL MUD:   Type fluid in hole
 DFD .                9.5:   Density
 DFV .                 35:   Viscosity
 DFPH.                6.5:   pH
 DFL .                 11:   Fluid loss
 MSS .              CIRC.:   Source of sample
 RMS .OHMM           0.27:   Rm
 MST .F                72:   Rm Meas. temp.
 RMF .OHMM           0.19:   Rmf
 MFST.F                72:   Rmf Meas. temp.
 RMC .OHMM           0.35:   Rmc
 MCST.F                72:   Rmc Meas. temp.
 MFSS.               MEAS:   Source Rmf.
 MCSS.               CALC:   Source Rmc.
 RMB .OHMM           0.18:   Rm. at BHT
 BHT .F               110:   BHT.
 TCS .HRS            0300:   Time Circ. stopped
 TLAB.HRS            1000:   Time logger at bottom
 MRT .F               110:   Maximum recorded temp.
 LUN .               7711:   Logging unit number
 LUL .               CSPR:   Logging unit location
 ENGI.             SAYLER:   Recorded By
 WITN.               JAPP:   Witnessed by
 ORIG.           5" PRINT:   Origin of data
 UWI .     49025103020000:   Unique Well ID
 DICO. A2D TECHNOLOGIES, INC.:   Digitizing Company
~OTHER INFORMATION
~A   DEPT       NPHI       GRD      CALD       RHOB       DCOR        SPR        LLD        LLS       MSFL   
# ...
  916.5000     0.3370   106.9710    10.6390     2.5320     0.0330   -30.3000     9.5870    11.7350    11.6650
  917.0000     0.3350   107.7480    10.6320     2.5460     0.0460   -30.2740    10.0380    11.5420    11.4880
  917.5000     0.3370   108.0720    10.6280     2.5480     0.0390   -30.2470    10.5100    11.2200    11.3120
  918.0000     0.3440   108.4590    10.6440     2.5450     0.0350   -30.2210     9.4120    10.8980    12.0880
  918.5000     0.3530   108.9540    10.6590     2.5590     0.0540   -30.1950    10.1300    10.5760    12.8650
  919.0000     0.3570   109.5030    10.6750     2.5410     0.0340   -30.1690     9.7710    10.3180    12.3940
  919.5000     0.3550   110.2730    10.6910     2.5210     0.0260   -30.1430     9.4120    10.3760    11.9240
  920.0000     0.3460   110.7780    10.7070     2.5280     0.0340   -30.1150     9.4970    10.4240    10.9030
  920.5000     0.3450   111.2360    10.7230     2.5410     0.0420   -30.0940     9.6390    10.4730    11.9530
  921.0000     0.3290   111.8120    10.7210     2.5530     0.0500   -30.0360     9.7800    10.5210    11.9530
  921.5000     0.3080   112.4010    10.7180     2.5380     0.0430   -29.9510     9.9220    10.5690    11.6350
  922.0000     0.3010   112.5440    10.7150     2.5220     0.0270   -29.8720    10.0630    10.6180    11.3700
  922.5000     0.3040   111.3810    10.7120     2.5180     0.0330   -29.7930    10.2050    10.6660    11.1060
  923.0000     0.3070   109.3020    10.7100     2.5230     0.0350   -29.7130    10.3180    10.7050    11.2690
  923.5000     0.3090   107.3740    10.7070     2.5360     0.0480   -29.6340    10.5840    10.9250    11.4320
  924.0000     0.3100   106.5140    10.7040     2.5310     0.0350   -29.5530    10.8050    11.1090    11.5940
  924.5000     0.3090   105.6740    10.7040     2.5330     0.0310   -29.4740    11.0270    11.2920    11.7570
  925.0000     0.3080   104.8290    10.7040     2.5200     0.0250   -29.3970    11.2480    11.4760    11.9530
  925.5000     0.3080   103.9720    10.7040     2.5280     0.0310   -29.3060    11.4700    11.6590    12.4180
  926.0000     0.3110   103.2470    10.7040     2.5340     0.0370   -29.3550    11.7350    11.9530    13.3470
  926.5000     0.3130   104.7750    10.7010     2.5300     0.0310   -29.5050    11.5840    11.8820    13.2280
  927.0000     0.3130   106.3120    10.6960     2.5410     0.0400   -29.6400    11.3950    11.7040    12.9290
  927.5000     0.3130   105.9520    10.6910     2.5330     0.0420   -29.7770    11.2060    11.5250    12.6310
  928.0000     0.3060   104.8050    10.6850     2.5250     0.0320   -29.9150    10.9030    11.3120    12.8670
  928.5000     0.3090   103.7570    10.6970     2.5250     0.0260   -30.0520    10.9290    11.3580    13.1040
  929.0000     0.3150   103.7810    10.7110     2.5210     0.0270   -30.1900    10.9920    11.4170    12.7520
  929.5000     0.3310   104.7850    10.7250     2.5390     0.0420   -30.3270    11.0550    11.4750    12.4010
  930.0000     0.3410   105.8310    10.7390     2.5510     0.0500   -30.4640    11.1060    11.5220    15.7480
  930.5000     0.3430   105.4880    10.7530     2.5370     0.0460   -30.6030    10.9090    11.3360    11.5220
  931.0000     0.3390   104.3760    10.7600     2.5470     0.0420   -30.7380    10.7450    11.1810    11.8570
  931.5000     0.3290   103.8490    10.7430     2.5400     0.0520   -30.8690    10.5810    11.0270    12.4170
  932.0000     0.3210   105.1650    10.7260     2.5280     0.0270   -30.8750    10.3180    10.9030    12.8650
  932.5000     0.3270   107.0210    10.7100     2.5160     0.0200   -30.8780    10.3830    10.9710    12.5200
  933.0000     0.3360   108.8690    10.6940     2.5050     0.0140   -30.8760    10.5440    11.0270    12.1750
  933.5000     0.3450   110.6120    10.6830     2.5040     0.0150   -30.8770    10.7050    11.1060    12.4840
  934.0000     0.3490   110.3880    10.6790     2.5030     0.0130   -30.8770    10.6300    11.0390    13.1040
  934.5000     0.3490   109.2760    10.6750     2.5000     0.0120   -30.8760    10.5560    10.9270    12.9250
  935.0000     0.3460   108.8130    10.6710     2.4970     0.0270   -30.8770    10.4820    10.8160    12.4770
  935.5000     0.3420   108.7240    10.6680     2.5000     0.0350   -30.8760    10.4070    10.7060    12.0280
  936.0000     0.3370   107.8740    10.6680     2.5020     0.0360   -30.8760    10.3180    10.7320    11.3120
  936.5000     0.3300   106.9460    10.6840     2.5080     0.0330   -30.8760    10.3500    10.7580    11.4200
  937.0000     0.3240   106.3320    10.6990     2.5220     0.0340   -30.8760    10.3900    10.7840    11.6890
  937.5000     0.3200   106.4270    10.7150     2.5410     0.0500   -30.8760    10.4300    10.8100    11.9590
  938.0000     0.3250   107.0510    10.7310     2.5350     0.0510   -30.8760    10.4700    10.8370    12.1750
  938.5000     0.3340   107.6220    10.7460     2.5320     0.0530   -30.8760    10.5100    10.8640    12.1340
  939.0000     0.3420   108.3690    10.7620     2.5420     0.0470   -30.8760    10.3690    10.9030    12.0840
  939.5000     0.3440   109.6480    10.7770     2.5340     0.0390   -30.8760    10.2280    10.8100    12.0340
  940.0000     0.3380   110.5790    10.7930     2.5260     0.0330   -30.8770    10.0870    10.5770    11.9830
  940.5000     0.3320   111.0470    10.8010     2.5310     0.0300   -30.8760     9.9460    10.3440    10.5100
  941.0000     0.3280   110.9280    10.7970     2.5540     0.0540   -30.8760     9.7270    10.1110    11.5220
  941.5000     0.3250   110.7420    10.7930     2.5470     0.0450   -30.8780     9.5090     9.8780    11.2810
  942.0000     0.3190   109.7230    10.7880     2.5320     0.0330   -30.8750     9.2910     9.6450    10.6790
  942.5000     0.3090   106.3350    10.7840     2.5330     0.0280   -30.8770     9.0720     9.4120    10.3180
  943.0000     0.3110   101.8700    10.7800     2.5320     0.0300   -30.8860     9.3780     9.9100    10.3180
  943.5000     0.3150    99.4210    10.7760     2.5250     0.0280   -31.0050     9.8870    10.4080    11.2470
  944.0000     0.3210    99.9070    10.7710     2.5360     0.0340   -31.1050    10.3960    10.9060    12.0210
  944.5000     0.3200   100.2060    10.7670     2.5530     0.0460   -31.2120    10.9040    11.4040    12.7940
  945.0000     0.3200   100.3500    10.7650     2.5530     0.0420   -31.3170    11.3120    11.9030    13.1040
  945.5000     0.3230   102.3930    10.7770     2.5520     0.0420   -31.4220    11.9530    12.4010    13.1040
  946.0000     0.3310   105.0380    10.7890     2.5430     0.0390   -31.5230    11.7780    12.1400    13.6040
  946.5000     0.3400   105.7600    10.8010     2.5240     0.0310   -31.6410    11.4860    11.8800    14.1040
  947.0000     0.3430   106.0370    10.8130     2.5040     0.0200   -31.6000    11.1940    11.6200    13.5720
  947.5000     0.3460   106.3160    10.8250     2.5120     0.0330   -31.4430    10.9020    11.3590    13.0390
  948.0000     0.3440   106.4780    10.8370     2.5380     0.0460   -31.3040    10.6100    11.0990    12.4010
  948.5000     0.3390   106.3230    10.8500     2.5370     0.0470   -31.1610    10.3180    10.8390    12.4010
  949.0000     0.3390   107.1920    10.8620     2.5420     0.0490   -31.0190    10.2020    10.5790    12.4010
  949.5000     0.3400   108.3510    10.8740     2.5370     0.0430   -30.8830    10.0850    10.3180    12.1420
  950.0000     0.3340   108.0410    10.8860     2.5360     0.0410   -30.8550     9.9460    10.3620    11.1060
  950.5000     0.3280   107.5070    10.8980     2.5370     0.0470   -30.8290     9.9920    10.4050    11.1880
  951.0000     0.3280   107.6570    10.8920     2.5480     0.0550   -30.8080    10.0490    10.4480    11.3950
  951.5000     0.3320   108.2560    10.8780     2.5550     0.0610   -30.7840    10.1300    10.5100    11.9640
  952.0000     0.3400   108.3880    10.8640     2.5470     0.0630   -30.7610    10.0250    10.4070    13.1000
  952.5000     0.3490   107.2450    10.8500     2.5380     0.0530   -30.7380     9.8470    10.2310    12.4730
