~VERSION INFORMATION
 VERS.                2.0:   CWLS LOG ASCII STANDARD - VERSION 2.0
 WRAP.                 NO:   ONE LINE PER DEPTH STEP
~WELL INFORMATION
#MNEM.UNIT      DATA TYPE    INFORMATION
#----------   ------------   ------------------------------
 STRT.F           10.0000:   START DEPTH
 STOP.F         2950.0000:   STOP DEPTH
 STEP.F            0.5000:   STEP LENGTH
 NULL.          -999.2500:   NO VALUE
 COMP.    FENIX & SCISSON:   COMPANY
 WELL.   PENIX SHX #11-23:   WELL
 FLD .  TEAPOT DOME NPR-3:   FIELD
 LOC .      S23 T38N R78W:   LOCATION
 CNTY.            NATRONA:   COUNTY
 STAT.            WYOMING:   STATE
 CTRY. UNITED STATES OF AMERICA:   COUNTRY
 SRVC.           BIRDWELL:   SERVICE COMPANY
 DATE.        19-MAY-1979:   LOGDATE
 API .     49025107790000:   API NUMBER
~CURVE INFORMATION
#MNEM.UNIT       API CODE    CURVE DESCRIPTION
#----------   ------------   ------------------------------
 DEPT.F                  :   
 ILD .OHMM   05 120 46 00:   INDUCTION LOG DEEP
 SN  .OHMM   05 040 16 00:   SHORT NORMAL 16"
 CALD.IN     45 280 60 00:   CALIPER FROM DENSITY LOG
 GRD .GAPI   45 310 01 00:   GAMMA RAY FROM DENSITY LOG
 RHOB.G/C3   45 350 01 00:   BULK DENSITY
 CORR.G/C3   45 356 01 00:   DENSITY CORRECTION
~PARAMETER INFORMATION
#MNEM.UNIT          VALUE    DESCRIPTION
#----------   ------------   ------------------------------
 EKB .F         5275.0000:   Kelly bushing
 EGL .F         5265.0000:   Ground level
 EDF .F            0.0000:   Drilling floor
 TD  .F         2995.0000:   Total depth
 DATE.        19-MAY-1979:   Date logged
 CLNT.            A2DTECH:   Client Code
 SL  . 337' FNL & 237' FWL:   Surface Location
 PD  .                 GL:   Permanent Datum
 EPD .F              5265:   Elevation Permanent Datum
 LMF .                 KB:   Log Measured From
 DMF .                 KB:   Drilling Measured From
 DAPD.F                10:   Feet Above Permanent Datum
 DD  .F              2995:   Depth driller
 DL  .F              2950:   Depth logger
 BLI .F              2944:   Bottom log interval
 TLI .F              1050:   Top log interval
 CS1 .IN            9.625:   Casing size
 CBD1.     9.625" @ 2050':   Casing driller 1
 CBL1.F              1050:   Casing logger 1
 BS1 .IN             8.75:   Bit size
 BSD1.F              2995:   Depth drilled with bit1
 DFT . AIR/FORRATION FLUIDS:   Type fluid in hole
 TCS .HRS              12:   Time Circ. stopped
 LUN .               3029:   Logging unit number
 LUL .             CASPER:   Logging unit location
 ENGI.         B. ROLLINS:   Recorded By
 ORIG.         2.5" PRINT:   Origin of data
 UWI .     49025107790000:   Unique Well ID
 DICO. A2D TECHNOLOGIES, INC.:   Digitizing Company
~OTHER INFORMATION
~A   DEPT      ILD         SN       CALD        GRD       RHOB         CORR 
# ...
 2090.0000     7.4970  -999.2500     9.1470   182.4930     2.5550     0.1000
 2090.5000     7.6190  -999.2500     9.1910   174.2890     2.5650     0.0940
 2091.0000     7.7410  -999.2500     9.2510   170.6530     2.5750     0.0960
 2091.5000     7.8630  -999.2500     9.1980   168.3860     2.5710     0.1040
 2092.0000     8.0060  -999.2500     9.1360   158.4140     2.5510     0.0620
 2092.5000     7.9830  -999.2500     9.0680   153.7690     2.5400     0.0490
 2093.0000     7.9540  -999.2500     8.9970   162.1190     2.5460     0.0550
 2093.5000     7.9250  -999.2500     9.0410   176.3650     2.5320     0.0670
 2094.0000     7.8960  -999.2500     9.1980   174.3170     2.5410     0.1030
 2094.5000     7.8670  -999.2500     9.1630   166.6030     2.5580     0.1320
 2095.0000     7.8500  -999.2500     9.1240   163.3970     2.5330     0.1240
 2095.5000     7.8380  -999.2500     9.2480   162.6970     2.5370     0.1130
 2096.0000     7.8260  -999.2500     9.2830   164.5820     2.5470     0.1100
 2096.5000     7.8140  -999.2500     9.1290   172.1850     2.5060     0.0770
 2097.0000     7.8020  -999.2500     9.0590   169.3730     2.5130     0.0790
 2097.5000     7.7890  -999.2500     9.2880   165.9420     2.5150     0.0900
 2098.0000     7.7770  -999.2500     9.1880   172.6870     2.5130     0.1210
 2098.5000     7.7650  -999.2500     9.0930   170.2260     2.5290     0.1520
 2099.0000     7.7520  -999.2500     9.1560   174.4580     2.5180     0.1650
 2099.5000     7.7400  -999.2500     9.2590   173.6210     2.5040     0.1690
 2100.0000     7.7280  -999.2500     9.3390   169.0670     2.4180     0.1550
 2100.5000     7.7160  -999.2500     9.5920   175.8260     2.5150     0.2860
 2101.0000     7.7170  -999.2500     9.2070   175.9760     2.5010     0.2430
 2101.5000     7.7170  -999.2500     9.2910   172.0960     2.4700     0.1560
 2102.0000     7.7450  -999.2500     9.2440   168.1740     2.4840     0.1210
 2102.5000     7.7700  -999.2500     9.1690   168.4660     2.5280     0.1510
 2103.0000     7.7970     2.0680     9.4170   169.8550     2.5470     0.1710
 2103.5000     7.8230     0.2000     9.1680   168.4380     2.5160     0.1290
 2104.0000     7.8490     0.3060     9.0510   171.5210     2.5070     0.1130
 2104.5000     7.8760     0.6340     9.2390   175.7060     2.5000     0.1490
 2105.0000     7.9010     0.9610     9.3700   178.7070     2.4900     0.1850
 2105.5000     7.9290     1.2890     9.1750   175.6720     2.4730     0.2240
 2106.0000     7.9560     1.6170     9.3580   177.5860     2.4960     0.2840
 2106.5000     7.9820     1.9440     9.0130   170.1120     2.5630     0.2700
 2107.0000     8.0060     2.2720     9.0590   171.4920     2.5310     0.1930
 2107.5000     7.7690     2.5990     9.0600   181.2120     2.5140     0.1740
 2108.0000     7.5740     0.2100     9.0800   183.6790     2.5230     0.1820
 2108.5000     7.6650     0.7610     9.4660   184.3070     2.5120     0.1950
 2109.0000     7.7460     0.2690     9.3500   181.0010     2.5010     0.1850
 2109.5000     7.8600     0.4350     9.2910   180.7150     2.4850     0.1950
 2110.0000     7.7550     0.8810     9.1750   167.6380     2.5080     0.2100
 2110.5000     7.5760     1.3270     9.3070   169.2240     2.4670     0.1780
 2111.0000     7.3970     1.7720     9.2730   170.2940     2.5070     0.2040
 2111.5000     7.2990     2.2180     9.0960   171.4610     2.5390     0.1890
 2112.0000     7.2750     5.1160     9.0650   165.0810     2.4470     0.1440
 2112.5000     7.2510     7.5010     9.2540   167.1700     2.3710     0.1900
 2113.0000     7.2280     3.9770     9.3910   174.5220     2.2950     0.2960
 2113.5000     7.2040     8.6760     9.4330   183.6270     2.2030     0.3770
 2114.0000     7.1810     7.8280     9.2620   181.1790     2.2820     0.2780
 2114.5000     7.1580     6.4320     9.0460   169.8690     2.3870     0.1410
 2115.0000     7.1340     8.4270     9.1800   171.3320     2.4080     0.1330
 2115.5000     7.1110     9.0920     9.3010   175.6960     2.4020     0.2190
 2116.0000     7.0880     9.0920     9.4240   180.9020     2.4440     0.3090
 2116.5000     7.0640     9.0920     9.3490   183.6420     2.3780     0.2920
 2117.0000     7.0410     9.0920     9.2140   181.8060     2.4080     0.2490
 2117.5000     7.0180     9.0920     9.0510   176.1940     2.4750     0.1600
 2118.0000     6.9940     9.0920     9.1240   168.4190     2.4850     0.0510
 2118.5000     6.9710     9.0920     9.0140   175.0100     2.4990     0.0610
 2119.0000     6.9470     9.0920     9.0050   176.4700     2.5160     0.0760
 2119.5000     6.9230     9.0920     8.9280   176.7950     2.5080     0.1140
 2120.0000     6.9040     9.0920     8.8940   176.9300     2.4870     0.1480
 2120.5000     6.8640     9.0920     9.0360   172.3490     2.4670     0.1840
 2121.0000     6.8310     8.7310     9.1580   166.6790     2.4620     0.2100
 2121.5000     6.7970     8.2580     9.0370   165.6160     2.4620     0.2010
 2122.0000     6.7630     8.3200     8.8880   164.1380     2.4370     0.1410
 2122.5000     6.7290     8.4120     8.9460   164.6090     2.3570     0.1600
 2123.0000     6.6950     8.5050     9.1560   167.2690     2.3740     0.2450
 2123.5000     6.6610     8.5970     9.2510   170.4600     2.4160     0.3120
 2124.0000     6.6270     8.6900     9.0250   164.3090     2.4580     0.1970
 2124.5000     6.5930     8.7820     8.9750   162.9130     2.4960     0.1400
 2125.0000     6.5420     8.8740     9.2310   174.6600     2.5370     0.1550
 2125.5000     6.5660     8.9670     8.9550   180.1560     2.5400     0.1640
 2126.0000     6.7230     9.0590     9.1050   176.6080     2.5320     0.1090
 2126.5000     7.1730     9.1520     9.1460   171.6990     2.5170     0.1120
 2127.0000     7.2040     9.2440     9.2240   165.5560     2.5110     0.1150
 2127.5000     7.2350     9.3370     9.2320   163.2680     2.5240     0.1760
 2128.0000     7.2660     9.4300     9.1560   165.5140     2.5380     0.2120
 2128.5000     7.2990     9.5220     9.1050   163.2200     2.5490     0.1990
 2129.0000     7.7160     9.6150     9.0280   161.6770     2.5580     0.1690
 2129.5000     7.7080     9.7080     9.0900   161.9110     2.5190     0.1220
 2130.0000     7.6880     9.8190     9.1040   163.3100     2.5390     0.1040
 2130.5000     7.6680    10.4020     9.0690   178.2800     2.5520     0.0870
 2131.0000     7.6480    10.2650     9.1910   179.5480     2.5300     0.0690
 2131.5000     7.6280    10.0470     9.1500   181.2450     2.5370     0.0570
 2132.0000     7.6080     9.8280     9.3030   178.9040     2.5490     0.0580
 2132.5000     7.5880     9.6320     9.4570   169.8130     2.5550     0.0630
 2133.0000     7.5580     9.6510     9.2330   171.2250     2.5600     0.0800
 2133.5000     7.5050     9.6690     9.2180   174.9180     2.5620     0.0840
 2134.0000     7.4540     9.6860     9.1830   178.3600     2.5480     0.1060
 2134.5000     7.4020     9.7040     9.2560   181.6250     2.5240     0.1430
 2135.0000     7.3500     9.7220     9.3610   185.2730     2.5520     0.1730
 2135.5000     7.2980     9.7390     9.5980   186.0220     2.5460     0.1900
 2136.0000     7.2460     9.7570     9.3140   183.8980     2.5370     0.1860
 2136.5000     7.1940     9.7750     9.4570   181.8450     2.5270     0.1820
 2137.0000     7.1660     9.7920     9.2780   181.9760     2.5060     0.1930
 2137.5000     7.2400     9.8190     9.1730   175.3200     2.4910     0.2150
 2138.0000     7.3090     9.7590     9.4110   171.6700     2.5160     0.1420
 2138.5000     7.3770     9.6420     9.1680   165.5300     2.4740     0.1010
 2139.0000     7.4360     9.5250     9.2750   171.2660     2.4900     0.1030
 2139.5000     7.4360     9.4080     9.1360   167.0400     2.5440     0.1130
 2140.0000     7.4360     9.2680     9.0650   171.4260     2.5460     0.1200
 2140.5000     7.4360     9.6500     9.1960   186.3260     2.5320     0.1450
 2141.0000     7.2870     9.6930     9.3180   181.4620     2.5090     0.1990
 2141.5000     7.3070     9.7360     9.4060   189.3160     2.5000     0.2500
