~VERSION INFORMATION
 VERS.                2.0:   CWLS LOG ASCII STANDARD - VERSION 2.0
 WRAP.                 NO:   ONE LINE PER DEPTH STEP
~WELL INFORMATION
#MNEM.UNIT      DATA TYPE    INFORMATION
#----------   ------------   ------------------------------
 STRT.F          545.0000:   START DEPTH
 STOP.F         3193.0000:   STOP DEPTH
 STEP.F            0.5000:   STEP LENGTH
 NULL.          -999.2500:   NO VALUE
 COMP. FENIX & SCISSON-U.S. NAVY:   COMPANY
 WELL.   FENIX "A" #47-34:   WELL
 FLD .          N.P.R. #3:   FIELD
 LOC .      S34 T39N R78W:   LOCATION
 CNTY.            NATRONA:   COUNTY
 STAT.            WYOMING:   STATE
 CTRY. UNITED STATES OF AMERICA:   COUNTRY
 SRVC.       SCHLUMBERGER:   SERVICE COMPANY
 DATE.        26-MAR-1977:   LOGDATE
 API .     49025103260000:   API NUMBER
~CURVE INFORMATION
#MNEM.UNIT       API CODE    CURVE DESCRIPTION
#----------   ------------   ------------------------------
 DEPT.F                  :   
 SPR .MV     07 010 01 00:   SPONTANEOUS POTENTIAL FROM RES.
 ILM .OHMM   07 120 44 00:   INDUCTION LOG MEDIUM RESISTIVITY
 ILD .OHMM   07 120 46 00:   DEEP INDUCTION RESISTIVITY
 LL8 .OHMM   07 220 08 00:   LATEROLOG-8 RES.
 CALD.IN     45 280 60 00:   CALIPER FROM DENSITY LOG
 GRD .GAPI   45 310 01 00:   GAMMA RAY FROM DENSITY LOG
 RHOB.G/C3   45 350 01 00:   BULK DENSITY
 CORR.G/C3   45 356 01 00:   DENSITY CORRECTION
~PARAMETER INFORMATION
#MNEM.UNIT          VALUE    DESCRIPTION
#----------   ------------   ------------------------------
 EKB .F         5144.0000:   Kelly bushing
 EGL .F         5132.0000:   Ground level
 TD  .F         3194.0000:   Total depth
 CLNT.            A2DTECH:   Client Code
 SL  . 2310' FWL & 990' FSL:   Surface Location
 PD  .                 GL:   Permanent Datum
 EPD .F              5132:   Elevation Permanent Datum
 LMF .                 KB:   Log Measured From
 DMF .                 KB:   Drilling Measured From
 DAPD.F                12:   Feet Above Permanent Datum
 DATE.        26-MAR-1977:   Date Logged [DD-MMM-YYYY]
 DD  .F              3188:   Depth driller
 DL  .F              3194:   Depth logger
 BLI .F              3188:   Bottom log interval
 TLI .F               564:   Top log interval
 CS1 .IN            8.625:   Casing size
 CBD1.      8.625" @ 570':   Casing driller 1
 CBL1.F               564:   Casing logger 1
 BS1 .IN            7.875:   Bit size
 BSD1.F              3188:   Depth drilled with bit1
 DFT .                KCL:   Type fluid in hole
 DFD .                9.2:   Density
 DFV .                 30:   Viscosity
 DFL .                9.2:   Fluid loss
 MSS .                PIT:   Source of sample
 RMS .OHMM          0.354:   Rm
 MST .F                70:   Rm Meas. temp.
 RMF .OHMM          0.326:   Rmf
 MFST.F                70:   Rmf Meas. temp.
 MFSS.               MEAS:   Source Rmf.
 RMC .OHMM          0.531:   Rmc
 MCST.F                70:   Rmc Meas. temp.
 MCSS.               CALC:   Source Rmc.
 RMB .OHMM          0.205:   Rm. at BHT
 BHT .F               121:   BHT.
 TLAB.HRS            1900:   Time logger at bottom
 MRT .F               121:   Maximum recorded temp.
 LUN .               5642:   Logging unit number
 LUL .               CSPR:   Logging unit location
 ENGI.             MARTIN:   Recorded By
 WITN.         PETTINGILL:   Witnessed by
 ORIG.           5" PRINT:   Origin of data
 UWI .     49025103260000:   Unique Well ID
 DICO. A2D TECHNOLOGIES, INC.:   Digitizing Company
~OTHER INFORMATION
~A   DEPT      SPR        ILM        ILD        LL8       CALD         GRD      RHOB       CORR   
  545.0000  -999.2500  -999.2500  -999.2500  -999.2500  -999.2500    60.3168  -999.2500  -999.2500
  545.5000  -999.2500  -999.2500  -999.2500  -999.2500  -999.2500    59.4486  -999.2500  -999.2500
  546.0000  -999.2500  -999.2500  -999.2500  -999.2500  -999.2500    58.4316  -999.2500  -999.2500
  546.5000  -999.2500  -999.2500  -999.2500  -999.2500  -999.2500    57.5634  -999.2500  -999.2500
  547.0000  -999.2500  -999.2500  -999.2500  -999.2500  -999.2500    56.8440  -999.2500  -999.2500
  547.5000  -999.2500  -999.2500  -999.2500  -999.2500  -999.2500    56.2673  -999.2500  -999.2500
  548.0000  -999.2500  -999.2500  -999.2500  -999.2500  -999.2500    58.9767  -999.2500  -999.2500
  548.5000  -999.2500  -999.2500  -999.2500  -999.2500  -999.2500    61.6906  -999.2500  -999.2500
  549.0000  -999.2500  -999.2500  -999.2500  -999.2500  -999.2500    63.2312  -999.2500  -999.2500
  549.5000  -999.2500  -999.2500  -999.2500  -999.2500  -999.2500    62.9259  -999.2500  -999.2500
  550.0000  -999.2500  -999.2500  -999.2500  -999.2500  -999.2500    56.8493  -999.2500  -999.2500
  550.5000  -999.2500  -999.2500  -999.2500  -999.2500  -999.2500    55.5286  -999.2500  -999.2500
  551.0000  -999.2500  -999.2500  -999.2500  -999.2500  -999.2500    56.7499  -999.2500  -999.2500
  551.5000  -999.2500  -999.2500  -999.2500  -999.2500  -999.2500    57.9650  -999.2500  -999.2500
  552.0000  -999.2500  -999.2500  -999.2500  -999.2500  -999.2500    59.9242  -999.2500  -999.2500
  552.5000  -999.2500  -999.2500  -999.2500  -999.2500  -999.2500    62.1810  -999.2500  -999.2500
  553.0000  -999.2500  -999.2500  -999.2500  -999.2500  -999.2500    65.6283  -999.2500  -999.2500
  553.5000  -999.2500  -999.2500  -999.2500  -999.2500  -999.2500    71.0614  -999.2500  -999.2500
  554.0000  -999.2500     5.8776    11.8749     1.1371     8.6832    75.3159     2.2103     0.1416
  554.5000  -999.2500     5.9217     3.1808     5.5606     8.8492    78.6548     2.1994     0.1191
  555.0000     0.1506     2.1302     2.0380    11.5851     8.9557    79.1259     2.2229     0.1145
  555.5000    -3.6445     3.1182     3.7189    16.5991     9.0027    79.2994     2.2583     0.1340
  556.0000    -6.8174     8.8023    18.5948    18.6776     9.1092    79.1691     2.2935     0.2139
  556.5000    -9.8435     8.5686    20.6405    19.8870     9.3942    79.0449     2.3450     0.2484
  557.0000   -12.3741    10.8497    20.9445    20.4563     9.9769    79.0758     2.3609     0.2544
  557.5000   -14.4529    12.2969    20.8172    20.8970    10.4620    79.1004     2.3332     0.2452
  558.0000   -18.4895    12.3892    18.4913    21.2003    10.9686    78.9762     2.3040     0.1817
  558.5000   -19.9659    11.8148    16.5313    21.3602    11.4702    79.0015     2.2920     0.1547
  559.0000   -21.2917    11.0337    14.4759    21.6947    11.8617    79.3294     2.2974     0.1307
  559.5000   -22.6175    10.3758    12.9725    21.9880    12.0724    81.4374     2.3622     0.1208
  560.0000   -23.4915    10.7488    12.1144    21.6996    12.1938    83.2477     2.3901     0.0976
  560.5000   -24.2149    32.7734    16.0946    21.4149    12.3151    85.9510     2.4000     0.0659
  561.0000   -25.2395    60.6402    19.8147    20.9886    12.3472    88.2078     2.3956     0.0536
  561.5000   -25.9629    15.9804    20.6695    20.2886    12.3793    89.4168     2.3814     0.0297
  562.0000   -26.9875    14.0208    19.8469    19.4771    12.4263    85.2809     2.3852     0.0391
  562.5000   -28.1627    14.1313    18.6663    18.6980    12.4435    85.7520     2.4087     0.0601
  563.0000   -28.9057    14.3388    17.5559    18.0598    12.4772    88.1697     2.4366     0.0710
  563.5000   -29.3082    14.4491    16.7288    17.4743    12.5082    90.1726     2.4465     0.0890
  564.0000   -29.2712    14.4600    15.7054    16.6599    12.5552    89.2548     2.4285     0.0906
  564.5000   -29.8440    14.2720    16.4279    16.2158    12.5872    87.4937     2.4158     0.0791
  565.0000   -31.7722    13.7974    17.7385    15.6751    12.6193    86.3279     2.4211     0.0784
  565.5000   -34.0016    13.7100    18.2500    15.2573    12.6514    86.0488     2.4649     0.0893
  566.0000   -35.6286    13.9139    18.2648    14.9535    12.6835    88.3117     2.4929     0.0925
  566.5000   -36.0508    13.7327    17.7817    14.4548    12.7304    89.3781     2.4854     0.0918
  567.0000   -36.3297    13.4612    16.6089    14.1594    12.7774    89.2530     2.4698     0.0888
  567.5000   -36.2927    12.9238    14.9870    13.8871    12.8700    88.9810     2.4578     0.0817
  568.0000   -36.2631    12.3113    12.9748    13.8955    12.9956    88.2461     2.4143     0.0712
  568.5000   -36.0829    11.7772    11.4678    14.1949    13.1421    86.5892     2.3234     0.0604
  569.0000   -36.0532     9.1053    11.7177    14.5007    13.2337    82.3647     2.2338     0.0473
  569.5000   -35.8730     9.9691    12.6761    15.1231    13.2658    79.1155     2.0553     0.0443
  570.0000   -35.6928    12.1918    13.6958    15.4466    13.2383    80.6283     1.9997     0.0940
  570.5000   -35.8137    13.6283    14.0582    14.9337    12.6454    81.8434     1.5848     0.1755
  571.0000   -36.0853    14.0210    14.7663    14.5357    10.6965    83.6538     1.7375     0.1725
  571.5000   -36.6581    14.0315    19.0796    14.4444    10.2838    86.9523     1.8812     0.1641
  572.0000   -37.3741    14.3363    23.0081    14.3537    10.7028    89.5067     2.4137     0.2130
  572.5000   -37.8037    15.8054    23.8307    14.3645    10.4973    90.2778     2.5373     0.2247
  573.0000   -38.3690    17.0672    20.3522    13.9796    10.3955    89.5050     2.4301     0.1574
  573.5000   -38.7912    16.9623    19.0060    13.7962    10.5317    90.4797     2.4084     0.0877
  574.0000   -39.2134    16.3981    21.7096    13.6152    11.4269    93.1829     2.4254     0.0529
  574.5000   -39.6356    15.7435    19.9836    13.4384    11.3102    95.1421     2.4593     0.0548
  575.0000   -40.3590    15.1150    16.1281    13.6337    10.9256    97.5477     2.4767     0.0895
  575.5000   -41.2330    18.5511    14.5272    13.9392    10.8237    95.6379     2.5076     0.1253
  576.0000   -42.4082    21.3912    13.4247    14.0345    11.7641    93.5792     2.5250     0.1525
  576.5000   -43.5833    20.9677    13.1575    13.8504    12.0046    92.7110     2.4447     0.0642
  577.0000   -44.7585    19.8542    13.3540    13.6666    11.8283    92.1404     2.4425     0.0604
  577.5000   -45.9337    16.4853    13.7390    13.6769    11.0860    91.7163     2.4936     0.0799
  578.0000   -45.7227    14.9552    13.8454    13.8755    11.2079    91.2969     2.5330     0.0909
  578.5000   -44.9709    14.3776    13.7613    13.9800    11.1805    91.3277     2.5128     0.1215
  579.0000   -46.2893    14.5914    13.7725    14.0854    10.7810    91.7988     2.5347     0.1453
  579.5000   -47.6151    15.2209    13.6884    14.0939    10.7190   103.5794     2.4761     0.0780
  580.0000   -47.8940    16.7806    13.7948    13.9090    12.2619   107.7707     2.4635     0.0246
  580.5000   -48.1656    17.8715    13.9017    13.7265    12.2012   108.5394     2.4741     0.0216
  581.0000   -48.1286    18.0089    14.1174    13.7369    11.5945    97.4034     2.4830     0.0271
  581.5000   -48.2570    15.5865    14.2185    13.9363    11.2992    82.9935     2.4563     0.0132
  582.0000   -48.2199    11.5065    14.1322    14.1386    11.1378    83.0182     2.4625     0.0167
  582.5000   -47.8891    10.3806    13.8537    14.1471    10.9169    84.0997     2.5151     0.0444
  583.0000   -46.6547     9.4281    13.6748    14.1557    10.7853    87.1200     2.5453     0.0670
  583.5000   -44.3660    10.6140    13.3131    14.0668    10.9959    97.6817     2.5319     0.0849
  584.0000   -43.2821    11.5410    12.7832    14.2871    11.3554   103.2123     2.4688     0.0315
  584.5000   -45.5116    12.1224    12.5288    14.4803    11.3726   102.7905     2.4501     0.0200
  585.0000   -49.0964    12.4717    12.8926    14.3872    10.6687    99.9878     2.4953     0.0348
