~VERSION INFORMATION
 VERS.                2.0:   CWLS LOG ASCII STANDARD - VERSION 2.0
 WRAP.                 NO:   ONE LINE PER DEPTH STEP
~WELL INFORMATION
#MNEM.UNIT      DATA TYPE    INFORMATION
#----------   ------------   ------------------------------
 STRT.F          207.0000:   START DEPTH
 STOP.F         3130.0000:   STOP DEPTH
 STEP.F            0.5000:   STEP LENGTH
 NULL.          -999.2500:   NO VALUE
 COMP. FENIX & SCISSON U.S. NAVY:   COMPANY
 WELL.    FENIX "A" #61-3:   WELL
 FLD .             NPR #3:   FIELD
 LOC .       S3 T38N R78W:   LOCATION
 CNTY.            NATRONA:   COUNTY
 STAT.            WYOMING:   STATE
 CTRY. UNITED STATES OF AMERICA:   COUNTRY
 SRVC.              WELEX:   SERVICE COMPANY
 DATE.        13-MAY-1977:   LOGDATE
 API .     49025103630000:   API NUMBER
~CURVE INFORMATION
#MNEM.UNIT       API CODE    CURVE DESCRIPTION
#----------   ------------   ------------------------------
 DEPT.F                  :   
 SPR .MV     07 010 01 00:   SPONTANEOUS POTENTIAL
 SFLU.OHMM   07 220 01 00:   SPHERICALLY FOCUSED LOG UNAVERAGED RESISTIVITY
 ILD .OHMM   07 120 46 00:   INDUCTION LOG DEEP RESISTIVITY
 ILM .OHMM   07 120 44 00:   INDUCTION LOG MEDIUM RESISTIVITY
 CALD.IN     45 280 60 00:   CALIPER FROM DENSITY LOG
 GRD .GAPI   45 310 01 00:   GAMMA RAY FROM DENSITY LOG
 RHOB.G/C3   45 350 01 00:   BULK DENSITY
 CORR.G/C3   45 356 01 00:   DENSITY CORRECTION
~PARAMETER INFORMATION
#MNEM.UNIT          VALUE    DESCRIPTION
#----------   ------------   ------------------------------
 EKB .F         5109.0000:   Kelly bushing
 EGL .F         5099.0000:   Ground level
 EDF .F            0.0000:   Drilling floor
 TD  .F         3130.0000:   Total depth
 DATE.        13-MAY-1977:   Date logged
 CLNT.            A2DTECH:   Client Code
 SL  . 330' FNL & 1650' FEL:   Surface Location
 PD  .                 GL:   Permanent Datum
 EPD .F              5099:   Elevation Permanent Datum
 LMF .                 KB:   Log Measured From
 DMF .                 KB:   Drilling Measured From
 DAPD.F                10:   Feet Above Permanent Datum
 DD  .F              3126:   Depth driller
 DL  .F              3129:   Depth logger
 BLI .F              3127:   Bottom log interval
 TLI .F               210:   Top log interval
 CS1 .IN            8.625:   Casing size
 CBD1.      8.625" @ 200':   Casing driller 1
 CBL1.F               216:   Casing logger 1
 BS1 .IN            7.875:   Bit size
 BSD1.F              3126:   Depth drilled with bit1
 DFT .            KCL MUD:   Type fluid in hole
 DFD .                9.1:   Density
 DFV .                 32:   Viscosity
 DFPH.                  8:   pH
 DFL .                8.4:   Fluid loss
 MSS .           FLOWLINE:   Source of sample
 RMS .OHMM            .29:   Rm
 MST .F                68:   Rm Meas. temp.
 RMF .OHMM            .28:   Rmf
 MFST.F                68:   Rmf Meas. temp.
 RMC .OHMM            .43:   Rmc
 MCST.F                68:   Rmc Meas. temp.
 MFSS.           FANN KIT:   Source Rmf.
 MCSS.           FANN KIT:   Source Rmc.
 RMB .OHMM            .16:   Rm. at BHT
 BHT .F               123:   BHT.
 TCS .HRS             2.5:   Time Circ. stopped
 MRT .F               123:   Maximum recorded temp.
 LUN .               9685:   Logging unit number
 LUL .           BRIGHTON:   Logging unit location
 ENGI.          T. JOYNER:   Recorded By
 WITN.      B. HARRINGTON:   Witnessed by
 ORIG.           5" PRINT:   Origin of data
 UWI .     49025103630000:   Unique Well ID
 DICO. A2D TECHNOLOGIES, INC.:   Digitizing Company
~OTHER INFORMATION
~A   DEPT      SPR       SFLU        ILD        ILM       CALD        GRD       RHOB       CORR   
# ...
 1341.0000   -32.5450     9.7457     6.2632     7.3267     8.7275   103.6507     2.4957     0.0249
 1341.5000   -32.9482     9.5669     6.2382     7.3254     8.7279   103.2332     2.4957     0.0249
 1342.0000   -32.9532     9.6529     6.2057     7.3240     8.7679   103.6356     2.5027     0.0249
 1342.5000   -32.9582     9.6514     6.2051     7.3227     8.7485   104.0395     2.5057     0.0229
 1343.0000   -32.9632     9.9190     6.2039     7.3213     8.7291   104.4435     2.5057     0.0229
 1343.5000   -32.7686     9.7363     6.2028     7.3200     8.7493   104.4514     2.5067     0.0229
 1344.0000   -33.1728     9.4695     6.1477     7.3186     8.7695   104.4592     2.5187     0.0229
 1344.5000   -33.1778     9.2100     6.1439     7.3173     8.7699   104.4671     2.5207     0.0229
 1345.0000   -33.1828     9.0404     6.1430     7.2489     8.7702   103.6829     2.5217     0.0249
 1345.5000   -33.1879     8.9560     6.0854     7.3146     8.7706   102.8987     2.5217     0.0249
 1346.0000   -32.9933     8.9543     6.0843     7.2457     8.7710   102.9066     2.5237     0.0229
 1346.5000   -33.1979     8.9530     6.0831     7.2449     8.7712   102.9113     2.5237     0.0269
 1347.0000   -33.2029     9.0327     6.0825     7.2020     8.7718   103.5894     2.5227     0.0269
 1347.5000   -33.2079     9.0324     6.0813     7.1594     8.7722   104.2675     2.5167     0.0249
 1348.0000   -33.2129     9.1139     6.0798     7.1170     8.7726   104.9456     2.5037     0.0229
 1348.5000   -33.4175     9.1125     6.0784     7.0749     8.7335   105.3224     2.5017     0.0129
 1349.0000   -33.2229     9.1108     6.0775     7.0331     8.7537   104.9326     2.4977     0.0129
 1349.5000   -33.4275     9.1085     6.1323     6.9749     8.7739   104.9421     2.4967     0.0129
 1350.0000   -33.4326     9.0237     6.1312     6.9743     8.7743   104.5539     2.4927     0.0129
 1350.5000   -33.2380     8.8576     6.1303     6.8459     8.7747   103.8563     2.4946     0.0070
 1351.0000   -33.2430     8.7748     6.0730     6.8447     8.7747   103.3740     2.4947     0.0030
 1351.5000   -33.2480     8.7735     6.0719     6.7807     8.7749   102.6258     2.4957     0.0090
 1352.0000   -33.2530     8.7716     6.0150     6.7795     8.8344   104.2140     2.4998     0.0090
 1352.5000   -33.2580     8.7699     5.9590     6.7782     8.8148   109.3250     2.5018     0.0151
 1353.0000   -33.2630     8.7687     5.9033     6.7770     8.8744   103.7875     2.5048     0.0171
 1353.5000   -33.4676     8.8487     5.9022     6.7139     8.8944   104.1859     2.5048     0.0171
 1354.0000   -33.2731     9.0940     5.9014     6.7747     8.8946   105.3780     2.5048     0.0192
 1354.5000   -33.2771     9.3465     5.8998     6.7732     8.8948   106.5701     2.5078     0.0152
 1355.0000   -33.2821     9.1743     5.8988     6.7724     8.8752   107.3662     2.5048     0.0172
 1355.5000   -33.0875     9.0893     5.8979     6.7709     8.8754   107.7662     2.5019     0.0173
 1356.0000   -32.8929     8.8399     5.8968     6.7074     8.8756   107.3741     2.4979     0.0173
 1356.5000   -32.8979     8.7570     5.8959     6.7065     8.8758   106.9820     2.4929     0.0153
 1357.0000   -33.3021     8.7554     5.8951     6.7672     8.8760   105.7978     2.4889     0.0094
 1357.5000   -33.1075     8.7538     5.9482     6.8282     8.8960   105.4058     2.4789     0.0054
 1358.0000   -33.3121     8.9153     6.0021     7.0183     8.8764   104.6176     2.4770     0.0034
 1358.5000   -33.3151     9.2472     6.0129     7.0819     8.8766   104.2255     2.4770     0.0035
 1359.0000   -33.3212     9.5924     6.0236     7.1463     8.8966   103.0413     2.4770     0.0035
 1359.5000   -33.3252     9.6796     6.0344     7.1444     8.8968   103.0421     2.4770     0.0035
 1360.0000   -33.1326     9.6771     6.0453     7.1431     8.8772   103.4343     2.4770     0.0036
 1360.5000   -33.1376     9.6754     6.0561     7.1420     8.8972   103.8266     2.4770     0.0096
 1361.0000   -33.3422     9.6736     6.0670     7.1410     8.8974   104.2188     2.4820     0.0136
 1361.5000   -32.9480     9.6725     6.0778     7.1391     8.8976   104.6110     2.4851     0.0157
 1362.0000   -33.1526     9.6700     6.0887     7.1383     8.8780   105.0032     2.4871     0.0057
 1362.5000   -33.1577     9.7576     6.0996     7.0711     8.8980   105.3954     2.4869     0.0214
 1363.0000   -33.1627     9.7561     6.1106     7.0698     8.8982   105.7876     2.4879     0.0158
 1363.5000   -33.3673     9.7543     6.1215     7.0685     8.8984   106.2462     2.4929     0.0178
 1364.0000   -33.1727     9.7525     6.1325     7.1320     8.8788   105.4573     2.4939     0.0179
 1364.5000   -33.3773     9.6614     6.1435     7.1315     8.8790   105.0652     2.4861     0.0119
 1365.0000   -33.1827     9.5705     6.1545     7.1299     8.8792   105.4652     2.4822     0.0119
 1365.5000   -33.1887     9.5691     6.1656     7.0636     8.8794   105.4692     2.4832     0.0100
 1366.0000   -32.9931     9.5680     6.1766     7.0625     8.9192   105.0771     2.4802     0.0120
 1366.5000   -33.1977     9.5659     6.1877     7.0610     8.8996   103.8929     2.4802     0.0120
 1367.0000   -33.2028     9.5648     6.1988     7.1908     8.9196   103.5008     2.4822     0.0141
 1367.5000   -33.0082     9.5630     6.2099     7.3229     8.9594   103.5048     2.4832     0.0141
 1368.0000   -33.0132     9.5609     6.2210     7.5265     8.9794   104.3008     2.4833     0.0141
 1368.5000   -32.8186     9.8252     6.2322     7.5254     8.9598   104.3048     2.4853     0.0142
 1369.0000   -32.8236     9.8242     6.2434     7.5930     8.9402   103.9127     2.4853     0.0102
 1369.5000   -32.8286     9.8231     6.2545     7.5916     8.9206   102.7285     2.4833     0.0123
 1370.0000   -32.8316     9.8209     6.2658     7.5905     8.8416   100.7923     2.4833     0.0123
 1370.5000   -32.8381     9.8191     6.2770     7.5893     8.8814    99.6081     2.4813     0.0103
 1371.0000   -32.8437     9.6382     6.2882     7.5874     8.8816    99.6120     2.4793     0.0104
 1371.5000   -32.6491     9.6365     6.2995     7.5168     8.8620    99.2200     2.4774     0.0084
 1372.0000   -32.4545     9.3724     6.3108     7.5159     8.8424    99.6200     2.4702     0.0084
 1372.5000   -32.2599     9.4573     6.3221     7.3767     8.8030   100.0200     2.4642     0.0045
 1373.0000   -32.2649     9.1981     6.3335     7.3081     8.8626   101.6081     2.4572     0.0005
 1373.5000   -32.4695     9.1964     6.3448     7.2398     8.8628   102.0082     2.4572     0.0005
 1374.0000   -32.4746     9.3655     6.3562     7.1722     8.8630   103.5563     2.4582     0.0026
 1374.5000   -32.4796     9.0254     6.3625     7.1709     8.8632   103.5603     2.4603     0.0026
 1375.0000   -32.4846     9.1071     6.3611     7.1693     8.8634   103.1840     2.4633     0.0046
 1375.5000   -32.2900     9.3596     6.3599     7.2347     8.8636   102.8078     2.4633     0.0107
 1376.0000   -32.0944     9.3585     6.3009     7.3003     8.8836   102.4315     2.4633     0.0167
 1376.5000   -31.7003     9.3572     6.1849     7.4342     8.8640   101.9927     2.4633     0.0167
 1377.0000   -31.7043     9.2698     6.1274     7.4328     8.8642   101.9959     2.4613     0.0208
 1377.5000   -31.7073     9.2684     6.0697     7.4314     8.8644   102.7920     2.4573     0.0248
 1378.0000   -31.5157     9.0970     6.0128     7.4303     8.8447   102.7959     2.4584     0.0288
 1378.5000   -31.5197     8.7667     6.0119     7.2932     8.8647   102.7999     2.4634     0.0329
 1379.0000   -31.5257     8.4484     6.0110     7.0287     8.8649   102.8039     2.4714     0.0369
 1379.5000   -31.5307     8.3691     6.0094     6.8363     8.8849   102.8078     2.4814     0.0409
 1380.0000   -31.5357     8.2153     6.0088     6.7102     8.8851   102.4142     2.4866     0.0426
 1380.5000   -31.5408     8.2138     6.0079     6.7089     8.9249   102.4197     2.4866     0.0410
 1381.0000   -31.3462     8.2126     6.0068     6.8323     8.9648   102.8197     2.4916     0.0410
