~VERSION INFORMATION
 VERS.                2.0:   CWLS LOG ASCII STANDARD - VERSION 2.0
 WRAP.                 NO:   ONE LINE PER DEPTH STEP
~WELL INFORMATION
#MNEM.UNIT      DATA TYPE    INFORMATION
#----------   ------------   ------------------------------
 STRT.F          705.5000:   START DEPTH
 STOP.F         3212.0000:   STOP DEPTH
 STEP.F            0.5000:   STEP LENGTH
 NULL.          -999.2500:   NO VALUE
 COMP.    FENIX & SCISSON:   COMPANY
 WELL. FENIX 41 "AX" #1-15:   WELL
 FLD .             NPR #3:   FIELD
 LOC .      S15 T38N R78W:   LOCATION
 CNTY.            NATRONA:   COUNTY
 STAT.            WYOMING:   STATE
 CTRY. UNITED STATES OF AMERICA:   COUNTRY
 SRVC.              WELEX:   SERVICE COMPANY
 DATE.        18-NOV-1980:   LOGDATE
 API .     49025108530000:   API NUMBER
~CURVE INFORMATION
#MNEM.UNIT       API CODE    CURVE DESCRIPTION
#----------   ------------   ------------------------------
 DEPT.F                  :   
 SPR .MV     07 010 01 00:   SPONTANEOUS POTENTIAL
 ILD .OHMM   07 120 46 00:   INDUCTION LOG DEEP RESISTIVITY
 ILM .OHMM   07 120 44 00:   INDUCTION LOG MEDIUM RESISTIVITY
 SGRD.OHMM   07 220 05 00:   SHORT GUARD RESISTIVITY
 GRD .GAPI   45 310 01 00:   GAMMA RAY FROM DENSITY LOG
 CALD.IN     45 280 60 00:   CALIPER FROM DENSITY LOG
 RHOB.G/C3   45 350 01 00:   BULK DENSITY
 NPHI.DEC    42 890 03 00:   NEUTRON POROSITY SANDSTONE
~PARAMETER INFORMATION
#MNEM.UNIT          VALUE    DESCRIPTION
#----------   ------------   ------------------------------
 EKB .F         5252.0000:   Kelly bushing
 EGL .F         5242.0000:   Ground level
 EDF .F            0.0000:   Drilling floor
 TD  .F         3214.0000:   Total depth
 CLNT.            A2DTECH:   Client Code
 SL  . 2150' FWL & 550' FNL:   Surface Location
 PD  .                 GL:   Permanent Datum
 EPD .F              5242:   Elevation Permanent Datum
 LMF .                 KB:   Log Measured From
 DMF .                 KB:   Drilling Measured From
 DATE.        18-NOV-1980:   Date Logged [DD-MMM-YYYY]
 DD  .F              3210:   Depth driller
 DL  .F              3214:   Depth logger
 BLI .F              3212:   Bottom log interval
 TLI .F               734:   Top log interval
 CS1 .IN            8.625:   Casing size
 CBD1.      8.625" @ 709':   Casing driller 1
 CBL1.F               734:   Casing logger 1
 BS1 .IN            7.875:   Bit size
 BSD1.F              3210:   Depth drilled with bit1
 DFT .          FRESH MUD:   Type fluid in hole
 DFD .                8.8:   Density
 DFV .                 45:   Viscosity
 DFPH.               10.5:   pH
 DFL .                 12:   Fluid loss
 MSS .           FLOWLINE:   Source of sample
 RMS .OHMM           1.25:   Rm
 MST .F                70:   Rm Meas. temp.
 RMF .OHMM           1.25:   Rmf
 MFST.F                70:   Rmf Meas. temp.
 MFSS.               MEAS:   Source Rmf.
 RMB .OHMM           0.78:   Rm. at BHT
 BHT .F               112:   BHT.
 TCS .HRS               7:   Time Circ. stopped
 MRT .F               112:   Maximum recorded temp.
 LUN .               1892:   Logging unit number
 LUL .             CASPER:   Logging unit location
 ENGI.               REIN:   Recorded By
 WITN.              SCOTT:   Witnessed by
 ORIG.      2.5" 5" PRINT:   Origin of data
 UWI .     49025108530000:   Unique Well ID
 DICO. A2D TECHNOLOGIES, INC.:   Digitizing Company
 DAPD.                 10:   Feet Above Permanent Datum
~OTHER INFORMATION
~A   DEPT      SPR        ILD        ILM       SGRD         GRD      CALD       RHOB       NPHI   
# ...
 3014.0000   -30.5882     4.3842     5.7075     7.7587   100.6497     9.0907     2.5145     0.3594
 3014.5000   -30.5882     4.0111     5.3883     7.3420   105.0232     9.0894     2.5045     0.3647
 3015.0000   -30.5882     3.7369     4.8803     7.1416   109.8366     9.0879     2.4998     0.3749
 3015.5000   -30.8824     3.5310     4.4307     7.0257   113.9901     9.0866     2.4870     0.3852
 3016.0000   -30.8824     3.2581     4.0226     5.7667   117.9238     9.0854     2.4616     0.3818
 3016.5000   -30.8824     3.1265     3.7523     4.2427   118.9981     9.0841     2.4159     0.3730
 3017.0000   -31.1765     3.0417     3.6515     3.8538   115.0075     9.0828     2.4181     0.3615
 3017.5000   -31.1765     2.9592     3.7180     3.6856   107.5042     9.0521     2.4531     0.3535
 3018.0000   -31.1744     2.8790     3.9350     5.5903    98.9011     9.0359     2.4635     0.3443
 3018.5000   -30.8824     2.9592     4.2393     7.7953    95.7966     9.0346     2.4953     0.3406
 3019.0000   -30.8824     3.1274     4.5311     7.7480    94.3416     9.0334     2.5203     0.3418
 3019.5000   -30.8824     3.3099     4.7955     7.7470    93.2888     9.0321     2.5749     0.3438
 3020.0000   -30.8038     3.5030     5.0754     7.7457    92.6351     9.0308     2.6158     0.3422
 3020.5000   -30.5882     3.7174     5.3321     7.9609    92.1699     9.0293     2.5891     0.3401
 3021.0000   -30.5882     3.9923     5.5925     8.7651    92.0000     9.0280     2.5906     0.3451
 3021.5000   -30.5882     4.2681     5.7481     8.8203    91.9003     9.0267     2.6291     0.3539
 3022.0000   -30.5882     4.5171     5.8271     8.1798    91.6540     9.0404     2.6093     0.3574
 3022.5000   -30.5882     4.7806     5.9073     7.9566    91.6286     9.0389     2.5757     0.3606
 3023.0000   -30.5882     4.9555     5.9064     7.7395    92.0432     9.0376     2.6060     0.3591
 3023.5000   -30.5882     4.9894     5.9056     7.5283    92.8913     9.0360     2.5695     0.3557
 3024.0000   -30.5882     4.9894     5.9048     7.3175    93.9656     9.0349     2.5480     0.3541
 3024.5000   -30.5882     4.9212     5.9040     7.1123    95.0400     9.0335     2.5502     0.3548
 3025.0000   -30.5882     4.8541     5.9032     7.0247    96.3343     9.0469     2.5669     0.3545
 3025.5000   -30.5882     4.7878     5.7419     7.5951    98.5021     9.0456     2.5903     0.3514
 3026.0000   -30.5882     4.7224     5.5692     8.0905   100.4562     9.0590     2.6305     0.3486
 3026.5000   -30.5882     4.5944     5.3926     8.2832   102.8502     9.0577     2.6547     0.3465
 3027.0000   -30.5882     4.5316     5.1646     8.1687   105.4642     9.0562     2.6447     0.3468
 3027.5000   -30.5882     4.3485     4.8786     8.1173   108.0781     9.0549     2.6260     0.3500
 3028.0000   -30.5882     4.2169     4.5801     7.9446   111.1320     9.0536     2.5989     0.3532
 3028.5000   -30.5882     3.9845     4.2935     7.6564   116.8607     9.0524     2.5919     0.3557
 3029.0000   -30.5882     3.7651     4.0556     6.7328   126.0310     9.0511     2.6078     0.3583
 3029.5000   -30.5882     3.5921     3.8985     5.4010   133.0438     9.0645     2.6305     0.3595
 3030.0000   -30.5882     3.3616     3.8289     4.5153   137.8571     9.0629     2.6517     0.3557
 3030.5000   -30.5882     3.1764     4.0621     4.0999   138.3094     9.0617     2.6675     0.3496
 3031.0000   -30.5882     3.0214     4.4731     4.3915   132.0880     9.0604     2.6499     0.3452
 3031.5000   -30.5882     3.1074     4.8582     4.7690   112.7015     9.0444     2.6270     0.3421
 3032.0000   -30.5882     3.3032     5.1330     6.3669   103.4386     9.0432     2.6155     0.3371
 3032.5000   -30.5882     3.4900     5.4245     7.9405    97.4748     9.0566     2.6040     0.3346
 3033.0000   -30.5882     3.7383     5.7411     8.4000    96.1299     9.0550     2.5887     0.3331
 3033.5000   -30.5882     4.0043     5.9930     8.6158    95.4447     9.0537     2.5795     0.3310
 3034.0000   -30.5882     4.3485     6.2563     8.7565    95.6393     9.0526     2.5770     0.3282
 3034.5000   -30.5882     4.6579     6.4413     8.8539    95.6129     9.0512     2.5800     0.3257
 3035.0000   -30.5882     4.9894     6.5736     8.9755    95.1424     9.0499     2.5890     0.3235
 3035.5000   -30.5882     5.1349     6.6989     9.0987    94.4573     9.0339     2.5920     0.3217
 3036.0000   -30.5882     5.3522     6.7554     8.8001    93.7721     9.0324     2.5835     0.3199
 3036.5000   -30.5882     5.4309     6.6620     8.7279    92.6470     9.0313     2.5758     0.3193
 3037.0000   -30.5882     5.5109     6.6611     8.7904    91.5220     9.0300     2.5689     0.3184
 3037.5000   -30.5882     5.5694     6.5688     9.1152    90.1707     9.0286     2.5781     0.3181
 3038.0000   -30.5882     5.5694     6.5679     9.6067    89.7055     9.0273     2.6059     0.3187
 3038.5000   -30.5882     5.5694     6.5670     9.8736    89.6801     9.0260     2.6240     0.3204
 3039.0000   -30.5882     5.5694     6.5662    10.1478    90.5345     9.0391     2.6201     0.3226
 3039.5000   -30.5882     5.5694     6.6564    10.1465    91.6089     9.0379     2.6003     0.3251
 3040.0000   -30.5882     5.5694     6.7479     9.8696    92.9032     9.0366     2.5804     0.3237
 3040.5000   -30.5882     5.5694     6.7470     9.4690    94.7097     9.0353     2.5687     0.3189
 3041.0000   -30.5882     5.5694     6.7461     8.8379    96.5852     9.0341     2.5756     0.3168
 3041.5000   -30.5882     5.6465     6.8389     8.5967    97.6596     9.0325     2.5930     0.3130
 3042.0000   -30.5882     5.6465     6.8550     8.6177    96.9744     9.0312     2.6050     0.3084
 3042.5000   -30.5882     5.6465     6.9320     9.2652    95.6294     9.0299     2.6141     0.3038
 3043.0000   -30.5882     5.5694     6.8360     9.9185    94.2845     9.0288     2.6200     0.3000
 3043.5000   -30.5882     5.5694     6.7415    10.4186    93.1217     9.0274     2.6024     0.3066
 3044.0000   -30.5882     5.5694     6.7405    10.4631    92.2480     9.0261     2.5705     0.3095
 3044.5000   -30.5882     5.4817     6.7396    10.4155    91.7828     9.0248     2.5437     0.3136
 3045.0000   -30.5882     5.4183     6.7387    10.0119    92.1973     9.0233     2.5254     0.3178
 3045.5000   -30.5882     5.3240     6.5543     9.4595    94.8113     9.0367     2.5123     0.3193
 3046.0000   -30.5882     5.2228     6.2879     8.6949    99.4047     9.0354     2.5084     0.3203
 3046.5000   -30.7560     4.9620     5.8682     8.1247   100.9189     9.0342     2.5061     0.3281
 3047.0000   -30.8824     4.7337     5.4016     7.9030   101.3335     9.0182     2.4981     0.3254
 3047.5000   -31.0061     4.2265     5.0411     7.6873   101.7417     9.0169     2.4732     0.3219
 3048.0000   -31.1765     3.7733     4.4522     7.4775   105.4554     9.0156     2.4556     0.3314
 3048.5000   -31.1765     3.4900     3.9867     7.2735   115.7673     9.0142     2.4433     0.3421
 3049.0000   -30.8824     3.2137     3.6652     6.6959   120.5806     9.0128     2.4273     0.3503
 3049.5000   -30.8824     2.9592     3.5694     4.6805   132.2478     9.0115     2.4104     0.3585
 3050.0000   -30.8824     2.8009     3.7282     3.0124   142.9577     9.0103     2.3807     0.3642
 3050.5000   -30.8824     2.7249     3.8475     3.3219   142.2725     8.9940     2.3677     0.3567
 3051.0000   -30.8824     2.7249     4.1455     3.5017   136.7486     8.9927     2.3622     0.3523
 3051.5000   -30.8824     2.7257     4.5139     5.6044   127.9256     8.9915     2.3598     0.3414
 3052.0000   -30.8824     2.8103     4.9152     7.9423    90.5128     8.9902     2.3666     0.3172
 3052.5000   -30.8824     3.0180     5.3164     8.1117    79.4860     8.9889     2.4015     0.3003
 3053.0000   -30.5882     3.2956     5.6267     8.2616    78.1426     8.9877     2.4993     0.2982
 3053.5000   -30.5882     3.6409     5.8569     8.3359    80.0983     8.9863     2.5501     0.2963
 3054.0000   -30.5882     3.9677     5.9374     8.5031    81.8281     8.9848     2.5903     0.2945
