~VERSION INFORMATION
 VERS.                2.0:   CWLS LOG ASCII STANDARD - VERSION 2.0
 WRAP.                 NO:   ONE LINE PER DEPTH STEP
~WELL INFORMATION
#MNEM.UNIT      DATA TYPE    INFORMATION
#----------   ------------   ------------------------------
 STRT.F           53.0000:   START DEPTH
 STOP.F         3110.0000:   STOP DEPTH
 STEP.F            0.5000:   STEP LENGTH
 NULL.          -999.2500:   NO VALUE
 COMP. LAWRENCE ALLISON & ASSOCIATES W:   COMPANY
 WELL. LAWRENCE NPR 3 "AX" #31-34:   WELL
 FLD .      NPR - WILDCAT:   FIELD
 LOC .      S34 T39N R78W:   LOCATION
 CNTY.            NATRONA:   COUNTY
 STAT.            WYOMING:   STATE
 CTRY. UNITED STATES OF AMERICA:   COUNTRY
 SRVC.      DRESSER ATLAS:   SERVICE COMPANY
 DATE.        11-JUL-1986:   LOGDATE
 API .     49025111020000:   API NUMBER
~CURVE INFORMATION
#MNEM.UNIT       API CODE    CURVE DESCRIPTION
#----------   ------------   ------------------------------
 DEPT.F                  :   
 DEN .G/C3   45 350 01 00:   BULK DENSITY
 TEND.LBS    45 635 01 00:   TENSION FROM DENSITY LOG
 CORR.G/C3   45 356 01 00:   DENSITY CORRECTION
 NPHI.DEC    42 890 03 00:   NEUTRON POROSITY SANDSTONE
 SPR .MV     07 010 01 00:   SPONTANEOUS POTENTIAL
 RILM.OHMM   07 120 44 00:   INDUCTION LOG MEDIUM RESISTIVITY
 RILD.OHMM   07 120 46 00:   DEEP INDUCTION RESISTIVITY
 RFOC.OHMM   07 220 04 00:   RESISTIVITY FOCUSED LOG RES.
 TENR.LBS    07 635 01 00:   TENSION FROM RESISTIVITY
 GRR .GAPI   07 310 01 00:   GAMMA RAY FROM RESISTIVITY
 CALR.IN     07 280 01 00:   CALIPER FROM RESISTIVITY
~PARAMETER INFORMATION
#MNEM.UNIT          VALUE    DESCRIPTION
#----------   ------------   ------------------------------
 EKB .F          5074.800:   Kelly bushing
 EGL .F          5063.000:   Ground level
 EDF .F            0.0000:   Drilling floor
 EPD .F            0.0000:   Permanent datum
 TD  .F         3108.0000:   Total depth
 DATE.        11-JUL-1986:   Date logged
 CLNT.            A2DTECH:   Client Code
 SL  . 1796' FWL & 318' FNL:   Surface Location
 PD  .                 GL:   Permanent Datum
 DAPD.F                11:   Feet Above Permanent Datum
 DD  .F              3103:   Depth driller
 DL  .F              3108:   Depth logger
 BLI .F              3106:   Bottom log interval
 CS1 .IN            8.625:   Casing size
 CBD1.      8.625" @ 602':   Casing driller 1
 CBL1.F               596:   Casing logger 1
 BS1 .IN            7.875:   Bit size
 BSD1.F              3103:   Depth drilled with bit1
 DFT .            KCL/GEL:   Type fluid in hole
 DFD .                  9:   Density
 DFV .                 42:   Viscosity
 MSS .           MUD/TANK:   Source of sample
 RMS .OHMM           .352:   Rm
 MST .F                82:   Rm Meas. temp.
 RMF .OHMM           .264:   Rmf
 MFST.F                82:   Rmf Meas. temp.
 RMC .OHMM            .44:   Rmc
 MCST.F                82:   Rmc Meas. temp.
 MFSS.               CALC:   Source Rmf.
 MCSS.               CALC:   Source Rmc.
 RMB .OHMM            .23:   Rm. at BHT
 BHT .F               115:   BHT.
 TCS .HRS               3:   Time Circ. stopped
 MRT .F               115:   Maximum recorded temp.
 LUN .            HL-6264:   Logging unit number
 LUL .           GILLETTE:   Logging unit location
 ENGI.     P. M. FASHSING:   Recorded By
 WITN.             STRONG:   Witnessed by
 ORIG.           5" PRINT:   Origin of data
 UWI .     49025111020000:   Unique Well ID
 DICO. A2D TECHNOLOGIES, INC.:   Digitizing Company
~OTHER INFORMATION
~A   DEPT      DEN       TEND       CORR       NPHI        SPR       RILM       RILD       RFOC       TENR         GRR      CALR   
# ...
 2737.0000     2.5100   -62.0520     0.0520     0.2330   -81.5170     5.0190     4.9710     5.0630   -79.2040   125.5980     8.9520
 2737.5000     2.5040   -64.4100     0.0490     0.2210   -81.3450     5.3330     5.2270     6.4010   -79.2040   117.3070     8.9470
 2738.0000     2.5020   -66.7680     0.0460     0.2100   -81.1730     5.6470     5.4820     7.5650   -85.0880   107.1690     8.9420
 2738.5000     2.5090   -69.1260     0.0420     0.2000   -81.0010     6.0250     5.7380     8.5640   -88.9640    98.0720     8.9370
 2739.0000     2.5170   -67.5410     0.0390     0.2020   -80.8290     6.4750     6.1810     8.5640   -88.9640    92.9340     8.9320
 2739.5000     2.5230   -64.0440     0.0380     0.2040   -80.6560     6.6940     6.6150     8.2100   -88.9640    91.3270     8.9270
 2740.0000     2.5240   -60.5470     0.0350     0.2170   -80.4850     6.7240     6.5980     7.8410   -88.9640    93.1070     8.9220
 2740.5000     2.5110   -57.0510     0.0210     0.2300   -80.3100     6.7550     6.5840     7.4710   -80.4440    94.9250     8.9170
 2741.0000     2.4970   -53.5540     0.0070     0.2320   -80.1350     6.7860     6.5700     7.1020   -81.9430    96.7510     8.9130
 2741.5000     2.4860   -50.1250    -0.0070     0.2300   -79.8120     6.8230     6.5550     6.9270   -83.4410    98.5740     8.9110
 2742.0000     2.4830   -58.2840    -0.0200     0.2250   -79.9090     6.8640     6.6100     6.9530   -84.9390   100.4050     8.9120
 2742.5000     2.4830   -66.2890    -0.0130     0.2250   -79.9960     6.9060     6.6680     6.9980   -86.4380   102.2560     8.9140
 2743.0000     2.4910   -74.2950     0.0050     0.2190   -80.0790     6.9470     6.8440     7.0430   -87.9360   102.2750     8.9150
 2743.5000     2.5010   -75.9020     0.0230     0.2040   -80.1620     6.9920     7.0560     7.4500   -88.9640    99.1120     8.9160
 2744.0000     2.5130   -66.3950     0.0370     0.1930   -80.2450     6.6990     6.8330     8.9500   -85.5760    90.8660     8.9180
 2744.5000     2.5400   -56.8890     0.0460     0.1860   -80.3290     6.3040     6.5310    10.7820   -81.9370    83.4100     8.9190
 2745.0000     2.5750   -50.1250     0.0540     0.1870   -80.4120     5.9080     6.2290    12.1570   -79.2040    77.4270     8.9210
 2745.5000     2.6010   -50.1250     0.0600     0.1890   -80.4950     5.5400     5.9270    12.1570   -79.2040    76.6100     8.9220
 2746.0000     2.6190   -50.1250     0.0650     0.2030   -80.5790     5.4200     5.6250     7.2360   -79.2040    96.3910     8.9240
 2746.5000     2.5880   -50.1250     0.0700     0.2260   -80.6620     5.2990     5.5450     5.5520   -79.2040   111.5080     8.9250
 2747.0000     2.5550   -50.1250     0.0540     0.2470   -80.7460     5.2050     5.5350     5.5010   -79.2040   118.1470     8.9260
 2747.5000     2.5350   -50.1250     0.0380     0.2400   -80.8220     5.4070     5.5250     6.1260   -79.2040   116.8550     8.9280
 2748.0000     2.5270   -50.1250     0.0350     0.2320   -80.8240     5.5520     5.5150     7.1320   -79.2040   108.4360     8.9290
 2748.5000     2.5310   -50.1250     0.0390     0.2380   -80.8230     5.6900     5.5010     7.9550   -79.2040   104.3740     8.9280
 2749.0000     2.5320   -50.1250     0.0420     0.2470   -80.8230     5.8380     5.6270     7.6940   -79.2040   104.0840     8.9240
 2749.5000     2.5250   -50.1250     0.0290     0.2530   -80.8230     5.9870     5.8420     7.3590   -79.2040   105.3240     8.9210
 2750.0000     2.5210   -50.1250     0.0140     0.2550   -80.8230     6.1350     6.0560     7.0560   -79.2040   106.7290     8.9170
 2750.5000     2.5240   -50.1250     0.0420     0.2550   -80.8230     6.2830     6.2320     7.0920   -79.2040   108.1340     8.9140
 2751.0000     2.5370   -50.1250     0.0590     0.2510   -80.8230     6.4320     6.3260     7.1320   -79.2040   107.7210     8.9100
 2751.5000     2.5480   -50.1250     0.0600     0.2440   -80.8230     6.5360     6.4190     7.1720   -79.2040   106.1820     8.9070
 2752.0000     2.5460   -50.1250     0.0470     0.2400   -80.8230     6.6080     6.5130     7.4020   -81.9860   103.5680     8.9030
 2752.5000     2.5450   -50.1250     0.0300     0.2350   -80.8230     6.6800     6.6060     7.7540   -94.5760   100.4480     8.8990
 2753.0000     2.5480   -50.1250     0.0390     0.2310   -80.8230     6.7520     6.7000     8.1070   -96.0520    97.3540     8.8960
 2753.5000     2.5540   -49.7950     0.0560     0.2250   -80.8230     6.8240     6.7940     8.4850   -86.6090    95.9470     8.8920
 2754.0000     2.5570   -49.3400     0.0680     0.2290   -80.8230     6.8960     6.9270     8.3280   -77.1670    97.3170     8.8890
 2754.5000     2.5530   -48.8850     0.0510     0.2430   -80.8230     6.9920     6.9170     8.1140   -69.5080    98.6920     8.8850
 2755.0000     2.5500   -48.4300     0.0360     0.2410   -80.8230     6.9240     6.8990     8.0280   -69.8550    99.7890     8.8810
 2755.5000     2.5490   -47.9750     0.0360     0.2370   -80.8230     6.8750     6.8810     8.0640   -70.2020    99.5330     8.8780
 2756.0000     2.5500   -47.5200     0.0320     0.2320   -80.8230     6.8250     6.8640     8.1030   -70.5500    99.5620     8.8740
 2756.5000     2.5510   -47.0650     0.0190     0.2290   -80.8230     6.6500     6.5300     7.9280   -70.8970    99.9440     8.8710
 2757.0000     2.5510   -46.6100     0.0190     0.2290   -80.8230     6.3480     6.2200     7.6760   -71.2440   100.8430     8.8670
 2757.5000     2.5510   -46.1550     0.0310     0.2410   -80.8230     6.0450     6.0370     7.4240   -71.5920   103.0110     8.8630
 2758.0000     2.5540   -45.7000     0.0480     0.2540   -80.8230     5.9220     5.8950     7.0540   -71.9390   105.1600     8.8600
 2758.5000     2.5620   -45.2450     0.0620     0.2670   -80.8230     5.9540     5.8140     6.6030   -72.2860   107.3130     8.8560
 2759.0000     2.5660   -44.7900     0.0700     0.2590   -80.8240     5.9770     5.8880     6.1520   -72.6340   109.4690     8.8530
 2759.5000     2.5680   -44.3350     0.0760     0.2480   -80.8260     6.0000     5.9390     5.9220   -72.9810   109.5810     8.8360
 2760.0000     2.5740   -43.8800     0.0770     0.2370   -80.7230     6.0230     5.9900     7.2670   -73.3280   106.8540     8.7730
 2760.5000     2.5790   -43.4250     0.0780     0.2350   -80.6080     6.1430     6.0330     7.8090   -73.6750   104.8800     8.7270
 2761.0000     2.5780   -42.9700     0.0680     0.2360   -80.4930     6.3410     6.0710     7.4550   -74.0230   104.6160     8.7220
 2761.5000     2.5740   -42.5150     0.0600     0.2370   -80.3780     6.5390     6.2630     7.2540   -74.3700   104.3160     8.7150
 2762.0000     2.5710   -42.0600     0.0560     0.2380   -80.2640     6.7370     6.4550     7.5470   -74.7170   103.9380     8.7090
 2762.5000     2.5670   -41.6050     0.0540     0.2390   -80.3330     6.8720     6.6470     7.7850   -75.0650   103.5040     8.7030
 2763.0000     2.5660   -41.1500     0.0520     0.2390   -80.5930     6.9770     6.8400     8.0230   -75.4120   103.0590     8.6970
 2763.5000     2.5660   -40.6950     0.0600     0.2340   -80.8500     7.0820     7.0320     8.2610   -75.7590   102.6360     8.6900
 2764.0000     2.5680   -40.4310     0.0650     0.2280   -81.1100     7.1880     7.1880     8.4070   -76.1070   104.3280     8.6840
 2764.5000     2.5680   -40.9680     0.0650     0.2210   -81.2150     7.2620     7.1770     8.4070   -76.4540   106.2200     8.6780
 2765.0000     2.5660   -41.5060     0.0650     0.2140   -81.1940     7.3360     7.1690     8.4070   -76.8010   107.1810     8.6710
 2765.5000     2.5660   -42.0430     0.0660     0.2140   -81.1710     7.3890     7.1600     8.4070   -77.1490   105.7430     8.6650
 2766.0000     2.5660   -42.5800     0.0700     0.2140   -81.1480     7.3470     7.1510     8.5090   -77.4960   103.2180     8.6590
 2766.5000     2.5650   -43.1170     0.0740     0.2140   -81.1250     7.3130     7.1420     8.6540   -77.8430   100.9380     8.6530
 2767.0000     2.5630   -43.6550     0.0790     0.2150   -81.1020     7.2800     7.1340     8.7990   -78.1910    99.4100     8.6460
