~VERSION INFORMATION
 VERS.                2.0:   CWLS LOG ASCII STANDARD - VERSION 2.0
 WRAP.                 NO:   ONE LINE PER DEPTH STEP
~WELL INFORMATION
#MNEM.UNIT      DATA TYPE    INFORMATION
#----------   ------------   ------------------------------
 STRT.F           96.5000:   START DEPTH
 STOP.F         2720.0000:   STOP DEPTH
 STEP.F            0.5000:   STEP LENGTH
 NULL.          -999.2500:   NO VALUE
 COMP.          INTEX OIL:   COMPANY
 WELL. INTEX NPR 65 "AX" #3-20:   WELL
 FLD .             TEAPOT:   FIELD
 LOC .      S20 T39N R78W:   LOCATION
 CNTY.            NATRONA:   COUNTY
 STAT.            WYOMING:   STATE
 CTRY. UNITED STATES OF AMERICA:   COUNTRY
 SRVC.       SCHLUMBERGER:   SERVICE COMPANY
 DATE.        04-MAY-1966:   LOGDATE
 API .     49025094910000:   API NUMBER
~CURVE INFORMATION
#MNEM.UNIT       API CODE    CURVE DESCRIPTION
#----------   ------------   ------------------------------
 DEPT.F                  :   
 SPR .MV     05 010 01 00:   SPONTANEOUS POTENTIAL FROM RES.
 SN  .OHMM   05 040 16 00:   SHORT NORMAL 16"
 ILD .OHMM   05 120 46 00:   INDUCTION LOG DEEP
 CALD.IN     45 280 60 00:   CALIPER FROM DENSITY LOG
 CORR.G/C3   45 356 01 00:   DENSITY CORRECTION
 GRD .GAPI   45 310 01 00:   GAMMA RAY FROM DENSITY LOG
 RHOB.G/C3   45 350 01 00:   BULK DENSITY
~PARAMETER INFORMATION
#MNEM.UNIT          VALUE    DESCRIPTION
#----------   ------------   ------------------------------
 EKB .F         5053.3000:   Kelly bushing
 EGL .F         5043.0000:   Ground level
 EDF .F            0.0000:   Drilling floor
 TD  .F         2720.0000:   Total depth
 DATE.        04-MAY-1966:   Date logged
 CLNT.            A2DTECH:   Client Code
 PD  .                 GL:   Permanent Datum
 EPD .F              5043:   Elevation Permanent Datum
 LMF .                 KB:   Log Measured From
 DMF .                 KB:   Drilling Measured From
 DAPD.F              10.3:   Feet Above Permanent Datum
 DD  .F              2720:   Depth driller
 DL  .F              2720:   Depth logger
 BLI .F              2719:   Bottom log interval
 TLI .F                97:   Top log interval
 CS1 .IN            10.75:   Casing size
 CBD1.       10.75" @ 30':   Casing driller 1
 BS1 .IN            7.875:   Bit size
 BSD1.F              2720:   Depth drilled with bit1
 DFT . GEL/Q-BROX/OIL/DAKOLITE:   Type fluid in hole
 DFD .               10.3:   Density
 DFV .                 41:   Viscosity
 DFPH.                7.2:   pH
 DFL .                8.8:   Fluid loss
 MSS .           FLOWLINE:   Source of sample
 RMS .OHMM              2:   Rm
 MST .F                61:   Rm Meas. temp.
 RMF .OHMM           1.31:   Rmf
 MFST.F                65:   Rmf Meas. temp.
 MFSS.                 FP:   Source Rmf.
 RMB .OHMM           1.15:   Rm. at BHT
 BHT .F               110:   BHT.
 TCS .HRS               2:   Time Circ. stopped
 MRT .F               110:   Maximum recorded temp.
 LUN .               4507:   Logging unit number
 LUL .               CSPR:   Logging unit location
 ENGI.            MANGOLD:   Recorded By
 WITN.             TUTTLE:   Witnessed by
 ORIG.       2", 5" PRINT:   Origin of data
 UWI .     49025094910000:   Unique Well ID
 DICO. A2D TECHNOLOGIES, INC.:   Digitizing Company
~OTHER INFORMATION
~A   DEPT      SPR         SN         ILD      CALD       CORR        GRD       RHOB   
# ...
 2417.0000   -27.2290    11.4910     8.2050     7.9400     0.0230   123.4980     2.4990
 2417.5000   -27.1960    11.4160     7.7340     7.9640     0.0180   122.3180     2.5020
 2418.0000   -27.1710    11.0650     7.1790     7.9750     0.0200   123.3520     2.4890
 2418.5000   -27.1540    10.4180     6.6350     7.9790     0.0220   128.9730     2.4750
 2419.0000   -27.1340     9.6840     6.1170     7.9830     0.0180   132.8400     2.4630
 2419.5000   -27.1080     9.0130     5.6330     7.9870     0.0130   134.5960     2.4670
 2420.0000   -27.0840     8.3520     5.2150     7.9910     0.0120   136.6990     2.4730
 2420.5000   -27.0640     7.6340     4.8600     7.9950     0.0190   139.1930     2.4790
 2421.0000   -27.0430     6.9870     4.5420     7.9990     0.0240   141.9230     2.4850
 2421.5000   -27.0180     6.6030     4.2940     8.0040     0.0280   142.4650     2.4910
 2422.0000   -26.9910     6.5050     4.1730     8.0080     0.0270   142.7680     2.4970
 2422.5000   -26.9740     6.5290     4.1660     8.0090     0.0260   141.2310     2.4990
 2423.0000   -26.9690     6.5300     4.1780     7.9740     0.0290   139.1040     2.4900
 2423.5000   -26.9640     6.4990     4.1500     7.9330     0.0370   136.7880     2.4790
 2424.0000   -26.9410     6.4750     4.1080     7.8950     0.0450   136.0400     2.4780
 2424.5000   -26.9040     6.4590     4.0970     7.8640     0.0560   137.9340     2.4980
 2425.0000   -26.8670     6.4420     4.0980     7.9380     0.0520   141.3060     2.4920
 2425.5000   -26.8320     6.4390     4.0600     8.0170     0.0330   144.3940     2.4700
 2426.0000   -26.7890     6.4340     4.0090     8.1000     0.0160   144.3320     2.4530
 2426.5000   -26.7510     6.3860     4.0610     8.1810     0.0050   143.0080     2.4610
 2427.0000   -26.7280     6.3380     4.3020     8.2440     0.0260   140.1330     2.4730
 2427.5000   -26.6960     6.4220     4.6600     8.2450     0.0470   137.4670     2.4850
 2428.0000   -26.6320     6.6990     4.9870     8.2390     0.0560   134.6830     2.5000
 2428.5000   -26.5810     7.1020     5.2560     8.2220     0.0470   131.9440     2.4940
 2429.0000   -26.6270     7.5700     5.5820     8.2060     0.0400   129.2080     2.4770
 2429.5000   -26.7740     8.1490     6.0660     8.1360     0.0320   126.4480     2.4630
 2430.0000   -26.9510     8.9070     6.7090     8.0450     0.0250   123.7220     2.4490
 2430.5000   -27.1490     9.8060     7.4510     7.9540     0.0190   121.1040     2.4560
 2431.0000   -27.4280    10.7150     8.1780     7.8660     0.0250   121.9680     2.4700
 2431.5000   -27.7220    11.4680     8.6950     7.7740     0.0350   123.2520     2.4830
 2432.0000   -27.7960    11.9220     8.8540     7.7340     0.0380   122.1560     2.4840
 2432.5000   -27.5310    12.0320     8.7210     7.7660     0.0360   121.2710     2.4810
 2433.0000   -27.1320    11.9140     8.5080     7.8350     0.0380   121.4460     2.4840
 2433.5000   -26.9110    11.7600     8.3350     7.9010     0.0440   122.5060     2.4970
 2434.0000   -26.9250    11.6840     8.1540     7.9750     0.0400   123.5640     2.5080
 2434.5000   -26.9950    11.6660     7.8980     8.0150     0.0300   123.9980     2.5200
 2435.0000   -26.9910    11.6010     7.5940     8.0100     0.0280   123.6720     2.5190
 2435.5000   -26.9560    11.3770     7.3010     8.0110     0.0340   123.6370     2.5130
 2436.0000   -26.9550    10.9430     7.0280     8.0120     0.0390   125.4030     2.5070
 2436.5000   -26.9740    10.3520     6.7510     8.0110     0.0450   127.2040     2.5030
 2437.0000   -26.9760     9.7240     6.4600     8.0110     0.0510   128.3940     2.4890
 2437.5000   -26.9670     9.1710     6.2020     7.9700     0.0560   129.4660     2.4770
 2438.0000   -26.9650     8.7810     6.0970     7.9160     0.0540   129.0380     2.4640
 2438.5000   -26.9690     8.6680     6.2640     7.8640     0.0480   127.4350     2.4780
 2439.0000   -26.9700     8.9430     6.6790     7.8060     0.0550   121.7300     2.4960
 2439.5000   -26.9690     9.5850     7.2000     7.7830     0.0610   115.6040     2.5140
 2440.0000   -26.9680    10.4000     7.7330     7.8080     0.0610   109.5810     2.5310
 2440.5000   -26.9680    11.1790     8.2930     7.8260     0.0480   103.7730     2.5290
 2441.0000   -26.9690    11.8480     8.8430     7.8480     0.0330   104.2300     2.5360
 2441.5000   -26.9690    12.3990     9.2090     7.8680     0.0250   105.4660     2.5420
 2442.0000   -26.9680    12.7380     9.2580     7.8890     0.0160   107.2560     2.5310
 2442.5000   -26.9680    12.7420     9.0830     7.9080     0.0140   107.1810     2.5200
 2443.0000   -26.9690    12.4420     8.8750     7.9310     0.0200   107.2920     2.5160
 2443.5000   -26.9700    12.0210     8.7080     7.9330     0.0260   108.3570     2.5110
 2444.0000   -26.9670    11.6140     8.5440     7.9340     0.0350   110.1450     2.5160
 2444.5000   -26.9650    11.2500     8.3890     7.9330     0.0450   110.7970     2.5270
 2445.0000   -26.9750    10.9710     8.3080     7.9340     0.0430   110.1760     2.5230
 2445.5000   -27.0020    10.8670     8.3130     7.9330     0.0340   109.8040     2.5200
 2446.0000   -27.0390    10.9370     8.3460     7.9340     0.0290   110.8190     2.5160
 2446.5000   -27.0740    11.0640     8.3520     7.9340     0.0260   111.9280     2.5160
 2447.0000   -27.1050    11.1440     8.3130     7.9340     0.0260   112.7850     2.5230
 2447.5000   -27.1370    11.1860     8.2250     7.9340     0.0240   112.5830     2.5240
 2448.0000   -27.1720    11.2440     8.1120     7.9340     0.0170   112.3410     2.5240
 2448.5000   -27.2060    11.3330     8.0150     7.9340     0.0170   112.3550     2.5270
 2449.0000   -27.2360    11.4240     7.9390     7.9340     0.0170   113.4490     2.5200
 2449.5000   -27.2680    11.4180     7.8340     7.9340     0.0180   119.3800     2.5130
 2450.0000   -27.3060    11.1700     7.6880     7.9340     0.0180   123.3060     2.5050
 2450.5000   -27.3400    10.6740     7.5850     7.9340     0.0130   126.8990     2.5030
 2451.0000   -27.3530    10.2290     7.5960     7.9340     0.0040   124.3080     2.5030
 2451.5000   -27.3390    10.2130     7.6760     7.9340     0.0030   118.5340     2.5170
 2452.0000   -27.3100    10.6410     7.7430     7.9340     0.0120   116.7280     2.5280
 2452.5000   -27.2820    11.1170     7.8060     7.9340     0.0210   121.0130     2.5440
 2453.0000   -27.2600    11.3230     7.9340     7.9340     0.0200   122.9630     2.5390
 2453.5000   -27.2380    11.3750     8.1470     7.9340     0.0110   122.7650     2.5260
 2454.0000   -27.2130    11.5460     8.3910     7.9340     0.0200   122.2480     2.5190
 2454.5000   -27.1880    11.8580     8.6170     7.9340     0.0300   115.9820     2.5260
 2455.0000   -27.1640    12.1420     8.7960     7.9340     0.0400   110.8020     2.5360
 2455.5000   -27.1410    12.3610     8.9000     7.9340     0.0500   104.8410     2.5460
 2456.0000   -27.1160    12.6160     8.9320     7.9340     0.0590   102.9120     2.5580
 2456.5000   -27.0910    12.8790     8.9320     7.9340     0.0690   105.3610     2.5540
 2457.0000   -27.0680    12.9640     8.9270     7.9330     0.0600   111.1510     2.5470
 2457.5000   -27.0450    12.7880     8.8850     7.9390     0.0430   113.1780     2.5430
 2458.0000   -27.0190    12.4890     8.7670     7.9530     0.0250   114.6190     2.5410
 2458.5000   -26.9930    12.2210     8.6020     7.9670     0.0140   113.8760     2.5340
 2459.0000   -26.9740    11.9890     8.4550     7.9810     0.0120   113.1380     2.5230
 2459.5000   -26.9660    11.7380     8.3480     7.9940     0.0040   113.3650     2.5230
 2460.0000   -26.9660    11.4960     8.2340     8.0090     0.0100   115.0460     2.5230
 2460.5000   -26.9720    11.3250     8.0750     7.9880     0.0220   118.8880     2.5180
 2461.0000   -26.9820    11.2000     7.9070     7.9580     0.0320   121.5320     2.5130
 2461.5000   -26.9960    11.0420     7.8100     7.9280     0.0420   122.4800     2.5320
 2462.0000   -27.0110    10.8570     7.8290     7.8990     0.0580   123.3170     2.5480
