~VERSION INFORMATION
 VERS.                2.0:   CWLS LOG ASCII STANDARD - VERSION 2.0
 WRAP.                 NO:   ONE LINE PER DEPTH STEP
~WELL INFORMATION
#MNEM.UNIT      DATA TYPE    INFORMATION
#----------   ------------   ------------------------------
 STRT.F           60.0000:   START DEPTH
 STOP.F         3758.0000:   STOP DEPTH
 STEP.F            0.5000:   STEP LENGTH
 NULL.          -999.2500:   NO VALUE
 COMP. LAWRENCE ALLISON & ASSOCIATES:   COMPANY
 WELL. LAWRENCE "MX" #72-10:   WELL
 FLD .            N P R 3:   FIELD
 LOC .      S10 T38N R78W:   LOCATION
 CNTY.            NATRONA:   COUNTY
 STAT.            WYOMING:   STATE
 CTRY. UNITED STATES OF AMERICA:   COUNTRY
 SRVC.       SCHLUMBERGER:   SERVICE COMPANY
 DATE.        03-JUL-1982:   LOGDATE
 API .     49025108910000:   API NUMBER
~CURVE INFORMATION
#MNEM.UNIT       API CODE    CURVE DESCRIPTION
#----------   ------------   ------------------------------
 DEPT.F                  :   
 GRD .GAPI   45 310 01 00:   GAMMA RAY FROM DENSITY LOG
 NPHI.DEC    42 890 03 00:   NEUTRON POROSITY SANDSTONE
 CALD.IN     45 280 60 00:   CALIPER FROM DENSITY LOG
 RHOB.G/C3   45 350 01 00:   BULK DENSITY
 DRHO.G/C3   45 356 01 00:   DENSITY CORRECTION
 TEND.LBS    45 635 01 00:   TENSION FROM DENSITY LOG
 SPR .MV     07 010 01 00:   SPONTANEOUS POTENTIAL
 SFL .OHMM   07 220 01 00:   SHALLOW FOCUSED LOG RESISTIVITY
 ILD .OHMM   07 120 46 00:   DEEP INDUCTION RESISTIVITY
 ILM .OHMM   07 120 44 00:   INDUCTION LOG MEDIUM RESISTIVITY
 TENR.LBS    07 635 01 00:   TENSION FROM RESISTIVITY
~PARAMETER INFORMATION
#MNEM.UNIT          VALUE    DESCRIPTION
#----------   ------------   ------------------------------
 EKB .F         5182.0000:   Kelly bushing
 EGL .F         5172.0000:   Ground level
 EDF .F            0.0000:   Drilling floor
 EPD .F            0.0000:   Permanent datum
 TD  .F         3770.0000:   Total depth
 DATE.        03-JUL-1982:   Date logged
 CLNT.            A2DTECH:   Client Code
 SL  . 1119' FNL & 21' FEL:   Surface Location
 PD  .                 GL:   Permanent Datum
 DD  .F              3770:   Depth driller
 DL  .F              3750:   Depth logger
 BLI .F              3744:   Bottom log interval
 CS1 .IN            9.625:   Casing size
 CBD1.      9.625" @ 473':   Casing driller 1
 CBL1.F               482:   Casing logger 1
 BS1 .IN            7.875:   Bit size
 DFT .                GEL:   Type fluid in hole
 DFD .                9.1:   Density
 DFV .                 34:   Viscosity
 DFPH.               10.5:   pH
 DFL .                 12:   Fluid loss
 MSS .            MUD PIT:   Source of sample
 RMS .OHMM           1.50:   Rm
 MST .F                84:   Rm Meas. temp.
 RMF .OHMM           1.37:   Rmf
 MFST.F                83:   Rmf Meas. temp.
 RMC .OHMM           1.20:   Rmc
 MCST.F                83:   Rmc Meas. temp.
 MFSS.               MEAS:   Source Rmf.
 RMB .OHMM              1:   Rm. at BHT
 BHT .F               130:   BHT.
 TCS .HRS            1500:   Time Circ. stopped
 MRT .F               130:   Maximum recorded temp.
 LUN .               8039:   Logging unit number
 LUL .               CSPR:   Logging unit location
 ENGI. CONOSCENTI/PIRAKIS:   Recorded By
 WITN.             STRONG:   Witnessed by
 ORIG.       2.5"5" PRINT:   Origin of data
 UWI .     49025108910000:   Unique Well ID
 DICO. A2D TECHNOLOGIES, INC.:   Digitizing Company
 DAPD.                 10:   Feet Above Permanent Datum
 BSD1.               3770:   Depth drilled with bit1
 MCSS.               CALC:   Source Rmc.
 TLI .                482:   Top log interval
 TLAB.HR             1800:   Time logger at bottom
~OTHER INFORMATION
~A   DEPT      GRD       NPHI       CALD       RHOB       DRHO       TEND        SPR        SFL        ILD        ILM       TENR   
# ...
 1768.0000   104.2170     0.3800    11.9350     2.4650     0.0030  1285.1940   -61.4530     7.9010     6.7920     6.4370  1203.4050
 1768.5000   102.7700     0.3720    11.8950     2.4790     0.0100  1285.6219   -61.4890     8.5960     6.8900     6.5780  1203.5430
 1769.0000   102.0580     0.3730    11.8490     2.4830     0.0100  1286.0490   -61.5250     8.3610     6.9880     6.5560  1203.6820
 1769.5000   102.1390     0.3750    11.8210     2.4750     0.0020  1286.4760   -61.5610     8.0070     7.0860     6.5360  1203.8199
 1770.0000   103.9480     0.3770    11.8300     2.4740    -0.0020  1286.9030   -61.5970     7.9110     7.2130     6.5160  1203.9590
 1770.5000   106.4340     0.3790    11.8340     2.4780     0.0040  1287.3300   -61.6330     7.9110     7.1280     6.4960  1204.0980
 1771.0000   109.1390     0.3740    11.8410     2.4850     0.0110  1287.7570   -61.6690     7.9110     7.0630     6.4760  1204.2360
 1771.5000   109.1820     0.3600    11.8460     2.4950     0.0170  1288.1840   -61.7050     7.6950     6.9980     6.4560  1204.3750
 1772.0000   107.1790     0.3400    11.8520     2.4960     0.0240  1288.6110   -61.7400     7.6390     6.9520     6.4360  1204.5140
 1772.5000   107.0100     0.3510    11.8580     2.4900     0.0240  1289.0380   -61.7770     7.5770     6.9650     6.4160  1204.6520
 1773.0000   107.2420     0.3720    11.8620     2.4840     0.0200  1289.4650   -61.8110     7.5160     7.0080     6.4010  1204.7910
 1773.5000   105.5210     0.4050    11.8540     2.4840     0.0180  1289.8920   -61.8450     7.4850     7.0510     6.6170  1204.9290
 1774.0000   102.5560     0.3980    11.8480     2.4840     0.0180  1290.3190   -61.8790     7.6600     7.0940     6.7610  1205.0680
 1774.5000    99.5050     0.3800    11.8400     2.4770     0.0130  1290.7460   -61.9130     8.0140     7.1370     6.9040  1205.2070
 1775.0000   101.8880     0.3630    11.8340     2.4690     0.0080  1291.1730   -61.9480     8.3670     7.1800     7.0470  1205.3450
 1775.5000   106.5610     0.3540    11.8240     2.4690     0.0030  1291.6000   -61.9820     8.7560     7.2230     7.1470  1205.4840
 1776.0000   110.6200     0.3620    11.8430     2.4750     0.0110  1292.0270   -61.9320     8.5090     7.2660     6.9110  1205.6230
 1776.5000   109.8850     0.3690    11.8840     2.4730     0.0240  1292.4540   -61.8740     8.1560     7.3090     6.7290  1205.7610
 1777.0000   106.8140     0.3750    11.9200     2.4720     0.0360  1292.8810   -61.8160     7.8380     7.3520     6.5780  1205.9000
 1777.5000   100.1460     0.3820    11.9580     2.4660     0.0470  1293.3080   -61.7880     7.5390     7.3950     6.7380  1206.0389
 1778.0000    96.1710     0.3880    11.9940     2.4760     0.0590  1293.7350   -61.7880     7.3480     7.4370     6.9160  1206.1770
 1778.5000    94.0870     0.3920    12.0330     2.5020     0.1190  1294.1620   -61.7880     7.9160     7.4850     7.0940  1206.3160
 1779.0000    94.3490     0.3530    12.0520     2.5300     0.1520  1294.5890   -61.7880     9.1200     7.4850     7.2800  1206.4540
 1779.5000    97.8700     0.3400    12.0270     2.5030     0.1360  1295.0160   -61.7880     9.9640     7.4660     7.1870  1206.5930
 1780.0000   100.5270     0.3520    12.0030     2.4500     0.0920  1295.4430   -61.7880     9.6860     7.4400     7.0530  1206.7321
 1780.5000   103.4530     0.3650    11.9780     2.4220     0.0470  1295.8700   -61.7880     8.7590     7.4160     6.9190  1206.8700
 1781.0000   105.8670     0.3730    11.9530     2.4350     0.0050  1296.2970   -61.7880     7.8320     7.2790     6.7860  1207.0090
 1781.5000   106.4880     0.3730    11.9290     2.4530     0.0020  1296.7240   -61.7880     7.5450     7.1540     6.6520  1207.1479
 1782.0000   108.0580     0.3730    11.9040     2.4630     0.0020  1297.1510   -61.7880     7.5310     7.0290     6.5180  1207.2860
 1782.5000   109.5780     0.3800    11.9050     2.4690     0.0030  1297.5780   -61.7880     7.5180     6.9040     6.3980  1207.4250
 1783.0000   111.0300     0.3840    11.9090     2.4750     0.0030  1298.0050   -61.7880     7.5050     6.7790     6.2810  1207.5630
 1783.5000   111.6400     0.3840    11.9120     2.4770     0.0040  1298.4320   -61.7880     7.4850     6.6540     6.3100  1207.7020
 1784.0000   112.2040     0.3810    11.9160     2.4710     0.0040  1298.8590   -61.7880     7.5500     6.5170     6.3370  1207.8409
 1784.5000   112.7610     0.3780    11.9190     2.4650     0.0040  1299.2860   -61.7880     7.6820     6.5440     6.3640  1207.9790
 1785.0000   113.3030     0.3750    11.9230     2.4590     0.0040  1299.7130   -61.7690     7.8130     6.5730     6.3900  1208.1180
 1785.5000   113.8820     0.3710    11.9260     2.4590     0.0040  1300.1400   -61.7450     7.9840     6.6030     6.4170  1208.2570
 1786.0000   114.4210     0.3670    11.9300     2.4600     0.0040  1300.5670   -61.7210     7.8870     6.6320     6.4440  1208.3950
 1786.5000   114.8720     0.3720    11.9340     2.4620     0.0040  1300.9940   -61.6970     7.7490     6.6620     6.4570  1208.5341
 1787.0000   113.0850     0.3790    11.9370     2.4660     0.0040  1301.4210   -61.6730     7.6110     6.7000     6.4440  1208.6720
 1787.5000   110.7440     0.3860    11.9400     2.4720     0.0040  1301.8480   -61.6490     7.4720     6.6780     6.4310  1208.8110
 1788.0000   108.5730     0.3890    11.9170     2.4640     0.0040  1302.2750   -61.6250     7.3480     6.6460     6.4190  1208.9500
 1788.5000   106.2690     0.3900    11.8850     2.4540     0.0040  1302.7030   -61.6010     7.4060     6.6150     6.4070  1209.0880
 1789.0000   106.8930     0.3850    11.8540     2.4460     0.0040  1303.1300   -61.5390     7.4700     6.5830     6.3980  1209.2271
 1789.5000   106.4010     0.3740    11.8230     2.4490     0.0040  1303.5570   -61.4530     7.5540     6.5520     6.3980  1209.3660
 1790.0000   105.2010     0.3630    11.7910     2.4530     0.0040  1303.9840   -61.3680     7.5440     6.5170     6.3980  1209.5040
 1790.5000   104.4210     0.3520    11.7610     2.4630     0.0050  1304.4110   -61.2820     7.5240     6.4610     6.3230  1209.6429
 1791.0000   107.4300     0.3590    11.7270     2.4720     0.0100  1304.8380   -61.1960     7.5030     6.3990     6.2150  1209.7820
 1791.5000   111.4660     0.3660    11.7170     2.4810     0.0150  1305.2650   -61.0460     7.4850     6.3370     6.1070  1209.9200
 1792.0000   112.9190     0.3740    11.7560     2.4910     0.0240  1305.6920   -60.8950     7.2740     6.2810     5.9980  1210.0590
 1792.5000   111.8420     0.3770    11.7960     2.4920     0.0250  1306.1190   -60.7460     7.0160     5.9170     5.7440  1210.1970
 1793.0000   109.1040     0.3790    11.8330     2.4890     0.0280  1306.5460   -60.5960     6.8870     5.5860     5.4630  1210.3361
 1793.5000   105.5130     0.3800    11.9170     2.4720     0.0400  1306.9730   -60.4470     6.7430     5.2220     5.1810  1210.4750
 1794.0000   103.6500     0.4220    12.0730     2.4470     0.0490  1307.4000   -60.2990     6.2200     5.1050     4.8990  1210.6130
 1794.5000   103.3040     0.4180    12.2460     2.3580     0.0470  1307.8270   -60.2340     5.5340     4.9750     4.5890  1210.7520
 1795.0000   104.7300     0.4100    12.2020     2.3670     0.0390  1308.2540   -60.2710     4.5050     4.8440     4.5890  1210.8910
 1795.5000   106.6190     0.4010    12.0840     2.3910     0.0290  1308.6810   -60.3080     4.8710     4.6750     4.5760  1211.0291
 1796.0000   108.2900     0.3980    11.9740     2.4280     0.0340  1309.1080   -60.3460     5.6750     4.7060     4.5650  1211.1680
 1796.5000   111.8490     0.3990    11.9960     2.4630     0.0470  1309.5350   -60.3830     6.3980     4.7510     4.5530  1211.3060
 1797.0000   112.8940     0.4000    12.0920     2.4500     0.0640  1309.9620   -60.4210     6.0580     4.7960     4.5060  1211.4449
 1797.5000   112.2030     0.3970    12.1380     2.4050     0.0600  1310.3890   -60.4580     5.5720     4.8410     4.4640  1211.5840
 1798.0000   111.8150     0.3920    12.0790     2.3570     0.0280  1310.8160   -60.4960     4.9410     4.8860     4.6350  1211.7220
