~VERSION INFORMATION
 VERS.                2.0:   CWLS LOG ASCII STANDARD - VERSION 2.0
 WRAP.                 NO:   ONE LINE PER DEPTH STEP
~WELL INFORMATION
#MNEM.UNIT      DATA TYPE    INFORMATION
#----------   ------------   ------------------------------
 STRT.F            0.0000:   START DEPTH
 STOP.F         4030.0000:   STOP DEPTH
 STEP.F            0.5000:   STEP LENGTH
 NULL.          -999.2500:   NO VALUE
 COMP.  FENIX AND SCISSON:   COMPANY
 WELL.  FENIX "LX" #33-10:   WELL
 FLD . TEAPOT DOME (NPR #3):   FIELD
 LOC .      S10 T38N R78W:   LOCATION
 CNTY.            NATRONA:   COUNTY
 STAT.            WYOMING:   STATE
 CTRY. UNITED STATES OF AMERICA:   COUNTRY
 SRVC.       SCHLUMBERGER:   SERVICE COMPANY
 DATE.        03-APR-1978:   LOGDATE
 API .     49025105980000:   API NUMBER
~CURVE INFORMATION
#MNEM.UNIT       API CODE    CURVE DESCRIPTION
#----------   ------------   ------------------------------
 DEPT.F                  :   
 SPR .MV     07 010 01 00:   SPONTANEOUS POTENTIAL
 ILD .OHMM   07 120 46 00:   DEEP INDUCTION RESISTIVITY
 SFL .OHMM   07 220 01 00:   SHALLOW FOCUSED LOG RESISTIVITY
 ILM .OHMM   07 120 44 00:   INDUCTION LOG MEDIUM RESISTIVITY
 NPHI.DEC    42 890 03 00:   NEUTRON POROSITY SANDSTONE
 GRD .GAPI   45 310 01 00:   GAMMA RAY FROM DENSITY LOG
 CALD.IN     45 280 60 00:   CALIPER FROM DENSITY LOG
 RHOB.G/C3   45 350 01 00:   BULK DENSITY
 CORR.G/C3   45 356 01 00:   DENSITY CORRECTION
~PARAMETER INFORMATION
#MNEM.UNIT          VALUE    DESCRIPTION
#----------   ------------   ------------------------------
 EKB .F         5232.0000:   Kelly bushing
 EGL .F         5222.0000:   Ground level
 EDF .F            0.0000:   Drilling floor
 EPD .F         5222.0000:   Permanent datum
 TD  .F         4040.0000:   Total depth
 DATE.        03-APR-1978:   Date logged
 CLNT.            A2DTECH:   Client Code
 SL  . 1700' FNL & 1700' FWL:   Surface Location
 PD  .                 GL:   Permanent Datum
 DD  .F              4040:   Depth driller
 DL  .F              4031:   Depth logger
 BLI .F              4025:   Bottom log interval
 CS1 .IN            8.625:   Casing size
 CBD1.      8.625" @ 503':   Casing driller 1
 CBL1.F               504:   Casing logger 1
 BS1 .IN            7.875:   Bit size
 DFT .           CHEM GEL:   Type fluid in hole
 DFD .                9.5:   Density
 DFV .                 43:   Viscosity
 DFPH.               11.5:   pH
 DFL .                4.4:   Fluid loss
 MSS .            MUD PIT:   Source of sample
 RMS .OHMM           1.16:   Rm
 MST .F                80:   Rm Meas. temp.
 RMF .OHMM           0.93:   Rmf
 MFST.F                80:   Rmf Meas. temp.
 RMC .OHMM           1.74:   Rmc
 MCST.F                80:   Rmc Meas. temp.
 MFSS.               MEAS:   Source Rmf.
 RMB .OHMM          0.742:   Rm. at BHT
 BHT .F               125:   BHT.
 TCS .HRS            0800:   Time Circ. stopped
 MRT .F               125:   Maximum recorded temp.
 LUN .               7660:   Logging unit number
 LUL .                GLT:   Logging unit location
 ENGI.            TOEPPER:   Recorded By
 WITN.           MCGINLEY:   Witnessed by
 ORIG.         2.5" PRINT:   Origin of data
 UWI .     49025105980000:   Unique Well ID
 DICO. A2D TECHNOLOGIES, INC.:   Digitizing Company
 DAPD.                 10:   Feet Above Permanent Datum
 BSD1.               4040:   Depth drilled with bit1
 MCSS.               CALC:   Source Rmc.
 LMF .                 KB:   Log Measured From
 DMF .                 KB:   Drilling Measured From
 TLI .                504:   Top log interval
 TLAB.               1000:   Time logger at bottom
~OTHER INFORMATION
~A    DEPT     SPR        ILD        SFL        ILM       NPHI         GRD      CALD       RHOB       CORR   
# ...
 3066.0000   -61.2160    16.8900    29.0880    20.4080     0.1940    73.4240     8.5950     2.4950     0.0890
 3066.5000   -61.8960    17.6020    34.0850    21.1340     0.2120    76.5900     8.4930     2.4050     0.0440
 3067.0000   -62.1660    18.3140    29.4880    20.7490     0.2270    77.6290     8.3710     2.3550     0.0510
 3067.5000   -62.8410    18.9270    25.4240    20.1260     0.2260    75.2430     8.3790     2.3720     0.0590
 3068.0000   -63.4950    18.4350    21.1340    19.4600     0.2250    67.6560     8.3980     2.3940     0.0660
 3068.5000   -63.6200    17.7720    19.4810    18.7950     0.2300    61.0430     8.4210     2.3890     0.0610
 3069.0000   -63.9850    17.1080    16.9500    18.1290     0.2340    53.8210     8.4410     2.3870     0.0560
 3069.5000   -63.9360    16.4450    17.2020    17.4630     0.2390    49.8400     8.4630     2.3980     0.0480
 3070.0000   -63.9780    15.7820    17.6570    16.7980     0.2390    49.0670     8.4840     2.4130     0.0610
 3070.5000   -64.3020    15.1180    18.1120    16.1320     0.2390    50.2660     8.5070     2.4310     0.0900
 3071.0000   -64.0700    14.4550    18.5820    15.4660     0.2420    51.3040     8.5230     2.4110     0.0760
 3071.5000   -63.6210    13.7910    17.3380    14.7360     0.2450    52.3430     8.5270     2.3930     0.0480
 3072.0000   -63.5300    13.1280    16.0530    13.9560     0.2490    53.4240     8.5340     2.3730     0.0420
 3072.5000   -63.0060    12.4650    14.7680    13.1760     0.2520    54.4740     8.5390     2.3660     0.0380
 3073.0000   -62.7390    11.8010    13.4830    12.3960     0.2540    55.5360     8.5450     2.3590     0.0310
 3073.5000   -62.7710    11.1380    12.1980    11.6160     0.2520    56.5930     8.5520     2.3550     0.0370
 3074.0000   -62.6430    10.4750    10.9030    10.8360     0.2500    57.6600     8.5530     2.3610     0.0540
 3074.5000   -62.5040     9.8110    11.0290    10.0560     0.2480    58.7030     8.6010     2.3830     0.0600
 3075.0000   -62.2410     9.3230    11.1060     9.5050     0.2470    59.7710     8.6860     2.4150     0.0590
 3075.5000   -61.9740     9.0980    10.6300     9.3010     0.2490    60.8550     8.7640     2.4100     0.0600
 3076.0000   -61.1540     8.8740     9.8390     9.0960     0.2530    61.7740     8.8430     2.4030     0.0570
 3076.5000   -60.1340     8.6490     9.0490     8.8910     0.2560    63.7240     8.9230     2.3970     0.0480
 3077.0000   -59.0450     8.4250     8.5850     8.6870     0.2600    66.4160     9.0020     2.3930     0.0400
 3077.5000   -57.8680     8.2010     8.3840     8.4820     0.2630    68.9480     9.0810     2.3870     0.0320
 3078.0000   -56.6670     7.9760     8.1800     8.2780     0.2620    71.4760     9.1540     2.3810     0.0280
 3078.5000   -55.4640     7.7520     7.9750     8.0730     0.2590    74.0430     9.1890     2.3860     0.0350
 3079.0000   -54.2660     7.5270     7.7710     7.8680     0.2560    76.5830     9.2210     2.4170     0.0400
 3079.5000   -53.0640     7.3030     7.5670     7.6640     0.2540    79.1280     9.2520     2.4490     0.0470
 3080.0000   -51.8630     7.0790     7.3620     7.5490     0.2510    82.2150     9.2840     2.4580     0.0520
 3080.5000   -50.6650     6.8540     7.1580     7.5490     0.2590    85.8500     9.3160     2.4420     0.0580
 3081.0000   -49.4600     6.6300     6.9530     7.2650     0.2650    89.5600     9.3470     2.4660     0.0640
 3081.5000   -48.2640     6.4050     6.7490     6.9300     0.2730    91.4740     9.3820     2.4610     0.0590
 3082.0000   -47.0680     6.1810     6.5560     6.5940     0.2680    90.4600     9.3730     2.4470     0.0450
 3082.5000   -45.8270     5.9560     6.3770     6.2580     0.2590    87.2670     9.3270     2.4220     0.0310
 3083.0000   -44.9480     5.8360     6.2810     5.9440     0.2500    84.2030     9.2850     2.4200     0.0260
 3083.5000   -44.8090     5.8750     6.4870     6.1750     0.2410    83.7690     9.2460     2.4220     0.0250
 3084.0000   -44.8270     5.9110     7.2580     6.3930     0.2310    89.7580     9.1980     2.4350     0.0280
 3084.5000   -44.8280     5.9480     8.1250     6.6370     0.2310    95.8330     9.2130     2.4780     0.0470
 3085.0000   -44.7310     5.9840     7.5240     6.5160     0.2310   100.0190     9.2340     2.5120     0.0660
 3085.5000   -44.3470     6.0210     6.7600     6.4170     0.2360   101.9260     9.2580     2.5230     0.0840
 3086.0000   -43.6580     6.0540     6.6370     6.2700     0.2410   104.0750     9.2750     2.5350     0.1030
 3086.5000   -43.2890     5.8420     6.6370     6.1240     0.2460   106.2890     9.2620     2.5210     0.1030
 3087.0000   -42.9560     5.6480     6.4430     5.9780     0.2510   108.3130     9.2340     2.5070     0.0920
 3087.5000   -42.6570     5.4530     6.0490     5.8310     0.2560   110.5500     9.2080     2.4940     0.0760
 3088.0000   -42.3330     5.2580     5.6560     5.6850     0.2620   110.2370     9.1810     2.5120     0.0610
 3088.5000   -42.0180     5.0630     5.2260     5.5390     0.2460   109.8260     9.1540     2.4950     0.0470
 3089.0000   -41.7030     4.8690     5.2260     5.3920     0.2300   109.2780     9.1260     2.5370     0.0550
 3089.5000   -41.3890     4.6740     5.5970     5.2460     0.2340   111.5480     9.1160     2.5310     0.0730
 3090.0000   -41.0790     4.4790     6.0540     5.1000     0.2400   114.5550     9.1210     2.4990     0.0400
 3090.5000   -40.7790     4.2690     5.5830     4.9530     0.2260   114.2990     9.1240     2.4730     0.0210
 3091.0000   -40.4830     4.2690     4.9460     4.8070     0.2260   114.0480     9.1280     2.4730     0.0260
 3091.5000   -40.1670     4.2440     4.9840     4.6970     0.2340   113.6860     9.1320     2.4900     0.0290
 3092.0000   -40.0270     4.2210     5.1310     4.4850     0.2410   113.4030     9.1350     2.5110     0.0450
 3092.5000   -39.8610     4.1980     5.0650     4.4290     0.2470   113.0750     9.1390     2.5330     0.0650
 3093.0000   -39.6080     4.1760     4.8710     4.4290     0.2550   112.7250     9.1430     2.5240     0.0750
 3093.5000   -39.3480     4.1530     4.6760     4.4290     0.2490   112.5820     9.1460     2.5000     0.0570
 3094.0000   -39.1110     4.1150     4.5120     4.4290     0.2420   110.7110     9.1500     2.5100     0.0400
 3094.5000   -38.8710     4.1170     4.6220     4.4290     0.2340   107.4580     9.1540     2.5470     0.0350
 3095.0000   -39.0600     4.1220     4.7690     4.4290     0.2270   104.3010     9.1570     2.5410     0.0420
 3095.5000   -39.2710     4.1270     4.9150     4.4290     0.2190   102.8190     9.1610     2.5300     0.0350
 3096.0000   -39.5200     4.1320     5.0380     4.4290     0.2160   102.0660     9.1650     2.5190     0.0230
 3096.5000   -39.6380     4.1370     5.0080     4.4290     0.2250   103.3610     9.1680     2.5080     0.0120
 3097.0000   -39.5800     4.1420     4.9700     4.4290     0.2310   104.5580     9.1720     2.4970     0.0040
 3097.5000   -39.5440     4.1470     4.9460     4.4290     0.2360   103.7760     9.1760     2.4900     0.0130
 3098.0000   -39.5020     4.1520     4.8020     4.4290     0.2330   100.5800     9.1790     2.5060     0.0210
 3098.5000   -39.4600     4.1570     4.6550     4.4290     0.2280   102.6870     9.1830     2.5030     0.0300
 3099.0000   -39.4190     4.1620     4.5950     4.4300     0.2240   104.3950     9.1870     2.5110     0.0390
 3099.5000   -39.3770     4.1680     4.7310     4.4490     0.2190   106.3190     9.1900     2.5240     0.0510
 3100.0000   -39.3370     4.1720     4.8580     4.4750     0.2250   108.1180     9.1940     2.5320     0.0460
 3100.5000   -39.2890     4.1770     4.9860     4.5090     0.2320   110.0660     9.1730     2.5150     0.0340
 3101.0000   -39.2490     4.1850     5.0380     4.4990     0.2380   110.7460     9.1460     2.5020     0.0240
 3101.5000   -38.9060     4.1980     5.0380     4.4730     0.2420   110.5690     9.1200     2.4810     0.0100
 3102.0000   -38.4880     4.1800     4.8900     4.4480     0.2390   108.6660     9.0930     2.4890     0.0180
