~VERSION INFORMATION
 VERS.                2.0:   CWLS LOG ASCII STANDARD - VERSION 2.0
 WRAP.                 NO:   ONE LINE PER DEPTH STEP
~WELL INFORMATION
#MNEM.UNIT      DATA TYPE    INFORMATION
#----------   ------------   ------------------------------
 STRT.F           36.0000:   START DEPTH
 STOP.F         3488.0000:   STOP DEPTH
 STEP.F            0.5000:   STEP LENGTH
 NULL.          -999.2500:   NO VALUE
 COMP. LAWRENCE - ALLISON  & ASSOCIATE:   COMPANY
 WELL. LAWRENCE "STX" #76-23:   WELL
 FLD .              NPR 3:   FIELD
 LOC .      S23 T38N R78W:   LOCATION
 CNTY.            NATRONA:   COUNTY
 STAT.            WYOMING:   STATE
 CTRY. UNITED STATES OF AMERICA:   COUNTRY
 SRVC.       SCHLUMBERGER:   SERVICE COMPANY
 DATE.        07-MAY-1982:   LOGDATE
 API .     49025108920000:   API NUMBER
~CURVE INFORMATION
#MNEM.UNIT       API CODE    CURVE DESCRIPTION
#----------   ------------   ------------------------------
 DEPT.F                  :   
 CORR.G/C3   45 356 01 00:   DENSITY CORRECTION
 CALD.IN     45 280 60 00:   CALIPER FROM DENSITY LOG
 GRD .GAPI   45 310 01 00:   GAMMA RAY FROM DENSITY LOG
 RHOB.G/C3   45 350 01 00:   BULK DENSITY
 SFL .OHMM   07 220 01 00:   SHALLOW FOCUSED LOG RESISTIVITY
 ILD .OHMM   07 120 46 00:   DEEP INDUCTION RESISTIVITY
 ILM .OHMM   07 120 44 00:   INDUCTION LOG MEDIUM RESISTIVITY
 TENR.LBS    07 635 01 00:   TENSION
 SPR .MV     07 010 01 00:   SPONTANEOUS POTENTIAL
 NPHI.DEC    42 890 03 00:   NEUTRON POROSITY SANDSTONE
 TEND.LBS    45 635 01 00:   TENSION FROM DENSITY LOG
~PARAMETER INFORMATION
#MNEM.UNIT          VALUE    DESCRIPTION
#----------   ------------   ------------------------------
 EKB .F         5441.0000:   Kelly bushing
 EGL .F         5431.0000:   Ground level
 EDF .F            0.0000:   Drilling floor
 EPD .F            0.0000:   Permanent datum
 TD  .F         3788.0000:   Total depth
 DATE.        07-MAY-1982:   Date logged
 CLNT.            A2DTECH:   Client Code
 SL  . 1327' FSL & 1190' FEL:   Surface Location
 PD  .                 GL:   Permanent Datum
 DAPD.F                10:   Feet Above Permanent Datum
 DD  .F              3788:   Depth driller
 DL  .F              3478:   Depth logger
 BLI .F              3471:   Bottom log interval
 TLI .F              1615:   Top log interval
 CS1 .IN            9.625:   Casing size
 CBD1.     9.625" @ 1603':   Casing driller 1
 CBL1.F              1615:   Casing logger 1
 BS1 .IN            7.875:   Bit size
 BSD1.F              3788:   Depth drilled with bit1
 DFT .                AIR:   Type fluid in hole
 TCS .HRS            1230:   Time Circ. stopped
 TLAB.HRS            1500:   Time logger at bottom
 MRT .F               125:   Maximum recorded temp.
 LUN .               8035:   Logging unit number
 LUL .               CSPR:   Logging unit location
 ENGI.              PENNY:   Recorded By
 WITN.    JENNINGS/STRONG:   Witnessed by
 ORIG.       2.5"5" PRINT:   Origin of data
 UWI .     49025108920000:   Unique Well ID
 DICO. A2D TECHNOLOGIES, INC.:   Digitizing Company
~OTHER INFORMATION
~A   DEPT       CORR     CALD        GRD         RHOB      SFL        ILD        ILM       TENR        SPR        NPHI      TEND   
   36.0000     0.0310  -999.2500   294.8120     2.1970  -999.2500  -999.2500  -999.2500  -999.2500  -999.2500    -0.0100  -999.2500
   36.5000     0.0310  -999.2500   292.1440     2.1940  -999.2500  -999.2500  -999.2500  -999.2500  -999.2500    -0.0110  1009.8240
   37.0000     0.0330  -999.2500   293.0340     2.1900  -999.2500  -999.2500  -999.2500  -999.2500  -999.2500    -0.0110  1009.8240
   37.5000     0.0540  -999.2500   290.3660     2.1930  -999.2500  -999.2500  -999.2500  -999.2500  -999.2500    -0.0110  1009.8240
   38.0000     0.0540  -999.2500   289.7450     2.1950  -999.2500  -999.2500  -999.2500  -999.2500  -999.2500    -0.0110  1009.8240
   38.5000     0.0460  -999.2500   294.9880     2.1890  -999.2500  -999.2500  -999.2500  -999.2500  -999.2500    -0.0110  1009.8240
   39.0000     0.0370  -999.2500   296.2590     2.1760  -999.2500  -999.2500  -999.2500  -999.2500  -999.2500    -0.0110  1009.8240
   39.5000     0.0250  -999.2500   294.1770     2.1690  -999.2500  -999.2500  -999.2500  -999.2500  -999.2500    -0.0110  1009.8240
   40.0000     0.0130    15.5520   287.5000     2.1520  -999.2500  -999.2500  -999.2500  -999.2500  -999.2500    -0.0110  1009.8240
   40.5000     0.0130    15.5040   287.8220     2.1520  -999.2500  -999.2500  -999.2500  -999.2500  -999.2500    -0.0110  1009.8240
   41.0000     0.0230    15.4610   290.3440     2.1570  -999.2500  -999.2500  -999.2500  -999.2500  -999.2500    -0.0110  1009.8240
   41.5000     0.0430    15.4650   288.6760     2.1630  -999.2500  -999.2500  -999.2500  -999.2500  -999.2500    -0.0110  1009.8240
   42.0000     0.0480    15.4680   289.3660     2.1690  -999.2500  -999.2500  -999.2500  -999.2500  -999.2500    -0.0110  1009.8240
   42.5000     0.0400    15.4730   273.0490     2.1630  -999.2500  -999.2500  -999.2500  -999.2500  -999.2500    -0.0110  1013.9750
   43.0000     0.0330    15.4770   265.0620     2.1530  -999.2500  -999.2500  -999.2500  -999.2500  -999.2500    -0.0110  1018.1850
   43.5000     0.0260    15.4730   263.1720     2.1490  -999.2500  -999.2500  -999.2500  -999.2500  -999.2500    -0.0110  1022.3960
   44.0000     0.0280    15.4250   262.6860     2.1560  -999.2500  -999.2500  -999.2500  -999.2500  -999.2500    -0.0110  1026.6060
   44.5000     0.0390    15.3750   262.1970     2.1670  -999.2500  -999.2500  -999.2500  -999.2500  -999.2500    -0.0110  1030.8160
   45.0000     0.0520    15.3730   258.7690     2.1790  -999.2500  -999.2500  -999.2500  -999.2500  -999.2500    -0.0110  1035.0270
   45.5000     0.0690    15.3870   255.0580     2.1920  -999.2500  -999.2500  -999.2500  -999.2500  -999.2500    -0.0100  1039.2371
   46.0000     0.0550    15.4020   254.2960     2.1870  -999.2500  -999.2500  -999.2500  -999.2500  -999.2500    -0.0100  1043.4470
   46.5000     0.0420    15.4160   256.2590     2.1790  -999.2500  -999.2500  -999.2500  -999.2500  -999.2500    -0.0100  1047.6580
   47.0000     0.0330    15.4150   258.8400     2.1780  -999.2500  -999.2500  -999.2500  -999.2500  -999.2500    -0.0100  1049.1210
   47.5000     0.0330    15.3840   259.7540     2.1880  -999.2500  -999.2500  -999.2500  -999.2500  -999.2500    -0.0090  1049.1210
   48.0000     0.0330    15.3540   252.2590     2.1920  -999.2500  -999.2500  -999.2500  -999.2500  -999.2500    -0.0090  1049.1210
   48.5000     0.0230    15.3230   245.8970     2.1230  -999.2500  -999.2500  -999.2500  -999.2500  -999.2500    -0.0090  1049.1210
   49.0000     0.0130    15.2880   239.4860     2.0350  -999.2500  -999.2500  -999.2500  -999.2500  -999.2500    -0.0100  1049.1210
   49.5000    -0.0030    15.2840   236.8980     1.9470  -999.2500  -999.2500  -999.2500  -999.2500  -999.2500    -0.0100  1049.1210
   50.0000    -0.0210    15.2870   231.7560     1.7270  -999.2500  -999.2500  -999.2500  -999.2500  -999.2500    -0.0090  1049.1210
   50.5000    -0.0400    15.1760   226.1970     1.5970  -999.2500  -999.2500  -999.2500  -999.2500  -999.2500    -0.0080  1049.1210
   51.0000    -0.0470    15.0250   220.6090     1.5560  -999.2500  -999.2500  -999.2500  -999.2500  -999.2500    -0.0070  1049.1210
   51.5000    -0.0560    14.8750   215.0100     1.6530  -999.2500  -999.2500  -999.2500  -999.2500  -999.2500    -0.0070  1049.1210
   52.0000    -0.0370    14.6150   209.3860     1.7590  -999.2500  -999.2500  -999.2500  -999.2500  -999.2500    -0.0060  1049.1210
   52.5000    -0.0160    14.3270   203.9410     2.0490  -999.2500  -999.2500  -999.2500  -999.2500  -999.2500    -0.0050  1049.1210
   53.0000    -0.0070    14.0640   205.3330     2.1160  -999.2500  -999.2500  -999.2500  -999.2500  -999.2500    -0.0050  1049.1210
   53.5000     0.0020    14.0360   210.6370     2.1820  -999.2500  -999.2500  -999.2500  -999.2500  -999.2500    -0.0050  1049.1210
   54.0000     0.0150    13.9850   218.2740     2.2160  -999.2500  -999.2500  -999.2500  -999.2500  -999.2500    -0.0050  1049.1210
   54.5000     0.0290    13.9310   225.9560     2.2470  -999.2500  -999.2500  -999.2500  -999.2500  -999.2500    -0.0050  1049.1210
   55.0000     0.0390    13.9010   226.9970     2.2560  -999.2500  -999.2500  -999.2500  -999.2500  -999.2500    -0.0050  1049.1210
   55.5000     0.0250    13.8650   221.8760     2.2420  -999.2500  -999.2500  -999.2500  -999.2500  -999.2500    -0.0050  1044.8929
   56.0000     0.0120    13.7460   216.6640     2.2080  -999.2500  -999.2500  -999.2500  -999.2500  -201.4060    -0.0050  1040.9000
   56.5000     0.0060    13.6290   211.9050     2.1920  -999.2500  -999.2500  -999.2500  -999.2500  -204.2170    -0.0050  1036.9080
   57.0000    -0.0010    13.5100   214.2360     2.1960  1401.9750  -999.2500  -999.2500  -999.2500  -203.8150    -0.0050  1032.9150
   57.5000    -0.0020    13.4440   217.6200     2.2130  1651.4020  -999.2500  -999.2500  -999.2500  -200.2010    -0.0050  1028.9220
   58.0000    -0.0020    13.3910   222.2700     2.2490  1909.2760    29.2060   280.2130  -999.2500  -202.6100    -0.0050  1024.9301
   58.5000    -0.0020    13.3390   218.0480     2.2660  1945.0610    35.9760   633.9290  -999.2500  -205.4220    -0.0050  1020.9370
   59.0000    -0.0010    13.2850   205.8150     2.2500  1981.5170    42.7460   996.8060  -999.2500  -207.0280    -0.0050  1016.9450
   59.5000     0.0020    13.2420   194.0240     2.2140  1981.5170    48.3160   996.8060   587.0250  -208.1050    -0.0050  1012.9520
   60.0000     0.0050    13.1970   179.5400     2.1930  2039.8090    42.1340   502.4840   589.4350  -209.8770    -0.0050  1011.4250
   60.5000     0.0090    13.1530   181.7330     2.1830  2018.6560    34.1960    23.4200   591.8440  -210.2200    -0.0050  1018.8190
   61.0000     0.0150    13.1080   185.2130     2.1970  2003.5380    26.1800    20.6330   594.2540  -210.2880    -0.0050  1026.2120
   61.5000     0.0210    13.0640   189.7660     2.2110  1989.5880    26.6280    22.2770   596.6640  -209.9380    -0.0050  1033.6060
   62.0000     0.0270    13.0280   188.3360     2.2260  1975.6370    23.4140    19.9850   599.0740  -209.7590    -0.0050  1041.0000
   62.5000     0.0290    13.0180   185.5390     2.2360  1961.6870    21.3430    19.3380   601.4830  -210.5510    -0.0050  1049.1210
   63.0000     0.0250    13.0090   182.7200     2.2380  1947.7360    21.3730    18.6900   602.6880  -211.4060    -0.0040  1049.1210
   63.5000     0.0200    12.9850   179.8870     2.2320  1933.7860    21.4720    18.0420   605.0980  -212.5530    -0.0040  1049.1210
   64.0000     0.0150    12.9620   177.0310     2.2260  1919.8361    21.5710    17.0800   607.5080  -212.6100    -0.0040  1049.1210
   64.5000     0.0110    12.9380   174.1070     2.2190  1905.8850    21.6700    17.4000   609.9170  -212.5920    -0.0040  1049.1210
   65.0000     0.0060    12.9050   174.7030     2.2210  1891.9351    21.7690    17.8420   612.3270  -210.2370    -0.0040  1049.1210
   65.5000     0.0040    12.8710   176.0810     2.2360  1877.9840    21.8680    18.2380   614.7370  -207.3110    -0.0040  1049.1210
   66.0000     0.0120    12.7570   180.9230     2.2500  1874.1490    21.9670    18.6330   617.1470  -204.2640    -0.0030  1049.1210
