~VERSION INFORMATION
 VERS.                2.0:   CWLS LOG ASCII STANDARD - VERSION 2.0
 WRAP.                 NO:   ONE LINE PER DEPTH STEP
~WELL INFORMATION
#MNEM.UNIT      DATA TYPE    INFORMATION
#----------   ------------   ------------------------------
 STRT.F          197.0000:   START DEPTH
 STOP.F         3238.5000:   STOP DEPTH
 STEP.F            0.5000:   STEP LENGTH
 NULL.          -999.2500:   NO VALUE
 COMP.    FENIX & SCISSON:   COMPANY
 WELL. FENIX 28 "A" #28-11:   WELL
 FLD .              NPR-3:   FIELD
 LOC .      S11 T38N R78W:   LOCATION
 CNTY.            NATRONA:   COUNTY
 STAT.            WYOMING:   STATE
 CTRY. UNITED STATES OF AMERICA:   COUNTRY
 SRVC.              WELEX:   SERVICE COMPANY
 DATE.        25-OCT-1977:   LOGDATE
 API .     49025104350000:   API NUMBER
~CURVE INFORMATION
#MNEM.UNIT       API CODE    CURVE DESCRIPTION
#----------   ------------   ------------------------------
 DEPT.F                  :   
 SPR .MV     07 010 01 00:   SPONTANEOUS POTENTIAL
 TENR.LBS    07 635 01 00:   TENSION FROM RESISTIVITY
 ILM .OHMM   07 120 44 00:   INDUCTION LOG MEDIUM RESISTIVITY
 SGRD.OHMM   07 220 05 00:   SHALLOW SHORT GUARD RESISTIVITY
 ILD .OHMM   07 120 46 00:   INDUCTION LOG DEEP RESISTIVITY
 GRD .GAPI   45 310 01 00:   GAMMA RAY FROM DENSITY LOG
 CALD.IN     45 280 60 00:   CALIPER FROM DENSITY LOG
 CORR.G/C3   45 356 01 00:   DENSITY CORRECTION
 RHOB.G/C3   45 350 01 00:   BULK DENSITY
~PARAMETER INFORMATION
#MNEM.UNIT          VALUE    DESCRIPTION
#----------   ------------   ------------------------------
 EKB .F         5211.0000:   Kelly bushing
 EGL .F         5201.0000:   Ground level
 EDF .F            0.0000:   Drilling floor
 EPD .F         5201.0000:   Permanent datum
 TD  .F         3235.0000:   Total depth
 CLNT.            A2DTECH:   Client Code
 SL  . 330' FSL & 990' FWL:   Surface Location
 PD  .                 GL:   Permanent Datum
 DAPD.F                10:   Feet Above Permanent Datum
 DATE.        25-OCT-1977:   Date Logged [DD-MMM-YYYY]
 DD  .F              3235:   Depth driller
 DL  .F              3231:   Depth logger
 BLI .F              3229:   Bottom log interval
 TLI .F               200:   Top log interval
 CS1 .IN            8.625:   Casing size
 CBD1.      8.625" @ 217':   Casing driller 1
 CBL1.F               217:   Casing logger 1
 BS1 .              7.875:   Bit size
 BSD1.IN             3235:   Depth drilled with bit1
 DFT .            KCL MUD:   Type fluid in hole
 DFD .                8.9:   Density
 DFV .                 35:   Viscosity
 DFPH.               11.5:   pH
 DFL .               16.4:   Fluid loss
 MSS .           FLOWLINE:   Source of sample
 RMS .OHMM           1.18:   Rm
 MST .F                74:   Rm Meas. temp.
 RMF .OHMM           1.74:   Rmf
 MFST.F                74:   Rmf Meas. temp.
 MFSS.               MEAS:   Source Rmf.
 MCSS.               MEAS:   Source Rmc.
 RMB .OHMM           1.15:   Rm. at BHT
 BHT .F               116:   BHT.
 TCS .HRS               3:   Time Circ. stopped
 MRT .F               116:   Maximum recorded temp.
 LUN .               8611:   Logging unit number
 LUL .             CASPER:   Logging unit location
 ENGI.            C. DOAK:   Recorded By
 WITN.      W. PETTINGILL:   Witnessed by
 ORIG.           5" PRINT:   Origin of data
 UWI .     49025104350000:   Unique Well ID
 DICO. A2D TECHNOLOGIES, INC.:   Digitizing Company
~OTHER INFORMATION
~A   DEPT      SPR       TENR        ILM       SGRD        ILD         GRD      CALD       CORR       RHOB   
# ...
  598.5000   -73.5119   775.0419     8.3772    15.3874     7.5127    78.9288    10.0497    -0.0020     2.4671
  599.0000   -73.3649   774.6150     7.9157    13.5443     7.2617    81.2650    10.0331    -0.0021     2.4476
  599.5000   -73.5206   774.1882     7.5986    11.9739     7.1595    83.6013    10.0479    -0.0022     2.3936
  600.0000   -73.3737   773.7613     7.4917    10.5761     7.2074    86.2500    10.0660    -0.0039     2.3748
  600.5000   -73.0755   773.3345     7.3863    10.0716     6.9594    90.1474    10.1081    -0.0086     2.3718
  601.0000   -72.9308   772.9076     7.3330     9.8605     6.8141    90.6105    10.1230    -0.0087     2.3741
  601.5000   -72.6497   772.4808     7.2800     9.8519     6.7165    89.5073    10.1376    -0.0088     2.3779
  602.0000   -73.5677   772.0540     7.2776     9.7161     6.6622    88.5623    10.1675    -0.0073     2.3808
  602.5000   -73.2754   771.6271     7.2250     9.5786     6.5299    89.5025    10.1821    -0.0074     2.3838
  603.0000   -73.1175   771.2003     7.1671     9.5747     6.4826    91.3578    10.2120    -0.0074     2.3868
  603.5000   -72.8420   770.7734     7.2195     9.5048     6.3914    91.9772    10.2266    -0.0060     2.3898
  604.0000   -73.3087   770.3466     7.2678     9.5010     6.3452    92.2821    10.2414    -0.0044     2.3936
  604.5000   -73.7728   769.9966     7.2147     9.4317     6.2993    92.2727    10.2560     0.0016     2.4040
  605.0000   -73.9344   770.0001     7.0155     9.3628     6.2107    92.2651    10.2703     0.0078     2.4217
  605.5000   -73.9446   769.9998     6.7749     9.2943     6.1657    91.7888    10.2848     0.0092     2.4340
  606.0000   -74.2575   770.0000     6.5425     9.2898     6.2065    91.3104    10.2838     0.0107     2.4363
  606.5000   -74.4191   770.0000     6.7248     9.2860     6.2039    91.3286    10.2984     0.0122     2.4258
  607.0000   -74.4296   770.0000     6.9172     9.2823     6.2454    92.2330    10.2970     0.0104     2.4138
  607.5000   -74.4421   770.0000     7.0038     9.2786     6.2866    93.1630    10.2960     0.0042     2.4003
  608.0000   -74.9062   770.0000     6.7630     9.2749     6.3282    93.6242    10.3007     0.0011     2.3943
  608.5000   -75.0677   770.0000     6.5763     9.2711     6.3255    94.0854    10.3095    -0.0052     2.3928
  609.0000   -75.5319   770.0000     6.5288     9.2673     6.3674    94.3906    10.3241    -0.0099     2.3958
  609.5000   -75.6934   770.0000     6.7096     9.2627     6.4539    94.2265    10.3230    -0.0116     2.3981
  610.0000   -75.7036   770.0000     6.9915     9.2590     6.4516    93.5729    10.3217    -0.0132     2.3996
  610.5000   -75.7141   770.0000     7.2884     9.2553     6.4490    93.2740    10.3208    -0.0146     2.3988
  611.0000   -75.7267   770.0000     7.5384     9.2516     6.4468    93.7333    10.3196    -0.0159     2.3996
  611.5000   -75.7370   770.0000     7.5881     9.2481     6.4900    94.9757    10.3185    -0.0172     2.3958
  612.0000   -75.8985   770.0000     7.8524     9.2441     6.5328    96.0619    10.3175    -0.0181     2.3935
  612.5000   -75.9088   770.0000     8.0150     9.2404     6.5760    98.7106    10.3164    -0.0213     2.3928
  613.0000   -76.3729   770.0000     7.5805     9.2366     6.5732   100.5781    10.3153    -0.0245     2.3973
  613.5000   -76.5344   770.0000     7.3712     9.2321     6.6167   102.7933    10.3141    -0.0246     2.3988
  614.0000   -76.5447   770.0000     7.3180     9.2284     6.6144   104.0005    10.3289    -0.0278     2.3988
  614.5000   -76.5552   770.0000     7.3155     9.2246     6.6117   104.3054    10.3277    -0.0278     2.4025
  615.0000   -76.7191   770.0000     7.2621     9.2209     6.6095   104.4541    10.3265    -0.0263     2.4085
  615.5000   -76.7293   770.0000     7.1600     9.2172     6.6072   104.1322    10.3321    -0.0249     2.4100
  616.0000   -76.8909   770.0000     7.0106     9.2135     6.6050   103.0309    10.3400    -0.0219     2.4093
  616.5000   -77.0524   770.0000     6.9120     9.2098     6.5573   101.1483    10.3389    -0.0188     2.4123
  617.0000   -76.9114   770.0000     6.9097     9.2052     6.4650   100.5158    10.3377    -0.0158     2.4228
  617.5000   -77.0729   770.0000     7.0036     9.2015     6.4182   100.8208    10.3525    -0.0128     2.4310
  618.0000   -77.0832   770.0000     7.1480     9.1978     6.1933   100.6551    10.3671    -0.0113     2.4325
  618.5000   -77.2451   770.0000     7.1952     9.1941     6.0262    99.7263    10.3658    -0.0130     2.4228
  619.0000   -77.4088   770.0000     6.8999     9.1270     5.9831    96.1081    10.3647    -0.0130     2.4025
  619.5000   -77.7217   770.0000     6.7094     9.1233     6.0644    95.6337    10.3634    -0.0114     2.4100
  620.0000   -77.9110   770.0000     6.6609     9.1196     6.1045    96.0930    10.3779    -0.0070     2.4205
  620.5000   -77.9997   770.0000     6.6587     9.1158     6.1019    96.0854    10.3769    -0.0024     2.4310
  621.0000   -78.0884   770.0000     6.7027     9.1114     6.1423    95.9216    10.3758     0.0037     2.4445
  621.5000   -78.1771   770.0000     6.7469     9.1077     6.1828    96.2296    10.3748     0.0068     2.4513
  622.0000   -78.3782   769.7712     6.7939     9.1041     6.2237    97.7550    10.3737     0.0083     2.4490
  622.5000   -78.8448   769.3432     6.8837     9.1004     6.2211   101.6784    10.3727     0.0033     2.4419
  623.0000   -79.0063   768.9153     6.9292     9.1609     6.2627   101.8290    10.3714    -0.0013     2.4340
  623.5000   -79.0166   768.4873     6.9263     9.1563     6.2600   101.9777    10.3705    -0.0013     2.4280
  624.0000   -78.8755   768.0593     6.8762     9.0894     6.3019   102.2826    10.3694    -0.0030     2.4205
  624.5000   -78.8858   767.6313     6.8739     9.0849     6.3871   102.5859    10.3682    -0.0061     2.4145
  625.0000   -78.8960   767.2034     6.8716     9.1452     6.3409   102.5781    10.3671    -0.0078     2.4160
  625.5000   -79.0576   766.7755     6.8220     9.1406     6.2516   102.5703    10.3661    -0.0094     2.4258
  626.0000   -79.0681   766.3475     6.7683     9.1370     6.2064   102.2486    10.3650    -0.0079     2.4328
  626.5000   -79.2319   765.9195     6.6769     9.0703     6.0764   101.9286    10.3637    -0.0049     2.4408
  627.0000   -79.3935   765.4915     6.6747     9.0040     5.9909    98.4842    10.3627    -0.0018     2.4445
  627.5000   -79.7063   765.0635     6.7654     8.8766     5.9065    96.7474    10.3616    -0.0004     2.4438
  628.0000   -79.7166   764.6356     6.8106     8.8117     5.8638    99.8734    10.3606    -0.0020     2.4393
  628.5000   -79.7268   764.2076     6.8555     8.6863     5.8619   100.2370    10.3595    -0.0037     2.4340
  629.0000   -79.8884   763.7797     6.8055     8.6228     5.8599   100.7958    10.3584    -0.0068     2.4280
  629.5000   -80.2012   763.3517     6.7562     8.5008     5.8986   101.4133    10.3571    -0.0116     2.4211
  630.0000   -80.3631   762.9237     6.6612     8.3805     5.9788   101.7201    10.3561    -0.0132     2.4123
  630.5000   -80.6781   762.4958     6.6126     8.3772     5.9351   102.0232    10.3550    -0.0148     2.4018
  631.0000   -80.9910   762.0678     6.6104     8.3738     5.8922   102.1719    10.3540    -0.0149     2.3973
  631.5000   -81.3038   761.6398     6.6540     8.3704     5.8092   102.0078    10.3529    -0.0103     2.4048
  632.0000   -81.3140   761.2119     6.7450     8.3662     5.7275   101.9987    10.3519    -0.0088     2.4190
  632.5000   -81.4756   760.7839     6.7895     8.2478     5.7256   102.1493    10.3589    -0.0074     2.4363
  633.0000   -81.7884   760.3560     6.6015     8.1311     5.6842   102.4542    10.3654    -0.0043     2.4460
  633.5000   -82.2526   759.9280     6.2386     7.9607     5.6042   103.2260    10.3641    -0.0029     2.4445
  634.0000   -82.4408   759.5000     5.8111     7.7939     5.4851   104.3122    10.3630     0.0019     2.4385
  634.5000   -82.4243   759.0720     5.5093     7.6306     5.3351   105.5547    10.3619     0.0047     2.4363
