~VERSION INFORMATION
 VERS.                2.0:   CWLS LOG ASCII STANDARD - VERSION 2.0
 WRAP.                 NO:   ONE LINE PER DEPTH STEP
~WELL INFORMATION
#MNEM.UNIT      DATA TYPE    INFORMATION
#----------   ------------   ------------------------------
 STRT.F           70.0000:   START DEPTH
 STOP.F         2751.5000:   STOP DEPTH
 STEP.F            0.5000:   STEP LENGTH
 NULL.          -999.2500:   NO VALUE
 COMP.          INTEX OIL:   COMPANY
 WELL. INTEX N.P.R. "AX" #75-20:   WELL
 FLD .             TEAPOT:   FIELD
 LOC .      S20 T39N R78W:   LOCATION
 CNTY.            NATRONA:   COUNTY
 STAT.            WYOMING:   STATE
 CTRY. UNITED STATES OF AMERICA:   COUNTRY
 SRVC.       SCHLUMBERGER:   SERVICE COMPANY
 DATE.        06-MAY-1966:   LOGDATE
 API .     49025095120000:   API NUMBER
~CURVE INFORMATION
#MNEM.UNIT       API CODE    CURVE DESCRIPTION
#----------   ------------   ------------------------------
 DEPT.F                  :   
 CALD.IN     45 280 60 00:   CALIPER FROM DENSITY LOG
 GRD .GAPI   45 310 01 00:   GAMMA RAY FROM DENSITY LOG
 RHOB.G/C3   45 350 01 00:   BULK DENSITY
 CORR.G/C3   45 356 01 00:   DENSITY CORRECTION
 SPR .MV     05 010 01 00:   SPONTANEOUS POTENTIAL
 ILD .OHMM   05 120 46 00:   DEEP INDUCTION RESISTIVITY
 ASN .OHMM   05 041 16 00:   AMPLIFIED SHORT NORMAL 16"
~PARAMETER INFORMATION
#MNEM.UNIT          VALUE    DESCRIPTION
#----------   ------------   ------------------------------
 EKB .F         5016.3000:   Kelly bushing
 EGL .F         5006.0000:   Ground level
 EDF .F            0.0000:   Drilling floor
 TD  .F         2750.0000:   Total depth
 DATE.        06-MAY-1966:   Date logged
 CLNT.            A2DTECH:   Client Code
 PD  .                 GL:   Permanent Datum
 DD  .F              2750:   Depth driller
 DL  .F              2746:   Depth logger
 BLI .F              2745:   Bottom log interval
 CS1 .IN            10.75:   Casing size
 CBD1.       10.75" @ 30':   Casing driller 1
 BS1 .IN            7.875:   Bit size
 DFT .           OIL/EMUL:   Type fluid in hole
 DFD .                9.8:   Density
 DFV .                 43:   Viscosity
 DFPH.                  8:   pH
 DFL .               11.8:   Fluid loss
 MSS .         CIRCULATED:   Source of sample
 RMS .OHMM           1.84:   Rm
 MST .F                73:   Rm Meas. temp.
 RMF .OHMM           1.21:   Rmf
 MFST.F                74:   Rmf Meas. temp.
 MFSS.                 FP:   Source Rmf.
 RMB .OHMM           1.27:   Rm. at BHT
 BHT .F               106:   BHT.
 TCS .HRS             1.5:   Time Circ. stopped
 MRT .F               106:   Maximum recorded temp.
 LUN .               3527:   Logging unit number
 LUL .               CSPR:   Logging unit location
 ENGI.               HAUG:   Recorded By
 WITN.      TUTTLE/HUDSON:   Witnessed by
 ORIG.           5" PRINT:   Origin of data
 UWI .     49025095120000:   Unique Well ID
 DICO. A2D TECHNOLOGIES, INC.:   Digitizing Company
 DAPD.F              10.3:   Feet Above Permanent Datum
 BSD1.F              2750:   Depth drilled with bit1
 MCSS.                 FP:   Source Rmc.
 EPD .F              5006:   Elevation Permanent Datum
 LMF .                 KB:   Log Measured From
 DMF .                 KB:   Drilling Measured From
 TLI .F                88:   Top log interval
~OTHER INFORMATION
~A   DEPT     CALD        GRD       RHOB       CORR        SPR        ILD          ASN 
# ...
 2390.5000     8.1760   106.5840     2.4710     0.0110   -41.7510     7.7900    12.3480
 2391.0000     8.1760   108.2210     2.4750     0.0120   -41.7870     7.8160    12.4100
 2391.5000     8.1760   108.6810     2.4790     0.0130   -41.8220     7.8430    12.4720
 2392.0000     8.1760   106.8950     2.4780     0.0130   -41.8570     7.8700    12.5350
 2392.5000     8.1760   104.9770     2.4760     0.0110   -41.8920     7.8970    12.5970
 2393.0000     8.1760   102.7510     2.4730     0.0100   -41.8220     7.9250    12.6590
 2393.5000     8.1760   101.2050     2.4720     0.0090   -41.6160     7.9520    12.7210
 2394.0000     8.1760    99.1160     2.4700     0.0070   -41.4130     7.9580    12.7820
 2394.5000     8.1760    99.2310     2.4750     0.0070   -41.2050     7.8350    12.8320
 2395.0000     8.1760   103.0720     2.4820     0.0080   -41.2980     7.7700    12.7640
 2395.5000     8.1760   104.8530     2.4850     0.0140   -41.5760     7.7070    12.5430
 2396.0000     8.1760   107.4570     2.4810     0.0190   -41.8630     7.6460    12.2980
 2396.5000     8.1760   108.2060     2.4850     0.0240   -41.6550     7.5840    12.0520
 2397.0000     8.1760   107.7520     2.4900     0.0260   -41.3330     7.5230    11.8060
 2397.5000     8.1760   105.0880     2.4770     0.0200   -40.9970     7.4620    11.5570
 2398.0000     8.1760   104.6950     2.4580     0.0120   -41.1380     7.4000    11.5450
 2398.5000     8.1760   107.4540     2.4470     0.0040   -41.2890     7.3390    11.5450
 2399.0000     8.1760   110.8480     2.4540    -0.0010   -41.1590     7.2870    11.4460
 2399.5000     8.1770   113.6960     2.4630     0.0030   -41.0360     7.3620    11.2550
 2400.0000     8.1760   113.8180     2.4600     0.0070   -40.9140     7.4460    11.0640
 2400.5000     8.1780   112.3800     2.4680     0.0110   -40.7930     7.5310    10.8820
 2401.0000     8.1620   110.5070     2.4820     0.0170   -40.6710     7.6150    11.0280
 2401.5000     8.1350   108.1190     2.4750     0.0110   -40.5490     7.7000    11.2220
 2402.0000     8.1100   106.5610     2.4610     0.0170   -40.4300     7.7840    11.4180
 2402.5000     8.0840   106.3590     2.4760     0.0290   -40.3810     7.8690    11.6130
 2403.0000     8.0580   106.2870     2.4850     0.0420   -40.5920     7.9530    11.8090
 2403.5000     8.0320   106.5530     2.4820     0.0470   -40.7960     8.0370    12.0050
 2404.0000     8.0070   104.4760     2.4890     0.0420   -41.0000     8.1220    12.2010
 2404.5000     7.9830   100.8150     2.5040     0.0400   -41.0360     8.2040    12.3960
 2405.0000     7.9950   100.3210     2.5200     0.0480   -40.8220     8.2480    12.5860
 2405.5000     8.0080   102.1160     2.5250     0.0430   -40.6110     8.0830    12.8880
 2406.0000     8.0230   105.3190     2.5130     0.0350   -40.3990     7.9190    12.9450
 2406.5000     8.0360   108.7300     2.5020     0.0270   -40.1840     7.7560    12.7010
 2407.0000     8.0510   111.6270     2.4850     0.0190   -40.1500     7.5730    12.2350
 2407.5000     8.0600   112.5960     2.4680     0.0160   -40.1600     7.2810    11.7880
 2408.0000     8.0600   112.6850     2.4620     0.0150   -40.1720     6.9990    11.3430
 2408.5000     8.0620   114.4880     2.4640     0.0140   -40.1830     6.7200    10.8650
 2409.0000     8.0630   116.9960     2.4640     0.0110   -40.1960     6.4410    10.5540
 2409.5000     8.0640   119.5470     2.4560     0.0090   -40.2080     6.2310    10.3530
 2410.0000     8.0660   122.0060     2.4710     0.0090   -40.2200     6.0990    10.1510
 2410.5000     8.0670   124.3930     2.4760     0.0090   -40.2320     5.9660     9.9520
 2411.0000     8.0680   124.4170     2.4680     0.0090   -40.2440     5.8330     9.7560
 2411.5000     8.0700   124.2510     2.4740     0.0090   -40.2560     5.7010     9.5580
 2412.0000     8.0710   123.9900     2.4800     0.0090   -40.2680     5.5680     9.3890
 2412.5000     8.0730   124.0620     2.4820     0.0090   -40.2800     5.4360     9.2680
 2413.0000     8.0740   124.4740     2.4780     0.0100   -40.2920     5.3070     9.1540
 2413.5000     8.0750   124.8620     2.4900     0.0180   -40.3040     5.2850     8.9140
 2414.0000     8.0770   125.1640     2.4960     0.0240   -40.3150     5.2410     8.5900
 2414.5000     8.0780   125.1900     2.4880     0.0240   -40.3260     5.1960     8.2650
 2415.0000     8.0800   125.1250     2.4810     0.0230   -40.2370     5.1520     7.9400
 2415.5000     8.0810   125.6880     2.4780     0.0210   -39.9910     5.1070     7.6980
 2416.0000     8.0820   126.9950     2.4890     0.0190   -39.7620     5.0630     7.6610
 2416.5000     8.0840   128.2770     2.5010     0.0170   -40.0410     5.0180     7.6980
 2417.0000     8.0850   127.7920     2.5000     0.0170   -40.3480     4.9740     7.7380
 2417.5000     8.0860   126.8250     2.5030     0.0240   -40.6630     4.9290     7.7370
 2418.0000     8.0880   125.8430     2.4970     0.0200   -40.5520     4.8850     7.6450
 2418.5000     8.0890   124.9420     2.4980     0.0170   -40.3280     4.8400     7.5550
 2419.0000     8.0910   124.7250     2.5120     0.0180   -40.1020     4.8180     7.5400
 2419.5000     8.0920   127.4800     2.5220     0.0350   -39.9700     5.0800     7.6900
 2420.0000     8.0930   128.4680     2.5100     0.0350   -40.0880     5.3440     7.8840
 2420.5000     8.0950   129.5640     2.4970     0.0250   -40.2000     5.6070     8.1830
 2421.0000     8.0960   130.6680     2.4850     0.0160   -40.3110     5.8700     8.6430
 2421.5000     8.0980   130.8570     2.4780     0.0070   -40.4220     6.1330     9.1020
 2422.0000     8.0910   130.7640     2.4790     0.0050   -40.5330     6.3960     9.5570
 2422.5000     8.0770   130.8150     2.4790     0.0030   -40.6440     6.6590    10.0150
 2423.0000     8.0650   128.7380     2.4700     0.0010   -40.7260     6.9220    10.3850
 2423.5000     8.0520   126.4420     2.4610    -0.0010   -40.6960     7.1840    10.8250
 2424.0000     8.0390   123.7350     2.4730     0.0000   -40.6690     7.4470    11.3220
 2424.5000     8.0260   122.9230     2.4810     0.0030   -40.6420     7.6780    11.7040
 2425.0000     8.0140   123.4150     2.4820     0.0030   -40.6150     7.6650    12.0410
 2425.5000     8.0010   125.6330     2.4840     0.0030   -40.5880     7.3020    12.2550
 2426.0000     7.9880   127.3040     2.4900     0.0040   -40.5610     6.8970    12.0490
 2426.5000     7.9820   130.2820     2.5000     0.0190   -40.5290     6.4940    11.4630
 2427.0000     8.0060   133.0940     2.5060     0.0320   -40.3890     6.0920    10.8870
 2427.5000     8.0290   135.0400     2.5080     0.0330   -40.2410     5.6890    10.3450
 2428.0000     8.0540   134.9130     2.4990     0.0140   -40.0930     5.2840     9.7850
 2428.5000     8.0780   132.0560     2.4820     0.0000   -39.9460     4.8790     8.9800
 2429.0000     8.1030   130.8570     2.4700     0.0050   -39.7980     4.7710     8.3870
 2429.5000     8.1270   130.1440     2.4720     0.0100   -39.6520     4.6710     7.9510
 2430.0000     8.1520   129.7360     2.4740     0.0140   -39.5640     4.5740     7.5180
 2430.5000     8.1760   129.0760     2.4760     0.0060   -39.6410     4.4780     7.1240
 2431.0000     8.2010   129.7380     2.4820     0.0110   -39.7130     4.3820     6.9500
 2431.5000     8.2240   131.5740     2.4880     0.0190   -39.7850     4.2850     6.8400
 2432.0000     8.2520   131.6580     2.4900     0.0230   -39.8580     4.1890     6.7830
 2432.5000     8.2540   132.1970     2.4750     0.0180   -39.9370     4.0920     6.7250
 2433.0000     8.2520   134.9020     2.4840     0.0240   -39.7170     3.9960     6.6640
 2433.5000     8.2080   137.9320     2.4840     0.0270   -39.4580     3.8990     6.6460
 2434.0000     8.1030   138.3990     2.4830     0.0240   -39.1840     3.8030     6.5430
 2434.5000     7.9580   136.8790     2.4810     0.0220   -39.5530     3.7070     6.4450
 2435.0000     7.8260   136.4660     2.4780     0.0190   -40.0290     3.6110     6.3470
 2435.5000     7.6780   138.0260     2.4660     0.0190   -40.0480     3.5200     6.2490
