~VERSION INFORMATION
 VERS.                2.0:   CWLS LOG ASCII STANDARD - VERSION 2.0
 WRAP.                 NO:   ONE LINE PER DEPTH STEP
~WELL INFORMATION
#MNEM.UNIT      DATA TYPE    INFORMATION
#----------   ------------   ------------------------------
 STRT.F            0.0000:   START DEPTH
 STOP.F         4152.0000:   STOP DEPTH
 STEP.F            0.5000:   STEP LENGTH
 NULL.          -999.2500:   NO VALUE
 COMP. LAWRENCE ALLISON & ASSOCIATES:   COMPANY
 WELL. LAWRENCE "X" #28-27:   WELL
 FLD .             NPR #3:   FIELD
 LOC .      S27 T39N R78W:   LOCATION
 CNTY.            NATRONA:   COUNTY
 STAT.            WYOMING:   STATE
 CTRY. UNITED STATES OF AMERICA:   COUNTRY
 SRVC.      DRESSER ATLAS:   SERVICE COMPANY
 DATE.        26-FEB-1984:   LOGDATE
 API .     49025109630000:   API NUMBER
~CURVE INFORMATION
#MNEM.UNIT       API CODE    CURVE DESCRIPTION
#----------   ------------   ------------------------------
 DEPT.F                  :   
 GRR .GAPI   07 310 01 00:   GAMMA RAY FROM RES.
 TENR.LBS    07 635 01 00:   TENSION FROM RES.
 SPR .MV     07 010 01 00:   SPONTANEOUS POTENTIAL
 RILD.OHMM   07 120 46 00:   RESISTIVITY INDUCTION LOG DEEP
 RILM.OHMM   07 120 44 00:   RESISTIIVTY INDUCTION LOG MEDIUM
 RFOC.OHMM   07 220 04 00:   RESISTIVITY FOCUSED LOG
 DT  .US/F   60 520 00 00:   DELTA TIME
 TENS.LBS    60 635 01 00:   TENSION FROM SONIC
 CALD.IN     45 280 60 00:   CALIPER FROM DENSITY LOG
 TEND.LBS    45 635 01 00:   TENSION FORM DENSITY LOG
 CNC .DEC    42 890 03 00:   NEUTRON POROSITY SANDSTONE
 CORR.G/C3   45 356 01 00:   DENSITY CORRECTION
 DENS.G/C3   45 350 01 00:   DENSITY
~PARAMETER INFORMATION
#MNEM.UNIT          VALUE    DESCRIPTION
#----------   ------------   ------------------------------
 EKB .F         5088.0000:   Kelly bushing
 EGL .F         5078.0000:   Ground level
 EDF .F            0.0000:   Drilling floor
 TD  .F         4154.0000:   Total depth
 CLNT.            A2DTECH:   Client Code
 SL  . 250' FSL & 810' FWL:   Surface Location
 PD  .                 GL:   Permanent Datum
 EPD .F              5078:   Elevation Permanent Datum
 LMF .                 KB:   Log Measured From
 DMF .                 KB:   Drilling Measured From
 DAPD.F                10:   Feet Above Permanent Datum
 DATE.        26-FEB-1984:   Date Logged [DD-MMM-YYYY]
 DD  .F              4154:   Depth driller
 DL  .F              4148:   Depth logger
 BLI .F              4146:   Bottom log interval
 TLI .F                 0:   Top log interval
 CS1 .IN            8.625:   Casing size
 CBD1.      8.625" @ 537':   Casing driller 1
 CBL1.F               540:   Casing logger 1
 BS1 .IN            7.875:   Bit size
 BSD1.F              4154:   Depth drilled with bit1
 DFT .            GEL KCL:   Type fluid in hole
 DFD .                  9:   Density
 DFV .                 45:   Viscosity
 DFPH.                  8:   pH
 DFL .                 14:   Fluid loss
 MSS .           FLOWLINE:   Source of sample
 RMS .OHMM          0.595:   Rm
 MST .F                60:   Rm Meas. temp.
 RMF .OHMM          0.446:   Rmf
 MFST.F                60:   Rmf Meas. temp.
 MFSS.               CALC:   Source Rmf.
 RMC .OHMM          0.744:   Rmc
 MCST.F                60:   Rmc Meas. temp.
 MCSS.               CALC:   Source Rmc.
 RMB .OHMM           0.26:   Rm. at BHT
 BHT .F               138:   BHT.
 TCS .HRS               4:   Time Circ. stopped
 MRT .F               138:   Maximum recorded temp.
 LUN .               6307:   Logging unit number
 LUL .               GLTE:   Logging unit location
 ENGI.           FAHLSING:   Recorded By
 WITN.           JENNINGS:   Witnessed by
 ORIG.      1" 2.5" PRINT:   Origin of data
 UWI .     49025109630000:   Unique Well ID
 DICO. A2D TECHNOLOGIES, INC.:   Digitizing Company
~OTHER INFORMATION
~A    DEPT       GRR     TENR        SPR       RILD       RILM       RFOC         DT       TENS       CALD       TEND        CNC       CORR       DENS   
# ...
 3874.0000   114.7700     9.7350   -27.4048     2.1615     2.2440     2.2518   100.6267   -25.2043     7.7518     0.0000     0.2644     0.1138     2.4237
 3874.5000   107.6090    16.9182   -26.7962     2.2618     2.3431     2.3151   101.1679   -27.0278     7.7795     0.0000     0.2584     0.0772     2.4434
 3875.0000   102.4460    23.7192   -26.7853     2.3694     2.5594     2.4544   100.0972   -28.8513     7.7996     0.0000     0.2425    -0.0501     2.4827
 3875.5000    92.0034    23.2248   -26.8322     2.4821     3.0456     3.0746    94.7445   -30.6748     7.8088     0.0000     0.2377    -0.0541     2.5506
 3876.0000    88.4146    14.6925   -28.5001     2.6569     3.2973     6.1070    89.4891   -32.4982     7.8192     0.0000     0.2377    -0.0419     2.5428
 3876.5000   101.7320     7.5111   -30.2986     2.8455     3.3444     5.5533    85.1095   -34.3217     7.8310     0.0000     0.2383    -0.0298     2.5215
 3877.0000   111.9363    21.8996   -30.9048     3.0130     3.3460     4.1713    82.1597   -36.1452     7.8296     0.0000     0.2376    -0.0238     2.5190
 3877.5000   114.9551    21.4498   -30.8919     3.1447     3.3479     3.1727    82.6167   -37.9687     7.8182     0.0000     0.2371     0.0007     2.5245
 3878.0000   114.7507    21.0059   -30.8810     3.2014     3.3039     3.0919    87.3358   -39.7922     7.8083     0.0000     0.2569    -0.0037     2.5491
 3878.5000   109.6850    20.4843   -30.8691     3.1360     3.3064     3.2994    89.6350   -41.6157     7.7971     0.0000     0.2582    -0.0296     2.6005
 3879.0000   105.4551    20.0799   -30.8571     3.0527     3.2630     3.7977    89.0511   -43.4392     7.8188     0.0000     0.2576    -0.0281     2.6066
 3879.5000   109.0779     4.8817   -30.8452     2.9712     3.2204     4.1232    87.5912   -44.1176     7.8564     0.0000     0.2576    -0.0174     2.5960
 3880.0000   112.0966     4.4379   -30.8319     2.8459     3.1296     4.0137    85.4889   -44.1176     7.8769     0.0000     0.2709     0.0098     2.5714
 3880.5000   112.7201     3.9941   -30.8210     2.7634     3.0391     3.0592    84.9635   -44.1176     7.8747     0.0000     0.2728     0.0279     2.5614
 3881.0000   111.1879     3.5504   -30.4833     2.5608     2.8714     2.7272    86.2228   -44.1176     7.8749     0.0000     0.2739     0.0430     2.5845
 3881.5000   106.8156     3.1066   -30.2024     2.4257     2.6295     2.8187    90.5109   -44.1176     7.8753     0.0000     0.2784     0.0292     2.6854
 3882.0000   101.4292     2.6628   -30.1905     2.2977     2.4571     3.2763    91.3869   -44.1176     7.8750     0.0000     0.2956     0.0131     2.6807
 3882.5000   105.0467     1.3574   -29.5814     2.1985     2.2937     3.2794    90.2190   -44.1176     7.8753     0.0000     0.2986     0.0145     2.6008
 3883.0000   111.7634    -9.9101   -29.5705     2.1386     2.2048     3.0383    89.9270   -44.1176     7.8749     0.0000     0.2986     0.0253     2.5389
 3883.5000   116.7496     1.2434   -28.9643     2.1197     2.2062     2.7218    90.9023   -44.1176     7.8742     0.0000     0.2966     0.0434     2.4892
 3884.0000   119.3936     0.8391   -28.6548     2.1498     2.2380     2.5139    93.4387   -44.1176     7.8628     0.0000     0.2926     0.0314     2.4877
 3884.5000   122.5229    -6.6198   -28.3452     2.2713     2.3649     2.4317    95.4744   -44.1176     7.8527     0.0000     0.2743     0.0135     2.5010
 3885.0000   122.5476   -14.7929   -28.3333     2.4416     2.6781     2.4660    95.9124   -44.1176     7.8412     0.0000     0.2402    -0.0027     2.5226
 3885.5000   118.3806   -15.2366   -28.3200     2.7333     3.0120     2.6614    94.8645   -44.1176     7.8340     0.0000     0.2324    -0.0143     2.5497
 3886.0000   105.0522   -15.6804   -28.3090     2.9204     3.2520     3.8183    91.3177   -44.1176     7.8349     0.0000     0.2323    -0.0224     2.5557
 3886.5000    98.0707   -16.1243   -28.2976     3.1138     3.5228     5.5599    86.5142   -44.1176     7.8346     0.0000     0.2390    -0.0097     2.5422
 3887.0000   110.9014   -16.5681   -28.1214     3.2452     3.6721     5.7026    82.0463   -44.1176     7.8343     0.0000     0.2499     0.0199     2.5377
 3887.5000   129.8689   -17.0118   -27.2445     3.2910     3.7245     5.3786    80.0000   -44.1176     7.8247     0.0000     0.2570     0.0204     2.5362
 3888.0000   136.4804   -17.4556   -26.7718     3.2395     3.6686     4.4285    82.4818   -46.0874     7.8130     0.0000     0.2594     0.0050     2.5448
 3888.5000   135.1684   -17.8994   -26.4633     3.0874     3.4983     3.0242    85.5853   -48.3137     7.8005     0.0000     0.2613    -0.0227     2.5542
 3889.0000   131.7393   -18.4018   -26.4524     2.8703     3.2970     3.1755    87.0245   -50.5401     7.7940     0.0000     0.2625    -0.0385     2.5589
 3889.5000   133.1735   -18.8062   -26.0877     2.6864     3.0410     3.9905    87.7372   -52.7664     7.7944     0.0000     0.2649    -0.0490     2.5377
 3890.0000   138.9866    -4.4176   -25.8333     2.6150     2.8807     3.8845    87.1533   -54.9927     7.7943     0.0000     0.2686    -0.0413     2.4986
 3890.5000   140.8076    -4.8816   -25.2262     2.6161     2.7664     3.1156    87.7372   -57.2190     7.7954     0.0000     0.2732    -0.0187     2.4926
 3891.0000   140.2316    -5.3255   -24.9152     2.6172     2.7785     2.4832    88.9051   -58.8235     7.7832     0.0000     0.2758     0.0144     2.4942
 3891.5000   138.7254    -5.8330   -24.9043     2.6904     2.8462     2.2716    94.1576   -58.8235     7.7609     0.0000     0.2625     0.0205     2.5035
 3892.0000   131.4639    -6.2130   -24.5957     2.9617     2.9672     2.3168    95.9124   -58.8235     7.7401     0.0000     0.2409     0.0075     2.5518
 3892.5000   117.3509    -6.6568   -25.1801     3.2156     3.4034     2.6930    94.8944   -44.1176     7.7191     0.0000     0.2276    -0.0094     2.6016
 3893.0000   106.2127    -7.1006   -25.1667     3.7578     5.5075     4.4028    89.4891   -58.8235     7.7134     0.0000     0.2162    -0.0082     2.6789
 3893.5000    96.0578    -7.5444   -24.5575     4.4034     6.2534     8.0772    85.6934   -44.1176     7.7140     0.0000     0.2119     0.0165     2.6910
 3894.0000    94.2860    -7.9882   -24.5466     4.8388     6.4787     9.4603    81.3139   -49.6110     7.7089     0.0000     0.2102     0.0290     2.6316
 3894.5000   102.8674    -8.4319   -23.9392     5.2641     6.2232     9.0714    74.7758   -44.1176     7.6965     0.0000     0.2154     0.0240     2.5879
 3895.0000   114.6214    -8.8757   -23.3333     5.4118     5.8951     8.3748    73.7226   -44.1176     7.6851     0.0000     0.2277     0.0241     2.5576
 3895.5000   125.5101    -9.3196   -23.3214     5.1967     5.4337     7.1126    75.4218   -44.1176     7.6739     0.0000     0.2367     0.0332     2.5472
 3896.0000   130.9240    -9.7634   -23.3095     4.4871     4.6095     5.0409    78.1022   -44.1176     7.6734     0.0000     0.2572     0.0259     2.5423
 3896.5000   133.3673   -10.2071   -23.2961     3.6122     3.9526     4.0530    79.7080   -44.1176     7.6734     0.0000     0.2735     0.0142     2.5358
 3897.0000   134.7024   -10.6853   -22.3924     3.3795     3.3662     3.6723    81.3139   -44.1176     7.6732     0.0000     0.2841     0.0093     2.5236
 3897.5000   135.1946   -11.0946   -22.0560     2.9751     2.6759     3.3182    83.3766   -44.1176     7.6724     0.0000     0.2873     0.0305     2.5006
 3898.0000   135.2266   -11.5385   -21.4777     2.6684     2.4665     2.6684    86.1501   -44.1176     7.6608     0.0000     0.2851     0.0666     2.4629
 3898.5000   136.4488   -11.9822   -22.0595     2.4561     2.4342     2.3875    89.6134   -44.1176     7.6507     0.0000     0.2701     0.1178     2.4524
 3899.0000   136.4735   -12.4260   -22.6409     2.4271     2.4453     2.2895    94.1606   -44.1176     7.6387     0.0000     0.2578     0.1329     2.4574
 3899.5000   136.3223   -12.8698   -23.5228     2.4943     2.6072     2.3449    96.2044   -44.1176     7.6401     0.0000     0.2452     0.1026     2.4751
