~VERSION INFORMATION
 VERS.                2.0:   CWLS LOG ASCII STANDARD - VERSION 2.0
 WRAP.                 NO:   ONE LINE PER DEPTH STEP
~WELL INFORMATION
#MNEM.UNIT      DATA TYPE    INFORMATION
#----------   ------------   ------------------------------
 STRT.F          648.0000:   START DEPTH
 STOP.F         3196.0000:   STOP DEPTH
 STEP.F            0.5000:   STEP LENGTH
 NULL.          -999.2500:   NO VALUE
 COMP.    FENIX & SCISSON:   COMPANY
 WELL.   FENIX "AX" #18-2:   WELL
 FLD .             NPR #3:   FIELD
 LOC .       S2 T38N R78W:   LOCATION
 CNTY.            NATRONA:   COUNTY
 STAT.            WYOMING:   STATE
 CTRY. UNITED STATES OF AMERICA:   COUNTRY
 SRVC.              WELEX:   SERVICE COMPANY
 DATE.        05-OCT-1980:   LOGDATE
 API .     49025108500000:   API NUMBER
~CURVE INFORMATION
#MNEM.UNIT       API CODE    CURVE DESCRIPTION
#----------   ------------   ------------------------------
 DEPT.F                  :   
 GRD .GAPI   45 310 01 00:   GAMMA RAY FROM DENSITY LOG
 CALD.IN     45 280 60 00:   CALIPER FROM DENSITY LOG
 CORR.G/C3   45 356 01 00:   DENSITY CORRECTION
 RHOB.G/C3   45 350 01 00:   BULK DENSITY
 SPR .MV     07 010 01 00:   SPONTANEOUS POTENTIAL FROM RES.
 ILD .OHMM   07 120 46 00:   INDUCTION LOG DEEP RESISTIVITY
 ILM .OHMM   07 120 44 00:   INDUCTION LOG MEDIUM RESISTIVITY
 SGRD.OHMM   07 220 05 00:   SHORT GUARD RESISTIVITY
~PARAMETER INFORMATION
#MNEM.UNIT          VALUE    DESCRIPTION
#----------   ------------   ------------------------------
 EKB .F         5162.0000:   Kelly bushing
 EGL .F         5152.0000:   Ground level
 EDF .F            0.0000:   Drilling floor
 TD  .F         3200.0000:   Total depth
 CLNT.            A2DTECH:   Client Code
 PD  .                 GL:   Permanent Datum
 EPD .F              5152:   Elevation Permanent Datum
 LMF .                 KB:   Log Measured From
 DMF .                 KB:   Drilling Measured From
 DAPD.F                10:   Feet Above Permanent Datum
 DATE.        05-OCT-1980:   Date Logged [DD-MMM-YYYY]
 DD  .F              3200:   Depth driller
 DL  .F              3198:   Depth logger
 BLI .F              3196:   Bottom log interval
 TLI .F               646:   Top log interval
 CS1 .IN            8.625:   Casing size
 CBD1.      8.625" @ 647':   Casing driller 1
 CBL1.F               650:   Casing logger 1
 BS1 .IN            7.875:   Bit size
 BSD1.F              3200:   Depth drilled with bit1
 DFT .           CHEM GEL:   Type fluid in hole
 DFD .                8.6:   Density
 DFV .                 38:   Viscosity
 DFPH.                9.5:   pH
 MSS .           FLOWLINE:   Source of sample
 MFSS.               MEAS:   Source Rmf.
 MCSS.               MEAS:   Source Rmc.
 RMB .OHMM           1.24:   Rm. at BHT
 BHT .F               118:   BHT.
 TCS .HRS               5:   Time Circ. stopped
 MRT .F               118:   Maximum recorded temp.
 LUN .               1892:   Logging unit number
 LUL .             CASPER:   Logging unit location
 ORIG.           5" PRINT:   Origin of data
 UWI .     49025108500000:   Unique Well ID
 DICO. A2D TECHNOLOGIES, INC.:   Digitizing Company
 SL  . 313' FSL & 565' FWL:   Surface Location
 RMS .               2.34:   Rm
~OTHER INFORMATION
~A   DEPT       GRD      CALD       CORR       RHOB        SPR        ILD        ILM       SGRD   
# ...
  810.0000    83.7341    13.3451     0.0210     2.5010   -37.1381     6.0599     6.0283     6.9437
  810.5000    87.9266    13.3320     0.0181     2.4847   -37.2672     5.8970     5.8672     6.7122
  811.0000    84.8702    13.3336     0.0168     2.4742   -37.3961     5.7381     5.7104     6.3115
  811.5000    82.9090    13.3205     0.0200     2.4699   -37.5253     5.6222     5.5962     6.1434
  812.0000    82.2435    13.3225     0.0292     2.4939   -37.6544     5.4707     5.4467     5.6983
  812.5000    84.7049    13.3240     0.0415     2.5075   -37.7835     5.3602     5.3377     5.4694
  813.0000    88.3131    13.3403     0.0509     2.5143   -37.9126     5.2518     5.1904     5.7854
  813.5000    89.5800    13.3419     0.0615     2.5159   -38.0417     5.1104     5.0568     5.9929
  814.0000    86.0837    13.3434     0.0602     2.5137   -38.1708     5.0071     4.9900     6.0375
  814.5000    85.4376    13.3450     0.0618     2.5123   -38.3000     4.9398     4.9240     5.8778
  815.0000    85.9002    13.3466     0.0696     2.5132   -38.4297     4.8403     4.8255     5.8817
  815.5000    88.1178    13.3482     0.0848     2.5186   -38.5574     4.7753     4.7285     6.0091
  816.0000    88.3514    13.3498     0.0955     2.5231   -38.6141     4.6467     4.6026     5.8758
  816.5000    86.6147    13.3514     0.1033     2.5209   -38.4546     4.5215     4.4776     5.5389
  817.0000    85.7529    13.3680     0.1019     2.5068   -38.3029     4.3695     4.3599     5.2807
  817.5000    86.2262    13.3695     0.0946     2.4822   -38.1514     4.3108     4.3028     5.3579
  818.0000    88.0660    13.3858     0.0917     2.4434   -38.0000     4.3122     4.3345     5.0729
  818.5000    90.4265    13.4020     0.0904     2.3755   -37.8484     4.3432     4.3665     4.3600
  819.0000    86.2704    13.4036     0.0710     2.2979   -37.6975     4.3744     4.4598     4.7733
  819.5000    85.8487    13.3905     0.0229     2.2150   -37.5448     4.4059     4.5865     5.2630
  820.0000    84.7672    13.2746    -0.0010     2.2046   -37.5698     4.4991     4.6845     5.5807
  820.5000    80.3820    13.0952    -0.0114     2.2774   -37.7408     4.6582     4.7562     5.8449
  821.0000    85.9033    12.9110     0.0084     2.4388   -37.9134     4.5015     4.7873     5.6893
  821.5000    86.6336    12.8245     0.0297     2.4725   -38.0863     4.6609     4.8227     6.0597
  822.0000    86.1597    12.7380     0.0389     2.4823   -38.2590     4.8927     4.9257     6.0219
  822.5000    88.4366    12.6955     0.0330     2.4704   -38.4317     2.1696     5.0309     5.8616
  823.0000    90.1596    12.6820     0.0287     2.4578   -38.6044     3.9807     5.0332     5.9062
  823.5000    91.0576    12.6542     0.0273     2.4512   -38.7771     5.0335     5.0358     6.2033
  824.0000    86.4570    12.6267     0.0306     2.4662   -38.9499     5.0003     5.0381     6.2076
  824.5000    81.6365    12.5843     0.0428     2.4798   -39.1233     5.0365     5.0405     6.0016
  825.0000    79.6753    12.5553     0.0505     2.4821   -39.2952     5.1078     5.0777     5.9632
  825.5000    80.7932    12.4997     0.0537     2.4784   -39.4066     5.1801     5.1506     6.1356
  826.0000    83.0108    12.4573     0.0554     2.4860   -39.2403     5.2173     5.1892     5.9311
  826.5000    83.4689    12.4148     0.0496     2.4891   -39.0793     5.2548     5.2636     6.0595
  827.0000    82.8072    12.3576     0.0404     2.4847   -38.9189     5.2201     5.3025     5.8565
  827.5000    81.5304    12.3151     0.0304     2.4713   -38.7587     5.1856     5.3416     6.0285
  828.0000    86.6073    12.2433     0.0230     2.4542   -38.5985     5.2591     5.3811     6.1161
  828.5000    90.7998    12.2008     0.0156     2.4431   -38.4382     5.4076     5.3836     5.9370
  829.0000    86.6437    12.1289     0.0113     2.4341   -38.2787     5.4510     5.4234     6.2514
  829.5000    85.9975    12.0710     0.0130     2.4274   -38.1128     5.4860     5.4265     6.1697
  830.0000    86.4602    12.0269     0.0177     2.4269   -38.0500     5.4494     5.4665     6.5702
  830.5000    86.6983    11.9872     0.0224     2.4412   -37.6508     5.3766     5.3943     6.3075
  831.0000    86.4966    11.9888     0.0271     2.4592   -37.6929     5.2676     5.2141     6.4887
  831.5000    86.5268    11.9753     0.0257     2.4720   -37.4267     5.1615     5.1451     6.1863
  832.0000    87.2287    11.9626     0.0229     2.4736   -37.6705     5.1273     5.1475     6.1048
  832.5000    88.3153    11.9641     0.0216     2.4632   -37.6687     5.0935     5.1146     6.1577
  833.0000    89.8731    11.9506     0.0202     2.4506   -37.7163     5.0598     5.1170     6.1146
  833.5000    89.0115    11.9820     0.0220     2.4439   -38.0290     5.0268     5.1199     5.8701
  834.0000    84.1910    11.9836     0.0236     2.4451   -38.5497     5.0281     5.1223     5.7534
  834.5000    83.3249    11.9704     0.0253     2.4554   -38.2230     5.0294     5.0889     5.9187
  835.0000    85.5471    11.9724     0.0285     2.4682   -38.4747     5.0656     5.0919     6.0052
  835.5000    84.4656    11.9740     0.0317     2.4825   -38.7597     5.0669     5.0943     5.9264
  836.0000    83.8240    11.9755     0.0349     2.4945   -38.6731     5.0683     5.0967     5.8489
  836.5000    90.1069    11.9771     0.0428     2.5021   -38.7738     5.0700     5.0640     6.0597
  837.0000    93.5424    11.9786     0.0504     2.4999   -38.8446     5.0361     5.0670     6.1472
  837.5000    91.8011    11.9802     0.0536     2.4940   -38.6570     5.0029     5.0694     5.9014
  838.0000    85.6609    11.9671     0.0462     2.4881   -38.4552     4.9698     5.0017     5.8252
  838.5000    84.1350    11.9687     0.0404     2.4844   -38.2539     4.9370     4.9697     6.2034
  839.0000    85.0375    11.9818     0.0345     2.4831   -38.0530     4.9047     4.9379     6.0360
  839.5000    85.2757    11.9719     0.0301     2.4854   -37.8521     4.8723     4.9408     6.0006
  840.0000    84.1942    11.9760     0.0258     2.4668   -37.6513     4.8739     4.9092     6.0883
  840.5000    85.7520    11.9846     0.0245     2.4609   -37.4502     4.8752     4.8443     5.8458
  841.0000    86.8699    11.9768     0.0230     2.4603   -37.2485     4.8765     4.8471     5.7286
  841.5000    86.2283    11.9784     0.0203     2.4619   -37.0485     4.8778     4.8493     6.0178
  842.0000    86.0265    11.9801     0.0205     2.4687   -36.9233     4.8791     4.8851     6.1046
  842.5000    85.1695    11.9817     0.0237     2.4762   -37.1448     4.8804     4.9212     5.9021
  843.0000    83.6481    11.9833     0.0223     2.4738   -37.3598     4.8817     4.9235     5.7054
  843.5000    83.6664    11.9849     0.0226     2.4592   -37.5738     4.8834     4.9258     5.9925
  844.0000    84.5643    11.9717     0.0227     2.4571   -37.7889     4.8508     4.9281     6.0390
  844.5000    85.0224    11.9590     0.0244     2.4744   -37.9230     4.8524     4.9310     6.0431
  845.0000    86.5802    11.9455     0.0261     2.4834   -38.0129     4.8537     4.9333     5.8407
  845.5000    87.9270    11.9324     0.0294     2.4790   -38.1024     4.8886     4.9356     6.1355
  846.0000    88.3762    11.9193     0.0342     2.4896   -38.1918     4.8899     4.9379     6.1822
  846.5000    87.9545    11.9062     0.0387     2.4912   -38.2813     4.8919     4.9402     6.1435
  847.0000    87.9773    11.8934     0.0434     2.4830   -38.4289     4.9264     4.9425     5.8980
  847.5000    88.2154    11.8950     0.0481     2.4801   -38.5635     4.9280     4.9448     6.1096
  848.0000    90.2131    11.8966     0.0498     2.4892   -38.5473     4.9634     4.9472     6.0715
  848.5000    91.7709    11.9129     0.0530     2.5020   -38.2394     4.9647     4.9500     5.9922
  849.0000    90.2495    11.9148     0.0547     2.5081   -38.4391     4.9660     4.9865     5.8336
  849.5000    88.7281    11.9164     0.0549     2.4962   -38.2715     4.9673     4.9889     6.0429
  850.0000    88.0865    11.9180     0.0520     2.4813   -37.9603     5.0033     5.0258     6.2155
