~VERSION INFORMATION
 VERS.                2.0:   CWLS LOG ASCII STANDARD - VERSION 2.0
 WRAP.                 NO:   ONE LINE PER DEPTH STEP
~WELL INFORMATION
#MNEM.UNIT      DATA TYPE    INFORMATION
#----------   ------------   ------------------------------
 STRT.F           42.0000:   START DEPTH
 STOP.F         2778.0000:   STOP DEPTH
 STEP.F            0.5000:   STEP LENGTH
 NULL.          -999.2500:   NO VALUE
 COMP.    FENIX & SCISSON:   COMPANY
 WELL. FENIX & SCISSON SHX #56-23:   WELL
 FLD .        TEAPOT DOME:   FIELD
 LOC .      S23 T38N R78W:   LOCATION
 CNTY.            NATRONA:   COUNTY
 STAT.            WYOMING:   STATE
 CTRY. UNITED STATES OF AMERICA:   COUNTRY
 SRVC.           BIRDWELL:   SERVICE COMPANY
 DATE.        29-AUG-1979:   LOGDATE
 API .     49025107920000:   API NUMBER
~CURVE INFORMATION
#MNEM.UNIT       API CODE    CURVE DESCRIPTION
#----------   ------------   ------------------------------
 DEPT.F                  :   
 GRD .GAPI   45 310 01 00:   GAMMA RAY FROM DENSITY LOG
 CALD.IN     45 280 60 00:   CALIPER FROM DENSITY LOG
 RHOB.G/C3   45 350 01 00:   BULK DENSITY
 CORR.G/C3   45 356 01 00:   DENSITY CORRECTION
 ILD .OHMM   07 120 46 00:   DEEP INDUCTION RESISTIVITY
 SFL .OHMM   07 220 01 00:   SHALLOW FOCUSED LOG RESISTIVITY
 SPR .MV     07 010 01 00:   SPONTANEOUS POTENTIAL
~PARAMETER INFORMATION
#MNEM.UNIT          VALUE    DESCRIPTION
#----------   ------------   ------------------------------
 EKB .F         5361.0000:   Kelly bushing
 EGL .F         5351.0000:   Ground level
 EDF .F         5360.0000:   Drilling floor
 TD  .F         1465.0000:   Total depth
 DATE.        29-AUG-1979:   Date logged
 CLNT.            A2DTECH:   Client Code
 PD  .                 GL:   Permanent Datum
 EPD .F              5351:   Elevation Permanent Datum
 LMF .                 KB:   Log Measured From
 DMF .                 KB:   Drilling Measured From
 DAPD.F                 9:   Feet Above Permanent Datum
 DD  .F              1465:   Depth driller
 DL  .F              1462:   Depth logger
 BLI .F              1457:   Bottom log interval
 TLI .F                40:   Top log interval
 CBD1.F                40:   Casing driller 1
 CBL1.F                40:   Casing logger 1
 BS1 .IN            12.25:   Bit size
 BSD1.F              1465:   Depth drilled with bit1
 DFT .            GEL/MUD:   Type fluid in hole
 DFD .                9.5:   Density
 DFV .                 40:   Viscosity
 DFPH.                9.0:   pH
 DFL .                 40:   Fluid loss
 MSS .            MUD PIT:   Source of sample
 RMS .OHMM            2.6:   Rm
 MST .F                68:   Rm Meas. temp.
 RMF .OHMM            1.8:   Rmf
 MFST.F                78:   Rmf Meas. temp.
 RMC .OHMM            2.8:   Rmc
 MCST.F                76:   Rmc Meas. temp.
 MFSS.               MEAS:   Source Rmf.
 MCSS.               MEAS:   Source Rmc.
 RMB .OHMM           1.96:   Rm. at BHT
 BHT .F                90:   BHT.
 TCS .HRS               5:   Time Circ. stopped
 MRT .F                90:   Maximum recorded temp.
 LUN .               2959:   Logging unit number
 LUL .             CASPER:   Logging unit location
 ENGI.         B. ROLLINS:   Recorded By
 WITN.              AMEND:   Witnessed by
 ORIG.           5" PRINT:   Origin of data
 UWI .     49025107920000:   Unique Well ID
 DICO. A2D TECHNOLOGIES, INC.:   Digitizing Company
~OTHER INFORMATION
~A   DEPT       GRD      CALD       RHOB         CORR      ILD        SFL         SPR  
# ...
  542.5000    79.2070    13.0720     2.4530     0.2120     6.6740     5.5930   -54.6560
  543.0000    80.3110    13.0710     2.4530     0.2080     6.6740     5.5880   -54.9080
  543.5000    81.9810    13.0690     2.4500     0.2060     6.6740     5.5820   -55.1510
  544.0000    80.5150    13.0680     2.4480     0.2080     6.6740     5.5770   -55.3940
  544.5000    77.1770    13.0660     2.4460     0.2100     6.6740     5.5710   -55.6540
  545.0000    78.7190    13.0640     2.4460     0.2110     6.6740     5.5660   -55.8280
  545.5000    81.7130    13.0630     2.4470     0.2110     6.6740     5.5600   -55.6150
  546.0000    85.0950    13.0610     2.4410     0.2120     6.6740     5.5550   -55.2410
  546.5000    83.9190    13.0600     2.4350     0.2130     6.6740     5.5490   -54.8810
  547.0000    80.9040    13.0580     2.4380     0.2140     6.6730     5.5440   -54.5410
  547.5000    78.8220    13.0570     2.4420     0.2150     6.6770     5.5380   -54.1850
  548.0000    78.5380    13.0550     2.4460     0.2160     6.6700     5.5330   -54.5000
  548.5000    83.1080    13.0540     2.4490     0.2160     6.6780     5.5310   -55.0330
  549.0000    82.1450    13.0520     2.4500     0.2160     6.6620     5.5670   -55.3930
  549.5000    81.0400    13.0510     2.4460     0.2150     6.7000     5.6010   -55.1550
  550.0000    79.4960    13.0490     2.4440     0.2130     6.4280     5.6360   -54.8930
  550.5000    79.4200    13.0480     2.4400     0.2110     6.4970     5.6700   -54.6260
  551.0000    79.4390    13.0450     2.4380     0.2090     6.5550     5.7050   -54.8010
  551.5000    79.5380    13.0440     2.4380     0.2090     6.6130     5.7400   -54.9970
  552.0000    79.6620    13.0520     2.4420     0.2110     6.6700     5.7750   -55.1900
  552.5000    79.7070    13.0950     2.4460     0.2140     6.7280     5.8090   -55.4000
  553.0000    79.6600    13.1010     2.4500     0.2160     6.7860     5.8440   -55.2070
  553.5000    77.9120    13.1140     2.4500     0.2180     6.8430     5.8790   -54.7320
  554.0000    76.0560    13.1240     2.4500     0.2170     6.9010     5.9130   -54.7640
  554.5000    75.6780    13.1350     2.4500     0.2150     6.9590     5.9480   -55.1390
  555.0000    78.4220    13.1460     2.4520     0.2130     7.0170     5.9830   -55.3060
  555.5000    80.5570    13.1570     2.4570     0.2120     7.0740     6.0180   -54.8660
  556.0000    80.9960    13.1630     2.4610     0.2100     7.1320     6.0520   -54.8040
  556.5000    81.0300    13.1620     2.4650     0.2080     7.1900     6.1100   -54.6500
  557.0000    80.4960    13.1630     2.4600     0.2070     7.2480     6.2120   -54.6000
  557.5000    79.1940    13.1630     2.4470     0.2050     7.3050     6.3130   -54.9330
  558.0000    78.0170    13.1630     2.4390     0.2040     7.3320     6.4140   -55.3880
  558.5000    77.1250    13.1630     2.4410     0.2050     7.4710     6.5160   -55.8330
  559.0000    78.1720    13.1630     2.4430     0.2060     7.5130     6.6170   -56.3290
  559.5000    76.8890    13.1630     2.4440     0.2080     7.5580     6.7190   -56.6190
  560.0000    75.0430    13.1630     2.4460     0.2090     7.6030     6.8200   -56.5860
  560.5000    75.7830    13.1630     2.4470     0.2100     7.6480     6.9300   -56.2510
  561.0000    76.8530    13.1630     2.4490     0.2110     7.6930     6.9100   -55.7460
  561.5000    78.3800    13.1630     2.4500     0.2100     7.7380     6.8880   -55.2360
  562.0000    80.3000    13.1630     2.4500     0.2080     7.7830     6.8660   -54.7600
  562.5000    77.8000    13.1630     2.4460     0.2070     7.8280     6.8440   -54.2420
  563.0000    74.8020    13.1630     2.4400     0.2050     7.8730     6.8220   -54.2010
  563.5000    71.6460    13.1630     2.4340     0.2040     7.9050     6.8000   -54.2780
  564.0000    70.6530    13.1620     2.4300     0.2040     7.9050     6.7780   -54.5680
  564.5000    71.6080    13.1700     2.4300     0.2070     7.9050     6.7560   -54.8320
  565.0000    72.6520    13.1870     2.4330     0.2110     7.9050     6.7340   -55.1130
  565.5000    73.7320    13.2020     2.4370     0.2140     7.9050     6.7120   -55.3860
  566.0000    74.7870    13.2210     2.4410     0.2150     7.8610     6.6900   -55.6620
  566.5000    75.7430    13.2320     2.4440     0.2130     7.7670     6.6740   -55.9430
  567.0000    76.1310    13.2740     2.4450     0.2110     7.6730     6.5200   -56.1800
  567.5000    76.7190    13.2820     2.4390     0.2080     7.5790     6.3430   -56.1780
  568.0000    77.3330    13.2820     2.4310     0.2050     7.4860     6.1650   -55.7810
  568.5000    78.6070    13.2810     2.4220     0.2030     7.3920     5.9620   -55.2650
  569.0000    82.3660    13.2820     2.4170     0.2000     7.2980     5.9620   -54.7850
  569.5000    81.3400    13.2820     2.4140     0.1990     7.2040     5.9620   -54.2510
  570.0000    78.9430    13.2820     2.4140     0.2010     7.1110     5.9620   -54.1940
  570.5000    76.5910    13.2820     2.4220     0.2030     7.0170     5.8220   -54.2880
  571.0000    74.3460    13.2820     2.4310     0.2070     6.9230     5.6870   -54.4840
  571.5000    71.9760    13.2820     2.4310     0.2100     6.8290     5.5300   -54.5950
  572.0000    71.1440    13.2820     2.4280     0.2100     6.7360     5.5300   -54.5890
  572.5000    71.1140    13.2820     2.4270     0.2050     6.6420     5.4270   -54.4490
  573.0000    71.9820    13.2820     2.4350     0.2060     6.5500     5.4270   -54.3010
  573.5000    73.0820    13.2820     2.4490     0.2090     6.5500     5.4270   -54.1520
  574.0000    74.1870    13.2820     2.4620     0.2170     6.5500     5.4690   -54.0060
  574.5000    75.0170    13.2820     2.4790     0.2210     6.5500     5.5210   -53.8590
  575.0000    74.4450    13.2820     2.4730     0.2180     6.5500     5.5720   -53.7130
  575.5000    73.8540    13.2820     2.4570     0.2120     6.5500     5.6350   -53.5630
  576.0000    75.8460    13.2820     2.4430     0.2080     6.5500     5.5620   -53.4220
  576.5000    79.2940    13.2820     2.4290     0.2030     6.5500     5.4710   -53.2650
  577.0000    78.3220    13.2820     2.4240     0.1990     6.3770     5.3800   -53.1230
  577.5000    78.0410    13.2820     2.4200     0.1990     6.2460     5.2890   -53.0440
  578.0000    79.8360    13.2820     2.4200     0.2010     6.1150     5.1980   -53.4810
  578.5000    84.2220    13.2820     2.4210     0.2030     5.9840     5.1070   -53.8630
  579.0000    83.1140    13.2810     2.4240     0.2060     5.8520     5.0160   -54.2750
  579.5000    80.1320    13.2820     2.4270     0.2090     5.7210     4.9250   -54.5850
  580.0000    78.2370    13.2820     2.4290     0.2110     5.5900     4.8340   -54.4740
  580.5000    78.8710    13.2800     2.4320     0.2090     5.4590     4.7570   -54.3040
  581.0000    79.5190    13.2850     2.4220     0.2040     5.3260     4.7570   -54.1650
  581.5000    80.1640    13.2400     2.4100     0.2010     5.3260     4.6690   -54.4540
  582.0000    81.5100    13.1380     2.3970     0.1990     5.3260     4.6750   -54.9610
  582.5000    83.5440    13.0430     2.3830     0.1990     5.2260     4.6940   -55.5130
  583.0000    86.1870    12.9430     2.3380     0.2040     5.2520     4.7130   -55.8180
  583.5000    85.3670    12.8480     2.2990     0.2140     5.3270     4.7320   -55.7300
  584.0000    83.4060    12.7490     2.3240     0.2450     5.4030     4.7510   -54.9280
  584.5000    81.5510    12.7260     2.3880     0.2940     5.4780     4.7700   -54.2320
  585.0000    81.0410    12.7360     2.4040     0.2880     5.5300     4.7890   -53.4490
  585.5000    81.1000    12.8540     2.3870     0.2800     5.5300     4.8080   -53.4000
  586.0000    79.7980    12.9610     2.4280     0.2970     5.4880     4.8270   -53.2820
  586.5000    79.1220    13.0760     2.4220     0.2700     5.4300     4.8450   -53.1960
  587.0000    79.8380    13.1860     2.3920     0.2460     5.3720     4.8640   -53.0900
  587.5000    79.3750    13.3000     2.4150     0.2450     5.3140     4.8830   -53.0260
