~VERSION INFORMATION
 VERS.                2.0:   CWLS LOG ASCII STANDARD - VERSION 2.0
 WRAP.                 NO:   ONE LINE PER DEPTH STEP
~WELL INFORMATION
#MNEM.UNIT      DATA TYPE    INFORMATION
#----------   ------------   ------------------------------
 STRT.F           22.5000:   START DEPTH
 STOP.F         4120.0000:   STOP DEPTH
 STEP.F            0.5000:   STEP LENGTH
 NULL.          -999.2500:   NO VALUE
 COMP. LAWRENCE ALLISON & ASSOCIATES:   COMPANY
 WELL. LAWRENCE-ALLISON SHX #37-10:   WELL
 FLD .              N P R:   FIELD
 LOC .      S10 T38N R78W:   LOCATION
 CNTY.            NATRONA:   COUNTY
 STAT.            WYOMING:   STATE
 CTRY. UNITED STATES OF AMERICA:   COUNTRY
 SRVC.      DRESSER ATLAS:   SERVICE COMPANY
 DATE.        29-JUN-1983:   LOGDATE
 API .     49025107370001:   API NUMBER
~CURVE INFORMATION
#MNEM.UNIT       API CODE    CURVE DESCRIPTION
#----------   ------------   ------------------------------
 DEPT.F                  :   
 TEND.LBS    45 635 01 00:   TENSION FROM DENSITY LOG
 CORR.G/C3   45 356 01 00:   DENSITY CORRECTION
 NPHI.DEC    42 890 03 00:   NEUTRON POROSITY SANDSTONE
 CALD.IN     45 280 60 00:   CALIPER FROM DENSITY LOG
 GRR .GAPI   07 310 01 00:   GAMMA RAY FROM RESISTIVITY
 SPR .MV     07 010 01 00:   SPONTANEOUS POTENTIAL
 TENR.LBS    07 635 01 00:   TENSION FROM RESISTIVITY
 RILD.OHMM   07 120 46 00:   DEEP INDUCTION RESISTIVITY
 RILM.OHMM   07 120 44 00:   INDUCTION LOG MEDIUM RESISTIVITY
 RFOC.OHMM   07 220 04 00:   RESISTIVITY FOCUSED LOG RES.
 RHOB.G/C3   45 350 01 00:   BULK DENSITY
~PARAMETER INFORMATION
#MNEM.UNIT          VALUE    DESCRIPTION
#----------   ------------   ------------------------------
 EKB .F         5228.0000:   Kelly bushing
 EGL .F         5218.0000:   Ground level
 EDF .F            0.0000:   Drilling floor
 EPD .F         5218.0000:   Permanent datum
 TD  .F         4125.0000:   Total depth
 DATE.        29-JUN-1983:   Date logged
 CLNT.            A2DTECH:   Client Code
 SL  . 984' FWL & 1620' FEL:   Surface Location
 PD  .                 GL:   Permanent Datum
 DD  .F              4125:   Depth driller
 DL  .F              4107:   Depth logger
 BLI .F              4105:   Bottom log interval
 CS1 .IN              4.5:   Casing size
 CBD1.       4.5" @ 2213':   Casing driller 1
 CBL1.F              2213:   Casing logger 1
 BS1 .IN             6.25:   Bit size
 DFT .                KCL:   Type fluid in hole
 DFD .                8.8:   Density
 DFV .                 45:   Viscosity
 DFPH.                  9:   pH
 DFL .               10.8:   Fluid loss
 MSS .            MUDTANK:   Source of sample
 RMS .OHMM            .44:   Rm
 MST .F               108:   Rm Meas. temp.
 RMF .OHMM            .37:   Rmf
 MFST.F               108:   Rmf Meas. temp.
 RMC .OHMM            .55:   Rmc
 MCST.F               108:   Rmc Meas. temp.
 MFSS.               MEAS:   Source Rmf.
 RMB .OHMM            .36:   Rm. at BHT
 BHT .F               126:   BHT.
 TCS .HRS               2:   Time Circ. stopped
 MRT .F               126:   Maximum recorded temp.
 LUN .               6343:   Logging unit number
 LUL .                 FM:   Logging unit location
 ENGI.          I. GOVETT:   Recorded By
 WITN.          G. STRONG:   Witnessed by
 ORIG.     2.5", 5" PRINT:   Origin of data
 UWI .     49025107370001:   Unique Well ID
 DICO. A2D TECHNOLOGIES, INC.:   Digitizing Company
 DAPD.                 10:   Feet Above Permanent Datum
 BSD1.               4125:   Depth drilled with bit1
 MCSS.               CALC:   Source Rmc.
 TLI .               2213:   Top log interval
~OTHER INFORMATION
~A   DEPT     TEND       CORR       NPHI       CALD         GRR       SPR       TENR       RILD       RILM       RFOC       RHOB   
# ...
 3072.5000     0.0000     0.1040     0.1700     7.1340   112.6820   -35.2030     4.9500     4.4680     4.2630     5.4250     2.5270
 3073.0000     0.0000     0.0850     0.1590     7.1310   107.4270   -35.4120     4.9500     4.3960     4.3820     5.9020     2.5350
 3073.5000     0.0000     0.0700     0.1510     7.1290   104.4080   -35.7070     4.9500     4.4370     4.4770     5.6480     2.5370
 3074.0000     0.0000     0.0530     0.1530     7.1270   108.2110   -35.7430     4.9500     4.5060     4.4860     5.4450     2.5300
 3074.5000     0.0000     0.0370     0.1650     7.1240   111.8270   -35.7430     4.9500     4.6030     4.5060     5.2430     2.5260
 3075.0000     0.0000     0.0190     0.1760     7.1220   114.9900   -35.7430     4.9500     4.5820     4.5190     5.0010     2.5190
 3075.5000     0.0000     0.0210     0.1750     7.1190   112.5760   -35.7200     4.9500     4.5280     4.4500     5.0550     2.5240
 3076.0000     0.0000     0.0260     0.1670     7.1170   109.5680   -35.5240     4.9500     4.4750     4.3810     5.1230     2.5410
 3076.5000     0.0000     0.0300     0.1640     7.1140   107.1990   -35.3760     4.9500     4.4210     4.3130     5.1910     2.5570
 3077.0000     0.0000     0.0430     0.1680     7.1120   110.1860   -35.6210     4.9500     4.3680     4.2440     5.2750     2.5730
 3077.5000     0.0000     0.0610     0.1740     7.1090   113.5390   -35.7410     4.9500     4.3150     4.1750     5.1250     2.5900
 3078.0000     0.0000     0.0760     0.1780     7.1070   115.8620   -35.7470     4.9500     4.2610     4.1210     4.8620     2.5990
 3078.5000     0.0000     0.0900     0.1750     7.1090   115.7310   -35.7560     4.9500     4.2080     4.2130     4.6030     2.6050
 3079.0000     0.0000     0.1000     0.1710     7.1120   115.6480   -35.7650     4.9500     4.1890     4.2890     4.5610     2.6060
 3079.5000     0.0000     0.0990     0.1720     7.1150   115.5510   -35.7740     4.9500     4.1780     4.3650     4.5610     2.6070
 3080.0000     0.0000     0.0990     0.1710     7.1180   115.4630   -35.7830     4.9500     4.1670     4.4410     4.5610     2.6080
 3080.5000     0.0000     0.0980     0.1680     7.1210   112.9280   -35.7920     4.9500     4.1560     4.5170     4.7560     2.6080
 3081.0000     0.0000     0.0970     0.1640     7.1240   108.3750   -35.8000     4.9500     4.1450     4.5610     5.0180     2.6160
 3081.5000     0.0000     0.0980     0.1600     7.1270   103.8850   -35.8090     4.9500     4.1340     4.4580     5.2790     2.6260
 3082.0000     0.0000     0.1210     0.1610     7.1300   100.6040   -35.8180     4.9500     4.1210     4.3740     5.5340     2.6320
 3082.5000     0.0000     0.1400     0.1630     7.1330   105.5600   -35.8270     4.9500     4.1240     4.2760     5.1430     2.6120
 3083.0000     0.0000     0.1300     0.1660     7.1360   110.3790   -35.8360     4.9500     4.1270     4.2930     4.7630     2.5900
 3083.5000     0.0000     0.0960     0.1680     7.1390   113.4940   -35.8450     4.9500     4.1300     4.3140     4.3960     2.5650
 3084.0000     0.0000     0.0640     0.1710     7.1420   111.8850   -35.8540     4.9500     4.1340     4.3350     4.4970     2.5470
 3084.5000     0.0000     0.0390     0.1710     7.1440   109.2190   -35.8630     4.9500     4.1370     4.3550     4.5950     2.5510
 3085.0000     0.0000     0.0580     0.1710     7.1470   108.0970   -35.8710     4.9500     4.1400     4.3760     4.6880     2.5540
 3085.5000     0.0000     0.0660     0.1670     7.1500   109.7250   -35.8800     4.9500     4.1430     4.3960     4.6450     2.5580
 3086.0000     0.0000     0.0690     0.1630     7.1530   111.3080   -35.8890     4.9500     4.1470     4.3790     4.7980     2.5610
 3086.5000     0.0000     0.0710     0.1590     7.1560   112.8830   -35.8980     4.9500     4.1500     4.3630     4.9800     2.5650
 3087.0000     0.0000     0.0790     0.1590     7.1590   113.8640   -35.9070     4.9500     4.1530     4.3470     5.1880     2.5670
 3087.5000     0.0000     0.0990     0.1620     7.1620   112.9890   -35.9160     4.9500     4.1560     4.3310     4.9410     2.5630
 3088.0000     0.0000     0.1080     0.1660     7.1650   111.5850   -35.9250     4.9500     4.1590     4.3150     4.6500     2.5580
 3088.5000     0.0000     0.1030     0.1670     7.1680   110.1820   -35.9340     4.9500     4.1400     4.3010     4.3590     2.5600
 3089.0000     0.0000     0.1000     0.1670     7.1710   108.7810   -35.9410     4.9500     4.1170     4.2850     4.0830     2.5620
 3089.5000     0.0000     0.0960     0.1670     7.1740   108.6440   -35.9410     4.9500     4.0950     4.2680     3.9360     2.5640
 3090.0000     0.0000     0.0870     0.1670     7.1770   110.3980   -35.9210     4.9500     4.0720     4.2510     3.8640     2.5570
 3090.5000     0.0000     0.0750     0.1670     7.1800   112.1020   -35.8980     4.9500     4.0480     4.2350     3.8640     2.5390
 3091.0000     0.0000     0.0650     0.1720     7.1830   113.0840   -35.8740     4.9500     4.0600     4.2180     3.8640     2.5250
 3091.5000     0.0000     0.0620     0.1750     7.1860   111.0350   -35.8500     4.9500     4.0750     4.2010     3.9770     2.5200
 3092.0000     0.0000     0.0600     0.1750     7.1890   109.0590   -35.8270     4.9500     4.0910     4.1850     4.0660     2.5220
 3092.5000     0.0000     0.0580     0.1750     7.1920   108.0130   -35.8030     4.9500     4.1070     4.1680     4.1540     2.5240
 3093.0000     0.0000     0.0550     0.1730     7.1950   108.1720   -35.7790     4.9500     4.1210     4.1330     4.2370     2.5280
 3093.5000     0.0000     0.0530     0.1700     7.1980   107.7330   -35.7550     4.9500     4.0640     4.0760     4.4780     2.5320
 3094.0000     0.0000     0.0540     0.1680     7.2010   105.0500   -35.6760     4.9500     4.0110     4.0190     4.7040     2.5350
 3094.5000     0.0000     0.0560     0.1670     7.2040   104.0350   -35.5260     4.9500     3.9570     3.9620     4.5170     2.5290
 3095.0000     0.0000     0.0580     0.1740     7.2070   107.6300   -35.3770     4.9500     3.9040     3.9050     4.2720     2.5240
 3095.5000     0.0000     0.0600     0.1800     7.2100   110.3810   -35.2280     4.9500     3.8500     3.8480     4.0270     2.5180
 3096.0000     0.0000     0.0600     0.1860     7.2130   113.1480   -35.0790     4.9500     3.7970     3.7910     3.7820     2.5120
 3096.5000     0.0000     0.0580     0.1920     7.2160   113.6020   -34.9300     4.9500     3.7430     3.7340     3.4600     2.5070
 3097.0000     0.0000     0.0480     0.1940     7.2190   111.3180   -34.7810     4.9500     3.6900     3.6770     3.5360     2.5030
 3097.5000     0.0000     0.0320     0.1900     7.2220   110.5790   -34.6330     4.9500     3.6360     3.6200     3.6480     2.5120
 3098.0000     0.0000     0.0130     0.1870     7.2250   110.3570   -34.5910     4.9500     3.5830     3.5630     3.7600     2.5200
 3098.5000     0.0000     0.0110     0.1830     7.2280   109.6150   -34.6630     4.9500     3.5300     3.5400     3.8710     2.5280
 3099.0000     0.0000     0.0270     0.1800     7.2310   111.8480   -34.7350     4.9500     3.5190     3.5160     3.9720     2.5330
 3099.5000     0.0000     0.0400     0.1760     7.2340   113.9960   -34.8080     4.9500     3.5120     3.4920     3.7930     2.5350
 3100.0000     0.0000     0.0550     0.1740     7.2370   111.6720   -34.8810     4.9500     3.5060     3.4680     3.8250     2.5380
 3100.5000     0.0000     0.0620     0.1770     7.2400   108.6900   -34.9540     4.9500     3.4990     3.4440     3.8890     2.5400
 3101.0000     0.0000     0.0680     0.1850     7.2430   109.0230   -35.0270     4.9500     3.4920     3.4200     3.9530     2.5410
 3101.5000     0.0000     0.0750     0.1930     7.2460   111.0630   -35.0990     4.9500     3.4610     3.3960     4.0010     2.5320
 3102.0000     0.0000     0.0810     0.2010     7.2480   113.1370   -35.1340     4.9500     3.4280     3.3720     3.8730     2.5250
 3102.5000     0.0000     0.0870     0.1990     7.2510   115.2210   -35.0820     4.9500     3.3940     3.3480     3.7520     2.5170
