~VERSION INFORMATION
 VERS.                2.0:   CWLS LOG ASCII STANDARD - VERSION 2.0
 WRAP.                 NO:   ONE LINE PER DEPTH STEP
~WELL INFORMATION
#MNEM.UNIT      DATA TYPE    INFORMATION
#----------   ------------   ------------------------------
 STRT.F          218.0000:   START DEPTH
 STOP.F         3062.0000:   STOP DEPTH
 STEP.F            0.5000:   STEP LENGTH
 NULL.          -999.2500:   NO VALUE
 COMP.    FEXIN & SCISSON:   COMPANY
 WELL. FEXIN 32 "A" #3-34:   WELL
 FLD .              N P R:   FIELD
 LOC .      S34 T39N R78W:   LOCATION
 CNTY.            NATRONA:   COUNTY
 STAT.            WYOMING:   STATE
 CTRY. UNITED STATES OF AMERICA:   COUNTRY
 SRVC.              WELEX:   SERVICE COMPANY
 DATE.        18-JUL-1977:   LOGDATE
 API .     49025103960000:   API NUMBER
~CURVE INFORMATION
#MNEM.UNIT       API CODE    CURVE DESCRIPTION
#----------   ------------   ------------------------------
 DEPT.F                  :   
 CALD.IN     45 280 60 00:   CALIPER FROM DENSITY LOG
 RHOB.G/C3   45 350 01 00:   BULK DENSITY
 GRD .GAPI   45 310 01 00:   GAMMA RAY FROM DENSITY LOG
 CORR.G/C3   45 356 01 00:   DENSITY CORRECTION
 SPR .MV     07 010 01 00:   SPONTANEOUS POTENTIAL
 SGRD.OHMM   07 220 05 00:   SHALLOW SHORT GUARD RESISTIVITY
 ILM .OHMM   07 120 44 00:   INDUCTION LOG MEDIUM RESISTIVITY
 ILD .OHMM   07 120 46 00:   DEEP INDUCTION RESISTIVITY
~PARAMETER INFORMATION
#MNEM.UNIT          VALUE    DESCRIPTION
#----------   ------------   ------------------------------
 EKB .F         5080.0000:   Kelly bushing
 EGL .F         5070.0000:   Ground level
 TD  .F         3070.0000:   Total depth
 DATE.        18-JUL-1977:   Date logged
 CLNT.            A2DTECH:   Client Code
 SL  . 900' FNL & 1650'FWL:   Surface Location
 PD  .                 GL:   Permanent Datum
 DD  .F              3070:   Depth driller
 DL  .F              3063:   Depth logger
 BLI .F              3061:   Bottom log interval
 CS1 .IN            8.625:   Casing size
 CBD1.      8.625" @ 212':   Casing driller 1
 CBL1.F               222:   Casing logger 1
 BS1 .IN            7.875:   Bit size
 DFT .           CEHM-GEL:   Type fluid in hole
 DFD .                8.8:   Density
 DFV .                 42:   Viscosity
 DFPH.                7.5:   pH
 DFL .                  8:   Fluid loss
 MSS .           FLOWLINE:   Source of sample
 RMS .OHMM            .89:   Rm
 MST .F                94:   Rm Meas. temp.
 RMF .OHMM            .54:   Rmf
 MFST.F                94:   Rmf Meas. temp.
 RMC .OHMM           1.24:   Rmc
 MCST.F                94:   Rmc Meas. temp.
 MFSS.               FANN:   Source Rmf.
 RMB .OHMM            .67:   Rm. at BHT
 BHT .F               122:   BHT.
 TCS .HRS               4:   Time Circ. stopped
 MRT .F               122:   Maximum recorded temp.
 LUN .               8611:   Logging unit number
 LUL .             CASPER:   Logging unit location
 ENGI.          C.A. DOAK:   Recorded By
 WITN.         PETTINGILL:   Witnessed by
 ORIG.           5" PRINT:   Origin of data
 UWI .     49025103960000:   Unique Well ID
 DICO. A2D TECHNOLOGIES, INC.:   Digitizing Company
 DAPD.                 12:   Feet Above Permanent Datum
 BSD1.F              3950:   Depth drilled with bit1
 MCSS.                KIT:   Source Rmc.
 EPD .F              5070:   Elevation Permanent Datum
 LMF .                 KB:   Log Measured From
 DMF .                 KB:   Drilling Measured From
 TLI .F               200:   Top log interval
~OTHER INFORMATION
~A   DEPT     CALD       RHOB        GRD       CORR        SPR       SGRD        ILM        ILD   
# ...
 3012.5000     7.9360     2.4720   100.0670     0.0100   -69.1510    28.3240    25.4410    20.1470
 3013.0000     7.9350     2.4630    99.6380     0.0100   -69.1560    28.7670    25.7220    20.4450
 3013.5000     7.9350     2.4510    99.9160     0.0090   -69.1610    28.1740    26.0020    20.7420
 3014.0000     7.9340     2.4430    98.5550     0.0080   -69.1650    27.7300    26.2830    21.0390
 3014.5000     7.9330     2.4520    96.9230     0.0070   -69.1700    27.2270    26.5130    21.3370
 3015.0000     7.9330     2.4650    96.2750     0.0070   -69.1750    27.7650    26.6090    21.6340
 3015.5000     7.9320     2.4710    95.8920     0.0060   -69.1800    29.1010    26.7050    21.9320
 3016.0000     7.9310     2.4670    95.4910     0.0050   -69.1850    29.5700    26.8010    22.2290
 3016.5000     7.9300     2.4550    95.1100     0.0040   -69.1890    28.9220    26.8550    22.4560
 3017.0000     7.9300     2.4430    95.3040     0.0040   -69.1940    28.4900    26.4750    22.2010
 3017.5000     7.9290     2.4300    97.3140     0.0030   -69.1990    28.3050    26.2860    21.8950
 3018.0000     7.9280     2.4210    99.2870     0.0020   -69.2040    28.1210    26.0970    21.5890
 3018.5000     7.9280     2.4070   101.0330     0.0010   -69.2090    27.9360    25.8990    21.2830
 3019.0000     7.9270     2.3980   102.4850     0.0010   -69.2140    27.7510    25.6690    20.9770
 3019.5000     7.9260     2.4050   103.9360     0.0000   -69.2180    27.5660    25.4400    20.6720
 3020.0000     7.9250     2.4160   104.7270    -0.0010   -69.2230    27.2270    25.2100    20.3660
 3020.5000     7.9250     2.4250   103.9950    -0.0020   -69.2280    26.7320    24.9800    20.0600
 3021.0000     7.9240     2.4240   103.1440    -0.0020   -69.2330    25.9460    24.7510    19.7540
 3021.5000     7.9230     2.4210   102.4340    -0.0030   -69.2380    26.1260    24.5570    19.4350
 3022.0000     7.9220     2.4250   103.7680    -0.0040   -69.2420    26.5600    24.5570    19.4350
 3022.5000     7.9220     2.4220   105.1000    -0.0030   -69.2470    27.0160    24.8420    19.5980
 3023.0000     7.9210     2.4230   106.4020    -0.0020   -69.2520    28.3740    25.1420    19.8160
 3023.5000     7.9200     2.4300   106.6060    -0.0010   -69.2570    28.5700    25.4430    20.0340
 3024.0000     7.9200     2.4260   104.6680    -0.0010   -69.2620    28.5700    25.7690    20.2520
 3024.5000     7.9190     2.4320   102.7840     0.0000   -69.2660    28.5700    25.8190    20.4700
 3025.0000     7.9180     2.4400   100.9010     0.0010   -69.2710    28.9070    25.9810    20.6760
 3025.5000     7.9170     2.4450    99.1300     0.0020   -69.2760    29.5750    26.1430    20.6760
 3026.0000     7.9170     2.4430    98.2500     0.0030   -69.2810    30.1870    26.3050    20.5590
 3026.5000     7.9160     2.4520    97.3730     0.0040   -69.2860    29.5620    26.4670    20.3880
 3027.0000     7.9150     2.4630    96.5070     0.0050   -69.2910    28.6450    26.1640    20.2180
 3027.5000     7.9150     2.4680    98.0040     0.0060   -69.2950    27.7290    25.7930    20.0470
 3028.0000     7.9140     2.4610    99.7170     0.0060   -69.3000    27.3070    25.4230    19.8770
 3028.5000     7.9130     2.4550   101.4290     0.0060   -69.3050    27.1440    25.0690    19.7060
 3029.0000     7.9120     2.4480   103.1370     0.0060   -69.3100    26.9800    24.8160    19.5360
 3029.5000     7.9120     2.4480   104.8420     0.0060   -69.3150    26.6700    24.7260    19.3650
 3030.0000     7.9110     2.4530   106.3340     0.0090   -69.3190    27.0000    24.4200    19.2670
 3030.5000     7.9100     2.4590   105.4430     0.0120   -69.3240    27.4150    24.0490    19.1840
 3031.0000     7.9100     2.4640   104.2750     0.0140   -69.3290    26.4240    23.6790    19.1020
 3031.5000     7.9090     2.4690   103.1050     0.0170   -69.3340    25.7690    23.3080    19.0200
 3032.0000     7.9080     2.4690   101.9420     0.0190   -69.3390    25.9090    23.0710    18.9370
 3032.5000     7.9070     2.4580   101.3200     0.0170   -69.3440    26.1260    23.0420    18.8550
 3033.0000     7.9070     2.4480   101.7660     0.0130   -69.3480    25.6720    23.0130    18.7720
 3033.5000     7.9060     2.4380   102.1920     0.0080   -69.3530    25.0690    22.9840    18.6900
 3034.0000     7.9050     2.4270   103.1460     0.0040   -69.3580    25.4000    22.9550    18.6080
 3034.5000     7.9040     2.4170   104.4800     0.0020   -69.3630    25.7690    22.9240    18.5210
 3035.0000     7.9040     2.4130   105.8190     0.0010   -69.3680    25.4590    23.2420    18.4420
 3035.5000     7.9030     2.4190   107.1660     0.0010   -69.3720    25.1560    23.0110    18.3580
 3036.0000     7.9020     2.4250   108.5260     0.0010   -69.3770    24.9000    22.7650    18.2680
 3036.5000     7.9020     2.4300   109.4990     0.0000   -69.3820    24.6450    22.5190    18.0780
 3037.0000     7.9010     2.4340   108.1320     0.0000   -69.3870    24.3890    22.2740    17.8730
 3037.5000     7.9000     2.4350   106.3660    -0.0010   -69.3920    24.1330    22.0280    17.6680
 3038.0000     7.8990     2.4290   104.6240    -0.0010   -69.3960    23.6430    21.7820    17.4620
 3038.5000     7.8990     2.4130   103.5430    -0.0010   -69.4010    23.0520    21.5360    17.2570
 3039.0000     7.8980     2.3960   105.0470    -0.0020   -69.4060    22.4610    21.2910    17.0520
 3039.5000     7.8970     2.3800   107.4480    -0.0010   -69.4050    22.1490    21.0450    16.8470
 3040.0000     7.8970     2.3730   109.8500     0.0000   -69.4940    22.1490    20.5320    16.6410
 3040.5000     7.8960     2.3780   112.2420     0.0010   -69.6150    22.1490    19.7120    16.4360
 3041.0000     7.8950     2.3830   113.6330     0.0020   -69.6520    22.1490    19.7410    16.2310
 3041.5000     7.8940     2.3880   112.9040     0.0040   -69.6920    22.4570    19.7970    16.0250
 3042.0000     7.8940     2.3930   112.1900     0.0040   -69.7310    23.1590    19.8540    15.8200
 3042.5000     7.8930     2.3980   111.4750     0.0040   -69.7710    23.5640    19.9100    15.7000
 3043.0000     7.8920     2.4030   108.5800     0.0040   -69.8110    21.5480    19.9770    15.6900
 3043.5000     7.8910     2.4080    98.7960     0.0040   -69.8500    21.5820    19.8400    15.6810
 3044.0000     7.8910     2.4130    57.2340     0.0040   -69.8900    21.6680    19.7930    15.6720
 3044.5000     7.8900     2.4180  -999.2500     0.0060   -69.9290    21.7530    19.7460    15.6620
 3045.0000     7.8890     2.4200  -999.2500     0.0100   -69.9690    21.8380    19.7000    15.6530
 3045.5000     7.8890     2.4190  -999.2500     0.0130   -70.0090    21.9230    19.6530    15.6440
 3046.0000     7.8880     2.4090  -999.2500     0.0120   -70.0480    22.0080    19.6060    15.6340
 3046.5000     7.8870     2.4000  -999.2500     0.0090   -70.0880    22.0940    19.5590    15.6250
 3047.0000     7.8860     2.3920  -999.2500     0.0060   -70.1270    23.4020    19.5130    15.6160
 3047.5000     7.8860     2.3910  -999.2500     0.0050   -70.1670    22.9540    19.4660    15.6060
 3048.0000     7.8850     2.3950  -999.2500     0.0100   -70.2070    22.1140    19.3890    15.5970
 3048.5000     7.8840     2.3990  -999.2500     0.0140   -70.2460    21.0930    19.0450    15.5740
 3049.0000     7.8840     2.4030  -999.2500     0.0170   -70.2860    19.7000    18.7010    15.4120
 3049.5000     7.8840     2.4070  -999.2500     0.0200   -70.3250    19.0380    18.3940    15.2500
 3050.0000  -999.2500     2.4110  -999.2500     0.0220   -70.3650    19.5060    18.3440    15.0880
 3050.5000  -999.2500     2.4130  -999.2500     0.0230   -70.4050    20.1150    18.2890    14.9270
 3051.0000  -999.2500     2.4140  -999.2500     0.0250   -70.4440    19.5530    18.2680    14.7590
 3051.5000  -999.2500     2.4130  -999.2500     0.0260   -70.4840    18.6490    18.1740    14.5800
 3052.0000  -999.2500     2.4080  -999.2500     0.0260   -70.5230    19.2790    18.0490    14.3940
 3052.5000  -999.2500     2.4000  -999.2500     0.0210   -70.5640    20.3940    17.9230    14.2090
