~VERSION INFORMATION
 VERS.                2.0:   CWLS LOG ASCII STANDARD - VERSION 2.0
 WRAP.                 NO:   ONE LINE PER DEPTH STEP
~WELL INFORMATION
#MNEM.UNIT      DATA TYPE    INFORMATION
#----------   ------------   ------------------------------
 STRT.F           32.0000:   START DEPTH
 STOP.F         5116.0000:   STOP DEPTH
 STEP.F            0.5000:   STEP LENGTH
 NULL.          -999.2500:   NO VALUE
 COMP. LAWRENCE ALLISON AND ASSOCIATES:   COMPANY
 WELL. LAWRENCE "X" #11-26:   WELL
 FLD .       N.P.R. NO. 3:   FIELD
 LOC .      S26 T38N R78W:   LOCATION
 CNTY.            NATRONA:   COUNTY
 STAT.            WYOMING:   STATE
 CTRY. UNITED STATES OF AMERICA:   COUNTRY
 SRVC.      DRESSER ATLAS:   SERVICE COMPANY
 DATE.        03-DEC-1984:   LOGDATE
 API .     49025110120000:   API NUMBER
~CURVE INFORMATION
#MNEM.UNIT       API CODE    CURVE DESCRIPTION
#----------   ------------   ------------------------------
 DEPT.F                  :   
 CALD.IN     45 280 60 00:   CALIPER FROM DENSITY LOG
 TEND.LBS    45 635 01 00:   TENSION FORM DENSITY LOG
 CORR.G/C3   45 356 01 00:   DENSITY CORRECTION
 DEN .G/C3   45 350 01 00:   BULK DENSITY
 NPHI.DEC    42 890 03 00:   NEUTRON POROSITY SANDSTONE
 GRR .GAPI   07 310 01 00:   GAMMA RAY FROM RESISTIVITY
 SPR .MV     07 010 01 00:   SPONTANEOUS POTENTIAL
 CALR.IN     07 280 01 00:   CALIPER FROM RESISTIVITY
 TENR.LBS    07 635 01 00:   TENSION FROM RESISTIVITY
 RILD.OHMM   07 120 46 00:   INDUCTION LOG DEEP RESISTIVITY
 RILM.OHMM   07 120 44 00:   INDUCTION LOG MEDIUM RESISTIVITY
 RFOC.OHMM   07 220 04 00:   RESISTIVITY FOCUSED LOG RES.
 TENS.LBS    60 635 01 00:   TENSION FROM SONIC
 DT  .US/F   60 520 00 00:   DELTA TIME
~PARAMETER INFORMATION
#MNEM.UNIT          VALUE    DESCRIPTION
#----------   ------------   ------------------------------
 EKB .F         5321.0000:   Kelly bushing
 EGL .F         5309.0000:   Ground level
 EDF .F         5320.0000:   Drilling floor
 TD  .F         5104.0000:   Total depth
 CLNT.            A2DTECH:   Client Code
 SL  . 509' FWL & 22' FNL:   Surface Location
 PD  .                 GL:   Permanent Datum
 EPD .F              5309:   Elevation Permanent Datum
 LMF .                 KB:   Log Measured From
 DMF .                 KB:   Drilling Measured From
 DAPD.F                12:   Feet Above Permanent Datum
 DATE.        03-DEC-1984:   Date Logged [DD-MMM-YYYY]
 DD  .F              5100:   Depth driller
 DL  .F              5104:   Depth logger
 BLI .F              5102:   Bottom log interval
 TLI .F              1400:   Top log interval
 CS1 .IN            9.625:   Casing size
 CBD1.     9.625' @ 1657':   Casing driller 1
 CBL1.F              1652:   Casing logger 1
 BS1 .IN            7.875:   Bit size
 DFT .            KCL GEL:   Type fluid in hole
 DFD .                90.:   Density
 DFV .                 41:   Viscosity
 DFPH.                8.9:   pH
 DFL .               12.6:   Fluid loss
 MSS .           FLOWLINE:   Source of sample
 RMS .OHMM           .327:   Rm
 MST .F                84:   Rm Meas. temp.
 RMF .OHMM            .29:   Rmf
 MFST.F                84:   Rmf Meas. temp.
 MFSS.               CALC:   Source Rmf.
 RMC .OHMM            .42:   Rmc
 MCST.F                84:   Rmc Meas. temp.
 MCSS.               CALC:   Source Rmc.
 RMB .OHMM            .23:   Rm. at BHT
 BHT .F               142:   BHT.
 TCS .HRS               4:   Time Circ. stopped
 MRT .F               142:   Maximum recorded temp.
 LUN .               6307:   Logging unit number
 LUL .               CLTE:   Logging unit location
 WITN.             STRONG:   Witnessed by
 ORIG.           5" PRINT:   Origin of data
 UWI .     49025110120000:   Unique Well ID
 DICO. A2D TECHNOLOGIES, INC.:   Digitizing Company
~OTHER INFORMATION
~A  DEPTH     CALD       TEND       CORR        DEN       NPHI        GRR        SPR       CALR       TENR       RILD       RILM       RFOC       TENS         DT
# ...
 4393.0000     7.9986   -23.6840     0.0492     2.5609     0.1929   122.3977   -40.6997     8.0332   -56.9069     7.8363     7.6985     9.5326   -45.5303    75.3986
 4393.5000     8.0008   -17.2933     0.0359     2.5557     0.1987   123.6298   -40.6869     8.0345   -56.7567     7.5666     7.4877     9.6012   -54.2155    75.3868
 4394.0000     7.9958   -18.4212     0.0212     2.5573     0.2019   125.8079   -40.6741     8.0357   -56.5908     7.3574     7.2324     9.6035   -55.4049    75.2252
 4394.5000     7.9903   -19.7395     0.0289     2.5612     0.2052   128.2120   -40.6611     8.0366   -56.4488     7.1541     6.9308     9.5386   -49.0634    75.3634
 4395.0000     7.9926   -20.8424     0.0592     2.5680     0.2061   130.6507   -40.6453     8.0377   -56.3063     7.0047     6.6547     9.3446   -50.5360    75.5765
 4395.5000     7.9952   -21.9441     0.0849     2.5741     0.2057   133.9944   -40.4819     8.0389   -56.1295     6.9055     6.5628     8.9039   -59.2212    75.9396
 4396.0000     7.9974   -23.0459     0.0732     2.5795     0.2030   137.9478   -40.3186     8.0399   -56.0060     6.9033     6.5624     8.6027   -60.3989    76.6025
 4396.5000     7.9996   -24.1488     0.0780     2.5833     0.1979   140.0849   -40.3057     8.0409   -55.8456     6.9010     6.6074     8.1403   -53.7741    77.0524
 4397.0000     8.0018   -25.2506     0.0920     2.5725     0.1900   139.5070   -40.2797     8.0419   -55.7037     6.8988     6.6530     7.5443   -62.7543    78.1067
 4397.5000     8.0040   -26.3157     0.1085     2.5543     0.1882   136.2142   -39.9758     8.0431   -55.5263     6.7946     6.6066     6.9887   -63.9319    78.9632
 4398.0000     8.0062   -27.4542     0.0922     2.5687     0.1936   129.3078   -39.9639     8.0441   -55.3843     6.6131     6.5605     7.3413   -80.1246    79.0294
 4398.5000     8.0084   -28.5710     0.0579     2.5890     0.2007   119.3785   -39.6490     8.0451   -55.2424     6.4304     6.4698     8.6115   -51.2723    78.4150
 4399.0000     8.0105   -22.1401     0.0535     2.6004     0.2022   117.2860   -39.3318     8.0461   -55.1004     6.2526     6.2926     9.8254   -52.4499    76.3793
 4399.5000     8.0276   -31.0367     0.0734     2.6013     0.2045   118.2835   -39.2884     8.0471   -54.9549     5.9883     6.0361     9.7396   -53.6276    76.2177
 4400.0000     8.0149   -39.4737     0.0916     2.5886     0.2227   122.7795   -39.0050     8.0484   -54.7811     5.7101     5.5930     8.0812   -54.9986    77.9292
 4400.5000     8.0172   -40.5262     0.0933     2.5602     0.2344   125.2104   -38.9922     8.0635   -62.1822     5.5777     5.5540     6.3531   -48.3610    80.4670
 4401.0000     8.0194   -41.7861     0.0876     2.5505     0.2364   125.8477   -38.9789     8.0606   -61.1226     5.3345     5.4394     6.0949   -57.3198    82.1803
 4401.5000     8.0220   -35.0384     0.0818     2.5506     0.2334   127.6690   -38.9634     8.0577   -60.0608     5.0913     5.4016     6.0959   -58.4804    83.2189
 4402.0000     8.0093   -36.3233     0.0760     2.5537     0.2274   132.2140   -39.2518     8.0548   -58.9990     4.7999     5.4011     6.2248   -59.6411    84.4074
 4402.5000     8.0112   -29.5746     0.0748     2.5468     0.2306   138.5690   -39.3896     8.0541   -57.9372     4.5721     5.2532     6.4006   -60.8110    84.6239
 4403.0000     8.0310   -30.8595     0.0600     2.5352     0.2400   142.5108   -39.5274     8.1007   -56.8754     4.4466     5.0391     6.6319   -69.7594    83.6357
 4403.5000     8.0187   -31.8880     0.0512     2.5240     0.2452   141.0226   -39.6620     8.1170   -55.8136     4.3246     4.8003     6.6744   -70.9200    83.7722
 4404.0000     8.0219   -25.3967     0.0650     2.5211     0.2487   137.7296   -39.7096     8.1482   -54.7518     4.2351     4.5074     6.4479   -49.5581    84.2861
 4404.5000     8.0246   -18.9055     0.0878     2.5302     0.2577   135.9398   -39.7936     8.1795   -53.6900     4.2052     4.2371     6.1434   -42.9204    85.0998
 4405.0000     8.0116   -19.9330     0.0970     2.5333     0.2570   135.9600   -39.8775     8.2110   -52.6281     4.2633     4.2076     5.8940   -51.8793    85.8385
 4405.5000     8.0146   -13.4427     0.1048     2.5334     0.2516   138.9967   -39.9615     8.2122   -51.9458     4.3222     4.2073     5.7329   -68.0549    87.0270
 4406.0000     8.0173   -14.5114     0.0945     2.5335     0.2342   142.6368   -39.9889     8.1832   -66.7140     4.5049     4.2009     5.5778   -84.2340    87.4659
 4406.5000     8.0202   -15.5636     0.0827     2.5367     0.2201   144.1652   -39.6805     8.1542   -66.4055     4.7637     4.4560     5.4637   -70.3761    87.3800
 4407.0000     8.0072   -16.7826     0.0694     2.5435     0.2089   137.2523   -39.6747     8.0952   -66.1586     5.1726     4.8649     5.5407   -41.5067    86.4377
 4407.5000     8.0104   -17.8101     0.0574     2.5558     0.2024   128.5243   -39.3675     8.0364   -50.8968     5.6201     5.3228     6.2777   -35.1598    83.6823
 4408.0000     8.0132   -18.8386     0.0474     2.5657     0.1939   119.4947   -39.3605     8.0071   -43.1394     6.0223     5.9874     7.8918   -44.1175    80.5980
 4408.5000     8.0082   -19.7742     0.0492     2.5719     0.1923   110.7667   -39.3547     8.0387   -35.3880     6.4533     6.4609     9.0888   -67.8006    77.5886
 4409.0000     8.0036   -20.8936     0.0539     2.5689     0.1845   110.4852   -39.3494     8.1151   -50.1562     6.8200     7.1181     9.5186   -68.9612    74.6541
 4409.5000     8.0063   -21.9221     0.0541     2.5594     0.1812   111.4154   -39.3431     8.1313   -57.3553     7.0104     7.2670     9.3236   -55.1056    73.5938
 4410.0000     7.9939   -22.9496     0.0409     2.5482     0.1853   112.3405   -39.3374     8.0725   -64.6223     7.1075     7.2665     9.3900   -48.7599    73.4329
 4410.5000     7.9967   -23.9854     0.0276     2.5393     0.1913   112.0540   -39.3313     8.0433   -64.3624     7.1559     7.2159     9.5224   -50.2112    73.4220
 4411.0000     7.9994   -17.4859     0.0203     2.5409     0.1969   112.0792   -39.3243     8.0143   -64.0606     7.1547     7.1162     9.5236   -51.3719    73.5610
 4411.5000     8.0024   -10.9956     0.0190     2.5441     0.2008   113.3062   -39.3186     8.0157   -71.3831     7.1044     7.1156     8.6444   -67.5475    73.8473
 4412.0000     8.0050   -19.7993     0.0268     2.5449     0.2013   113.0295   -39.6140     8.0321   -78.6437     7.1032     7.0660     8.2362   -68.7081    75.1857
 4412.5000     8.0124   -28.3456     0.0450     2.5473     0.1995   112.1447   -39.6082     8.0484   -78.3353     7.1024     7.0656     8.0675   -69.8687    76.2243
 4413.0000     8.0251   -29.3731     0.0666     2.5549     0.1943   113.3715   -39.7530     8.0797   -78.0266     7.0524     7.0651     8.2384   -71.0293    76.5159
 4413.5000     8.0279   -30.4006     0.0928     2.5680     0.1898   117.3132   -39.8978     8.1110   -77.7797     7.0028     7.0646     8.5893   -72.2227    76.2774
 4414.0000     8.0304   -31.4291     0.1080     2.5879     0.1832   121.5566   -39.8906     8.1422   -77.5331     6.8103     6.9188     9.2965   -73.6401    75.2171
 4414.5000     8.0331   -32.4566     0.1007     2.6026     0.1864   120.0735   -39.8848     8.1434   -77.2862     6.5323     6.7761     9.5991   -74.8007    74.0037
 4415.0000     8.0209   -25.9397     0.0933     2.6110     0.1876   115.5688   -39.8790     8.1749   -77.0386     6.2656     6.5906     8.9578   -75.9613    73.0110
 4415.5000     8.0236   -26.9926     0.0831     2.6239     0.1878   109.8574   -39.7227     8.1911   -76.7309     6.0098     6.3659     8.8354   -69.6144    72.9355
 4416.0000     8.0268   -28.0455     0.1059     2.6375     0.1806   114.7042   -39.5663     8.1923   -76.4841     5.8449     6.0223     8.6551   -62.9768    73.2967
 4416.5000     8.0125   -33.2146     0.1241     2.6481     0.1817   123.7741   -39.5477     8.1781   -76.2372     5.6061     5.8574     7.3192   -64.4281    74.6351
 4417.0000     8.0018   -37.8525     0.1303     2.6175     0.1913   129.6376   -39.2530     8.1494   -75.9904     5.5282     5.6970     6.8875   -73.1232    75.5987
