~VERSION INFORMATION
 VERS.                2.0:   CWLS LOG ASCII STANDARD - VERSION 2.0
 WRAP.                 NO:   ONE LINE PER DEPTH STEP
~WELL INFORMATION
#MNEM.UNIT      DATA TYPE    INFORMATION
#----------   ------------   ------------------------------
 STRT.F            6.0000:   START DEPTH
 STOP.F         3190.0000:   STOP DEPTH
 STEP.F            0.5000:   STEP LENGTH
 NULL.          -999.2500:   NO VALUE
 COMP. LAWRENCE ALLISON & ASSOCIATES:   COMPANY
 WELL. LAWRENCE N. P. R. 73AX #3-3:   WELL
 FLD .              N P R:   FIELD
 LOC .       S3 T38N R78W:   LOCATION
 CNTY.            NATRONA:   COUNTY
 STAT.            WYOMING:   STATE
 CTRY. UNITED STATES OF AMERICA:   COUNTRY
 SRVC.      DRESSER ATLAS:   SERVICE COMPANY
 DATE.        04-JUN-1986:   LOGDATE
 API .     49025110910000:   API NUMBER
~CURVE INFORMATION
#MNEM.UNIT       API CODE    CURVE DESCRIPTION
#----------   ------------   ------------------------------
 DEPT.F                  :   
 CALD.IN     45 280 60 00:   CALIPER FROM DENSITY LOG
 DEN .LBS    45 635 01 00:   BUCK DENSITY
 CORR.G/C3   45 356 01 00:   DENSITY CORRECTION
 TEND.LBS    45 635 01 00:   TENSION FROM DENSITY LOG
 SPR .MV     07 010 01 00:   SPONTANEOUS POTENTIAL
 GRR .GAPI   07 310 01 00:   GAMMA RAY FROM RESISTIVITY
 SFLU.OHMM   07 220 01 00:   SPHERICALLY FOCUSED LOG UNAVERAGED RESISTIVITY
 ILD .OHMM   07 120 46 00:   DEEP INDUCTION RESISTIVITY
 ILM .OHMM   07 120 44 00:   INDUCTION LOG MEDIUM RESISTIVITY
 TENR.LBS    07 635 01 00:   TENSION FROM RESISTIVITY
 CNC .DEC    42 890 01 00:   NEUTRON PORISITY LIMESTONE
~PARAMETER INFORMATION
#MNEM.UNIT          VALUE    DESCRIPTION
#----------   ------------   ------------------------------
 EKB .F         5173.0000:   Kelly bushing
 EGL .F         5161.0000:   Ground level
 TD  .F         3170.0000:   Total depth
 DATE.        04-JUN-1986:   Date logged
 CLNT.            A2DTECH:   Client Code
 PD  .                 GL:   Permanent Datum
 EPD .F              5161:   Elevation Permanent Datum
 LMF .                 KB:   Log Measured From
 DMF .                 KB:   Drilling Measured From
 DAPD.F                12:   Feet Above Permanent Datum
 DD  .F              3170:   Depth driller
 DL  .F              3168:   Depth logger
 BLI .F               8.9:   Bottom log interval
 TLI .F                38:   Top log interval
 CS1 .IN            8.625:   Casing size
 CBD1.      8.625" @ 603':   Casing driller 1
 CBL1.F               602:   Casing logger 1
 BS1 .IN            7.875:   Bit size
 BSD1.F              3170:   Depth drilled with bit1
 DFT .        KCL/POLYMER:   Type fluid in hole
 DFD .                8.9:   Density
 DFV .                 38:   Viscosity
 DFPH.                9.0:   pH
 DFL .               13.2:   Fluid loss
 MSS .           FLOWLINE:   Source of sample
 RMS .OHMM           .446:   Rm
 MST .F                64:   Rm Meas. temp.
 RMF .OHMM           .361:   Rmf
 MFST.F                64:   Rmf Meas. temp.
 RMC .OHMM            .56:   Rmc
 MCST.F                64:   Rmc Meas. temp.
 MFSS.               MEAS:   Source Rmf.
 MCSS.               CALC:   Source Rmc.
 RMB .OHMM           .242:   Rm. at BHT
 BHT .F               118:   BHT.
 TCS .HRS               3:   Time Circ. stopped
 MRT .F               118:   Maximum recorded temp.
 LUN .               6274:   Logging unit number
 LUL .           GILLETTE:   Logging unit location
 WITN.             STRONG:   Witnessed by
 ORIG.           5" PRINT:   Origin of data
 UWI .     49025110910000:   Unique Well ID
 DICO. A2D TECHNOLOGIES, INC.:   Digitizing Company
~OTHER INFORMATION
~A    DEPT    CALD        DEN       CORR       TEND        SPR         GRR      SFLU        ILD        ILM       TENR        CNC   
# ...
 2629.0000    10.1638     2.5513     0.0432    -8.4306   -47.1046   110.0759     6.7463     5.3502     5.3986   -20.8981     0.2633
 2629.5000    10.1559     2.5422     0.0412    -8.4306   -46.1730   108.8661     6.2641     5.3010     5.3490   -10.8672     0.2637
 2630.0000    10.1447     2.5322     0.0714    -8.4306   -45.7675   108.4649     6.0363     5.4005     5.3990   -31.0881     0.2657
 2630.5000    10.1447     2.5282     0.0573    -8.4306   -45.1596   108.8723     5.8709     5.7630     5.8693   -10.9766     0.2673
 2631.0000    10.1246     2.5312     0.0493   -28.5513   -43.3384   110.0901     6.0931     6.2072     6.4401   -21.1069     0.2657
 2631.5000    10.1045     2.5342     0.0654   -38.6117   -41.5175   109.6889     6.5627     6.9382     6.9364   -31.2372     0.2572
 2632.0000    10.1244     2.5211     0.0654   -28.5513   -38.0794   101.2017     7.9006     8.5091     7.6110   -31.2869     0.2375
 2632.5000    10.0642     2.4889     0.0412   -28.5513   -36.0563    92.3758     9.1649     9.8708     9.5089   -31.3366     0.2201
 2633.0000    10.0241     2.4376     0.0292   -28.5513   -34.0332    77.4884    10.5333    12.3322    11.1334   -31.3863     0.2157
 2633.5000     9.9839     2.4106     0.0292   -28.5513   -32.0100    64.0125    11.8836    14.1735    13.0355   -31.4360     0.2145
 2634.0000    10.0039     2.3561     0.0292   -38.6117   -28.9756    61.1849    14.1745    15.9904    14.1709   -31.4857     0.2177
 2634.5000     9.9838     2.3420     0.0312   -38.6117   -26.5480    60.7832    14.1748    17.3832    14.5715   -41.6160     0.2217
 2635.0000     9.9837     2.3400     0.0352   -38.6117   -24.5672    63.6171    14.3075    19.7945    14.5721   -41.6657     0.2185
 2635.5000     9.9836     2.3451     0.0486   -48.6720   -23.1923    62.8100    14.0452    20.3539    14.3050   -51.7960     0.2137
 2636.0000    10.0036     2.3571     0.0513   -38.6117   -21.8173    62.4083    13.7877    20.3548    14.0427   -51.8457     0.2112
 2636.5000     9.9835     2.3692     0.0513   -28.5513   -20.8804    58.7719    13.9170    20.3558    14.1743   -41.8149     0.2189
 2637.0000     9.9634     2.3833     0.0482   -28.5513   -20.2721    58.7745    14.1782    20.1688    14.1750   -31.7939     0.2233
 2637.5000     9.9834     2.3873     0.0452   -18.4909   -20.6747    60.3944    14.0479    20.1697    14.3077   -21.7630     0.2233
 2638.0000     9.9432     2.3843     0.0332   -18.4909   -21.0772    63.2290    14.3116    20.1706    14.3084   -31.8933     0.2213
 2638.5000     9.9632     2.3803     0.0090    -8.4306   -21.6820    63.2306    14.8532    20.3595    14.4423   -21.8625     0.2165
 2639.0000     9.9832     2.3732     0.0171   -28.5513   -22.0845    62.0202    14.9923    21.5256    14.5776   -31.9928     0.2112
 2639.5000     9.9832     2.3682     0.0332   -28.5513   -22.6893    59.5966    14.8545    22.9704    15.7011   -32.0425     0.2060
 2640.0000     9.9229     2.3692     0.0815   -18.4909   -22.8897    59.1949    14.9936    24.9712    17.5504   -32.0922     0.1987
 2640.5000     9.9630     2.3763     0.0976   -18.4909   -24.7076    58.7931    14.8559    27.6543    20.5487   -32.1419     0.1886
 2641.0000     9.9830     2.3863     0.0674   -28.5513   -25.5146    59.2000    15.1347    30.3438    23.8371   -32.1916     0.1830
 2641.5000     9.9629     2.4094     0.0634   -28.5513   -26.7256    60.0114    18.5614    30.9133    24.5110   -32.2413     0.1810
 2642.0000     9.9628     2.4648     0.0392   -28.5513   -27.1283    59.6096    27.6586    31.4935    24.0616   -32.2910     0.1781
 2642.5000     9.9828     2.5272     0.0392   -28.5513   -27.7331    59.6122    33.6081    31.7884    22.1356   -32.3308     0.1777
 2643.0000     9.9828     2.5342     0.0754   -28.5513   -27.9336    60.8279    30.0691    31.4964    19.9895   -42.4710     0.1793
 2643.5000     9.9827     2.5131     0.1076   -38.6117   -27.9319    62.4491    21.1387    30.9181    18.2197   -42.5207     0.1870
 2644.0000     9.9626     2.4799     0.1096   -28.5513   -27.9315    64.0683    17.0789    28.6080    17.3949   -42.5804     0.2237
 2644.5000     9.9625     2.4135     0.0593    -8.4306   -27.1210    66.4973    15.4232    26.4705    17.2351   -22.4689     0.2391
 2645.0000     9.9825     2.4004     0.0332   -28.5513   -27.1179    66.5005    15.0006    24.0731    17.0768   -32.5992     0.2411
 2645.5000     9.9222     2.3944     0.0131   -38.6117   -26.5096    65.6943    14.7256    22.5609    16.9199   -42.7295     0.2342
 2646.0000     9.9623     2.3974     0.0110   -38.6117   -26.1034    65.6970    15.5690    21.7403    16.7644   -52.8598     0.2136
 2646.5000     9.9823     2.4024     0.0110   -28.5513   -25.8995    60.8466    17.2420    21.3415    16.4571   -52.8996     0.1975
 2647.0000     9.9622     2.4105     0.0131   -18.4909   -25.6955    59.6360    18.0612    21.6152    16.1554   -42.8786     0.1886
 2647.5000     9.9621     2.4074     0.0276   -18.4909   -25.6938    61.2562    17.0844    21.7432    15.8592   -32.8478     0.1931
 2648.0000     9.9420     2.3984     0.0312   -18.4909   -25.4899    61.6628    15.7170    21.9468    15.5684   -22.8169     0.1999
 2648.5000     9.9420     2.3762     0.0392   -28.5513   -25.2873    63.1540    15.1453    21.9478    15.4254   -32.9472     0.2060
 2649.0000     9.9620     2.3692     0.0312   -38.6117   -26.9019    64.0951    14.7303    21.7462    15.5698   -43.0775     0.2104
 2649.5000     9.9619     2.3722     0.0292   -28.5513   -27.5068    66.1200    14.8683    21.7472    15.5705   -22.9660     0.2144
 2650.0000     9.9618     2.3773     0.0292   -28.5513   -28.5162    68.1448    14.8690    22.9930    15.7163   -23.0157     0.2237
 2650.5000     9.9818     2.4004     0.0251     1.5091   -29.7275    75.0231    15.0082    23.4241    16.4631   -12.9848     0.2205
 2651.0000     9.9818     2.4155     0.0211   -18.6117   -30.1303    77.8570    15.1487    24.5839    17.8973   -33.1957     0.2144
 2651.5000     9.9817     2.4366     0.0244   -28.6720   -30.1286    76.2425    16.6218    25.2309    19.0987   -43.3360     0.2088
 2652.0000     9.9817     2.4527     0.0271   -38.7324   -30.1269    74.6274    22.1597    24.9996    18.2341   -33.3051     0.2039
 2652.5000     9.9615     2.4849     0.0231   -38.7324   -29.7221    73.4168    25.9452    25.0003    16.4666   -43.4354     0.1963
 2653.0000     9.9615     2.4809     0.0191   -38.7324   -28.9101    74.2285    25.0014    24.3154    16.0152   -33.4045     0.1971
 2653.5000     9.9815     2.4366     0.0231   -38.7324   -27.6949    73.8267    19.2843    23.8696    15.1489   -33.4542     0.2080
 2654.0000     9.9413     2.4145     0.0272   -28.6720   -27.0865    72.6160    15.5806    22.7890    14.5979   -23.4134     0.2221
 2654.5000     9.9613     2.3843     0.0392   -28.6720   -26.0736    69.3829    13.5577    21.5565    14.0669   -33.5536     0.2265
 2655.0000     9.9612     2.3692     0.0573   -18.6117   -25.2629    67.3631    13.4332    19.6481    13.5549   -23.5228     0.2286
 2655.5000     9.9812     2.3632     0.0553   -18.6117   -24.8567    66.1523    13.4337    18.9334    12.9415   -23.5725     0.2277
 2656.0000     9.9611     2.3632     0.0553    -8.5513   -24.6527    65.3460    13.5595    18.7595    12.5870   -23.6222     0.2237
 2656.5000     9.9811     2.3702     0.0594    -8.5513   -24.4494    64.5396    13.6865    19.4694    12.2421   -13.5913     0.2205
 2657.0000    10.0011     2.3762     0.0694    -8.5513   -24.2778    64.5423    14.0733    20.3944    12.7054   -23.7216     0.2209
 2657.5000     9.9408     2.3823     0.0581    -8.5513   -24.6471    64.9494    14.0739    22.3776    13.0645   -33.8519     0.2144
 2658.0000     9.9609     2.3853     0.0473   -18.4909   -24.8476    65.3566    14.0746    25.2462    14.2025   -23.8210     0.2112
 2658.5000     9.9809     2.3883     0.0412     1.6298   -25.6559    64.9547    14.3387    28.7479    16.4753   -13.8001     0.2156
 2659.0000    10.0080     2.3964     0.0497     1.6298   -26.0576    64.9573    16.1770    30.1138    17.5814    -3.7692     0.2208
