~VERSION INFORMATION
 VERS.                2.0:   CWLS LOG ASCII STANDARD - VERSION 2.0
 WRAP.                 NO:   ONE LINE PER DEPTH STEP
~WELL INFORMATION
#MNEM.UNIT      DATA TYPE    INFORMATION
#----------   ------------   ------------------------------
 STRT.F            0.0000:   START DEPTH
 STOP.F          640.0000:   STOP DEPTH
 STEP.F            0.5000:   STEP LENGTH
 NULL.          -999.2500:   NO VALUE
 COMP.       FLUOR DANIEL:   COMPANY
 WELL.  FLUOR " X" #45-27:   WELL
 FLD .                NPR:   FIELD
 LOC .      S27 T39N R78W:   LOCATION
 CNTY.            NATRONA:   COUNTY
 STAT.            WYOMING:   STATE
 CTRY. UNITED STATES OF AMERICA:   COUNTRY
 SRVC.      WESTERN ATLAS:   SERVICE COMPANY
 DATE.        11-MAY-1996:   LOGDATE
 API .     49025227900000:   API NUMBER
~CURVE INFORMATION
#MNEM.UNIT       API CODE    CURVE DESCRIPTION
#----------   ------------   ------------------------------
 DEPT.F                  :   
 GRR .GAPI   07 310 01 00:   GAMMA RAY FROM RESISTIVITY
 RILD.OHMM   07 120 46 00:   INDUCTION LOG DEEP RESISTIVITY
 RILM.OHMM   07 120 44 00:   INDUCTION LOG MEDIUM RESISTIVITY
 TENR.LBS    07 635 01 00:   TENSION
~PARAMETER INFORMATION
#MNEM.UNIT          VALUE    DESCRIPTION
#----------   ------------   ------------------------------
 EKB .F         5058.0000:   Kelly bushing
 EGL .F         5048.0000:   Ground level
 EDF .F         5057.0000:   Drilling floor
 EPD .F         5048.0000:   Permanent datum
 TD  .F          632.0000:   Total depth
 DATE.        11-MAY-1996:   Date logged
 CLNT.            A2DTECH:   Client Code
 SL  . 2250' FSL & 2122' FWL:   Surface Location
 PD  .                 GL:   Permanent Datum
 LMF .                 KB:   Log Measured From
 DMF .                 KB:   Drilling Measured From
 DAPD.F                10:   Feet Above Permanent Datum
 DD  .F               632:   Depth driller
 DL  .F               631:   Depth logger
 BLI .F               620:   Bottom log interval
 CS1 .IN            9.625:   Casing size
 CBD1.       9.625" @ 53':   Casing driller 1
 CBL1.F                53:   Casing logger 1
 BS1 .IN             8.75:   Bit size
 BSD1.F               632:   Depth drilled with bit1
 DFT .                AIR:   Type fluid in hole
 LUN .            HL 6532:   Logging unit number
 LUL .             CASPER:   Logging unit location
 ORIG.         2.5" PRINT:   Origin of data
 UWI .     49025227900000:   Unique Well ID
 DICO. A2D TECHNOLOGIES, INC.:   Digitizing Company
 TLI .                620:   Top log interval
~OTHER INFORMATION
~A    DEPT      GRR      RILD       RILM       TENR   
# ...
  292.0000   108.4230     8.0400     8.7200   -40.4190
  292.5000   107.7360     8.0220     8.6970   -40.4190
  293.0000   104.3500     8.0040     8.6730   -40.4190
  293.5000   102.8980     7.9850     8.6500   -40.4190
  294.0000   106.1880     7.9670     8.6270   -40.4190
  294.5000   108.6740     7.9490     8.6050   -40.4190
  295.0000   109.4340     7.9310     8.5820   -40.4190
  295.5000   108.0920     7.9130     8.5590   -40.4190
  296.0000   105.5770     7.8950     8.5360   -40.4190
  296.5000   105.0470     7.8770     8.5130   -40.4190
  297.0000   107.5620     7.8570     8.4900   -40.4190
  297.5000   109.8040     7.8350     8.4670   -40.4190
  298.0000   111.3390     7.8780     8.4450   -40.4190
  298.5000   111.9180     7.9690     8.4300   -40.4190
  299.0000   112.2540     8.0610     8.4300   -40.4190
  299.5000   110.0480     8.1510     8.5730   -40.4190
  300.0000   106.8440     8.2420     8.7600   -40.4190
  300.5000   105.5660     8.3330     8.9470   -40.4190
  301.0000   106.9940     8.4240     9.1340   -40.4190
  301.5000   107.9140     8.5140     9.3210   -40.4190
  302.0000   105.7350     8.5850     9.5080   -40.4190
  302.5000   105.0700     8.8650     9.6940   -40.4190
  303.0000   104.9350     9.0950     9.8810   -40.4190
  303.5000   104.8480     9.3250    10.0680   -40.4190
  304.0000   104.5590     9.5550    10.2550   -40.4190
  304.5000   104.6380     9.7850    10.4420   -40.4190
  305.0000   103.1290    10.0150    10.7200   -40.4190
  305.5000   101.7800    10.2450    11.0490   -40.4190
  306.0000   101.6490    10.5100    11.3780   -40.4190
  306.5000   101.4280    10.6520    11.7080   -40.4190
  307.0000   100.8940    10.8200    11.9960   -40.4190
  307.5000   100.4690    10.9870    12.1660   -40.4190
  308.0000    97.5720    11.1550    12.3370   -40.4190
  308.5000    95.1280    11.3120    12.5070   -40.4190
  309.0000    93.7000    11.3120    12.5910   -40.4190
  309.5000    93.3700    11.3120    12.4440   -40.4190
  310.0000    95.8140    11.1790    12.2960   -40.4190
  310.5000    98.5730    11.0550    12.1490   -40.4190
  311.0000    97.5230    10.9320    12.0020   -40.4190
  311.5000    97.1640    10.8080    11.8550   -40.4190
  312.0000   100.3570    10.6850    11.7070   -40.4190
  312.5000   101.1310    10.5610    11.5600   -40.4190
  313.0000   100.2130    10.4370    11.4130   -40.4190
  313.5000    97.3560    10.3140    11.2660   -40.4190
  314.0000    94.9120    10.1900    11.1060   -40.4190
  314.5000    95.8930    10.1300    11.1940   -40.4190
  315.0000    97.0000    10.1830    11.3610   -40.4190
  315.5000    96.1450    10.2310    11.5160   -40.4190
  316.0000    95.7280    10.2790    11.6700   -40.4190
  316.5000    96.8310    10.3260    11.8250   -40.4190
  317.0000    98.0020    10.3740    11.9800   -40.4190
  317.5000    97.0750    10.4210    12.1350   -40.4190
  318.0000    94.1040    10.4690    12.1750   -40.4190
  318.5000    91.0570    10.5100    11.9430   -40.4190
  319.0000    91.6110    10.4400    11.6980   -40.4190
  319.5000    92.7030    10.2410    11.4530   -40.4190
  320.0000    92.8580    10.0420    11.2070   -40.4190
  320.5000    91.9780     9.8430    10.9620   -40.4190
  321.0000    91.1830     9.6440    10.7170   -40.4190
  321.5000    90.8790     9.4440    10.4720   -40.4190
  322.0000    91.5670     9.2410    10.2970   -40.4190
  322.5000    91.9950     9.1850    10.2420   -40.4190
  323.0000    93.6420     9.1290    10.1860   -40.4190
  323.5000    96.2700     9.0720    10.1310   -40.4190
  324.0000    97.0010     9.0160    10.0750   -40.4190
  324.5000    97.7310     8.9590    10.0190   -40.4190
  325.0000    98.3170     8.9030     9.9640   -40.4190
  325.5000    99.8600     8.8460     9.9080   -40.4190
  326.0000   102.0730     8.7890     9.8530   -40.4190
  326.5000   100.7640     8.7450     9.7970   -40.4190
  327.0000    97.6650     8.7450     9.6960   -40.4190
  327.5000    94.5810     8.7450     9.5320   -40.4190
  328.0000    92.4160     8.7450     9.3680   -40.4190
  328.5000    92.5840     8.7450     9.2570   -40.4190
  329.0000    92.7210     8.7450     9.3290   -40.4190
  329.5000    92.8770     8.7450     9.4020   -40.4190
  330.0000    93.1460     8.7750     9.4740   -40.4190
  330.5000    92.2970     8.8430     9.5470   -40.4190
  331.0000    90.0050     8.9120     9.7650   -40.4190
  331.5000    89.3510     8.9800     9.7650   -40.4190
  332.0000    90.9460     9.0720     9.6710   -40.4190
  332.5000    94.4460     8.9110     9.5620   -40.4190
  333.0000    96.4520     8.6640     9.4520   -40.4190
  333.5000    95.6860     8.4180     9.3420   -40.4190
  334.0000    95.7980     8.1720     9.2410   -40.4190
  334.5000    96.5320     7.9260     8.8230   -40.4190
  335.0000    98.3330     7.6800     8.4340   -40.4190
  335.5000   100.2310     7.4340     8.0440   -40.4190
  336.0000   101.2660     7.1880     7.6890   -40.4190
  336.5000   101.1250     7.0140     7.8610   -40.4190
  337.0000    98.9720     7.0140     7.9040   -40.4190
  337.5000    96.0230     7.0440     7.9470   -40.4190
  338.0000    93.3520     7.0880     7.9900   -40.4190
  338.5000    93.4710     7.1320     8.0330   -40.4190
  339.0000    93.6440     7.1760     8.0750   -40.4190
  339.5000    94.9840     7.2200     8.1180   -40.4190
  340.0000    98.7360     7.2640     8.1610   -40.4190
  340.5000   100.8870     7.3140     8.2040   -40.4190
  341.0000   102.3660     7.3650     8.2470   -40.4190
  341.5000    99.8550     7.4170     8.2760   -40.4190
  342.0000    97.4520     7.4690     8.3370   -40.4190
  342.5000    97.4420     7.5200     8.4020   -40.4190
  343.0000    98.3120     7.5720     8.4670   -40.4190
  343.5000    98.4190     7.6240     8.5330   -40.4190
  344.0000    97.2000     7.6760     8.5980   -40.4190
  344.5000    97.0040     7.7270     8.6640   -40.4190
  345.0000    96.7800     7.7790     8.7290   -40.4190
  345.5000    96.6360     7.8310     8.7930   -40.4190
  346.0000    96.3980     7.8820     8.8560   -40.4190
  346.5000    96.4460     7.9340     8.9190   -40.4190
  347.0000    97.3950     7.9760     8.9830   -40.4190
  347.5000    99.9530     7.9760     9.0460   -40.4190
  348.0000   102.4140     7.9680     9.0720   -40.4190
  348.5000   103.2080     7.9530     8.9920   -40.4190
  349.0000   102.5600     7.9380     8.9240   -40.4190
  349.5000   102.4840     7.9240     8.8560   -40.4190
  350.0000   102.3850     7.9090     8.7880   -40.4190
  350.5000   101.9900     7.8940     8.7200   -40.4190
  351.0000   103.3200     7.8790     8.6520   -40.4190
  351.5000   104.7070     7.8650     8.5850   -40.4190
  352.0000   105.9430     7.8500     8.5720   -40.4190
  352.5000   107.2310     7.8350     8.5590   -40.4190
  353.0000   107.6510     7.8200     8.5460   -40.4190
  353.5000   106.6900     7.8050     8.5330   -40.4190
  354.0000   104.2660     7.7910     8.5190   -40.4190
  354.5000   101.9230     7.7760     8.5060   -40.4190
  355.0000   101.2660     7.7610     8.4930   -40.4190
  355.5000   102.6980     7.7460     8.4800   -40.4190
  356.0000   104.6910     7.7310     8.4670   -40.4190
  356.5000   103.8230     7.7160     8.4550   -40.4190
  357.0000   101.9140     7.7020     8.4400   -40.4190
  357.5000   101.3450     7.6890     8.4290   -40.4190
  358.0000   102.1250     7.6890     8.3720   -40.4190
  358.5000   104.0060     7.6890     8.3210   -40.4190
  359.0000   106.0910     7.6610     8.2700   -40.4190
  359.5000   106.8290     7.5800     8.2190   -40.4190
  360.0000   103.8290     7.5000     8.1670   -40.4190
  360.5000   101.4060     7.4190     8.1250   -40.4190
  361.0000   101.9310     7.3380     7.9820   -40.4190
  361.5000   102.4410     7.2570     7.8600   -40.4190
  362.0000   103.0260     7.1760     7.7380   -40.4190
  362.5000   103.4900     7.1440     7.5570   -40.4190
  363.0000   102.5510     6.9090     7.3370   -40.4190
  363.5000   101.3890     6.7130     7.1160   -40.4190
  364.0000   102.0760     6.5170     6.8950   -40.4190
  364.5000   103.3520     6.3200     6.6370   -40.4190
