~VERSION INFORMATION
 VERS.                2.0:   CWLS LOG ASCII STANDARD - VERSION 2.0
 WRAP.                 NO:   ONE LINE PER DEPTH STEP
~WELL INFORMATION
#MNEM.UNIT      DATA TYPE    INFORMATION
#----------   ------------   ------------------------------
 STRT.F            5.0000:   START DEPTH
 STOP.F         5604.0000:   STOP DEPTH
 STEP.F            0.5000:   STEP LENGTH
 NULL.          -999.2500:   NO VALUE
 COMP.   LAWRENCE ALLISON:   COMPANY
 WELL. LAWRENCE 62 TPX #10-10:   WELL
 FLD .           NPR NO 3:   FIELD
 LOC .      S10 T38N R78W:   LOCATION
 CNTY.            NATRONA:   COUNTY
 STAT.            WYOMING:   STATE
 CTRY. UNITED STATES OF AMERICA:   COUNTRY
 SRVC.      DRESSER ATLAS:   SERVICE COMPANY
 DATE.        08-NOV-1985:   LOGDATE
 API .     49025110490000:   API NUMBER
~CURVE INFORMATION
#MNEM.UNIT       API CODE    CURVE DESCRIPTION
#----------   ------------   ------------------------------
 DEPT.F                  :   
 TEND.LBS    45 635 01 00:   TENSION FORM DENSITY LOG
 CNC .DEC    42 890 03 00:   NEUTRON POROSITY SANDSTONE
 CORR.G/C3   45 356 01 00:   DENSITY CORRECTION
 RHOB.G/C3   45 350 01 00:   BULK DENSITY
 TENR.LBS    11 635 01 00:   TENSION FROM RESISTIVITY
 GRR .GAPI   11 310 01 00:   GAMMA RAY FROM RESISTIVITY
 SPR .MV     11 010 01 00:   SPONTANEOUS POTENTIAL FROM RES.
 CALR.IN     11 280 01 00:   CALIPER FROM RESISTIVITY
 RD  .OHMM   11 220 10 00:   RESISTIVITY DEEP
 RS  .OHMM   11 220 09 00:   RESISTIVITY SHALLOW
 RMLL.OHMM   11 270 04 00:   MICRO LATEROLOG
 TENS.LBS    60 635 01 00:   TENSION FROM SONIC
 DT  .US/F   60 520 00 00:   DELTA TIME
~PARAMETER INFORMATION
#MNEM.UNIT          VALUE    DESCRIPTION
#----------   ------------   ------------------------------
 EKB .F         5167.0000:   Kelly bushing
 EGL .F         5155.0000:   Ground level
 EDF .F            0.0000:   Drilling floor
 TD  .F         5600.0000:   Total depth
 CLNT.            A2DTECH:   Client Code
 PD  .                 GL:   Permanent Datum
 EPD .F              5155:   Elevation Permanent Datum
 LMF .                 KB:   Log Measured From
 DMF .                 KB:   Drilling Measured From
 DAPD.F                12:   Feet Above Permanent Datum
 DATE.        08-NOV-1985:   Date Logged [DD-MMM-YYYY]
 DD  .F              5600:   Depth driller
 DL  .F              5600:   Depth logger
 BLI .F              5597:   Bottom log interval
 TLI .F               467:   Top log interval
 CS1 .IN            9.625:   Casing size
 CBD1.      9.625" @ 467':   Casing driller 1
 CBL1.F               465:   Casing logger 1
 BS1 .IN             8.75:   Bit size
 BSD1.F              5600:   Depth drilled with bit1
 DFT .        KCL POLYMER:   Type fluid in hole
 DFD .                9.2:   Density
 DFV .                 38:   Viscosity
 DFPH.                8.5:   pH
 DFL .                8.6:   Fluid loss
 MSS .           FLOWLINE:   Source of sample
 RMS .OHMM           0.28:   Rm
 MST .F                75:   Rm Meas. temp.
 RMF .OHMM           0.21:   Rmf
 MFST.F                75:   Rmf Meas. temp.
 MFSS.               CALC:   Source Rmf.
 RMC .OHMM           0.35:   Rmc
 MCST.F                75:   Rmc Meas. temp.
 MCSS.               CALC:   Source Rmc.
 RMB .OHMM           0.13:   Rm. at BHT
 BHT .F               168:   BHT.
 TCS .HRS               7:   Time Circ. stopped
 MRT .F               168:   Maximum recorded temp.
 LUN .               6274:   Logging unit number
 LUL .               GLTE:   Logging unit location
 ENGI.               MACK:   Recorded By
 WITN.             STRONG:   Witnessed by
 ORIG.      2.5" 5" PRINT:   Origin of data
 UWI .     49025110490000:   Unique Well ID
 DICO. A2D TECHNOLOGIES, INC.:   Digitizing Company
~OTHER INFORMATION
~A  DEPTH     TEND        CNC       CORR       RHOB       TENR        GRR        SPR       CALR         RD         RS       RMLL       TENS         DT
# ...
 3879.0000   -10.6561     0.2889     0.0828     2.4717   -34.8151   116.5595   -74.2308    10.8430     3.3402     2.5437     3.3275   -36.0754    89.1045
 3879.5000   -10.4414     0.2905     0.1099     2.4733   -43.3648   112.1165   -74.0601    10.8900     3.2521     2.5101     3.2200   -36.0018    90.0819
 3880.0000   -24.8466     0.2883     0.0877     2.4821   -51.9140   106.4759   -73.8894    10.9220     3.1872     2.4946     3.1018   -58.3832    90.6837
 3880.5000   -10.0122     0.2780     0.0748     2.4940   -60.4631   101.4340   -73.5690    10.9539     3.3725     2.5673     2.7312   -65.7946    90.6093
 3881.0000    -9.7954     0.2706     0.0807     2.5003   -53.8837    99.9850   -73.3984    10.9709     3.4944     2.6600     3.0442   -42.2665    89.7836
 3881.5000   -24.2027     0.2655     0.0943     2.5092   -47.0585    98.8354   -73.5271    10.9578     3.6207     2.7752     3.3983   -20.7188    88.7290
 3882.0000    -9.3567     0.2763     0.0966     2.5176   -32.9148    98.2726   -73.8108    10.9297     3.7257     2.8754     3.4668   -13.1601    87.8937
 3882.5000    -9.1374     0.2840     0.0690     2.5173   -26.3354    95.9373   -73.9395    10.8866     3.8603     2.9381     3.4971   -13.0865    87.5952
 3883.0000    -8.9182     0.2858     0.0398     2.5116   -27.5666    90.8955   -74.2127    10.8285     3.9999     3.0022     3.7117   -20.5163    87.8334
 3883.5000   -12.1569     0.2893     0.0193     2.4997   -36.1163    89.7339   -74.3466    10.8004     4.0873     3.0465     4.0618   -35.4128    87.6838
 3884.0000   -27.1994     0.2987     0.0310     2.4954   -52.2297    91.5903   -74.3204    10.7874     4.0907     3.0701     4.1669   -50.2908    87.3089
 3884.5000   -37.5347     0.3190     0.0486     2.4932   -60.7789    92.5365   -74.2994    10.8047     4.1226     3.0724     3.8589   -42.7321    87.0841
 3885.0000   -37.2807     0.3205     0.0574     2.4888   -53.9532    92.2731   -73.8294    10.8519     4.2421     3.0962     3.6314   -20.2035    87.0097
 3885.5000   -31.0732     0.3112     0.0633     2.4881   -47.3742    91.7222   -73.8084    10.8990     4.3955     3.3212     3.7471   -27.6333    87.0855
 3886.0000    -7.6023     0.2622     0.0545     2.4881   -56.1698    91.4175   -73.7874    10.9311     4.6180     3.6125     4.1641   -64.9664    86.7108
 3886.5000    -7.3830     0.2581     0.0307     2.4895   -57.1547    90.5691   -73.9214    10.9323     4.8855     3.9292     4.6889   -64.8927    84.8837
 3887.0000   -66.8106     0.2605    -0.0016     2.4910   -65.7038    89.4710   -74.1998    10.9031     5.0621     4.0711     5.0205   -64.8192    83.7306
 3887.5000  -134.8721     0.2634    -0.0099     2.4925   -58.8786    89.5210   -74.1736    10.8316     5.0302     4.1599     4.9872   -49.7755    82.0550
 3888.0000  -211.3634     0.2627     0.0068     2.4940   -44.7349    89.5670   -74.1526    10.7745     4.9661     3.8304     4.9546   -19.2555    81.5298
 3888.5000  -167.2891     0.2581     0.0324     2.4998   -45.9661    88.6730   -74.1316    10.7773     4.8679     3.6012     4.8235   -28.1657    81.9813
 3889.0000   -64.7353     0.2493     0.0304     2.5013   -62.0796    87.5671   -74.1107    10.7802     4.7386     3.5290     4.7285   -71.9913    82.5831
 3889.5000    67.0582     0.2429     0.0205     2.5028   -63.0645    88.0407   -74.2446    10.7980     4.8760     3.4830     4.6354   -56.9476    82.9595
 3890.0000   228.0916     0.2520     0.0085     2.4999   -56.2392    91.9753   -74.0687    10.8159     5.0522     3.4863     4.5148   -26.9338    83.4110
 3890.5000   140.5870     0.2658    -0.0017     2.4954   -42.0955    95.5350   -74.0477    10.8187     4.9868     3.4890     4.5821   -26.8602    83.7123
 3891.0000    23.8426     0.2610    -0.0098     2.4958   -35.5161    96.1437   -73.7274    10.8059     4.8881     3.4916     4.8143   -34.2900    83.6377
 3891.5000   -34.4223     0.2549    -0.0038     2.5062   -44.3116    94.9602   -73.5567    10.7938     4.6928     3.5186     4.6814   -71.6231    83.8641
 3892.0000   -34.2077     0.2586     0.0189     2.5087   -45.2970    91.9532   -73.3860    10.7762     4.6000     3.5458     4.4998   -56.5795    84.3907
 3892.5000   -33.9912     0.2605     0.0342     2.5058   -38.4712    89.3417   -73.2153    10.7659     4.6681     3.6232     4.6002   -34.0508    84.9174
 3893.0000   -33.7719     0.2480     0.0342     2.4986   -39.7025    89.4771   -73.1944    10.7424     4.8034     3.7801     4.8015   -26.4921    84.7678
 3893.5000   -33.5527     0.2381     0.0284     2.4901   -33.1231    90.0958   -73.0237    10.7459     4.9426     3.9990     5.1135   -41.3885    83.5456
 3894.0000   -18.7134     0.2284     0.0167     2.4882   -34.1079    90.4670   -73.0027    10.7331     5.0859     4.0299     5.3369   -63.7700    82.3333
 3894.5000   -18.4941     0.2310    -0.0009     2.4967   -42.4113    91.4108   -73.2864    10.7367     5.0901     4.0051     5.5671   -48.7263    81.1639
 3895.0000   -18.2749     0.2452     0.0050     2.5087   -35.8319    93.2931   -73.5595    10.7245     5.0231     3.8984     5.5707   -26.1976    80.8640
 3895.5000   -18.0556     0.2438     0.0343     2.5216   -37.0631    98.1596   -73.9877    10.7274     4.9926     3.7423     5.4978   -26.1228    81.5411
 3896.0000   -22.5198     0.2379     0.0401     2.5381   -30.2378   105.4787   -74.4211    10.7302     4.8274     3.6174     5.3885   -49.4980    82.3682
 3896.5000   -32.2758     0.2333     0.0372     2.5425   -46.5976   118.0262   -74.6995    10.7174     4.6658     3.5944     5.2107   -70.8685    83.2706
 3897.0000   -17.3977     0.2291     0.0285     2.5454   -62.7111   132.4874   -74.9779    10.7053     4.8355     3.6991     5.0029   -63.3099    84.4734
 3897.5000   -10.6046     0.2264     0.0255     2.5469   -56.1317   152.5444   -75.2511    10.7088     5.0102     3.8862     5.1861   -25.8111    84.9249
 3898.0000    -2.3392     0.2246     0.0253     2.5484   -49.3060   162.6978   -75.3798    10.6960     5.1913     4.0828     5.6031   -40.7075    83.4230
 3898.5000   -16.7397     0.2262     0.0192     2.5484   -50.5377   156.3789   -75.2091    10.7145     5.5303     4.2894     5.9670   -63.1074    81.6206
 3899.0000   -24.9977     0.2387     0.0072     2.5469   -59.0869   140.8895   -74.8888    10.7174     5.5734     4.2629     5.8083   -85.4705    80.2690
 3899.5000   -30.9211     0.2411     0.0000     2.5264   -67.6361   130.1653   -74.7181    10.7352     5.2770     4.1486     5.3494   -92.9003    79.5184
 3900.0000   -50.1948     0.2387     0.0118     2.4721   -53.4923   114.3713   -74.5474    10.7531     4.9963     3.9745     4.0575   -32.9280    80.0451
 3900.5000   -85.2534     0.2381     0.0764     2.4295   -46.6671   105.7366   -74.4210    10.7859     4.7651     3.8157     2.0731   -32.8544    81.0387
 3901.0000  -104.1424     0.2399     0.0734     2.4282   -33.0843    99.2091   -74.2092    10.7888     4.4197     3.6379     1.6056   -47.7508    82.2617
 3901.5000   -50.6799     0.2435     0.0499     2.4406   -34.3093    98.9483   -74.1880    10.8366     4.3622     3.6151     2.0775   -62.6473    83.5011
 3902.0000   -28.0702     0.2476     0.0528     2.4977   -58.2266    98.4139   -74.1668    10.8636     4.3974     3.7200     3.0305   -24.9897    85.0789
 3902.5000   -56.5266     0.2470     0.0998     2.5319   -59.4511    97.8537   -74.1456    10.9023     4.4992     3.7231     4.3322     5.0331    85.6048
 3903.0000   -55.8863     0.2505     0.1791     2.5616   -30.1127    97.6058   -73.8251    10.9215     4.6295     3.7004     4.9316   -32.2542    84.7623
 3903.5000   -55.2459     0.2788     0.2354     2.5525   -31.6433    96.4597   -73.6542    10.9680     4.7939     3.6525     4.7839   -62.0841    84.2253
 3904.0000   -69.2983     0.2670     0.3012     2.4895   -63.1250    98.0211   -73.4833    11.0009     4.2927     3.6042     4.3792   -91.9139    84.0270
 3904.5000   -53.9656     0.2564     0.3297     2.4354   -49.2208   105.2582   -73.4622    11.0337     4.0955     3.5585     3.9285   -46.8936    84.7032
