~VERSION INFORMATION
 VERS.                2.0:   CWLS LOG ASCII STANDARD - VERSION 2.0
 WRAP.                 NO:   ONE LINE PER DEPTH STEP
~WELL INFORMATION
#MNEM.UNIT      DATA TYPE    INFORMATION
#----------   ------------   ------------------------------
 STRT.F           36.0000:   START DEPTH
 STOP.F         4960.0000:   STOP DEPTH
 STEP.F            0.5000:   STEP LENGTH
 NULL.          -999.2500:   NO VALUE
 COMP.   TESORO PETROLEUM:   COMPANY
 WELL. TESORO NPR 3 "DX" #55-23:   WELL
 FLD .        TEAPOT DOME:   FIELD
 LOC .      S23 T38N R78W:   LOCATION
 CNTY.            NATRONA:   COUNTY
 STAT.            WYOMING:   STATE
 CTRY. UNITED STATES OF AMERICA:   COUNTRY
 SRVC.           BIRDWELL:   SERVICE COMPANY
 DATE.        17-AUG-1975:   LOGDATE
 API .     49025102510000:   API NUMBER
~CURVE INFORMATION
#MNEM.UNIT       API CODE    CURVE DESCRIPTION
#----------   ------------   ------------------------------
 DEPT.F                  :   
 TEND.LBS    45 635 01 00:   TENSION FROM DENSITY LOG
 CALD.IN     45 280 60 00:   CALIPER FROM DENSITY LOG
 CORR.G/C3   45 356 01 00:   DENSITY CORRECTION
 GRD .GAPI   45 310 01 00:   GAMMA RAY FROM DENSITY LOG
 RHOB.G/C3   45 350 01 00:   BULK DENSITY
 SPR .MV     07 010 01 00:   SPONTANEOUS POTENTIAL
 ILM .OHMM   07 120 44 00:   INDUCTION LOG MEDIUM RESISTIVITY
 ILD .OHMM   07 120 46 00:   DEEP INDUCTION RESISTIVITY
 SFL .OHMM   07 220 01 00:   SHALLOW FOCUSED LOG RESISTIVITY
~PARAMETER INFORMATION
#MNEM.UNIT          VALUE    DESCRIPTION
#----------   ------------   ------------------------------
 EKB .F         5371.0000:   Kelly bushing
 EGL .F         5360.0000:   Ground level
 EDF .F            0.0000:   Drilling floor
 TD  .F         4955.0000:   Total depth
 DATE.        17-AUG-1975:   Date logged
 CLNT.            A2DTECH:   Client Code
 SL  . 1980' FSL & 2030' FEL:   Surface Location
 PD  .                 GL:   Permanent Datum
 DD  .F              4955:   Depth driller
 DL  .F              4945:   Depth logger
 BLI .F              4943:   Bottom log interval
 CS1 .IN            8.625:   Casing size
 CBD1.     8.625" @ 1450':   Casing driller 1
 CBL1.F              1457:   Casing logger 1
 BS1 .IN            7.875:   Bit size
 DFT .            KCL/GEL:   Type fluid in hole
 DFD .                9.5:   Density
 DFV .                 53:   Viscosity
 DFPH.                8.5:   pH
 DFL .                7.4:   Fluid loss
 MSS .           FLOWLINE:   Source of sample
 RMS .OHMM            1.2:   Rm
 MST .F                72:   Rm Meas. temp.
 RMF .OHMM            .94:   Rmf
 MFST.F                74:   Rmf Meas. temp.
 MFSS.               MEAS:   Source Rmf.
 RMB .OHMM            .71:   Rm. at BHT
 BHT .F               121:   BHT.
 TCS .HRS               4:   Time Circ. stopped
 MRT .F               121:   Maximum recorded temp.
 LUN .               6078:   Logging unit number
 LUL .              GLTTE:   Logging unit location
 ENGI.      NORDEN/SUTTON:   Recorded By
 WITN.          UNDERWOOD:   Witnessed by
 ORIG.           5" PRINT:   Origin of data
 UWI .     49025102510000:   Unique Well ID
 DICO. A2D TECHNOLOGIES, INC.:   Digitizing Company
 DAPD.F                11:   Feet Above Permanent Datum
 BSD1.F              5360:   Depth drilled with bit1
 EPD .F              5360:   Elevation Permanent Datum
 LMF .                 KB:   Log Measured From
 DMF .                 KB:   Drilling Measured From
 TLI .F              1457:   Top log interval
~OTHER INFORMATION
~A   DEPT     TEND       CALD       CORR        GRD       RHOB        SPR        ILM        ILD          SFL 
# ...
 3868.5000  2804.2661     8.4040     0.0440    51.1930     2.3950   -34.2700     4.4540     5.1990     7.2020
 3869.0000  2796.9370     8.3970     0.0290    46.3640     2.5770   -34.4390     4.8980     5.6120     7.3310
 3869.5000  2789.6079     8.3900     0.0140    44.1000     2.5720   -34.6100     5.4190     5.9920     7.4720
 3870.0000  2782.2791     8.3840     0.0130    43.5800     2.5700   -34.7570     6.1450     6.6640     7.5410
 3870.5000  2775.5510     8.3770     0.0170    43.8200     2.5660   -34.4950     6.8720     7.3360     7.5980
 3871.0000  2778.6350     8.3710     0.0210    45.0160     2.5630   -34.1980     7.1360     7.5410     7.6780
 3871.5000  2781.4851     8.3640     0.0240    46.2040     2.5630   -33.9000     6.9840     7.4460     7.7580
 3872.0000  2784.3350     8.3570     0.0260    47.3920     2.5660   -33.6060     6.8220     7.2760     7.8240
 3872.5000  2787.1851     8.3510     0.0320    48.5800     2.5700   -33.3590     6.6610     7.1070     7.4850
 3873.0000  2790.0359     8.3440     0.0380    49.7680     2.5750   -33.3660     6.4990     6.9380     7.1390
 3873.5000  2792.8860     8.3370     0.0440    50.9560     2.5780   -33.3670     6.3370     6.7680     6.9110
 3874.0000  2795.5911     8.3310     0.0460    52.1460     2.5760   -33.3670     6.1850     6.5990     6.7780
 3874.5000  2783.6121     8.3240     0.0420    53.3390     2.5720   -33.3670     6.0640     6.4490     6.6450
 3875.0000  2772.2109     8.3240     0.0440    54.0850     2.5680   -33.3670     5.9420     6.2270     6.5120
 3875.5000  2760.8110     8.3240     0.0480    54.5160     2.5640   -33.3670     5.7390     6.0210     6.3790
 3876.0000  2749.4099     8.3240     0.0520    55.6310     2.5630   -33.3680     5.4570     5.8150     6.2460
 3876.5000  2738.0090     8.3240     0.0550    56.8230     2.5500   -33.3620     5.2190     5.4870     6.0850
 3877.0000  2726.6089     8.3240     0.0480    58.0330     2.5280   -33.1580     4.9530     5.0590     5.8740
 3877.5000  2715.4309     8.3240     0.0400    59.4270     2.5080   -32.9410     4.2390     4.6310     5.6630
 3878.0000  2725.8921     8.3240     0.0390    61.5260     2.4880   -32.7620     3.6420     4.1580     5.4520
 3878.5000  2736.1521     8.3240     0.0460    63.5880     2.4630   -32.7280     3.3860     3.6570     5.0150
 3879.0000  2746.4131     8.3400     0.0540    65.6460     2.4380   -32.6870     3.1300     3.1550     4.5290
 3879.5000  2755.5110     8.3840     0.0610    67.7080     2.3840   -32.6460     2.8440     2.6250     4.0430
 3880.0000  2717.4351     8.4280     0.0670    69.8000     2.2990   -32.6060     2.9360     2.8000     3.5570
 3880.5000  2683.2329     8.4730     0.0430    70.2390     2.1790   -32.5620     3.1250     3.0330     3.0330
 3881.0000  2714.8301     8.5170     0.0160    67.5990     2.1480   -32.4970     3.3250     3.2670     3.2500
 3881.5000  2755.5110     8.5620    -0.0030    63.2750     2.1860   -32.4310     3.9470     3.5390     4.4700
 3882.0000  2755.5110     8.5160    -0.0060    58.7650     2.3670   -32.3660     4.6070     3.8880     6.5000
 3882.5000  2755.5110     8.4610     0.0000    54.2540     2.5640   -32.2980     5.2680     4.6310     7.3680
 3883.0000  2755.5110     8.4200     0.0030    54.4310     2.5630   -32.2290     5.5520     5.3510     7.0480
 3883.5000  2755.5110     8.4090     0.0020    54.2200     2.5620   -32.2080     5.8360     6.0140     6.7530
 3884.0000  2755.5110     8.3980     0.0000    53.5120     2.5610   -32.4480     6.0780     6.5090     6.8160
 3884.5000  2755.5110     8.3870    -0.0010    54.4270     2.5600   -32.5580     6.1990     6.5940     6.9140
 3885.0000  2755.5110     8.3760    -0.0030    55.6330     2.5580   -32.6610     6.3200     6.6740     7.0110
 3885.5000  2755.5110     8.3650    -0.0040    56.2210     2.5560   -32.7650     6.4410     6.7550     7.1080
 3886.0000  2755.5110     8.3540    -0.0040    56.6290     2.5560   -32.7640     6.5630     6.8350     7.2060
 3886.5000  2749.4131     8.3440    -0.0040    56.2860     2.5580   -32.7220     6.6840     6.9160     7.2690
 3887.0000  2742.0840     8.3330    -0.0030    55.8880     2.5590   -32.6800     6.8050     6.9960     7.2690
 3887.5000  2735.4709     8.3220    -0.0030    55.4930     2.5620   -32.6390     6.8890     7.0760     7.3560
 3888.0000  2692.1541     8.3110    -0.0010    55.3520     2.5660   -32.5970     6.9430     7.1570     7.5800
 3888.5000  2652.6899     8.3000     0.0010    55.7700     2.5690   -32.5560     7.0060     7.2160     7.8030
 3889.0000  2643.4580     8.2890     0.0030    56.1750     2.5660   -32.5140     6.9020     7.2730     7.9690
 3889.5000  2665.1299     8.2780     0.0050    55.8850     2.5610   -32.4730     6.7780     7.3290     7.9690
 3890.0000  2716.4331     8.2670     0.0080    55.3310     2.5560   -32.4320     6.6540     6.9420     7.6190
 3890.5000  2735.4709     8.2620     0.0100    54.7760     2.5610   -32.3910     6.5690     6.9900     7.2690
 3891.0000  2735.4709     8.2600     0.0120    54.2200     2.5670   -32.4170     6.8410     7.0850     7.2020
 3891.5000  2735.4709     8.2570     0.0140    53.6270     2.5730   -32.5040     7.0470     7.1800     7.7200
 3892.0000  2718.4741     8.2550     0.0170    52.4270     2.5790   -32.5910     7.4550     7.6110     8.1090
 3892.5000  2699.4729     8.2520     0.0190    51.1430     2.5800   -32.6780     8.0150     8.1450     8.6910
 3893.0000  2680.4719     8.2500     0.0210    49.8600     2.5780   -32.7650     8.3450     8.6780     9.3280
 3893.5000  2661.4709     8.2480     0.0240    49.2530     2.5760   -32.8520     8.4660     9.2330     9.9390
 3894.0000  2642.4700     8.2450     0.0270    49.5490     2.5780   -32.9420     8.5780     9.1680     9.5430
 3894.5000  2644.3740     8.2440     0.0290    50.5060     2.5760   -32.9450     8.5060     9.0210     9.1620
 3895.0000  2659.0320     8.2530     0.0320    49.9070     2.5690   -32.8540     8.4380     8.8750     8.8180
 3895.5000  2675.3511     8.2630     0.0350    51.4280     2.5670   -32.7640     8.3700     8.7290     8.7730
 3896.0000  2671.2151     8.2720     0.0370    53.2800     2.5710   -32.6750     8.3020     8.5830     8.6860
 3896.5000  2666.5510     8.2810     0.0390    53.2050     2.5740   -32.5850     8.2330     8.4360     8.5980
 3897.0000  2661.8870     8.2910     0.0370    52.4650     2.5720   -32.4950     8.1650     8.3420     8.5100
 3897.5000  2657.2241     8.3000     0.0350    53.2830     2.5700   -32.4050     8.0970     8.3290     8.4220
 3898.0000  2663.5630     8.2800     0.0320    53.8590     2.5670   -32.3840     8.0290     8.3160     8.4580
 3898.5000  2677.5549     8.2400     0.0350    52.8150     2.5560   -32.4040     7.9610     8.3030     8.5460
 3899.0000  2691.5471     8.2040     0.0410    52.1170     2.5530   -32.4250     7.8960     8.2900     8.6340
 3899.5000  2705.5381     8.2070     0.0470    52.0960     2.5570   -32.4450     7.9120     8.2770     8.7220
 3900.0000  2715.4309     8.2100     0.0520    52.0710     2.5630   -32.4660     7.9350     8.2680     8.8180
 3900.5000  2715.4309     8.2140     0.0570    51.3530     2.5570   -32.4870     7.9590     8.2900     8.6080
 3901.0000  2715.4309     8.2170     0.0540    50.6410     2.5460   -32.5080     7.9820     8.3150     8.5000
 3901.5000  2696.9270     8.2200     0.0540    49.9280     2.5350   -32.5290     8.0060     8.3390     8.5820
 3902.0000  2662.9260     8.2240     0.0640    49.2310     2.5250   -32.5500     8.0290     8.3640     8.7300
 3902.5000  2637.8091     8.2270     0.0730    49.3780     2.5280   -32.5670     8.0430     8.3880     8.8180
 3903.0000  2651.4089     8.2300     0.0820    49.5670     2.5300   -32.5100     7.8820     8.4220     8.6480
 3903.5000  2665.0100     8.2340     0.0870    49.7460     2.5270   -32.4490     7.7480     8.3600     8.5060
 3904.0000  2669.7090     8.2370     0.0870    50.3620     2.5260   -32.3890     7.6140     8.2190     8.3650
 3904.5000  2646.1689     8.2410     0.0920    51.0380     2.5020   -32.3300     7.4800     8.0790     8.2230
