~VERSION INFORMATION
 VERS.                2.0:   CWLS LOG ASCII STANDARD - VERSION 2.0
 WRAP.                 NO:   ONE LINE PER DEPTH STEP
~WELL INFORMATION
#MNEM.UNIT      DATA TYPE    INFORMATION
#----------   ------------   ------------------------------
 STRT.F           36.0000:   START DEPTH
 STOP.F         3014.5000:   STOP DEPTH
 STEP.F            0.5000:   STEP LENGTH
 NULL.          -999.2500:   NO VALUE
 COMP.    TESRO PETROLEUM:   COMPANY
 WELL. TESORO N.P.R. "A" #6-21:   WELL
 FLD .             TEAPOT:   FIELD
 LOC .      S21 T39N R78W:   LOCATION
 CNTY.            NATRONA:   COUNTY
 STAT.            WYOMING:   STATE
 CTRY. UNITED STATES OF AMERICA:   COUNTRY
 SRVC.              WELEX:   SERVICE COMPANY
 DATE.        16-JUL-1968:   LOGDATE
 API .     49025100180000:   API NUMBER
~CURVE INFORMATION
#MNEM.UNIT       API CODE    CURVE DESCRIPTION
#----------   ------------   ------------------------------
 DEPT.F                  :   
 SPR .MV     05 010 01 00:   SPONTANEOUS POTENTIAL FROM RES.
 ASN .OHMM   05 041 18 00:   AMPLIFIED SHORT NORMAL 18"
 IL  .OHMM   05 120 00 00:   INDUCTION LOG
 GRD .GAPI   45 310 01 00:   GAMMA RAY FROM DENSITY LOG
 CALD.IN     45 280 60 00:   CALIPER FROM DENSITY LOG
 GDEN.CPS    45 350 30 00:   GAMMA DENS
~PARAMETER INFORMATION
#MNEM.UNIT          VALUE    DESCRIPTION
#----------   ------------   ------------------------------
 EKB .F         5002.0000:   Kelly bushing
 EGL .F         4991.0000:   Ground level
 EDF .F         5001.0000:   Drilling floor
 TD  .F         3025.0000:   Total depth
 DATE.        16-JUL-1968:   Date logged
 CLNT.            A2DTECH:   Client Code
 PD  .                 GL:   Permanent Datum
 EPD .F              4991:   Elevation Permanent Datum
 LMF .                 KB:   Log Measured From
 DMF .                 KB:   Drilling Measured From
 DD  .F              3025:   Depth driller
 DL  .F              3019:   Depth logger
 BLI .F              3014:   Bottom log interval
 TLI .F              2670:   Top log interval
 CS1 .IN            10.75:   Casing size
 CBD1.      10.75" @ 325':   Casing driller 1
 CBL1.F               325:   Casing logger 1
 BS1 .IN                9:   Bit size
 BSD1.F              3025:   Depth drilled with bit1
 DFT .     WATER BASE MUD:   Type fluid in hole
 DFD .                9.7:   Density
 DFV .                 60:   Viscosity
 DFL .                6.4:   Fluid loss
 MSS .              CIRC.:   Source of sample
 RMS .OHMM            2.2:   Rm
 MST .F                84:   Rm Meas. temp.
 RMF .OHMM            1.6:   Rmf
 MFST.F                70:   Rmf Meas. temp.
 RMC .OHMM            3.3:   Rmc
 MCST.F                68:   Rmc Meas. temp.
 MFSS.               MEAS:   Source Rmf.
 RMB .OHMM           1.55:   Rm. at BHT
 BHT .F               120:   BHT.
 MRT .F               120:   Maximum recorded temp.
 LUN .               6869:   Logging unit number
 LUL .                 NC:   Logging unit location
 ENGI.          H. STEITZ:   Recorded By
 WITN.                MAY:   Witnessed by
 ORIG.           5" PRINT:   Origin of data
 UWI .     49025100180000:   Unique Well ID
 DICO. A2D TECHNOLOGIES, INC.:   Digitizing Company
~OTHER INFORMATION
~A   DEPT      SPR        ASN           IL      GRD       CALD       GDEN   
# ...
  504.0000   -42.3490    12.3980    11.7830  -999.2500  -999.2500  -999.2500
  504.5000   -42.0640    12.4920    11.6830  -999.2500  -999.2500  -999.2500
  505.0000   -41.9750    12.3750    11.5870  -999.2500  -999.2500  -999.2500
  505.5000   -41.9480    12.2600    11.4780  -999.2500  -999.2500  -999.2500
  506.0000   -42.2090    12.1440    11.3200  -999.2500  -999.2500  -999.2500
  506.5000   -42.4720    12.0290    11.1580  -999.2500  -999.2500  -999.2500
  507.0000   -42.7350    11.9140    10.9970  -999.2500  -999.2500  -999.2500
  507.5000   -42.9990    11.8090    10.8410  -999.2500  -999.2500  -999.2500
  508.0000   -43.2670    11.8830    10.7060  -999.2500  -999.2500  -999.2500
  508.5000   -43.0040    11.9610    10.7860  -999.2500  -999.2500  -999.2500
  509.0000   -42.6800    12.0750    11.1260  -999.2500  -999.2500  -999.2500
  509.5000   -42.7440    12.2290    11.4600  -999.2500  -999.2500  -999.2500
  510.0000   -43.6360    12.3810    11.7930  -999.2500  -999.2500  -999.2500
  510.5000   -43.4780    12.5340    12.1280  -999.2500  -999.2500  -999.2500
  511.0000   -43.2580    12.6870    12.2890  -999.2500  -999.2500  -999.2500
  511.5000   -43.0360    12.8400    12.4050  -999.2500  -999.2500  -999.2500
  512.0000   -42.8720    12.9940    12.5210  -999.2500  -999.2500  -999.2500
  512.5000   -42.2740    13.1520    12.6370  -999.2500  -999.2500  -999.2500
  513.0000   -43.0840    13.1950    12.6870  -999.2500  -999.2500  -999.2500
  513.5000   -43.3020    13.1950    12.6560  -999.2500  -999.2500  -999.2500
  514.0000   -43.1470    13.1570    12.6250  -999.2500  -999.2500  -999.2500
  514.5000   -42.9370    13.0060    12.5700  -999.2500  -999.2500  -999.2500
  515.0000   -42.7250    12.8580    12.3670  -999.2500  -999.2500  -999.2500
  515.5000   -42.5130    12.7110    12.1600  -999.2500  -999.2500  -999.2500
  516.0000   -42.3020    12.5640    11.9540  -999.2500  -999.2500  -999.2500
  516.5000   -42.6510    12.4170    11.7480  -999.2500  -999.2500  -999.2500
  517.0000   -43.0680    12.2690    11.5420  -999.2500  -999.2500  -999.2500
  517.5000   -43.2940    12.1220    11.3350  -999.2500  -999.2500  -999.2500
  518.0000   -43.2370    11.9740    11.1280  -999.2500  -999.2500  -999.2500
  518.5000   -43.0040    11.8910    10.9190  -999.2500  -999.2500  -999.2500
  519.0000   -42.9660    11.8520    10.7250  -999.2500  -999.2500  -999.2500
  519.5000   -42.9340    11.8140    10.7140  -999.2500  -999.2500  -999.2500
  520.0000   -42.2880    11.7150    10.6020  -999.2500  -999.2500  -999.2500
  520.5000   -41.6440    11.6010    10.6070  -999.2500  -999.2500  -999.2500
  521.0000   -41.2950    11.4860    10.6070  -999.2500  -999.2500  -999.2500
  521.5000   -41.0060    11.3720    10.6060  -999.2500  -999.2500  -999.2500
  522.0000   -41.0300    11.2580    10.5700  -999.2500  -999.2500  -999.2500
  522.5000   -41.1790    11.1440    10.4060  -999.2500  -999.2500  -999.2500
  523.0000   -41.3320    11.0300    10.2440  -999.2500  -999.2500  -999.2500
  523.5000   -41.4910    10.9020    10.0820  -999.2500  -999.2500  -999.2500
  524.0000   -41.2660    10.3830    10.0310  -999.2500  -999.2500  -999.2500
  524.5000   -40.9310     9.9740    10.0710  -999.2500  -999.2500  -999.2500
  525.0000   -40.5930     9.8870    10.1030  -999.2500  -999.2500  -999.2500
  525.5000   -40.6140     9.7940     9.9520  -999.2500  -999.2500  -999.2500
  526.0000   -40.7420     9.7020     9.7940  -999.2500  -999.2500  -999.2500
  526.5000   -40.8720     9.6180     9.6360  -999.2500  -999.2500  -999.2500
  527.0000   -41.0030     9.5440     9.4780  -999.2500  -999.2500  -999.2500
  527.5000   -41.1350     9.4700     9.3200  -999.2500  -999.2500  -999.2500
  528.0000   -41.2710     9.3960     9.2100  -999.2500  -999.2500  -999.2500
  528.5000   -41.4720     9.3300     9.2160  -999.2500  -999.2500  -999.2500
  529.0000   -41.4200     9.3320     9.2430  -999.2500  -999.2500  -999.2500
  529.5000   -41.1510     9.3520     9.2690  -999.2500  -999.2500  -999.2500
  530.0000   -41.0110     9.3870     9.2950  -999.2500  -999.2500  -999.2500
  530.5000   -41.4570     9.4200     9.3210  -999.2500  -999.2500  -999.2500
  531.0000   -41.2530     9.4510     9.3480  -999.2500  -999.2500  -999.2500
  531.5000   -40.9450     9.4460     9.3740  -999.2500  -999.2500  -999.2500
  532.0000   -40.9990     9.4410     9.4000  -999.2500  -999.2500  -999.2500
  532.5000   -41.0790     9.4350     9.3770  -999.2500  -999.2500  -999.2500
  533.0000   -41.1600     9.4100     9.3070  -999.2500  -999.2500  -999.2500
  533.5000   -41.2420     9.3680     9.2380  -999.2500  -999.2500  -999.2500
  534.0000   -41.3240     9.3260     9.1710  -999.2500  -999.2500  -999.2500
  534.5000   -41.1850     9.2840     9.1190  -999.2500  -999.2500  -999.2500
  535.0000   -41.2490     9.2230     8.9220  -999.2500  -999.2500  -999.2500
  535.5000   -41.5260     9.0830     8.6960  -999.2500  -999.2500  -999.2500
  536.0000   -41.0580     8.9430     8.4670  -999.2500  -999.2500  -999.2500
  536.5000   -40.9340     8.6800     8.2380  -999.2500  -999.2500  -999.2500
  537.0000   -40.9850     8.4310     8.0090  -999.2500  -999.2500  -999.2500
  537.5000   -41.1910     8.2270     7.7800  -999.2500  -999.2500  -999.2500
  538.0000   -41.3940     8.0230     7.5520  -999.2500  -999.2500  -999.2500
  538.5000   -41.5970     7.8230     7.3340  -999.2500  -999.2500  -999.2500
  539.0000   -41.7710     7.7170     7.1540  -999.2500  -999.2500  -999.2500
  539.5000   -41.9030     7.6170     6.9530  -999.2500  -999.2500  -999.2500
  540.0000   -41.6670     7.5100     6.9230  -999.2500  -999.2500  -999.2500
  540.5000   -41.3820     7.4040     6.9220  -999.2500  -999.2500  -999.2500
  541.0000   -41.0950     7.2970     6.9220  -999.2500  -999.2500  -999.2500
  541.5000   -40.8070     7.1900     6.9240  -999.2500  -999.2500  -999.2500
  542.0000   -40.5210     7.0760     6.8150  -999.2500  -999.2500  -999.2500
  542.5000   -40.3710     6.9260     6.6140  -999.2500  -999.2500  -999.2500
  543.0000   -40.6270     6.7790     6.4140  -999.2500  -999.2500  -999.2500
  543.5000   -40.8800     6.6320     6.2130  -999.2500  -999.2500  -999.2500
  544.0000   -41.1300     6.4860     6.0120  -999.2500  -999.2500  -999.2500
  544.5000   -41.3020     6.3800     5.8100  -999.2500  -999.2500  -999.2500
  545.0000   -41.1840     6.4230     5.6070  -999.2500  -999.2500  -999.2500
  545.5000   -41.0690     6.4570     5.5330  -999.2500  -999.2500  -999.2500
  546.0000   -40.9530     6.4070     5.6650  -999.2500  -999.2500  -999.2500
  546.5000   -40.9050     6.5030     5.8150  -999.2500  -999.2500  -999.2500
  547.0000   -40.8230     6.6090     5.9660  -999.2500  -999.2500  -999.2500
  547.5000   -40.7410     6.7150     6.1170  -999.2500  -999.2500  -999.2500
  548.0000   -40.9640     6.8210     6.2690  -999.2500  -999.2500  -999.2500
  548.5000   -41.3510     6.8880     6.3410  -999.2500  -999.2500  -999.2500
  549.0000   -41.7080     6.8970     6.3670  -999.2500  -999.2500  -999.2500
  549.5000   -41.7180     6.9070     6.3930  -999.2500  -999.2500  -999.2500
  550.0000   -41.7190     6.9170     6.4190  -999.2500  -999.2500  -999.2500
  550.5000   -41.5140     6.9270     6.4450  -999.2500  -999.2500  -999.2500
  551.0000   -41.1100     6.9380     6.4710  -999.2500  -999.2500  -999.2500
  551.5000   -40.7080     6.9480     6.4970  -999.2500  -999.2500  -999.2500
  552.0000   -40.3010     6.9590     6.5230  -999.2500  -999.2500  -999.2500
  552.5000   -40.2570     6.9820     6.5470  -999.2500  -999.2500  -999.2500
  553.0000   -40.3360     7.0360     6.5860  -999.2500  -999.2500  -999.2500
  553.5000   -40.3350     7.1110     6.6240  -999.2500  -999.2500  -999.2500
  554.0000   -40.3350     7.1850     6.6630  -999.2500  -999.2500  -999.2500
  554.5000   -40.3400     7.2600     6.7020  -999.2500  -999.2500  -999.2500
  555.0000   -40.4320     7.3340     6.7960  -999.2500  -999.2500  -999.2500
  555.5000   -40.5230     7.4080     6.9520  -999.2500  -999.2500  -999.2500
