~VERSION INFORMATION
 VERS.                2.0:   CWLS LOG ASCII STANDARD - VERSION 2.0
 WRAP.                 NO:   ONE LINE PER DEPTH STEP
~WELL INFORMATION
#MNEM.UNIT      DATA TYPE    INFORMATION
#----------   ------------   ------------------------------
 STRT.F          540.0000:   START DEPTH
 STOP.F         4100.0000:   STOP DEPTH
 STEP.F            0.5000:   STEP LENGTH
 NULL.          -999.2500:   NO VALUE
 COMP. LAWRENCE ALISON & ASSOC.,WEST:   COMPANY
 WELL. LAWRENCE "X" #15-11:   WELL
 FLD .              N P R:   FIELD
 LOC .      S11 T38N R78W:   LOCATION
 CNTY.            NATRONA:   COUNTY
 STAT.            WYOMING:   STATE
 CTRY. UNITED STATES OF AMERICA:   COUNTRY
 SRVC.      DRESSER ATLAS:   SERVICE COMPANY
 DATE.        18-MAY-1985:   LOGDATE
 API .     49025110220000:   API NUMBER
~CURVE INFORMATION
#MNEM.UNIT       API CODE    CURVE DESCRIPTION
#----------   ------------   ------------------------------
 DEPT.F                  :   
 NPHI.DEC    42 890 03 00:   NEUTRON POROSITY SANDSTONE
 RHOB.G/C3   45 350 01 00:   BULK DENSITY
 CORR.G/C3   45 356 01 00:   DENSITY CORRECTION
 TEND.LBS    45 635 01 00:   TENSION FROM DENSITY LOG
 GRD .GAPI   45 310 01 00:   GAMMA RAY FROM DENSITY LOG
 CALD.IN     45 280 60 00:   CALIPER FROM DENSITY LOG
 SPR .MV     07 010 01 00:   SPONTANEOUS POTENTIAL
 RILD.OHMM   07 120 46 00:   DEEP INDUCTION RESISTIVITY
 RILM.OHMM   07 120 44 00:   INDUCTION LOG MEDIUM RESISTIVITY
 RFOC.OHMM   07 220 04 00:   RESISTIVITY FOCUSED LOG RES.
 TENR.LBS    07 635 01 00:   TENSION FROM RESISTIVITY
~PARAMETER INFORMATION
#MNEM.UNIT          VALUE    DESCRIPTION
#----------   ------------   ------------------------------
 EKB .F         5201.0000:   Kelly bushing
 EGL .F         5189.0000:   Ground level
 EDF .F         5200.0000:   Drilling floor
 TD  .F         4095.0000:   Total depth
 DATE.        18-MAY-1985:   Date logged
 CLNT.            A2DTECH:   Client Code
 SL  . 2203' FSL & 377' FWL:   Surface Location
 PD  .                 GL:   Permanent Datum
 EPD .F              5189:   Elevation Permanent Datum
 LMF .                 KB:   Log Measured From
 DMF .                 KB:   Drilling Measured From
 DAPD.F                12:   Feet Above Permanent Datum
 DD  .F              4095:   Depth driller
 DL  .F              4093:   Depth logger
 BLI .F              4091:   Bottom log interval
 TLI .F                 0:   Top log interval
 CS1 .IN            8.625:   Casing size
 CBD1.      8.625" @ 565':   Casing driller 1
 CBL1.F               565:   Casing logger 1
 BS1 .IN            7.875:   Bit size
 BSD1.F              4095:   Depth drilled with bit1
 DFT .            GEL KCL:   Type fluid in hole
 DFD .                9.2:   Density
 DFV .                 40:   Viscosity
 DFPH.                8.0:   pH
 DFL .                9.0:   Fluid loss
 MSS .            MUDTANK:   Source of sample
 RMS .OHMM            .57:   Rm
 MST .F                69:   Rm Meas. temp.
 RMF .OHMM            .49:   Rmf
 MFST.F                69:   Rmf Meas. temp.
 RMC .OHMM            .71:   Rmc
 MCST.F                69:   Rmc Meas. temp.
 MFSS.               MEAS:   Source Rmf.
 MCSS.               CALC:   Source Rmc.
 RMB .OHMM            .30:   Rm. at BHT
 BHT .F               139:   BHT.
 TCS .HRS               4:   Time Circ. stopped
 MRT .F               139:   Maximum recorded temp.
 LUN .            HL 6302:   Logging unit number
 LUL .               CODY:   Logging unit location
 ENGI.              GETTY:   Recorded By
 WITN.              FIVAS:   Witnessed by
 ORIG.           5" PRINT:   Origin of data
 UWI .     49025110220000:   Unique Well ID
 DICO. A2D TECHNOLOGIES, INC.:   Digitizing Company
~OTHER INFORMATION
~A   DEPT     NPHI       RHOB       CORR        TEND        GRD      CALD        SPR       RILD       RILM       RFOC       TENR   
# ...
 2888.5000     0.2870     2.5470     0.0190   -38.5680   119.0730     9.5670   -14.3290     4.9560     4.9820     5.4710   -40.9990
 2889.0000     0.2850     2.5540     0.0110   -37.1920   121.3690     9.5660   -14.1690     4.7370     5.0050     5.5000   -38.5720
 2889.5000     0.2970     2.5600     0.0030   -35.8150   121.3950     9.5640   -14.0050     4.5580     5.0620     5.5360   -36.1440
 2890.0000     0.3230     2.5590    -0.0040   -34.4390   120.9750     9.5620   -13.8250     4.6490     5.1200     5.5720   -33.7170
 2890.5000     0.3320     2.5530    -0.0110   -33.0620   120.5490     9.5610   -14.0260     4.7410     5.2070     5.5610   -31.2900
 2891.0000     0.2900     2.5470    -0.0100   -31.6860   119.2550     9.5590   -14.0450     4.8340     5.3360     5.5420   -28.8620
 2891.5000     0.2710     2.5490    -0.0100   -30.3100   117.9230     9.5570   -14.0710     4.9260     5.4640     5.5220   -26.4350
 2892.0000     0.2680     2.5550    -0.0060   -28.9330   117.8070     9.5560   -14.0950     5.0180     5.5930     5.8510   -24.0080
 2892.5000     0.2790     2.5610     0.0020   -27.5570   117.7510     9.5530   -14.1170     5.0460     5.6230     6.2740   -21.5800
 2893.0000     0.2700     2.5600     0.0100   -26.1190   117.6900     9.5510   -14.1400     5.0820     5.6230     6.2170   -19.1530
 2893.5000     0.2570     2.5560     0.0200   -41.9070   117.6100     9.5480   -14.1640     5.1170     5.6230     6.1810   -17.4550
 2894.0000     0.2530     2.5550     0.0340   -54.8080   117.1760     9.5460   -14.1860     5.1530     5.6120     6.0780   -19.8050
 2894.5000     0.2700     2.5610     0.0490   -46.9840   115.8160     9.5430   -14.2050     5.1890     5.5390     5.9750   -22.1550
 2895.0000     0.2910     2.5660     0.0500   -39.1590   114.5130     9.5410   -14.3670     5.2270     5.4650     5.8860   -24.5060
 2895.5000     0.2980     2.5710     0.0400   -31.3350   113.4170     9.5380   -14.5630     5.2030     5.3920     5.8320   -26.8560
 2896.0000     0.2810     2.5710     0.0350   -28.6220   114.0550     9.5360   -14.7610     5.1690     5.3240     5.7600   -29.2060
 2896.5000     0.2660     2.5670     0.0310   -36.1300   116.3730     9.5360   -14.9590     5.1360     5.3480     5.6830   -31.5560
 2897.0000     0.2560     2.5630     0.0150   -43.6380   118.6080     9.5360   -15.1560     5.1020     5.3940     5.6050   -33.9070
 2897.5000     0.2610     2.5610     0.0250   -51.1460   120.0670     9.5360   -15.3540     5.0860     5.4400     5.5220   -36.2570
 2898.0000     0.2900     2.5590     0.0380   -58.6540   120.8140     9.5360   -15.5510     5.0860     5.4850     5.5950   -38.6070
 2898.5000     0.3070     2.5540     0.0390   -66.1620   119.5130     9.5360   -15.7490     5.0860     5.5310     5.7900   -40.9580
 2899.0000     0.3120     2.5480     0.0150   -73.6700   118.0280     9.5360   -15.9470     5.0860     5.5720     5.9860   -43.3080
 2899.5000     0.3030     2.5420     0.0100   -74.4860   116.5430     9.5360   -16.1390     5.0860     5.5720     6.1610   -45.6580
 2900.0000     0.2820     2.5420     0.0070   -72.5270   116.7210     9.5360   -16.6940     5.0860     5.5720     6.0150   -46.8290
 2900.5000     0.2680     2.5450     0.0040   -70.5680   118.5420     9.5360   -17.3840     5.0860     5.5720     5.8540   -46.8290
 2901.0000     0.2760     2.5480     0.0010   -68.6090   120.3460     9.5360   -18.0790     5.0860     5.5860     5.6750   -46.8290
 2901.5000     0.2860     2.5470    -0.0020   -66.6500   120.5010     9.5360   -18.7900     5.0860     5.5990     5.7210   -46.8290
 2902.0000     0.2820     2.5420    -0.0010   -64.6910   119.7620     9.5360   -19.2470     5.1500     5.6120     5.7880   -46.8290
 2902.5000     0.2760     2.5400     0.0170   -62.7320   119.0210     9.5360   -19.6320     5.2230     5.6250     5.8560   -46.8290
 2903.0000     0.2870     2.5430     0.0400   -60.7730   118.2770     9.5360   -19.9880     5.2950     5.6370     5.9230   -46.8290
 2903.5000     0.2990     2.5460     0.0190   -58.8140   117.5410     9.5360   -20.2590     5.3670     5.6500     5.9900   -46.8290
 2904.0000     0.2920     2.5440    -0.0010   -56.8550   117.0720     9.5350   -20.5170     5.4390     5.6630     6.0570   -46.8290
 2904.5000     0.2780     2.5420     0.0000   -54.8960   117.6320     9.5350   -20.7740     5.5120     5.6750     6.1250   -46.8290
 2905.0000     0.2710     2.5520     0.0110   -52.9370   119.4920     9.5340   -21.0310     5.5220     5.6750     6.1610   -46.8290
 2905.5000     0.2900     2.5640     0.0220   -50.9780   120.7560     9.5340   -21.3020     5.4990     5.6750     6.1150   -46.8290
 2906.0000     0.3210     2.5690     0.0320   -49.0190   121.2200     9.5340   -21.1440     5.4790     5.6750     6.0730   -46.8290
 2906.5000     0.3390     2.5630     0.0370   -47.0600   121.6920     9.5330   -20.8180     5.4460     5.6750     6.0300   -46.8290
 2907.0000     0.3570     2.5570     0.0330   -45.1010   121.5360     9.5330   -20.4870     5.3440     5.6750     5.9870   -46.8290
 2907.5000     0.3610     2.5530     0.0290   -43.1420   121.2840     9.5320   -20.1570     5.2410     5.6750     5.9440   -46.8290
 2908.0000     0.3030     2.5530     0.0260   -41.1830   119.7620     9.5320   -19.8330     5.1390     5.6180     5.9020   -46.8290
 2908.5000     0.2700     2.5520     0.0260   -39.2240   117.4880     9.5310   -19.5150     4.9940     5.4880     5.8650   -46.8290
 2909.0000     0.2600     2.5520     0.0170   -37.2650   116.2010     9.5310   -19.1980     5.0050     5.3590     5.8160   -46.8290
 2909.5000     0.2610     2.5480     0.0100   -35.3060   117.5240     9.5300   -18.8820     5.0300     5.2290     5.7670   -46.8290
 2910.0000     0.2740     2.5430     0.0120   -33.3470   120.5130     9.5300   -18.5650     5.0560     5.1240     5.7170   -46.8290
 2910.5000     0.3150     2.5380     0.0150   -31.3880   123.4730     9.5300   -18.2490     5.0860     5.1030     5.6680   -46.8290
 2911.0000     0.3320     2.5330     0.0180   -29.4290   126.4460     9.5290   -17.9320     4.9600     5.0860     5.6190   -41.0800
 2911.5000     0.3270     2.5330     0.0170   -27.4700   127.7220     9.5290   -17.6150     4.8050     5.0400     5.5700   -34.0290
 2912.0000     0.3220     2.5360     0.0100   -26.8100   126.7890     9.5280   -17.2990     4.6510     4.9110     5.5220   -27.0070
 2912.5000     0.3320     2.5370     0.0040   -29.0330   125.1290     9.5280   -16.9980     4.5510     4.7510     5.4260   -30.1040
 2913.0000     0.3510     2.5350    -0.0160   -31.2560   126.2440     9.5270   -16.8280     4.5150     4.5910     5.3060   -33.1890
 2913.5000     0.3640     2.5320    -0.0300   -33.4790   129.3850     9.5270   -16.6670     4.4790     4.5580     5.1870   -36.2740
 2914.0000     0.3660     2.5330    -0.0120   -35.7020   131.6370     9.5270   -16.5050     4.4430     4.6280     5.0670   -37.5480
 2914.5000     0.3640     2.5370     0.0050   -37.9250   129.7800     9.5260   -16.3440     4.4060     4.7160     4.9940   -38.3440
 2915.0000     0.3200     2.5410     0.0220   -40.1480   127.0270     9.5260   -16.1820     4.3700     4.8040     5.0930   -39.1400
 2915.5000     0.2970     2.5430     0.0310   -42.3710   124.2630     9.5250   -16.0210     4.3550     4.8920     5.1760   -39.9360
 2916.0000     0.2950     2.5420     0.0260   -44.5950   121.4800     9.5250   -15.8640     4.4490     4.9810     5.2600   -40.7320
 2916.5000     0.3030     2.5410     0.0300   -46.8180   118.6060     9.5240   -15.7000     4.5460     5.0690     5.3430   -41.5280
 2917.0000     0.3090     2.5440     0.0350   -49.0410   118.2750     9.5240   -15.8310     4.6420     5.1570     5.4270   -42.3240
 2917.5000     0.3130     2.5480     0.0390   -51.2640   117.6810     9.5230   -15.8360     4.7390     5.2450     5.5100   -43.1200
 2918.0000     0.3240     2.5460     0.0380   -53.4870   115.7700     9.5230   -15.8540     4.8350     5.3330     5.5940   -43.9160
 2918.5000     0.3460     2.5370     0.0320   -55.7100   113.9280     9.5230   -15.8770     4.9100     5.3720     5.6770   -44.7120
