~VERSION INFORMATION
 VERS.                2.0:   CWLS LOG ASCII STANDARD - VERSION 2.0
 WRAP.                 NO:   ONE LINE PER DEPTH STEP
~WELL INFORMATION
#MNEM.UNIT      DATA TYPE    INFORMATION
#----------   ------------   ------------------------------
 STRT.F            0.5000:   START DEPTH
 STOP.F         3195.0000:   STOP DEPTH
 STEP.F            0.5000:   STEP LENGTH
 NULL.          -999.2500:   NO VALUE
 COMP.   TESORO PETROLEUM:   COMPANY
 WELL. TESORO NPR 3 "A" #15-10:   WELL
 FLD .        TEAPOT DOME:   FIELD
 LOC .      S10 T38N R78W:   LOCATION
 CNTY.            NATRONA:   COUNTY
 STAT.            WYOMING:   STATE
 CTRY. UNITED STATES OF AMERICA:   COUNTRY
 SRVC.       SCHLUMBERGER:   SERVICE COMPANY
 DATE.        03-JUL-1969:   LOGDATE
 API .     49025600130000:   API NUMBER
~CURVE INFORMATION
#MNEM.UNIT       API CODE    CURVE DESCRIPTION
#----------   ------------   ------------------------------
 DEPT.F                  :   
 SPR .MV     05 010 01 00:   SPONTANEOUS POTENTIAL FROM RES.
 ASN .OHMM   05 041 16 00:   AMPLIFIED SHORT NORMAL 16"
 ILD .OHMM   05 120 46 00:   INDUCTION LOG DEEP
 CALD.IN     45 280 60 00:   CALIPER FROM DENSITY LOG
 GRD .GAPI   45 310 01 00:   GAMMA RAY FROM DENSITY LOG
 RHOB.G/C3   45 350 01 00:   BULK DENSITY
~PARAMETER INFORMATION
#MNEM.UNIT          VALUE    DESCRIPTION
#----------   ------------   ------------------------------
 EKB .F         5250.0000:   Kelly bushing
 EGL .F         5237.0000:   Ground level
 EDF .F            0.0000:   Drilling floor
 TD  .F         3200.0000:   Total depth
 CLNT.            A2DTECH:   Client Code
 SL  . 990' FWL & 1980' FSL:   Surface Location
 PD  .                 GL:   Permanent Datum
 EPD .F              5237:   Elevation Permanent Datum
 LMF .                 KB:   Log Measured From
 DMF .                 KB:   Drilling Measured From
 DAPD.F                13:   Feet Above Permanent Datum
 DATE.        03-JUL-1969:   Date Logged [DD-MMM-YYYY]
 DD  .F              3200:   Depth driller
 DL  .F              3196:   Depth logger
 BLI .F              3195:   Bottom log interval
 TLI .F               676:   Top log interval
 CS1 .IN            10.75:   Casing size
 CBD1.      10.75" @ 675':   Casing driller 1
 CBL1.F               676:   Casing logger 1
 BS1 .IN            6.125:   Bit size
 BSD1.F              3200:   Depth drilled with bit1
 DFT .      FRESH GEL MUD:   Type fluid in hole
 DFD .                9.5:   Density
 DFV .                 46:   Viscosity
 DFPH.                9.5:   pH
 DFL .                6.4:   Fluid loss
 MSS .           FLOWLINE:   Source of sample
 RMS .OHMM           2.05:   Rm
 MST .F                76:   Rm Meas. temp.
 RMF .OHMM           1.49:   Rmf
 MFST.F                78:   Rmf Meas. temp.
 MFSS.               MEAS:   Source Rmf.
 RMB .OHMM           1.34:   Rm. at BHT
 BHT .F               116:   BHT.
 TCS .HRS               2:   Time Circ. stopped
 MRT .F               116:   Maximum recorded temp.
 LUN .               4507:   Logging unit number
 LUL .               CSPR:   Logging unit location
 ENGI.             KNOBEL:   Recorded By
 WITN.                MAY:   Witnessed by
 ORIG.        2" 5" PRINT:   Origin of data
 UWI .     49025600130000:   Unique Well ID
 DICO. A2D TECHNOLOGIES, INC.:   Digitizing Company
~OTHER INFORMATION
~A    DEPT     SPR          ASN      ILD       CALD        GRD       RHOB   
# ...
 2288.5000   -26.9171    14.8057    11.0195    10.3428    89.0243     2.4881
 2289.0000   -27.0739    14.5021    10.9370    10.3580    87.7192     2.4928
 2289.5000   -27.2845    14.1909    10.2699    10.3731    88.1910     2.5024
 2290.0000   -27.2030    13.7439     9.8951    10.3883    89.7384     2.5024
 2290.5000   -27.0604    13.3651     9.6702    10.4034    90.4156     2.5062
 2291.0000   -26.8506    12.8360     9.4453    10.4039    90.2117     2.5175
 2291.5000   -26.7187    12.3814     9.2954    10.4043    87.3688     2.5272
 2292.0000   -26.6412    12.0778     9.1454    10.4053    84.9623     2.5333
 2292.5000   -26.4260    11.9246     9.0642    10.4199    83.2165     2.5288
 2293.0000   -26.2002    11.7715     8.8456    10.4350    81.8823     2.5078
 2293.5000   -26.2001    11.8438     8.8456    10.4354    81.4872     2.4929
 2294.0000   -26.4263    11.9162     8.8456    10.4507    81.7280     2.4824
 2294.5000   -26.5005    11.9127     8.8456    10.4658    82.6330     2.4817
 2295.0000   -26.4749    12.0603     8.8456    10.4662    84.1878     2.4975
 2295.5000   -26.4743    12.6583     8.8456    10.5108    85.9663     2.5072
 2296.0000   -26.4807    12.8065     8.8406    10.5259    88.1853     2.4998
 2296.5000   -26.6231    12.4998     8.7706    10.5410    90.6287     2.4646
 2297.0000   -26.6914    11.7469     8.7706    10.5416    90.6451     2.4770
 2297.5000   -26.4804    11.3688     8.9205    10.5419    90.8817     2.4894
 2298.0000   -26.2927    11.8916     9.1454    10.5571    91.8093     2.4984
 2298.5000   -26.1531    12.1896     9.4453    10.5586    91.7956     2.5128
 2299.0000   -26.3669    12.6372     9.6702    10.5874    90.9350     2.5262
 2299.5000   -26.8511    13.0855     9.8239    10.5878    90.5109     2.5277
 2300.0000   -27.3313    13.3835    10.1949    10.5882    89.8706     2.5202
 2300.5000   -27.5668    13.6807    10.6447    10.5887    89.2221     2.4978
 2301.0000   -27.2787    13.6779    10.7196    10.4568    88.1412     2.5061
 2301.5000   -27.0179    13.9929    10.7946    10.3837    84.4172     2.5128
 2302.0000   -26.8704    14.1456    10.9535    10.3107    79.5878     2.5121
 2302.5000   -26.7183    13.9975    10.8806    10.2963    78.5029     2.5054
 2303.0000   -26.6593    13.8494    10.8077    10.2968    80.6480     2.5039
 2303.5000   -26.4554    13.7014    10.8853    10.3267    84.7072     2.5205
 2304.0000   -26.2779    13.5539    10.8129    10.3418    86.9262     2.5302
 2304.5000   -26.0881    13.5568    10.6650    10.3422    89.1523     2.5280
 2305.0000   -26.0761    13.7095    10.5847    10.3426    90.9237     2.5310
 2305.5000   -25.8703    13.8622    10.3693    10.3431    89.1815     2.5183
 2306.0000   -25.8837    14.0154    10.1465    10.3436    87.1897     2.5011
 2306.5000   -25.8863    13.7170     9.9894    10.3440    85.4735     2.5071
 2307.0000   -25.8923    13.4185     9.8518    10.3592    83.7277     2.5094
 2307.5000   -25.8492    13.1201     9.7040    10.3596    83.5236     2.4982
 2308.0000   -25.8425    12.8974     9.5567    10.3600    84.2047     2.4967
 2308.5000   -25.8834    12.5238     9.4088    10.3752    85.5425     2.5043
 2309.0000   -25.8905    12.2259     9.3354    10.3756    88.2060     2.5080
 2309.5000   -26.0980    12.0773     9.1881    10.3466    90.2046     2.5013
 2310.0000   -26.0848    12.0802     9.1152    10.2883    90.6613     2.4931
 2310.5000   -26.0819    12.1583     9.1927    10.2445    90.9019     2.5066
 2311.0000   -26.0849    12.2358     9.1953    10.2009    91.3586     2.5112
 2311.5000   -26.0906    12.2381     9.1974    10.1866    92.2559     2.5142
 2312.0000   -26.1296    12.3914     9.2744    10.1712    89.8533     2.5240
 2312.5000   -26.1714    12.3937     9.3520    10.1682    89.2047     2.5316
 2313.0000   -26.2048    12.3960     9.2791    10.1652    89.4452     2.5420
 2313.5000   -26.2678    12.0981     9.2061    10.1622    94.0911     2.5285
 2314.0000   -26.1133    11.8749     9.1333    10.1592    96.0897     2.5142
 2314.5000   -26.3182    11.8020     9.2108    10.1562    97.2072     2.4874
 2315.0000   -26.3034    11.8801     9.2879    10.1532    97.6680     2.4912
 2315.5000   -26.2653    12.1080     9.5153    10.1528    98.3451     2.4957
 2316.0000   -26.2326    12.4110     9.6673    10.1389    99.6829     2.5002
 2316.5000   -26.1778    12.7899     9.8193    10.1395   101.4653     2.5017
 2317.0000   -26.0959    13.0177     9.8969    10.1550   103.6842     2.5040
 2317.5000   -26.0807    13.0201     9.8235    10.1556   106.1233     2.5055
 2318.0000   -26.0748    12.7974     9.6741    10.1562   100.1964     2.5003
 2318.5000   -25.8710    12.5735     9.3789    10.1585    99.3316     2.4981
 2319.0000   -25.8856    12.2757     9.2305    10.1723    99.1276     2.4936
 2319.5000   -25.7992    12.1282     9.2374    10.1876    97.3857     2.4892
 2320.0000   -25.6824    12.1305     9.3856    10.2029    93.4372     2.4832
 2320.5000   -25.5670    12.2832     9.4627    10.2331    91.2175     2.4720
 2321.0000   -25.4912    12.2861     9.3898    10.2484    88.8482     2.4698
 2321.5000   -25.4923    12.4388     9.3923    10.2490    85.3402     2.4676
 2322.0000   -25.4918    12.2907     9.2440    10.2645    80.6361     2.4616
 2322.5000   -25.4904    12.1432     9.0130    10.2651    78.9850     2.4571
 2323.0000   -25.4951    12.0704     8.7994    10.2804    79.0052     2.4519
 2323.5000   -25.6443    11.8471     8.5766    10.3106    79.0255     2.4482
 2324.0000   -25.7341    11.6991     8.4287    10.3554    78.8215     2.4497
 2324.5000   -26.1113    11.4006     8.4313    10.3854    78.1729     2.4602
 2325.0000   -25.9928    10.9524     8.5083    10.5038    77.5324     2.4715
 2325.5000   -25.8829    10.3532     8.5109    10.6221    77.3283     2.4813
 2326.0000   -25.7463    10.2051     8.5130    10.6815    77.3486     2.4926
 2326.5000   -25.4762    10.6591     8.4401    10.7264    77.3689     2.5083
 2327.0000   -25.4906    11.2635     8.0674    10.7711    77.1649     2.5106
 2327.5000   -25.5003    11.1907     7.7701    10.8158    76.3000     2.5084
 2328.0000   -25.3463    10.8170     7.4723    10.5225    76.5406     2.5038
 2328.5000   -25.3010    10.3682     7.0251    10.4349    78.5392     2.4995
 2329.0000   -25.2996    10.0698     6.8023    10.3912    80.7581     2.4965
 2329.5000   -25.2975     9.9705     6.7294    10.3331    82.9810     2.4919
 2330.0000   -25.3640     9.4436     6.5821    10.3339    83.8742     2.4868
 2330.5000   -25.3943     8.6621     6.3593    10.3345    82.5729     2.4853
 2331.0000   -25.3561     8.6022     6.1364    10.3351    82.8135     2.4876
 2331.5000   -25.2974     8.7832     6.1390    10.3065    83.4905     2.4929
 2332.0000   -24.8177     9.1895     6.1411    10.2922    83.9472     2.4847
 2332.5000   -25.2473     9.3252     6.3681    10.2636    84.1878     2.4667
 2333.0000   -25.2164     9.1301     6.5206    10.2348    84.6446     2.4772
 2333.5000   -25.5194     9.0552     6.6726    10.2207    85.9833     2.4818
 2334.0000   -25.5170     8.9955     6.7496    10.2215    87.3242     2.4638
 2334.5000   -25.6046     8.9808     6.9021    10.2222    88.8823     2.4556
 2335.0000   -25.6859     9.0865     6.9042    10.2080    87.5696     2.4481
 2335.5000   -25.6441     9.3425     7.0562    10.2088    86.7162     2.4489
 2336.0000   -25.4982     9.6587     7.5835    10.2242    86.5081     2.4557
 2336.5000   -25.4271     9.8227     7.9604    10.2248    86.5286     2.4610
 2337.0000   -25.2762     9.9248     8.2624    10.2255    85.8879     2.4670
 2337.5000   -25.1590    10.2319     8.4898    10.2262    82.8204     2.4783
 2338.0000   -25.1074    10.6767     8.5668    10.2268    77.6888     2.4948
 2338.5000   -24.9589    10.9774     8.5690    10.2274    75.8044     2.5083
 2339.0000   -25.1131    11.1278     8.4211    10.2434    76.2115     2.5166
 2339.5000   -25.2034    10.8271     8.2732    10.2617    76.2115     2.5219
 2340.0000   -25.3453    10.3759     8.0514    10.2761    75.7709     2.5399
