~VERSION INFORMATION
 VERS.                2.0:   CWLS LOG ASCII STANDARD - VERSION 2.0
 WRAP.                 NO:   ONE LINE PER DEPTH STEP
~WELL INFORMATION
#MNEM.UNIT      DATA TYPE    INFORMATION
#----------   ------------   ------------------------------
 STRT.F           48.0000:   START DEPTH
 STOP.F         3235.5000:   STOP DEPTH
 STEP.F            0.5000:   STEP LENGTH
 NULL.          -999.2500:   NO VALUE
 COMP.    TESORO PEROLEUM:   COMPANY
 WELL. TESORO P46 T 28 N.P.R. #3-28:   WELL
 FLD .        TEAPOT DOME:   FIELD
 LOC .      S28 T39N R78W:   LOCATION
 CNTY.            NATRONA:   COUNTY
 STAT.            WYOMING:   STATE
 CTRY. UNITED STATES OF AMERICA:   COUNTRY
 SRVC.      DRESSER ATLAS:   SERVICE COMPANY
 DATE.        17-SEP-1975:   LOGDATE
 API .     49025102530000:   API NUMBER
~CURVE INFORMATION
#MNEM.UNIT       API CODE    CURVE DESCRIPTION
#----------   ------------   ------------------------------
 DEPT.F                  :   
 CALD.IN     45 280 60 00:   CALIPER FROM DENSITY LOG
 RHOB.G/C3   45 350 01 00:   BULK DENSITY
 CORR.G/C3   45 356 01 00:   DENSITY CORRECTION
 TEND.LBS    45 635 01 00:   TENSION FORM DENSITY LOG
 NPHI.DEC    42 890 03 00:   NEUTRON POROSITY SANDSTONE
 SPR .MV     07 010 01 00:   SPONTANEOUS POTENTIAL
 ILD .OHMM   07 120 46 00:   DEEP INDUCTION RESISTIVITY
 ILM .OHMM   07 120 44 00:   INDUCTION LOG MEDIUM RESISTIVITY
 SFL .OHMM   07 220 01 00:   SHALLOW FOCUSED LOG RESISTIVITY
 GRD .GAPI   45 310 01 00:   GAMMA RAY FROM DENSITY LOG
~PARAMETER INFORMATION
#MNEM.UNIT          VALUE    DESCRIPTION
#----------   ------------   ------------------------------
 EKB .F         5088.0000:   Kelly bushing
 EGL .F         5075.0000:   Ground level
 TD  .F         3218.0000:   Total depth
 CLNT.            A2DTECH:   Client Code
 SL  . 2310' FWL & 1650' FSL:   Surface Location
 PD  .                 GL:   Permanent Datum
 EPD .F              5075:   Elevation Permanent Datum
 LMF .                 KB:   Log Measured From
 DMF .                 KB:   Drilling Measured From
 DAPD.F                13:   Feet Above Permanent Datum
 DATE.        17-SEP-1975:   Date Logged [DD-MMM-YYYY]
 DD  .F              3218:   Depth driller
 DL  .F              3217:   Depth logger
 BLI .F              3215:   Bottom log interval
 TLI .F               395:   Top log interval
 CS1 .IN            8.625:   Casing size
 CBD1.      8.625" @ 393':   Casing driller 1
 CBL1.F               395:   Casing logger 1
 BS1 .IN            7.875:   Bit size
 BSD1.F              3218:   Depth drilled with bit1
 DFT .           CHEM GEL:   Type fluid in hole
 DFD .                9.5:   Density
 DFV .                 60:   Viscosity
 DFPH.                9.5:   pH
 DFL .                 11:   Fluid loss
 MSS .           FLOWLINE:   Source of sample
 RMS .OHMM           0.55:   Rm
 MST .F                60:   Rm Meas. temp.
 RMF .OHMM           0.48:   Rmf
 MFST.F                62:   Rmf Meas. temp.
 MFSS.               MEAS:   Source Rmf.
 RMC .OHMM            1.6:   Rmc
 MCST.F                62:   Rmc Meas. temp.
 MCSS.               MEAS:   Source Rmc.
 RMB .OHMM            0.3:   Rm. at BHT
 BHT .F               112:   BHT.
 TCS .HRS               5:   Time Circ. stopped
 MRT .F               112:   Maximum recorded temp.
 LUN .               6008:   Logging unit number
 LUL .              GLTTE:   Logging unit location
 ENGI.            MILHOAN:   Recorded By
 WITN.               WOLF:   Witnessed by
 ORIG.           5" PRINT:   Origin of data
 UWI .     49025102530000:   Unique Well ID
 DICO. A2DTECHNOLOGIES,INC.:   Digitizing Company
~OTHER INFORMATION
~A   DEPT     CALD       RHOB       CORR       TEND       NPHI         SPR         ILD        ILM        SFL      GRD   
# ...
 2493.5000     8.8292     2.5567     0.0126  1745.4395     0.2246   -26.2291    10.3889    10.6363     9.9619    73.9895
 2494.0000     8.7857     2.5560     0.0134  1743.8065     0.2330   -26.2262    10.2526    10.4926     9.6261    74.9772
 2494.5000     8.7422     2.5531     0.0143  1741.8639     0.2290   -26.2232    10.0481    10.3519     9.5645    76.6959
 2495.0000     8.7586     2.5479     0.0145  1740.1815     0.2294   -26.2197     9.9854    10.3572     9.8404    77.9451
 2495.5000     8.8352     2.5449     0.0139  1738.3689     0.2302   -26.5625    10.1322    10.5066    10.1464    77.4676
 2496.0000     8.9427     2.5457     0.0132  1736.5024     0.2196   -26.8091    10.4263    10.8075    10.2730    75.3368
 2496.5000     8.9903     2.5459     0.0119  1734.7429     0.2214   -26.8061    10.7274    11.2728    10.5691    74.1656
 2497.0000     9.0198     2.5489     0.0120  1732.9304     0.2250   -27.1016    11.1916    11.9228    11.6584    73.4741
 2497.5000     8.9613     2.5520     0.0122  1731.1178     0.2226   -27.3963    11.5148    12.2658    11.5034    74.4618
 2498.0000     8.8878     2.5543     0.0107  1714.1996     0.2141   -27.3926    11.8473    12.4413    10.2956    77.1287
 2498.5000     8.7243     2.5574     0.0094  1711.1606     0.2105   -27.0921    12.0213    12.4342    10.4458    78.1093
 2499.0000     8.6209     2.5597     0.0065  1695.1200     0.2107   -27.0892    12.0295    12.2794    11.8480    75.5059
 2499.5000     8.5474     2.5613     0.0036  1678.2264     0.2116   -26.7886    12.0378    12.0320    12.5340    72.4156
 2500.0000     8.5335     2.5598     0.0023  1676.4396     0.2164   -26.7857    12.0460    11.7883    13.6344    72.4438
 2500.5000     8.5503     2.5546     0.0024  1674.6517     0.2323   -26.4851    11.8859    11.6290    13.4531    75.3717
 2501.0000     8.5968     2.5509     0.0040  1688.4167     0.2296   -26.4581    11.7300    11.4731    12.2096    76.3903
 2501.5000     8.6432     2.5466     0.0057  1686.1829     0.2316   -26.1810    11.4979    11.4790    10.4803    77.8434
 2502.0000     8.6800     2.5504     0.0073  1684.3951     0.2310   -26.1781    11.4260    11.6446    10.3255    78.8406
 2502.5000     8.6927     2.5588     0.0075  1698.1609     0.2280   -25.8775    11.3548    11.6494    11.0932    77.6788
 2503.0000     8.7054     2.5649     0.0076  1711.4789     0.2282   -25.8746    11.2840    11.3332    11.5744    75.0778
 2503.5000     8.7181     2.5733     0.0083  1724.7977     0.2278   -25.8717    11.1359    10.8755    11.8240    74.1465
 2504.0000     8.7308     2.5809     0.0094  1740.9088     0.2275   -26.2783    10.9810    10.7296    10.9397    73.2340
 2504.5000     8.7435     2.5758     0.0105  1743.6732     0.2286   -26.2711    10.8327    10.7340    10.3569    71.1158
 2505.0000     8.7561     2.5555     0.0116  1746.4376     0.2322   -26.5615    10.7033    10.5899    10.2316    72.5927
 2505.5000     8.7451     2.5564     0.0127  1749.2020     0.2234   -26.5542    10.5310    10.5953    10.2780    74.7893
 2506.0000     8.7019     2.5610     0.0138  1751.9664     0.2207   -26.3982    10.5364    10.7481    10.2807    75.7864
 2506.5000     8.6734     2.5619     0.0150  1754.7308     0.2291   -26.3909    10.6881    10.9031    10.4278    74.8645
 2507.0000     8.6899     2.5589     0.0136  1757.2563     0.2305   -26.5327    10.8420    10.9836    10.8759    74.4130
 2507.5000     8.7063     2.5568     0.0123  1770.5919     0.2290   -26.5253    10.9220    11.0637    11.0315    74.4600
 2508.0000     8.7528     2.5578     0.0094  1774.4213     0.2261   -26.6804    11.0793    10.9914    10.9549    74.9774
 2508.5000     8.7992     2.5615     0.0096  1781.8729     0.2217   -27.1042    11.1610    11.0738    10.7342    75.9815
 2509.0000     8.7853     2.5631     0.0098  1779.9449     0.2216   -27.3946    11.1656    11.0783    10.6625    73.7530
 2509.5000     8.7718     2.5632     0.0100  1778.1755     0.2222   -27.3874    11.0160    10.9945    11.1215    70.7819
 2510.0000     8.7737     2.5588     0.0104  1791.5410     0.2237   -27.6795    10.8487    10.6351    11.3595    69.8506
 2510.5000     8.7495     2.5566     0.0118  1789.7281     0.2281   -27.5217    10.4301    10.4197    11.2045    74.2154
 2511.0000     8.7364     2.5545     0.0135  1787.9712     0.2380   -27.3656    10.2893    10.3506    10.4540    74.4835
 2511.5000     8.7232     2.5538     0.0167  1791.9636     0.2374   -27.2096    10.5113    10.5010    10.3122    74.2813
 2512.0000     8.7100     2.5531     0.0183  1784.2898     0.2316   -27.0535    11.0395    10.9530    10.3150    74.8081
 2512.5000     8.7059     2.5608     0.0185  1782.4771     0.2310   -26.8850    11.3540    11.2666    10.6835    75.5653
 2513.0000     8.7078     2.5684     0.0186  1780.4491     0.2418   -26.7396    11.0485    11.1154    10.7612    75.8429
 2513.5000     8.7092     2.5700     0.0173  1763.5739     0.2411   -26.4348    10.9003    10.8148    10.4682    75.6406
 2514.0000     8.7107     2.5641     0.0158  1761.9337     0.2348   -26.2787    11.0575    11.1247    10.8430    74.4788
 2514.5000     8.7122     2.5574     0.0143  1760.1208     0.2332   -26.1227    11.3812    11.4442    11.4676    71.3980
 2515.0000     8.6987     2.5379     0.0118  1758.2638     0.2353   -26.1154    11.5386    11.5287    11.8774    72.6515
 2515.5000     8.7001     2.5508     0.0104  1756.4952     0.2361   -25.9612    11.5432    11.6139    11.7162    74.1832
 2516.0000     8.6866     2.5554     0.0091  1754.6825     0.2325   -26.1012    11.5479    11.6186    11.3973    75.1185
 2516.5000     8.6885     2.5585     0.0100  1752.8705     0.2343   -26.0938    11.5526    11.4616    11.2425    74.1872
 2517.0000     8.6746     2.5571     0.0124  1751.0577     0.2321   -26.2459    11.5573    11.2306    11.4035    75.6735
 2517.5000     8.6764     2.5572     0.0126  1748.9723     0.2315   -26.3768    11.4013    11.1572    11.4066    77.6302
 2518.0000     8.6777     2.5588     0.0128  1747.2020     0.2368   -26.6672    11.1719    11.1619    11.4098    78.8672
 2518.5000     8.6943     2.5528     0.0139  1745.4316     0.2281   -26.9576    11.0222    11.0817    11.0999    78.6650
 2519.0000     8.6958     2.5492     0.0146  1743.6622     0.2292   -27.3950    10.7993    10.9288    10.4281    78.2134
 2519.5000     8.6973     2.5546     0.0148  1711.6803     0.2274   -27.5383    10.8039    10.7781    10.6512    78.2605
 2520.0000     8.6987     2.5592     0.0119  1709.9109     0.2312   -27.5293    10.6590    10.6496    11.3435    78.5380
 2520.5000     8.7002     2.5593     0.0106  1723.2465     0.2330   -27.5220    10.3722    10.5790    11.4252    79.7750
 2521.0000     8.7017     2.5542     0.0108  1736.5826     0.2279   -27.5148    10.2332    10.4371    10.5124    80.7786
 2521.5000     8.7182     2.5505     0.0109  1752.2056     0.2320   -27.3586    10.1665    10.2980     9.9452    81.7703
 2522.0000     8.7346     2.5461     0.0095  1777.9175     0.2214   -27.2024    10.2415    10.3023     9.6745    79.6574
 2522.5000     8.7361     2.5477     0.0113  1776.5897     0.2211   -27.1936    10.2457    10.3858    10.3852    76.8165
 2523.0000     8.7529     2.5515     0.0144  1789.9261     0.2253   -27.1864    10.3932    10.4562    10.4507    75.6547
 2523.5000     8.7694     2.5524     0.0176  1787.9150     0.2289   -26.8815    10.5429    10.6070    10.2380    75.6923
 2524.0000     8.8158     2.5585     0.0193  1785.9438     0.2243   -26.8743    10.5473    10.6113    10.2408    75.7300
 2524.5000     8.8623     2.5669     0.0210  1769.0676     0.2252   -26.5694    10.5525    10.6156    10.3524    75.7676
 2525.0000     8.8787     2.5670     0.0226  1767.3717     0.2263   -26.5622    10.7045    10.6199    10.4869    74.8457
 2525.5000     8.9102     2.5632     0.0228  1750.4221     0.2297   -26.2573    10.7835    10.7731    10.3923    73.4441
 2526.0000     8.9267     2.5587     0.0245  1748.5421     0.2335   -26.2500    10.9388    11.0815    10.6896    72.5222
 2526.5000     8.9581     2.5552     0.0247  1731.7218     0.2322   -25.9452    11.0963    11.2418    10.9183    70.8806
