~VERSION INFORMATION
 VERS.                2.0:   CWLS LOG ASCII STANDARD - VERSION 2.0
 WRAP.                 NO:   ONE LINE PER DEPTH STEP
~WELL INFORMATION
#MNEM.UNIT      DATA TYPE    INFORMATION
#----------   ------------   ------------------------------
 STRT.F          794.0000:   START DEPTH
 STOP.F         2828.0000:   STOP DEPTH
 STEP.F            0.5000:   STEP LENGTH
 NULL.          -999.2500:   NO VALUE
 COMP.           U S NAVY:   COMPANY
 WELL. U S NAVY NPR 3 "A" #10-33:   WELL
 FLD .        TEAPOT DOME:   FIELD
 LOC .      S33 T39N R78W:   LOCATION
 CNTY.            NATRONA:   COUNTY
 STAT.            WYOMING:   STATE
 CTRY. UNITED STATES OF AMERICA:   COUNTRY
 SRVC.         MCCULLOUGH:   SERVICE COMPANY
 DATE.        25-JUL-1968:   LOGDATE
 API .     49025102180000:   API NUMBER
~CURVE INFORMATION
#MNEM.UNIT       API CODE    CURVE DESCRIPTION
#----------   ------------   ------------------------------
 DEPT.F                  :   
 GRN .GAPI   35 310 01 00:   GAMMA RAY
 NEUT.NAPI   35 330 01 00:   NEUTRON
 TEMP.DEG    99 000 00 00:   TEMPERATURE AT TOOL
~PARAMETER INFORMATION
#MNEM.UNIT          VALUE    DESCRIPTION
#----------   ------------   ------------------------------
 EKB .F            0.0000:   Kelly bushing
 EGL .F            0.0000:   Ground level
 EDF .F            0.0000:   Drilling floor
 EPD .F            0.0000:   Permanent datum
 TD  .F         2829.0000:   Total depth
 DATE.        25-JUL-1968:   Date logged
 CLNT.            A2DTECH:   Client Code
 DL  .F              2829:   Depth logger
 BLI .F              2825:   Bottom log interval
 TLI .F               800:   Top log interval
 DFT .                DRY:   Type fluid in hole
 TCS .HRS               2:   Time Circ. stopped
 ENGI.           KIMBERRY:   Recorded By
 ORIG.        2" 5" PRINT:   Origin of data
 UWI .     49025102180000:   Unique Well ID
 DICO. A2D TECHNOLOGIES, INC.:   Digitizing Company
~OTHER INFORMATION
~A   DEPT       GRN      NEUT       TEMP   
# ...
 2068.0000    78.5500   473.5360  -999.2500
 2068.5000    79.4560   478.2340  -999.2500
 2069.0000    80.8940   481.0760  -999.2500
 2069.5000    81.6940   471.4080  -999.2500
 2070.0000    76.2760   469.8210  -999.2500
 2070.5000    76.0510   489.1430  -999.2500
 2071.0000    72.4590   506.8840  -999.2500
 2071.5000    70.4730   518.4890  -999.2500
 2072.0000    71.0410   505.2340  -999.2500
 2072.5000    72.2880   507.5330  -999.2500
 2073.0000    73.0530   510.2870  -999.2500
 2073.5000    73.0950   511.5640  -999.2500
 2074.0000    74.8180   502.0880  -999.2500
 2074.5000    75.0730   499.8210  -999.2500
 2075.0000    75.1090   494.7530  -999.2500
 2075.5000    75.5990   493.9740  -999.2500
 2076.0000    73.6520   500.3870  -999.2500
 2076.5000    72.0820   511.4590  -999.2500
 2077.0000    72.1540   523.4030  -999.2500
 2077.5000    72.8130   533.3990  -999.2500
 2078.0000    74.7070   544.1350  -999.2500
 2078.5000    74.9860   549.6420  -999.2500
 2079.0000    76.0000   552.8290  -999.2500
 2079.5000    75.9400   549.4120  -999.2500
 2080.0000    75.2810   542.7910  -999.2500
 2080.5000    73.5700   544.5640  -999.2500
 2081.0000    72.2260   526.0000  -999.2500
 2081.5000    71.4060   510.9880  -999.2500
 2082.0000    71.1260   506.4680  -999.2500
 2082.5000    71.1110   519.5640  -999.2500
 2083.0000    71.8090   511.9240  -999.2500
 2083.5000    72.9980   502.8140  -999.2500
 2084.0000    74.5520   492.1120  -999.2500
 2084.5000    75.8140   477.0540  -999.2500
 2085.0000    75.1130   473.4130  -999.2500
 2085.5000    73.5950   471.4320  -999.2500
 2086.0000    72.9640   484.1610  -999.2500
 2086.5000    73.2190   494.4200  -999.2500
 2087.0000    72.8930   501.6160  -999.2500
 2087.5000    73.1080   516.6320  -999.2500
 2088.0000    73.7810   505.2520  -999.2500
 2088.5000    74.7710   504.1170  -999.2500
 2089.0000    74.2300   511.5800  -999.2500
 2089.5000    73.4170   523.1270  -999.2500
 2090.0000    73.9420   512.3020  -999.2500
 2090.5000    75.5610   520.8050  -999.2500
 2091.0000    76.6630   518.8510  -999.2500
 2091.5000    76.1890   517.6900  -999.2500
 2092.0000    75.9810   516.4110  -999.2500
 2092.5000    75.6760   521.4080  -999.2500
 2093.0000    74.9620   524.0120  -999.2500
 2093.5000    74.9260   508.4400  -999.2500
 2094.0000    73.1040   494.3480  -999.2500
 2094.5000    71.6940   508.9350  -999.2500
 2095.0000    71.7900   504.9980  -999.2500
 2095.5000    73.8990   503.3870  -999.2500
 2096.0000    74.1470   491.2590  -999.2500
 2096.5000    74.8010   491.1540  -999.2500
 2097.0000    73.1080   495.0320  -999.2500
 2097.5000    73.3760   499.9410  -999.2500
 2098.0000    74.0810   496.6710  -999.2500
 2098.5000    74.3220   495.1910  -999.2500
 2099.0000    74.7130   495.0580  -999.2500
 2099.5000    74.9900   500.5850  -999.2500
 2100.0000    74.0420   510.9960  -999.2500
 2100.5000    74.0160   521.5050  -999.2500
 2101.0000    74.3810   532.3860  -999.2500
 2101.5000    75.7110   534.2820  -999.2500
 2102.0000    77.0440   516.8800  -999.2500
 2102.5000    77.3550   502.1790  -999.2500
 2103.0000    75.8540   492.5080  -999.2500
 2103.5000    73.3040   484.4450  -999.2500
 2104.0000    73.0020   478.2220  -999.2500
 2104.5000    76.5430   467.1850  -999.2500
 2105.0000    76.1870   466.6500  -999.2500
 2105.5000    76.4190   491.2120  -999.2500
 2106.0000    76.1060   497.6600  -999.2500
 2106.5000    77.2920   504.1780  -999.2500
 2107.0000    77.8010   509.9340  -999.2500
 2107.5000    75.6730   507.0710  -999.2500
 2108.0000    74.8230   510.0910  -999.2500
 2108.5000    74.6950   513.2870  -999.2500
 2109.0000    74.5890   515.8330  -999.2500
 2109.5000    73.0930   514.2200  -999.2500
 2110.0000    72.0050   505.3130  -999.2500
 2110.5000    71.2650   492.8320  -999.2500
 2111.0000    71.6180   490.2240  -999.2500
 2111.5000    71.2340   483.7290  -999.2500
 2112.0000    71.5820   478.4860  -999.2500
 2112.5000    72.7560   485.0510  -999.2500
 2113.0000    73.5150   491.6970  -999.2500
 2113.5000    71.6070   513.8990  -999.2500
 2114.0000    70.5140   522.8160  -999.2500
 2114.5000    70.1300   521.1890  -999.2500
 2115.0000    68.7430   525.7000  -999.2500
 2115.5000    67.5740   523.1600  -999.2500
 2116.0000    66.8170   511.9540  -999.2500
 2116.5000    67.5460   503.2230  -999.2500
 2117.0000    68.1530   494.2440  -999.2500
 2117.5000    67.4650   490.6200  -999.2500
 2118.0000    68.0060   493.2870  -999.2500
 2118.5000    67.4320   507.0920  -999.2500
 2119.0000    65.3200   518.2340  -999.2500
 2119.5000    65.6180   524.8590  -999.2500
 2120.0000    66.7410   528.0910  -999.2500
 2120.5000    67.5010   487.3270  -999.2500
 2121.0000    67.8620   493.1780  -999.2500
 2121.5000    67.5880   493.3130  -999.2500
 2122.0000    67.4720   482.9260  -999.2500
 2122.5000    69.4420   472.4180  -999.2500
 2123.0000    68.4630   473.7380  -999.2500
 2123.5000    67.7560   492.1960  -999.2500
 2124.0000    68.5240   500.8430  -999.2500
 2124.5000    70.4190   495.2160  -999.2500
 2125.0000    71.4450   496.5070  -999.2500
 2125.5000    73.1110   511.2760  -999.2500
 2126.0000    75.2290   499.3550  -999.2500
 2126.5000    75.0900   481.4470  -999.2500
 2127.0000    75.0360   495.0340  -999.2500
 2127.5000    75.8240   510.2160  -999.2500
 2128.0000    75.8170   508.3670  -999.2500
 2128.5000    74.6150   532.6330  -999.2500
 2129.0000    74.2970   510.9750  -999.2500
 2129.5000    74.5400   505.5600  -999.2500
 2130.0000    74.5650   489.6180  -999.2500
 2130.5000    72.6410   514.5600  -999.2500
 2131.0000    71.2730   516.6940  -999.2500
 2131.5000    73.3050   501.3960  -999.2500
 2132.0000    74.7780   482.6350  -999.2500
 2132.5000    75.2710   494.0300  -999.2500
 2133.0000    75.0550   496.4670  -999.2500
 2133.5000    74.7730   507.1400  -999.2500
 2134.0000    75.0210   513.4320  -999.2500
 2134.5000    75.5870   493.4190  -999.2500
 2135.0000    75.6050   490.3320  -999.2500
 2135.5000    75.7150   495.1210  -999.2500
 2136.0000    76.2570   503.4060  -999.2500
 2136.5000    75.6860   509.4010  -999.2500
 2137.0000    74.7800   498.4560  -999.2500
 2137.5000    74.9830   489.1970  -999.2500
 2138.0000    75.6140   499.2740  -999.2500
 2138.5000    75.0710   508.0410  -999.2500
 2139.0000    75.7990   501.6360  -999.2500
 2139.5000    75.6640   495.8600  -999.2500
 2140.0000    74.5550   498.7940  -999.2500
 2140.5000    72.4070   511.0270  -999.2500
 2141.0000    71.6300   523.5470  -999.2500
 2141.5000    71.6360   531.9690  -999.2500
 2142.0000    70.9040   538.3840  -999.2500
 2142.5000    72.5590   544.0600  -999.2500
 2143.0000    75.6740   547.9780  -999.2500
 2143.5000    78.1760   550.5240  -999.2500
 2144.0000    78.9720   538.4160  -999.2500
 2144.5000    80.1880   552.6330  -999.2500
 2145.0000    77.8040   557.2820  -999.2500
 2145.5000    78.7040   557.0220  -999.2500
 2146.0000    77.3430   552.2760  -999.2500
 2146.5000    77.8780   533.8530  -999.2500
 2147.0000    78.3850   517.8520  -999.2500
 2147.5000    77.0070   512.0310  -999.2500
 2148.0000    75.4170   503.8160  -999.2500
 2148.5000    74.5780   495.0930  -999.2500
 2149.0000    72.2170   493.4410  -999.2500
 2149.5000    70.3920   501.7380  -999.2500
 2150.0000    70.7300   505.6130  -999.2500
 2150.5000    71.5100   493.8950  -999.2500
 2151.0000    71.4020   494.8820  -999.2500
 2151.5000    70.8190   507.6510  -999.2500
 2152.0000    69.6510   508.9440  -999.2500
 2152.5000    67.6280   502.2970  -999.2500
 2153.0000    68.6810   503.6590  -999.2500
 2153.5000    70.5820   537.0600  -999.2500
 2154.0000    70.8810   543.9140  -999.2500
 2154.5000    71.4930   535.6100  -999.2500
 2155.0000    71.3170   544.3670  -999.2500
 2155.5000    72.3360   549.3170  -999.2500
 2156.0000    73.9940   543.6110  -999.2500
 2156.5000    78.0220   527.8550  -999.2500
 2157.0000    80.7240   525.5280  -999.2500
 2157.5000    81.5450   535.2730  -999.2500
 2158.0000    81.7080   534.3200  -999.2500
 2158.5000    80.6170   536.2810  -999.2500
