~VERSION INFORMATION
 VERS.                2.0:   CWLS LOG ASCII STANDARD - VERSION 2.0
 WRAP.                 NO:   ONE LINE PER DEPTH STEP
~WELL INFORMATION
#MNEM.UNIT      DATA TYPE    INFORMATION
#----------   ------------   ------------------------------
 STRT.F          298.0000:   START DEPTH
 STOP.F         3084.0000:   STOP DEPTH
 STEP.F            0.5000:   STEP LENGTH
 NULL.          -999.2500:   NO VALUE
 COMP. LAWERNCE ALLISON AND ASSOCIATED:   COMPANY
 WELL. LAWERNCE "TX" #77-20:   WELL
 FLD .        TEAPOT DOME:   FIELD
 LOC .      S20 T39N R78W:   LOCATION
 CNTY.            NATRONA:   COUNTY
 STAT.            WYOMING:   STATE
 CTRY. UNITED STATES OF AMERICA:   COUNTRY
 SRVC.       SCHLUMBERGER:   SERVICE COMPANY
 DATE.        22-JAN-1982:   LOGDATE
 API .     49025108840000:   API NUMBER
~CURVE INFORMATION
#MNEM.UNIT       API CODE    CURVE DESCRIPTION
#----------   ------------   ------------------------------
 DEPT.F                  :   
 CALD.IN     45 280 60 00:   CALIPER FROM DENSITY LOG
 GRD .GAPI   45 310 01 00:   GAMMA RAY FROM DENSITY LOG
 TEND.LBS    45 635 01 00:   TENSION FROM DENSITY LOG
 RHOB.G/C3   45 350 01 00:   BULK DENSITY
 NPHI.DEC    42 890 03 00:   NEUTRON POROSITY SANDSTONE
 CORR.G/C3   45 356 01 00:   DENSITY CORRECTION
 SFLU.OHMM   07 220 01 00:   SPHERICALLY FOCUSED LOG UNAVERAGED RESISTIVITY
 ILD .OHMM   07 120 46 00:   INDUCTION LOG DEEP RESISTIVITY
 ILM .OHMM   07 120 44 00:   INDUCTION LOG MEDIUM RESISTIVITY
 TENR.LBS    07 635 01 00:   TENSION
 SPR .MV     07 010 01 00:   SPONTANEOUS POTENTIAL
~PARAMETER INFORMATION
#MNEM.UNIT          VALUE    DESCRIPTION
#----------   ------------   ------------------------------
 EKB .F         5022.0000:   Kelly bushing
 EGL .F         5012.0000:   Ground level
 EDF .F         5021.0000:   Drilling floor
 TD  .F         3079.0000:   Total depth
 DATE.        22-JAN-1982:   Date logged
 CLNT.            A2DTECH:   Client Code
 SL  . 986' FSL & 779' FEL:   Surface Location
 PD  .                 GL:   Permanent Datum
 EPD .F              5012:   Elevation Permanent Datum
 LMF .                 KB:   Log Measured From
 DMF .                 KB:   Drilling Measured From
 DAPD.F                10:   Feet Above Permanent Datum
 DD  .F              3079:   Depth driller
 DL  .F              3070:   Depth logger
 BLI .F              3064:   Bottom log interval
 TLI .F               328:   Top log interval
 CS1 .IN            9.625:   Casing size
 CBD1.      9.625" @ 300':   Casing driller 1
 CBL1.F               328:   Casing logger 1
 BS1 .IN            7.875:   Bit size
 BSD1.F              3079:   Depth drilled with bit1
 DFT .           CHEM/GEL:   Type fluid in hole
 DFD .                8.9:   Density
 DFV .                 50:   Viscosity
 DFPH.               10.5:   pH
 DFL .                  8:   Fluid loss
 MSS .           FLOWLINE:   Source of sample
 RMS .OHMM           2.53:   Rm
 MST .F                49:   Rm Meas. temp.
 RMF .OHMM           2.04:   Rmf
 MFST.F                49:   Rmf Meas. temp.
 RMC .OHMM           3.80:   Rmc
 MCST.F                49:   Rmc Meas. temp.
 MFSS.               MEAS:   Source Rmf.
 MCSS.               CALC:   Source Rmc.
 RMB .OHMM           1.04:   Rm. at BHT
 BHT .F               119:   BHT.
 TCS .HRS            0330:   Time Circ. stopped
 TLAB.HRS            0800:   Time logger at bottom
 MRT .F               119:   Maximum recorded temp.
 LUN .               8043:   Logging unit number
 LUL .               CSPR:   Logging unit location
 ENGI.            PERAKIS:   Recorded By
 WITN.              SCOTT:   Witnessed by
 ORIG.           5" PRINT:   Origin of data
 UWI .     49025108840000:   Unique Well ID
 DICO. A2D TECHNOLOGIES, INC.:   Digitizing Company
~OTHER INFORMATION
~A   DEPT       CALD       GRD      TEND         RHOB       NPHI     CORR       SFLU        ILD        ILM       TENR        SPR   
# ...
  694.5000    11.3040    89.4990   637.2240     2.4870     0.3360     0.0200     7.9720     7.9700     7.6060   630.5610     7.8450
  695.0000    11.3730    90.3250   638.0230     2.4800     0.3310     0.0240     8.0990     8.0060     7.6690   631.3600     7.6510
  695.5000    11.3770    92.0070   638.8230     2.4690     0.3420     0.0260     8.2260     8.0500     7.7700   632.1600     7.1810
  696.0000    11.3760    92.7980   639.5940     2.4550     0.3550     0.0220     8.2730     8.0950     7.8720   632.9590     6.6080
  696.5000    11.3760    89.9250   646.5030     2.4480     0.3680     0.0300     8.2730     8.1200     7.9700   633.7590     6.2720
  697.0000    11.3330    86.5890   653.1740     2.4790     0.3720     0.0480     8.1960     8.0540     7.9700   634.5580     6.4510
  697.5000    11.2480    85.2740   659.8450     2.5170     0.3700     0.0640     8.1570     8.0010     7.9030   635.3580     6.6320
  698.0000    11.1620    86.8920   666.5160     2.5060     0.3680     0.0480     8.1110     7.9480     7.8260   636.1570     6.8150
  698.5000    11.0740    89.6300   673.1860     2.4850     0.3530     0.0290     8.0660     7.8950     7.7480   636.9570     7.0050
  699.0000    11.0520    90.9000   679.8570     2.4690     0.3360     0.0210     8.0200     7.8420     7.6770   637.7560     7.0570
  699.5000    11.0520    90.6890   686.5280     2.4740     0.3240     0.0320     7.9740     7.7890     7.4000   638.5560     7.0540
  700.0000    11.0530    89.3100   693.1990     2.4820     0.3230     0.0430     8.0840     7.7350     7.1440   639.3550     6.9600
  700.5000    11.0540    87.7220   700.5080     2.4800     0.3230     0.0510     8.2110     7.6770     6.8630   638.3180     6.8690
  701.0000    11.0550    87.8280   686.8510     2.4760     0.3270     0.0500     8.3510     7.8990     7.1550   636.4970     6.7780
  701.5000    11.0560    88.4680   671.7500     2.4790     0.3390     0.0480     8.5990     8.2130     7.7300   634.6770     6.6870
  702.0000    11.0570    89.8140   656.6500     2.4820     0.3520     0.0430     8.8730     8.5270     8.1610   632.8570     6.5980
  702.5000    11.0580    89.7870   641.5490     2.4800     0.3560     0.0340     9.1680     8.8410     8.5340   631.0370     6.5080
  703.0000    11.0590    89.7920   626.4490     2.4810     0.3470     0.0240     9.1810     9.1550     8.9060   629.2170     6.4550
  703.5000    11.0610    89.7990   598.9850     2.4800     0.3370     0.0200     9.2200     9.4360     9.1090   627.3970     6.2960
  704.0000    11.0620    90.8560   619.2890     2.4700     0.3330     0.0160     9.2790     9.4970     9.1900   625.5770     6.1390
  704.5000    11.0630    92.7600   626.0770     2.4600     0.3420     0.0170     9.4690     9.5570     9.2710   623.7560     5.9740
  705.0000    11.0640    91.4620   633.3580     2.4680     0.3420     0.0180     9.6590     9.6170     9.3520   621.9360     5.6280
  705.5000    11.0650    89.0550   639.5940     2.4870     0.3300     0.0210     9.8480     9.6770     9.4320   620.1160     5.2850
  706.0000    11.0660    86.8510   680.2030     2.5050     0.3210     0.0240     9.9820     9.7370     9.5170   640.1520     5.3630
  706.5000    11.0670    86.7930   690.7610     2.5150     0.3130     0.0280    10.0480     9.7970     9.5760   680.2030     5.5580
  707.0000    11.0680    89.0360   673.0350     2.5190     0.3060     0.0310    10.1140     9.8570     9.6380   700.5080     5.6900
  707.5000    11.0690    89.6160   655.3080     2.5120     0.2970     0.0310    10.1790     9.9180     9.6990   681.0150     5.8310
  708.0000    11.0700    89.8020   637.5810     2.4970     0.2930     0.0220    10.2450     9.9780     9.7610   660.6290     5.6390
  708.5000    11.0710    89.9760   619.2890     2.4830     0.2900     0.0120    10.3110    10.0380     9.8230   639.5940     5.5180
  709.0000    11.0880    90.1510   619.2890     2.4680     0.2910     0.0040    10.3520    10.0990     9.8850   622.7730     5.3840
  709.5000    11.1140    90.3320   619.2890     2.4660     0.2950     0.0060    10.4490    10.1600     9.9460   627.3030     5.3060
  710.0000    11.1410    89.9710   621.7160     2.4800     0.3010     0.0090    10.3750    10.0940     9.9720   631.8330     5.4530
  710.5000    11.1680    89.3400   624.2020     2.4950     0.3100     0.0220    10.2480    10.0080     9.8150   636.3630     5.5060
  711.0000    11.1760    87.6670   626.6880     2.5060     0.3180     0.0290    10.1200     9.8720     9.6820   640.8930     5.6790
  711.5000    11.1800    87.0630   629.1740     2.5010     0.3270     0.0250     9.9920     9.7000     9.5480   645.4240     5.7290
  712.0000    11.1830    86.7440   631.6600     2.4930     0.3320     0.0180     9.8640     9.5290     9.4150   649.9540     5.7700
  712.5000    11.1870    86.7720   634.1460     2.4960     0.3220     0.0190     9.7370     9.3570     9.2810   654.4840     5.8110
  713.0000    11.1910    85.8170   636.6320     2.5050     0.3100     0.0250     9.6090     9.2220     9.1480   659.0140     5.8580
  713.5000    11.1950    85.5620   639.1180     2.5070     0.3050     0.0260     9.4810     9.1410     9.0150   655.5810     5.6640
  714.0000    11.1990    87.3100   619.5860     2.4960     0.3120     0.0250     9.3530     9.0600     8.8810   650.2160     5.3790
  714.5000    11.2020    89.5600   620.3090     2.4800     0.3190     0.0180     9.2260     8.9790     8.7500   644.8520     5.0830
  715.0000    11.2060    91.8730   621.0320     2.4650     0.3180     0.0120     9.0980     8.8980     8.6910   639.5940     5.0670
  715.5000    11.2100    93.4150   621.7550     2.4520     0.3160     0.0050     8.9900     8.8170     8.6190   645.8310     5.0690
  716.0000    11.2140    93.1990   622.4780     2.4550     0.3170     0.0050     8.9540     8.7360     8.5470   651.9470     5.0700
  716.5000    11.2280    90.5150   623.2000     2.4720     0.3170     0.0120     8.9170     8.6550     8.4760   658.0630     5.0700
  717.0000    11.2420    87.5650   623.9230     2.4890     0.3100     0.0190     8.8800     8.5740     8.4040   664.1790     5.0730
  717.5000    11.2560    85.2070   624.6460     2.4900     0.3020     0.0150     8.8430     8.4930     8.3320   670.2940     5.0490
  718.0000    11.2690    86.3120   625.3690     2.4780     0.3050     0.0100     8.8060     8.4120     8.2600   676.4100     4.5880
  718.5000    11.2830    87.6360   626.0920     2.4680     0.3100     0.0070     8.7690     8.3330     8.1880   682.5260     4.1440
  719.0000    11.2940    87.3600   626.8150     2.4720     0.3130     0.0070     8.7330     8.2630     8.1200   688.6420     3.6990
  719.5000    11.2910    86.2960   627.5380     2.4760     0.3140     0.0080     8.6960     8.1960     8.0950   694.7570     3.3840
  720.0000    11.2880    85.6110   628.2610     2.4750     0.3140     0.0100     8.6690     8.1960     8.0660   700.5080     3.3730
  720.5000    11.2840    85.7860   628.9840     2.4720     0.3300     0.0190     8.7660     8.2440     8.0440   685.0760     3.7100
  721.0000    11.2810    86.2580   629.7070     2.4770     0.3240     0.0270     8.8430     8.3000     8.1470   670.5150     4.0420
  721.5000    11.2780    86.7320   630.4290     2.4890     0.3190     0.0350     8.9200     8.3550     8.2270   659.3230     4.3720
  722.0000    11.2740    86.8970   631.1520     2.4940     0.3230     0.0430     8.9970     8.4290     8.3080   657.2000     4.7060
  722.5000    11.2710    86.4190   631.8750     2.5000     0.3320     0.0480     9.0740     8.3640     8.3510   655.0760     4.9680
  723.0000    11.2670    85.1510   632.5980     2.5180     0.3410     0.0510     9.0830     8.2680     8.1670   652.9530     5.0960
  723.5000    11.2640    84.4850   633.3210     2.5410     0.3430     0.0550     8.7580     8.1720     7.9970   650.8290     5.1410
  724.0000    11.2610    84.6040   634.0440     2.5550     0.3260     0.0610     8.3900     8.0760     7.8270   648.7060     5.1820
  724.5000    11.2570    86.4610   634.7670     2.5410     0.3140     0.0590     8.3510     7.9800     7.6060   646.5820     5.2230
