~VERSION INFORMATION
 VERS.                2.0:   CWLS LOG ASCII STANDARD - VERSION 2.0
 WRAP.                 NO:   ONE LINE PER DEPTH STEP
~WELL INFORMATION
#MNEM.UNIT      DATA TYPE    INFORMATION
#----------   ------------   ------------------------------
 STRT.F          200.0000:   START DEPTH
 STOP.F         2968.0000:   STOP DEPTH
 STEP.F            0.5000:   STEP LENGTH
 NULL.          -999.2500:   NO VALUE
 COMP. FENIX & SCISSON U.S. NAVY:   COMPANY
 WELL.   FENIX "A" #23-28:   WELL
 FLD .              NPR 3:   FIELD
 LOC .      S28 T39N R78W:   LOCATION
 CNTY.            NATRONA:   COUNTY
 STAT.            WYOMING:   STATE
 CTRY. UNITED STATES OF AMERICA:   COUNTRY
 SRVC.       SCHLUMBERGER:   SERVICE COMPANY
 DATE.        10-JUN-1977:   LOGDATE
 API .     49025103860000:   API NUMBER
~CURVE INFORMATION
#MNEM.UNIT       API CODE    CURVE DESCRIPTION
#----------   ------------   ------------------------------
 DEPT.F                  :   
 SPR .MV     07 010 01 00:   SPONTANEOUS POTENTIAL
 RILM.OHMM   07 120 44 00:   INDUCTION LOG MEDIUM RESISTIVITY
 RILD.OHMM   07 120 46 00:   DEEP INDUCTION RESISTIVITY
 LL8 .None   99 022 08 00:   LATEROLOG
 GRD .GAPI   45 310 01 00:   GAMMA RAY FROM DENSITY LOG
 CALD.IN     45 280 60 00:   CALIPER FROM DENSITY LOG
 RHOB.G/C3   45 350 01 00:   BULK DENSITY
 DRHO.G/C3   45 356 01 00:   DENSITY CORRECTION
~PARAMETER INFORMATION
#MNEM.UNIT          VALUE    DESCRIPTION
#----------   ------------   ------------------------------
 EKB .F         5019.0000:   Kelly bushing
 EGL .F         5009.0000:   Ground level
 EDF .F            0.0000:   Drilling floor
 EPD .F         5009.0000:   Permanent datum
 TD  .F         2971.0000:   Total depth
 DATE.        10-JUN-1977:   Date logged
 CLNT.            A2DTECH:   Client Code
 SL  . 1650' FNL & 990' FWL:   Surface Location
 DAPD.F                10:   Feet Above Permanent Datum
 DD  .F              2970:   Depth driller
 DL  .F              2971:   Depth logger
 BLI .F              2905:   Bottom log interval
 TLI .F               216:   Top log interval
 CS1 .IN            8.625:   Casing size
 CBD1.      9.625" @ 216':   Casing driller 1
 CBL1.F               216:   Casing logger 1
 BS1 .IN            7.875:   Bit size
 BSD1.F              2970:   Depth drilled with bit1
 DFT .            KCL MUD:   Type fluid in hole
 DFD .                8.8:   Density
 DFV .                 32:   Viscosity
 DFPH.                8.5:   pH
 DFL .                7.4:   Fluid loss
 MSS .               CIRC:   Source of sample
 RMS .OHMM           1.87:   Rm
 MST .F                85:   Rm Meas. temp.
 RMF .OHMM           1.69:   Rmf
 MFST.F                85:   Rmf Meas. temp.
 RMC .OHMM           2.80:   Rmc
 MCST.F                85:   Rmc Meas. temp.
 MFSS.               MEAS:   Source Rmf.
 MCSS.               CALC:   Source Rmc.
 RMB .OHMM           1.43:   Rm. at BHT
 BHT .F               111:   BHT.
 TCS .HRS            1600:   Time Circ. stopped
 TLAB.HRS            0945:   Time logger at bottom
 MRT .F               111:   Maximum recorded temp.
 LUN .               7711:   Logging unit number
 LUL .               CSPR:   Logging unit location
 ENGI.             SAYLER:   Recorded By
 WITN.         HARRINGTON:   Witnessed by
 ORIG.           5" PRINT:   Origin of data
 UWI .     49025103860000:   Unique Well ID
 DICO. A2D TECHNOLOGIES, INC.:   Digitizing Company
~OTHER INFORMATION
~A  DEPTH      SPR       RILM       RILD        LL8        GRD       CALD       RHOB       DRHO
  200.0000  -999.2500  -999.2500  -999.2500  -999.2500    56.9210  -999.2500  -999.2500  -999.2500
  200.5000  -999.2500  -999.2500  -999.2500  -999.2500    56.8140  -999.2500  -999.2500  -999.2500
  201.0000  -999.2500  -999.2500  -999.2500  -999.2500    56.8950  -999.2500  -999.2500  -999.2500
  201.5000  -999.2500  -999.2500  -999.2500  -999.2500    56.3540  -999.2500  -999.2500  -999.2500
  202.0000  -999.2500  -999.2500  -999.2500  -999.2500    55.7890  -999.2500  -999.2500  -999.2500
  202.5000  -999.2500  -999.2500  -999.2500  -999.2500    56.9930  -999.2500  -999.2500  -999.2500
  203.0000  -999.2500  -999.2500  -999.2500  -999.2500    58.2930  -999.2500  -999.2500  -999.2500
  203.5000  -999.2500  -999.2500  -999.2500  -999.2500    58.2190  -999.2500  -999.2500  -999.2500
  204.0000  -999.2500  -999.2500  -999.2500  -999.2500    56.9590  -999.2500  -999.2500  -999.2500
  204.5000  -999.2500  -999.2500  -999.2500  -999.2500    55.6970  -999.2500  -999.2500  -999.2500
  205.0000  -999.2500  -999.2500  -999.2500  -999.2500    56.5090  -999.2500  -999.2500  -999.2500
  205.5000  -999.2500  -999.2500  -999.2500  -999.2500    56.0950  -999.2500     2.3230  -999.2500
  206.0000  -999.2500  -999.2500  -999.2500  -999.2500    57.3110  -999.2500     2.3200  -999.2500
  206.5000  -999.2500  -999.2500  -999.2500  -999.2500    57.2290  -999.2500     2.3200  -999.2500
  207.0000  -999.2500  -999.2500  -999.2500  -999.2500    56.1100  -999.2500     2.3270  -999.2500
  207.5000  -999.2500  -999.2500  -999.2500  -999.2500    55.4670  -999.2500     2.3560  -999.2500
  208.0000  -999.2500  -999.2500  -999.2500  -999.2500    56.7280  -999.2500     2.3720  -999.2500
  208.5000  -999.2500  -999.2500  -999.2500  -999.2500    57.9860  -999.2500     2.3670  -999.2500
  209.0000  -999.2500  -999.2500  -999.2500  -999.2500    58.2030  -999.2500     2.3660    -0.2050
  209.5000  -999.2500  -999.2500  -999.2500  -999.2500    57.0720  -999.2500     2.3790    -0.1970
  210.0000  -999.2500  -999.2500  -999.2500  -999.2500    55.9480  -999.2500     2.3830    -0.1910
  210.5000  -999.2500  -999.2500  -999.2500  -999.2500    54.7760     8.1770     2.3800    -0.1930
  211.0000  -999.2500  -999.2500  -999.2500  -999.2500    55.5050     8.1880     2.3780    -0.1920
  211.5000  -999.2500  -999.2500  -999.2500  -999.2500    56.7490     8.1980     2.3800    -0.1900
  212.0000  -999.2500  -999.2500  -999.2500  -999.2500    58.0140     8.2060     2.3960    -0.1900
  212.5000  -999.2500  -999.2500  -999.2500    12.2490    58.5360     8.2170     2.4120    -0.1880
  213.0000  -999.2500  -999.2500  -999.2500    15.0430    58.6080     8.2270     2.4210    -0.1840
  213.5000  -999.2500  -999.2500  -999.2500    15.3830    60.0520     8.2380     2.4190    -0.1920
  214.0000  -999.2500  -999.2500  -999.2500    16.2590    61.4170     8.2720     2.4200    -0.1940
  214.5000  -999.2500  -999.2500  -999.2500    17.0230    60.6210     8.2740     2.4410    -0.1880
  215.0000  -999.2500  -999.2500  -999.2500    16.5590    59.7200     8.2640     2.4570    -0.1930
  215.5000  -999.2500  -999.2500  -999.2500    17.6620    58.8030     8.2580     2.4620    -0.1870
  216.0000  -999.2500  -999.2500    59.2320    17.5000    59.5210     8.2500     2.4640    -0.1920
  216.5000  -999.2500    13.0740    40.1260    18.3700    61.9750     8.2410     2.4520    -0.1620
  217.0000  -999.2500    12.5600    19.7260    19.9080    65.6640     8.3150     2.4410    -0.0840
  217.5000  -999.2500    12.1750    18.6430    18.7370    69.9270     8.4880     2.5050     0.0000
  218.0000  -999.2500    35.8980    18.7050    17.4140    71.3500     8.9080     2.5840     0.0460
  218.5000  -999.2500    51.8640    16.9830    16.4070    72.1920     9.3960     2.4500     0.0630
  219.0000  -999.2500    73.1520    15.6690    14.9630    72.0480     9.8920     2.4340     0.0600
  219.5000  -999.2500    82.9910    18.9930    15.8140    72.1700    10.3900     2.4250     0.0570
  220.0000  -118.6790    77.8090    23.0830    15.3560    70.7520    10.9010     2.4410     0.0560
  220.5000  -118.9480    99.7770    24.9160    14.7810    69.2010    11.3930     2.4480     0.0560
  221.0000  -118.4730    90.2030    25.9640    14.3490    70.1980    12.1310     2.4420     0.0420
  221.5000  -118.3220    71.6190    28.5350    15.6690    71.6780    12.8910     2.4450     0.0340
  222.0000  -118.2590    70.1540    31.1060    16.9250    70.6200    13.2140     2.4370     0.0290
  222.5000  -118.1660    55.6960    33.6770    18.3240    74.9340    13.4800     2.4220     0.0190
  223.0000  -117.8520    59.0240    36.5770    17.9370    73.0620    13.5600     2.4290     0.0200
  223.5000  -117.5070    57.3730    39.3580    17.5820    73.1660    13.5880     2.4380     0.0170
  224.0000  -117.1230    53.0810    35.5860    17.0230    72.1720    13.7160     2.4050     0.0130
  224.5000  -115.9550    49.8700    31.5230    17.0400    71.0370    13.8810     2.4120     0.0130
  225.0000  -115.1070    46.6700    28.7500    17.0810    70.4150    13.7490     2.4270     0.0160
  225.5000  -113.2330    43.4700    25.9770    17.1210    69.8270    13.5470     2.4410     0.0160
  226.0000  -113.5830    38.9750    23.2040    17.1620    69.6000    12.4210     2.4550     0.0270
  226.5000  -114.1780    34.1100    20.2780    17.1800    70.4300    10.4220     2.4500     0.0220
  227.0000  -114.0790    29.2450    20.0290    17.0230    70.6250    10.4710     2.4380     0.0140
  227.5000  -113.9950    23.9350    19.7660    17.0230    71.7750    10.4670     2.4220     0.0070
  228.0000  -114.2390    22.5520    19.3660    17.0230    72.1480    10.3650     2.4120     0.0180
  228.5000  -114.1920    21.0300    19.4570    17.0230    74.5450    10.2850     2.4360     0.0210
  229.0000  -113.4900    19.5080    19.6480    16.6260    75.6380    10.3060     2.4330     0.0160
  229.5000  -113.0820    18.6650    19.8380    16.2560    74.9510    10.3290     2.4330     0.0110
  230.0000  -112.4650    20.0630    20.0060    15.8870    74.2810    10.3470     2.4410     0.0160
  230.5000  -113.7100    21.1880    20.2340    15.6690    73.8490    10.3380     2.4370     0.0120
  231.0000  -115.7540    22.3130    20.4660    15.6690    74.0350    10.3270     2.4480     0.0160
  231.5000  -118.2060    23.4380    20.1110    15.8140    74.2780    10.3160     2.4580     0.0200
  232.0000  -119.3930    24.7220    19.7260    15.6690    76.0080    10.3090     2.4540     0.0140
  232.5000  -121.5010    26.3200    20.2040    15.9410    77.7220    10.3310     2.4510     0.0080
  233.0000  -123.3910    27.7830    20.4660    16.3070    79.0550    10.3530     2.4570     0.0140
  233.5000  -123.4440    28.2070    20.0840    16.7120    77.9350    10.3590     2.4550     0.0100
  234.0000  -123.5300    28.5120    19.9080    16.5260    76.2130    10.3530     2.4530     0.0130
  234.5000  -123.5940    28.5120    19.9080    16.2560    75.1700    10.3610     2.4630     0.0210
  235.0000  -123.6550    28.5120    19.1760    15.9300    76.8650    10.3700     2.4730     0.0220
  235.5000  -123.7120    28.1890    18.5330    15.3830    77.7810    10.3790     2.4800     0.0270
  236.0000  -123.8130    27.4360    17.8900    15.5250    78.1300    10.3870     2.4850     0.0370
  236.5000  -123.8830    26.5630    17.5330    15.2420    78.9600    10.3870     2.4880     0.0210
  237.0000  -123.3110    25.2930    17.8210    15.1020    79.8080    10.3870     2.4800     0.0220
  237.5000  -122.7470    23.3960    18.0510    15.2490    79.3460    10.3870     2.4720     0.0170
  238.0000  -122.1870    21.5000    18.1560    15.3830    77.3270    10.3850     2.4740     0.0180
  238.5000  -121.6290    18.6650    17.3650    15.6690    75.9120    10.4070     2.4790     0.0270
  239.0000  -121.0690    18.8690    16.7730    15.3830    76.4920    10.4070     2.4790     0.0220
  239.5000  -120.5080    18.9730    16.1080    15.5250    76.9390    10.4070     2.4710     0.0130
  240.0000  -119.9540    19.0760    16.4850    15.8570    75.9110    10.4070     2.4670     0.0110
