~VERSION INFORMATION
 VERS.                2.0:   CWLS LOG ASCII STANDARD - VERSION 2.0
 WRAP.                 NO:   ONE LINE PER DEPTH STEP
~WELL INFORMATION
#MNEM.UNIT      DATA TYPE    INFORMATION
#----------   ------------   ------------------------------
 STRT.F          206.0000:   START DEPTH
 STOP.F         3080.5000:   STOP DEPTH
 STEP.F            0.5000:   STEP LENGTH
 NULL.          -999.2500:   NO VALUE
 COMP.    FENIX & SCISSON:   COMPANY
 WELL.   FENIX "A" #61-28:   WELL
 FLD .           N P R #3:   FIELD
 LOC .      S28 T39N R78W:   LOCATION
 CNTY.            NATRONA:   COUNTY
 STAT.            WYOMING:   STATE
 CTRY. UNITED STATES OF AMERICA:   COUNTRY
 SRVC.        SCHLUMBEGER:   SERVICE COMPANY
 DATE.        16-MAY-1977:   LOGDATE
 API .     49025103680000:   API NUMBER
~CURVE INFORMATION
#MNEM.UNIT       API CODE    CURVE DESCRIPTION
#----------   ------------   ------------------------------
 DEPT.F                  :   
 SPR .MV     07 010 01 00:   SPONTANEOUS POTENTIAL
 LL8 .OHMM   07 220 08 00:   LATEROLOG-8 RES.
 ILM .OHMM   07 120 44 00:   INDUCTION LOG MEDIUM RESISTIVITY
 ILD .OHMM   07 120 46 00:   DEEP INDUCTION RESISTIVITY
 CALD.IN     45 280 60 00:   CALIPER FROM DENSITY LOG
 GRD .GAPI   45 310 01 00:   GAMMA RAY FROM DENSITY LOG
 RHOB.G/C3   45 350 01 00:   BULK DENSITY
 CORR.G/C3   45 356 01 00:   DENSITY CORRECTION
~PARAMETER INFORMATION
#MNEM.UNIT          VALUE    DESCRIPTION
#----------   ------------   ------------------------------
 EKB .F         5019.0000:   Kelly bushing
 EGL .F         5009.0000:   Ground level
 EDF .F            0.0000:   Drilling floor
 TD  .F         3050.0000:   Total depth
 DATE.        16-MAY-1977:   Date logged
 CLNT.            A2DTECH:   Client Code
 SL  . 330' FNL & 1650' FEL:   Surface Location
 PD  .                 GL:   Permanent Datum
 DD  .F              3050:   Depth driller
 DL  .F              3079:   Depth logger
 BLI .F              3072:   Bottom log interval
 CS1 .IN            8.625:   Casing size
 CBD1.      8.625" @ 213':   Casing driller 1
 CBL1.F               213:   Casing logger 1
 BS1 .IN            7.875:   Bit size
 DFT .            KCL-MUD:   Type fluid in hole
 DFD .                9.2:   Density
 DFV .                 32:   Viscosity
 DFPH.                  8:   pH
 DFL .                7.6:   Fluid loss
 MSS .              CIRC.:   Source of sample
 RMS .OHMM          0.128:   Rm
 MST .F                62:   Rm Meas. temp.
 RMF .OHMM          0.126:   Rmf
 MFST.F                62:   Rmf Meas. temp.
 RMC .OHMM          0.192:   Rmc
 MCST.F                62:   Rmc Meas. temp.
 MFSS.               MEAS:   Source Rmf.
 RMB .OHMM           0.07:   Rm. at BHT
 BHT .F               112:   BHT.
 TCS .HRS            0900:   Time Circ. stopped
 MRT .F               112:   Maximum recorded temp.
 LUN .               7711:   Logging unit number
 LUL .               CSPR:   Logging unit location
 ENGI.             SAYLER:   Recorded By
 WITN.         PETTINGILL:   Witnessed by
 ORIG.           5" PRINT:   Origin of data
 UWI .     49025103680000:   Unique Well ID
 DICO. A2D TECHNOLOGIES, INC.:   Digitizing Company
 DAPD.                 10:   Feet Above Permanent Datum
 BSD1.               3050:   Depth drilled with bit1
 MCSS.               CALC:   Source Rmc.
 EPD .F              5009:   Elevation Permanent Datum
 LMF .                 KB:   Log Measured From
 DMF .                 KB:   Drilling Measured From
 TLI .F               213:   Top log interval
 TLAB.               1100:   Time logger at bottom
~OTHER INFORMATION
~A   DEPT      SPR        LL8        ILM        ILD       CALD         GRD      RHOB       CORR   
# ...
 1542.5000   -43.8000     9.0730     8.7450     8.4290     8.8690   114.0860     2.5600     0.0210
 1543.0000   -43.8000     9.0720     8.7450     8.4290     8.8710   115.2610     2.5590     0.0190
 1543.5000   -43.8000     9.0730     8.7450     8.4290     8.8730   116.4190     2.5770     0.0270
 1544.0000   -43.8000     9.0730     8.7450     8.4290     8.8750   117.2690     2.5720     0.0280
 1544.5000   -43.8000     9.1140     8.7450     8.4290     8.8780   118.1090     2.5620     0.0180
 1545.0000   -43.8000     9.1550     8.7450     8.4290     8.8780   118.9140     2.5520     0.0110
 1545.5000   -43.8000     9.1950     8.7450     8.4290     8.8780   119.2950     2.5450     0.0050
 1546.0000   -43.8000     9.2410     8.7450     8.4290     8.8780   119.6990     2.5470     0.0020
 1546.5000   -43.8000     9.1750     8.7450     8.4290     8.8780   120.1060     2.5510     0.0030
 1547.0000   -43.8000     9.0450     8.7450     8.4290     8.8780   120.5010     2.5540     0.0060
 1547.5000   -43.8000     8.9070     8.7450     8.4290     8.8780   121.2820     2.5580     0.0090
 1548.0000   -43.8000     9.3590     8.7450     8.4330     8.8780   121.7760     2.5530     0.0110
 1548.5000   -43.8000     9.5870     8.7450     8.4920     8.8780   122.2030     2.5420     0.0050
 1549.0000   -43.8000     9.4540     8.7490     8.5800     8.8780   122.0390     2.5340    -0.0020
 1549.5000   -43.8000     9.2480     8.7660     8.5370     8.8780   122.3680     2.5340    -0.0090
 1550.0000   -43.8000     9.0420     8.7820     8.4860     8.8780   120.2870     2.5370    -0.0140
 1550.5000   -43.8000     8.8360     8.7990     8.4320     8.8780   117.9350     2.5400    -0.0090
 1551.0000   -43.8000     8.6300     8.8160     8.4560     8.8780   115.7580     2.5420    -0.0040
 1551.5000   -43.8000     8.5850     8.8320     8.4800     8.8780   114.0360     2.5450     0.0000
 1552.0000   -43.8000     8.9860     8.8490     8.5060     8.8780   112.5830     2.5320    -0.0070
 1552.5000   -43.8000     9.4120     8.8660     8.5320     8.8780   115.2690     2.5170    -0.0080
 1553.0000   -43.8000     9.3520     8.8820     8.5580     8.8780   118.0030     2.5080    -0.0060
 1553.5000   -43.8000     9.2440     8.9090     8.5850     8.8790   120.7150     2.5040    -0.0040
 1554.0000   -43.8000     9.1360     8.9050     8.5850     8.8800   121.8430     2.5150    -0.0030
 1554.5000   -43.8000     9.0280     8.8210     8.5740     8.8810   121.5550     2.5240    -0.0050
 1555.0000   -43.8000     8.9200     8.7490     8.5390     8.8820   121.0180     2.5230    -0.0040
 1555.5000   -43.8000     8.8130     8.6750     8.5040     8.8830   120.4910     2.5240     0.0000
 1556.0000   -43.8000     8.7050     8.6010     8.4680     8.8840   119.9410     2.5340     0.0050
 1556.5000   -43.8000     8.5850     8.5260     8.4300     8.8850   119.1280     2.5450     0.0070
 1557.0000   -43.8000     8.5850     8.4290     8.4590     8.8860   118.7420     2.5450     0.0040
 1557.5000   -43.8000     8.7450     8.5380     8.5190     8.8870   118.1980     2.5420     0.0000
 1558.0000   -43.8000     9.1760     8.6980     8.5790     8.8890   117.1220     2.5420     0.0060
 1558.5000   -43.8000     9.6670     8.8570     8.6390     8.8900   115.7870     2.5490     0.0120
 1559.0000   -43.8000    10.1300     9.0170     8.7000     8.8910   115.8810     2.5520     0.0100
 1559.5000   -43.8000     9.5480     9.0720     8.7440     8.8920   115.5600     2.5570     0.0090
 1560.0000   -43.8000     9.2410     9.0390     8.7310     8.8930   114.5800     2.5610     0.0100
 1560.5000   -43.8000     9.4120     9.0000     8.7000     8.8940   113.7830     2.5630     0.0110
 1561.0000   -43.8000     9.3120     8.9620     8.6700     8.8950   114.7100     2.5640     0.0120
 1561.5000   -43.8000     9.1920     8.9230     8.6390     8.8960   117.1330     2.5620     0.0130
 1562.0000   -43.8000     9.0720     8.8840     8.6080     8.8980   119.5720     2.5560     0.0100
 1562.5000   -43.8000     9.0880     8.8450     8.5780     8.9010   120.2840     2.5500     0.0040
 1563.0000   -43.8000     9.1140     8.8060     8.5470     8.9170   120.6020     2.5430    -0.0010
 1563.5000   -43.8000     9.1400     8.7670     8.5170     8.9320   120.3110     2.5370    -0.0030
 1564.0000   -43.8000     9.1660     8.7280     8.4860     8.9480   119.5810     2.5300    -0.0050
 1564.5000   -43.8000     9.1920     8.6890     8.4560     8.9630   118.5490     2.5240    -0.0030
 1565.0000   -43.8000     9.2190     8.6500     8.4250     8.9780   116.9890     2.5200     0.0000
 1565.5000   -43.8000     9.2410     8.6120     8.3940     8.9940   115.4800     2.5260     0.0030
 1566.0000   -43.8000     9.2410     8.5730     8.3630     9.0000   115.1390     2.5310     0.0050
 1566.5000   -43.8000     9.1880     8.5330     8.3330     9.0040   115.0580     2.5340     0.0080
 1567.0000   -43.8000     9.1320     8.4940     8.3020     9.0070   113.7150     2.5300     0.0110
 1567.5000   -43.8000     9.0760     8.4310     8.2750     9.0110   112.2490     2.5260     0.0120
 1568.0000   -43.8000     9.0200     8.4380     8.2980     9.0140   111.9130     2.5240     0.0080
 1568.5000   -43.8000     8.9640     8.4680     8.3300     9.0170   113.0850     2.5270     0.0080
 1569.0000   -43.8000     8.9080     8.4990     8.3610     9.0200   115.8730     2.5300     0.0090
 1569.5000   -43.8000     8.8530     8.5290     8.3930     9.0230   118.7910     2.5410     0.0130
 1570.0000   -43.8000     8.7970     8.5590     8.4280     9.0260   119.8430     2.5560     0.0200
 1570.5000   -43.8000     8.7450     8.5890     8.4530     9.0290   120.6650     2.5690     0.0200
 1571.0000   -43.8000     8.8130     8.6190     8.5060     9.0320   119.9210     2.5730     0.0160
 1571.5000   -43.8000     8.9160     8.6490     8.5580     9.0340   119.0570     2.5720     0.0160
 1572.0000   -43.8000     9.0180     8.6800     8.6110     9.0370   117.6230     2.5590     0.0120
 1572.5000   -43.8000     9.1210     8.7080     8.6630     9.0340   114.9470     2.5430    -0.0010
 1573.0000   -43.8000     9.2410     8.7430     8.7160     9.0300   112.4190     2.5370     0.0040
 1573.5000   -43.8000     9.2410     8.7450     8.7470     9.0260   112.2550     2.5430     0.0100
 1574.0000   -43.8000     9.2340     8.7360     8.7170     9.0210   113.1640     2.5490     0.0120
 1574.5000   -43.8000     9.2050     8.7190     8.6700     9.0170   115.5880     2.5550     0.0120
 1575.0000   -43.8000     9.1750     8.7030     8.6230     9.0130   118.2140     2.5500     0.0100
 1575.5000   -43.8000     9.1460     8.6880     8.5760     9.0080   115.2650     2.5400     0.0080
 1576.0000   -43.8000     9.1160     8.6720     8.5300     9.0040   111.7470     2.5320     0.0060
 1576.5000   -43.8000     9.0860     8.6560     8.4830     8.9990   110.2050     2.5350     0.0090
 1577.0000   -43.8000     9.0570     8.6400     8.4370     9.0010   111.6000     2.5390     0.0110
 1577.5000   -43.8000     9.0270     8.6250     8.3900     9.0060   112.9430     2.5440     0.0090
 1578.0000   -43.8000     8.9980     8.6090     8.3430     9.0110   114.8870     2.5500     0.0100
 1578.5000   -43.8000     8.9680     8.5900     8.2760     9.0160   117.1540     2.5500     0.0140
 1579.0000   -43.8000     8.9390     8.6250     8.3200     9.0220   118.8210     2.5490     0.0130
 1579.5000   -43.8000     8.9070     8.7090     8.4030     9.0270   119.8060     2.5520     0.0120
 1580.0000   -43.8000     9.0910     8.7900     8.4850     9.0320   120.2420     2.5480     0.0090
 1580.5000   -43.8000     9.2890     8.8710     8.5670     9.0370   120.4190     2.5420     0.0060
 1581.0000   -43.8000     9.4870     8.9520     8.6500     9.0350   119.6140     2.5360     0.0050
 1581.5000   -43.8000     9.6850     9.0330     8.7320     9.0310   118.7310     2.5380     0.0100
 1582.0000   -43.8000     9.8830     9.0740     8.8150     9.0280   117.4820     2.5450     0.0140
 1582.5000   -43.8000    10.0240     9.0600     8.9070     9.0240   114.2240     2.5530     0.0130
