~VERSION INFORMATION
 VERS.                2.0:   CWLS LOG ASCII STANDARD - VERSION 2.0
 WRAP.                 NO:   ONE LINE PER DEPTH STEP
~WELL INFORMATION
#MNEM.UNIT      DATA TYPE    INFORMATION
#----------   ------------   ------------------------------
 STRT.F            0.0000:   START DEPTH
 STOP.F         4030.0000:   STOP DEPTH
 STEP.F            0.5000:   STEP LENGTH
 NULL.          -999.2500:   NO VALUE
 COMP.  FENIX AND SCISSON:   COMPANY
 WELL.  FENIX "LX" #33-10:   WELL
 FLD . TEAPOT DOME (NPR #3):   FIELD
 LOC .      S10 T38N R78W:   LOCATION
 CNTY.            NATRONA:   COUNTY
 STAT.            WYOMING:   STATE
 CTRY. UNITED STATES OF AMERICA:   COUNTRY
 SRVC.       SCHLUMBERGER:   SERVICE COMPANY
 DATE.        03-APR-1978:   LOGDATE
 API .     49025105980000:   API NUMBER
~CURVE INFORMATION
#MNEM.UNIT       API CODE    CURVE DESCRIPTION
#----------   ------------   ------------------------------
 DEPT.F                  :   
 SPR .MV     07 010 01 00:   SPONTANEOUS POTENTIAL
 ILD .OHMM   07 120 46 00:   DEEP INDUCTION RESISTIVITY
 SFL .OHMM   07 220 01 00:   SHALLOW FOCUSED LOG RESISTIVITY
 ILM .OHMM   07 120 44 00:   INDUCTION LOG MEDIUM RESISTIVITY
 NPHI.DEC    42 890 03 00:   NEUTRON POROSITY SANDSTONE
 GRD .GAPI   45 310 01 00:   GAMMA RAY FROM DENSITY LOG
 CALD.IN     45 280 60 00:   CALIPER FROM DENSITY LOG
 RHOB.G/C3   45 350 01 00:   BULK DENSITY
 CORR.G/C3   45 356 01 00:   DENSITY CORRECTION
~PARAMETER INFORMATION
#MNEM.UNIT          VALUE    DESCRIPTION
#----------   ------------   ------------------------------
 EKB .F         5232.0000:   Kelly bushing
 EGL .F         5222.0000:   Ground level
 EDF .F            0.0000:   Drilling floor
 EPD .F         5222.0000:   Permanent datum
 TD  .F         4040.0000:   Total depth
 DATE.        03-APR-1978:   Date logged
 CLNT.            A2DTECH:   Client Code
 SL  . 1700' FNL & 1700' FWL:   Surface Location
 PD  .                 GL:   Permanent Datum
 DD  .F              4040:   Depth driller
 DL  .F              4031:   Depth logger
 BLI .F              4025:   Bottom log interval
 CS1 .IN            8.625:   Casing size
 CBD1.      8.625" @ 503':   Casing driller 1
 CBL1.F               504:   Casing logger 1
 BS1 .IN            7.875:   Bit size
 DFT .           CHEM GEL:   Type fluid in hole
 DFD .                9.5:   Density
 DFV .                 43:   Viscosity
 DFPH.               11.5:   pH
 DFL .                4.4:   Fluid loss
 MSS .            MUD PIT:   Source of sample
 RMS .OHMM           1.16:   Rm
 MST .F                80:   Rm Meas. temp.
 RMF .OHMM           0.93:   Rmf
 MFST.F                80:   Rmf Meas. temp.
 RMC .OHMM           1.74:   Rmc
 MCST.F                80:   Rmc Meas. temp.
 MFSS.               MEAS:   Source Rmf.
 RMB .OHMM          0.742:   Rm. at BHT
 BHT .F               125:   BHT.
 TCS .HRS            0800:   Time Circ. stopped
 MRT .F               125:   Maximum recorded temp.
 LUN .               7660:   Logging unit number
 LUL .                GLT:   Logging unit location
 ENGI.            TOEPPER:   Recorded By
 WITN.           MCGINLEY:   Witnessed by
 ORIG.         2.5" PRINT:   Origin of data
 UWI .     49025105980000:   Unique Well ID
 DICO. A2D TECHNOLOGIES, INC.:   Digitizing Company
 DAPD.                 10:   Feet Above Permanent Datum
 BSD1.               4040:   Depth drilled with bit1
 MCSS.               CALC:   Source Rmc.
 LMF .                 KB:   Log Measured From
 DMF .                 KB:   Drilling Measured From
 TLI .                504:   Top log interval
 TLAB.               1000:   Time logger at bottom
~OTHER INFORMATION
~A    DEPT     SPR        ILD        SFL        ILM       NPHI         GRD      CALD       RHOB       CORR   
# ...
 2810.5000   -41.2750    10.2880    12.4870    10.5670     0.2010    95.3970     9.8110     2.5870     0.0200
 2811.0000   -41.0320    10.4750    12.2610    10.6830     0.2010    96.0050     9.8190     2.6030     0.0170
 2811.5000   -40.7830    10.4580    12.1750    10.6670     0.2040    98.6280     9.8270     2.5920     0.0150
 2812.0000   -40.5340    10.2200    12.1750    10.4940     0.2060   100.4480     9.8350     2.5790     0.0140
 2812.5000   -40.3920     9.9830    11.8410    10.3200     0.2080   101.5840     9.8430     2.5890     0.0140
 2813.0000   -40.3240     9.7450    11.5090    10.1470     0.2100   102.5840     9.8500     2.5740     0.0110
 2813.5000   -40.2560     9.5070    11.1780     9.9740     0.2110   103.5600     9.8580     2.5590     0.0070
 2814.0000   -40.1810     9.2700    10.9130     9.8010     0.2060   104.6330     9.8660     2.5650     0.0090
 2814.5000   -40.1100     9.0720    10.5100     9.6270     0.1970   105.1260     9.8740     2.5740     0.0120
 2815.0000   -40.0610     9.1360    10.6300     9.7130     0.2000   104.8420     9.8820     2.5830     0.0160
 2815.5000   -40.1430     9.2200    10.9610     9.8770     0.2060   104.6360     9.8900     2.5950     0.0190
 2816.0000   -40.2810     9.3360    11.3120    10.0420     0.2120   104.3360     9.8980     2.6080     0.0250
 2816.5000   -40.5410     9.4630    11.2020    10.2060     0.2120   103.1580     9.9050     2.6130     0.0290
 2817.0000   -41.4970     9.5910    11.0000    10.3710     0.2070   101.3380     9.9190     2.6030     0.0340
 2817.5000   -41.6230     9.7180    10.9030    10.5350     0.2010   100.8450     9.9440     2.6080     0.0340
 2818.0000   -41.6370     9.8450    11.4980    10.7000     0.1960   100.3970     9.9260     2.6120     0.0300
 2818.5000   -41.6360     9.9720    12.0280    10.8640     0.1900    99.9510     9.8810     2.5960     0.0140
 2819.0000   -41.6250    10.1000    12.4570    11.0290     0.1850    99.4830     9.8410     2.5800     0.0190
 2819.5000   -41.4490    10.2270    12.6310    11.1940     0.1780    97.9470     9.8000     2.5950     0.0420
 2820.0000   -41.2410    10.3850    12.7460    11.3810     0.1790    96.6610     9.7580     2.6070     0.0360
 2820.5000   -41.0310    10.6240    12.9130    11.6290     0.1810    95.2750     9.7180     2.5930     0.0220
 2821.0000   -40.8230    10.8620    13.1040    11.8760     0.1830    93.9370     9.6750     2.6190     0.0330
 2821.5000   -40.6160    11.1000    13.0360    12.1230     0.1850    92.5880     9.6360     2.6630     0.0450
 2822.0000   -40.4070    11.3380    12.8650    12.3710     0.1820    91.2350     9.5950     2.6560     0.0480
 2822.5000   -40.1970    11.5770    12.8650    12.6180     0.1750    89.8890     9.6260     2.6400     0.0350
 2823.0000   -40.0230    11.8150    13.1040    12.8650     0.1680    88.5310     9.6620     2.6280     0.0240
 2823.5000   -39.9470    12.0530    14.9850    13.1130     0.1600    87.1900     9.7000     2.6190     0.0130
 2824.0000   -39.8700    12.2910    17.2490    13.3600     0.1530    86.0770     9.7370     2.6030     0.0090
 2824.5000   -39.7910    12.5290    18.5820    13.6070     0.1610    86.7090     9.7730     2.6250     0.0290
 2825.0000   -39.7200    12.7680    17.8730    13.8540     0.1690    88.4200     9.8100     2.6180     0.0240
 2825.5000   -39.6530    13.0060    17.1690    14.1040     0.1770    89.5290     9.8500     2.5980     0.0210
 2826.0000   -39.7900    13.1040    16.4660    13.6520     0.1850    89.8820     9.8630     2.6040     0.0180
 2826.5000   -39.9340    12.6360    15.7620    13.3210     0.1900    90.3420     9.8400     2.6190     0.0400
 2827.0000   -40.0850    12.2420    15.4620    12.9900     0.1960    90.7780     9.8210     2.6080     0.0500
 2827.5000   -40.2350    11.8480    14.2140    12.6590     0.1920    91.2490     9.8000     2.6110     0.0470
 2828.0000   -40.3790    11.4530    12.5850    12.3280     0.1890    91.6160     9.7890     2.6220     0.0360
 2828.5000   -40.5290    11.0590    11.5220    11.9970     0.1850    92.1420     9.7900     2.6100     0.0170
 2829.0000   -40.6920    10.6650    12.9770    11.6670     0.1820    92.7770     9.7920     2.5790    -0.0080
 2829.5000   -40.7890    10.2700    14.6320    11.3120     0.1870    96.8920     9.7990     2.5620    -0.0020
 2830.0000   -41.1560     9.8760    13.9030    10.9200     0.1950    99.5570     9.8050     2.5600     0.0100
 2830.5000   -41.2260     9.6780    12.5130    10.4970     0.2040   100.7050     9.8120     2.5710     0.0200
 2831.0000   -41.0000     9.4020    11.1230    10.0750     0.2130   101.5720     9.8180     2.5620     0.0140
 2831.5000   -40.7150     9.1260     9.5870     9.6520     0.2210   102.5040     9.8240     2.5410     0.0000
 2832.0000   -40.4490     8.8500     9.8080     9.2300     0.2290   103.5830     9.8300     2.5270     0.0040
 2832.5000   -40.1930     8.5740    10.1300     8.8070     0.2360   107.7080     9.8370     2.5240     0.0260
 2833.0000   -39.8060     8.1860     9.7070     8.3950     0.2440   113.1210     9.8430     2.5240     0.0450
 2833.5000   -39.6280     7.6750     8.8170     7.9950     0.2510   118.4110     9.8490     2.5310     0.0660
 2834.0000   -39.6420     7.1630     7.9770     7.5950     0.2590   122.5550     9.8560     2.5150     0.0430
 2834.5000   -39.6430     6.6520     7.2970     7.1950     0.2660   123.4080     9.8610     2.5010     0.0260
 2835.0000   -39.6390     6.1410     6.4790     6.7950     0.2740   123.4280     9.8690     2.5430     0.0340
 2835.5000   -39.6420     5.6300     5.5230     6.3950     0.2670   128.3770     9.8640     2.5700     0.0400
 2836.0000   -39.6410     5.1310     5.6150     5.9960     0.2750   138.2170     9.8520     2.5210     0.0350
 2836.5000   -39.6360     4.5000     5.7260     5.5960     0.2980   151.9400     9.8420     2.4860     0.0240
 2837.0000   -39.6110     3.8840     5.8360     5.1960     0.3380   165.8620     9.8300     2.4650     0.0380
 2837.5000   -39.5870     3.2680     4.7880     4.5620     0.3590   174.6530     9.8270     2.4470     0.0570
 2838.0000   -39.5620     2.6520     3.7490     3.7760     0.3790   182.4350     9.8600     2.4300     0.0990
 2838.5000   -39.5370     2.0360     2.9020     2.9890     0.3990   189.2740     9.9600     2.4120     0.1540
 2839.0000   -39.5130     1.8140     2.4600     2.2030     0.4200   184.8500    10.0640     2.3940     0.1450
 2839.5000   -39.4880     1.7030     2.1980     1.8200     0.4380   173.9900    10.1640     2.3410     0.0990
 2840.0000   -39.4630     1.5920     1.9300     1.7030     0.4410   164.0310    10.2230     2.2890     0.0620
 2840.5000   -39.4380     1.4970     1.7030     1.7340     0.4410   154.1320    10.0030     2.2360     0.0190
 2841.0000   -39.4140     1.4800     2.2490     1.7340     0.4000   144.0450     9.8730     2.1850     0.0790
 2841.5000   -39.3900     1.4700     2.7330     1.7670     0.3780   134.0000    10.1670     2.1340     0.1280
 2842.0000   -39.3640     1.5680     2.4840     1.7670     0.3530   124.0600    10.8920     2.0860     0.0600
 2842.5000   -39.3390     1.8640     2.0460     2.1000     0.3280   114.0970    10.7610     2.2610     0.0080
 2843.0000   -39.3230     2.1600     2.4930     2.4600     0.3030   103.4530     9.7060     2.4230     0.0130
 2843.5000   -39.2730     2.4560     2.8490     2.8190     0.2780    97.0500     9.7010     2.5500     0.0190
 2844.0000   -39.2870     2.7520     4.3930     3.1790     0.2490    96.3710     9.6760     2.5360     0.0250
 2844.5000   -39.2470     3.3100     6.3980     3.8340     0.2530    96.1140     9.7090     2.5250     0.0310
 2845.0000   -39.0750     4.1390     6.3090     4.7930     0.2570    97.5260     9.7160     2.5150     0.0210
 2845.5000   -38.4030     4.9680     6.1860     5.7530     0.2590    99.2540     9.7270     2.5050     0.0090
 2846.0000   -38.1600     5.7970     6.2810     6.7120     0.2600    98.5140     9.7430     2.5280    -0.0010
 2846.5000   -38.0380     6.6260     7.9590     7.6720     0.2470    96.0240     9.7480     2.5530     0.0100
