~VERSION INFORMATION
 VERS.                2.0:   CWLS LOG ASCII STANDARD - VERSION 2.0
 WRAP.                 NO:   ONE LINE PER DEPTH STEP
~WELL INFORMATION
#MNEM.UNIT      DATA TYPE    INFORMATION
#----------   ------------   ------------------------------
 STRT.F           70.0000:   START DEPTH
 STOP.F         2751.5000:   STOP DEPTH
 STEP.F            0.5000:   STEP LENGTH
 NULL.          -999.2500:   NO VALUE
 COMP.          INTEX OIL:   COMPANY
 WELL. INTEX N.P.R. "AX" #75-20:   WELL
 FLD .             TEAPOT:   FIELD
 LOC .      S20 T39N R78W:   LOCATION
 CNTY.            NATRONA:   COUNTY
 STAT.            WYOMING:   STATE
 CTRY. UNITED STATES OF AMERICA:   COUNTRY
 SRVC.       SCHLUMBERGER:   SERVICE COMPANY
 DATE.        06-MAY-1966:   LOGDATE
 API .     49025095120000:   API NUMBER
~CURVE INFORMATION
#MNEM.UNIT       API CODE    CURVE DESCRIPTION
#----------   ------------   ------------------------------
 DEPT.F                  :   
 CALD.IN     45 280 60 00:   CALIPER FROM DENSITY LOG
 GRD .GAPI   45 310 01 00:   GAMMA RAY FROM DENSITY LOG
 RHOB.G/C3   45 350 01 00:   BULK DENSITY
 CORR.G/C3   45 356 01 00:   DENSITY CORRECTION
 SPR .MV     05 010 01 00:   SPONTANEOUS POTENTIAL
 ILD .OHMM   05 120 46 00:   DEEP INDUCTION RESISTIVITY
 ASN .OHMM   05 041 16 00:   AMPLIFIED SHORT NORMAL 16"
~PARAMETER INFORMATION
#MNEM.UNIT          VALUE    DESCRIPTION
#----------   ------------   ------------------------------
 EKB .F         5016.3000:   Kelly bushing
 EGL .F         5006.0000:   Ground level
 EDF .F            0.0000:   Drilling floor
 TD  .F         2750.0000:   Total depth
 DATE.        06-MAY-1966:   Date logged
 CLNT.            A2DTECH:   Client Code
 PD  .                 GL:   Permanent Datum
 DD  .F              2750:   Depth driller
 DL  .F              2746:   Depth logger
 BLI .F              2745:   Bottom log interval
 CS1 .IN            10.75:   Casing size
 CBD1.       10.75" @ 30':   Casing driller 1
 BS1 .IN            7.875:   Bit size
 DFT .           OIL/EMUL:   Type fluid in hole
 DFD .                9.8:   Density
 DFV .                 43:   Viscosity
 DFPH.                  8:   pH
 DFL .               11.8:   Fluid loss
 MSS .         CIRCULATED:   Source of sample
 RMS .OHMM           1.84:   Rm
 MST .F                73:   Rm Meas. temp.
 RMF .OHMM           1.21:   Rmf
 MFST.F                74:   Rmf Meas. temp.
 MFSS.                 FP:   Source Rmf.
 RMB .OHMM           1.27:   Rm. at BHT
 BHT .F               106:   BHT.
 TCS .HRS             1.5:   Time Circ. stopped
 MRT .F               106:   Maximum recorded temp.
 LUN .               3527:   Logging unit number
 LUL .               CSPR:   Logging unit location
 ENGI.               HAUG:   Recorded By
 WITN.      TUTTLE/HUDSON:   Witnessed by
 ORIG.           5" PRINT:   Origin of data
 UWI .     49025095120000:   Unique Well ID
 DICO. A2D TECHNOLOGIES, INC.:   Digitizing Company
 DAPD.F              10.3:   Feet Above Permanent Datum
 BSD1.F              2750:   Depth drilled with bit1
 MCSS.                 FP:   Source Rmc.
 EPD .F              5006:   Elevation Permanent Datum
 LMF .                 KB:   Log Measured From
 DMF .                 KB:   Drilling Measured From
 TLI .F                88:   Top log interval
~OTHER INFORMATION
~A   DEPT     CALD        GRD       RHOB       CORR        SPR        ILD          ASN 
# ...
 2026.5000     8.6480   166.6700     2.3480    -0.0050   -48.8500     5.5300    10.4550
 2027.0000     8.6480   165.8180     2.3490    -0.0030   -48.9850     5.1100     9.7120
 2027.5000     8.6510   166.8200     2.3550    -0.0010   -49.1100     4.6890     8.8500
 2028.0000     8.7030   164.1680     2.3680     0.0040   -49.0190     4.2680     7.8840
 2028.5000     8.7570   155.9660     2.3980     0.0090   -48.2800     3.8460     6.9250
 2029.0000     8.8120   146.0700     2.4310     0.0060   -47.6470     3.4350     6.5500
 2029.5000     8.8670   136.3240     2.4660     0.0060   -48.1780     3.4190     6.1980
 2030.0000     8.9220   132.5130     2.4900     0.0170   -48.5400     3.4190     5.9370
 2030.5000     8.9770   129.0830     2.4810     0.0200   -48.1950     3.4200     5.8400
 2031.0000     9.0310   126.5410     2.4630     0.0070   -47.8710     3.4350     5.8150
 2031.5000     9.0860   127.0130     2.4530     0.0020   -47.7740     3.4620     5.9150
 2032.0000     9.1410   128.8380     2.4740     0.0030   -48.3320     3.4880     6.0110
 2032.5000     9.1920   129.2860     2.4980     0.0070   -48.7910     3.5150     5.9820
 2033.0000     9.1970   129.3900     2.4980     0.0110   -48.4070     3.5420     5.9470
 2033.5000     9.1990   129.4900     2.4970     0.0150   -48.0240     3.5680     5.9170
 2034.0000     9.2000   128.8080     2.4890     0.0150   -47.9780     3.5950     5.9370
 2034.5000     9.2020   128.3620     2.4790     0.0100   -48.2690     3.6220     6.0630
 2035.0000     9.2030   127.1500     2.4690     0.0050   -48.5560     3.6490     6.1890
 2035.5000     9.2050   125.1410     2.4700     0.0000   -48.8090     3.6750     6.3150
 2036.0000     9.2060   125.2610     2.4730    -0.0040   -48.7490     3.7020     6.4440
 2036.5000     9.2080   125.0590     2.4740    -0.0040   -48.6870     3.7290     6.4460
 2037.0000     9.2090   125.8730     2.4840     0.0000   -48.6250     3.7550     6.4160
 2037.5000     9.2110   126.1730     2.5010     0.0040   -48.5640     3.7820     6.3850
 2038.0000     9.2120   126.0580     2.5050     0.0090   -48.5020     3.8090     6.3530
 2038.5000     9.2140   126.2730     2.4990     0.0110   -48.4360     3.8360     6.3210
 2039.0000     9.2150   126.4270     2.4940     0.0080   -48.5560     3.8620     6.3130
 2039.5000     9.2170   125.6820     2.4830     0.0060   -48.7410     3.8890     6.3130
 2040.0000     9.2180   125.1680     2.4690     0.0030   -48.9270     3.9160     6.2990
 2040.5000     9.2200   124.6110     2.4600     0.0010   -49.1150     3.9430     6.2020
 2041.0000     9.2210   125.9240     2.4560     0.0020   -49.0760     3.9690     6.1350
 2041.5000     9.2230   127.4320     2.4530     0.0060   -48.8100     3.9960     6.1520
 2042.0000     9.2240   127.8650     2.4490     0.0090   -48.5470     4.0170     6.2370
 2042.5000     9.2260   129.2620     2.4530     0.0130   -48.2830     4.1540     6.3240
 2043.0000     9.2270   129.5990     2.4510     0.0140   -48.0200     4.3040     6.4110
 2043.5000     9.2290   126.9900     2.4430     0.0120   -47.8570     4.4540     6.4990
 2044.0000     9.2300   125.9450     2.4410     0.0100   -47.9730     4.6040     6.5870
 2044.5000     9.2320   125.0490     2.4520     0.0080   -48.0830     4.7120     6.6550
 2045.0000     9.2340   125.9710     2.4610     0.0060   -48.1920     4.5730     6.7180
 2045.5000     9.2340   126.6040     2.4720     0.0040   -48.3010     4.3910     6.7320
 2046.0000     9.2430   124.9610     2.4640     0.0020   -48.4110     4.2080     6.6520
 2046.5000     9.2570   123.5480     2.4630     0.0010   -48.5200     4.0250     6.5690
 2047.0000     9.2710   122.7160     2.4670     0.0020   -48.6160     3.8420     6.4850
 2047.5000     9.2840   122.8770     2.4680     0.0040   -48.4830     3.6590     6.3690
 2048.0000     9.2980   125.5090     2.4600     0.0070   -48.3310     3.4750     6.0080
 2048.5000     9.3120   128.2090     2.4490     0.0050   -48.1800     3.2920     5.6440
 2049.0000     9.3250   129.5250     2.4380     0.0030   -48.0280     3.1080     5.2790
 2049.5000     9.3390   129.0730     2.4330     0.0010   -47.8770     2.9250     4.9560
 2050.0000     9.3520   131.4600     2.4290     0.0030   -47.7260     2.7420     4.7220
 2050.5000     9.3660   133.8490     2.4260     0.0060   -47.5740     2.5580     4.5090
 2051.0000     9.3800   135.5630     2.4380     0.0090   -47.4420     2.4160     4.4630
 2051.5000     9.3930   132.9110     2.4390     0.0120   -47.5110     2.5380     4.4230
 2052.0000     9.4070   131.9800     2.4520     0.0150   -47.5810     2.5520     4.3840
 2052.5000     9.4210   132.5380     2.4770     0.0150   -47.6270     2.5690     4.3440
 2053.0000     9.4310   132.2060     2.4830     0.0130   -47.5950     2.5860     4.3030
 2053.5000     9.4330   133.2060     2.4760     0.0080   -47.5650     2.6030     4.2920
 2054.0000     9.4340   133.0790     2.4790     0.0050   -47.5360     2.6200     4.2960
 2054.5000     9.4350   130.9360     2.4740     0.0010   -47.5070     2.6370     4.3150
 2055.0000     9.4360   129.9480     2.4670    -0.0020   -47.4770     2.6540     4.3340
 2055.5000     9.4380   129.9880     2.4600     0.0000   -47.4440     2.6710     4.3520
 2056.0000     9.4390   129.6230     2.4590     0.0060   -47.6300     2.6880     4.3700
 2056.5000     9.4400   130.2830     2.4660     0.0120   -47.9310     2.7050     4.3670
 2057.0000     9.4410   132.5030     2.4700     0.0120   -48.2340     2.7220     4.3510
 2057.5000     9.4420   132.5560     2.4600     0.0080   -48.1200     2.7390     4.3350
 2058.0000     9.4440   130.6660     2.4500     0.0050   -47.3760     2.7560     4.3190
 2058.5000     9.4450   128.4410     2.4440     0.0050   -46.6880     2.7730     4.3040
 2059.0000     9.4460   128.0970     2.4470     0.0060   -47.1790     2.7900     4.2880
 2059.5000     9.4470   129.2740     2.4490     0.0070   -47.7270     2.8070     4.2720
 2060.0000     9.4480   129.4060     2.4600     0.0090   -47.5980     2.8240     4.2730
 2060.5000     9.4500   129.0870     2.4730     0.0100   -47.3170     2.8120     4.3110
 2061.0000     9.4510   128.4640     2.4810     0.0120   -47.0330     2.7970     4.3520
 2061.5000     9.4520   128.3750     2.4890     0.0130   -47.0150     2.7810     4.3920
 2062.0000     9.4530   128.8130     2.4900     0.0100   -47.5060     2.7650     4.4330
 2062.5000     9.4540   127.6640     2.4830     0.0050   -47.7210     2.7490     4.4730
 2063.0000     9.4560   126.6010     2.4780     0.0000   -47.3210     2.7340     4.5130
 2063.5000     9.4570   126.5100     2.4820    -0.0010   -47.3990     2.7180     4.5530
 2064.0000     9.4580   128.4980     2.4870     0.0020   -47.6070     2.7020     4.5690
 2064.5000     9.4590   130.7550     2.4810     0.0060   -47.8110     2.6870     4.4710
 2065.0000     9.4600   134.2620     2.4740     0.0070   -47.3450     2.6710     4.3290
 2065.5000     9.4620   133.6000     2.4570     0.0070   -46.8170     2.6550     4.1860
 2066.0000     9.4630   132.9510     2.4530     0.0060   -46.2950     2.6390     4.0430
 2066.5000     9.4640   132.8540     2.4550     0.0060   -47.1740     2.6240     3.9020
 2067.0000     9.4650   134.5340     2.4560     0.0060   -47.3160     2.6080     3.8710
 2067.5000     9.4660   136.9000     2.4510     0.0060   -47.1770     2.5920     3.8360
 2068.0000     9.4670   137.2240     2.4470     0.0060   -47.0280     2.5770     3.8360
 2068.5000     9.4690   134.6810     2.4460     0.0050   -46.8790     2.5610     3.8360
 2069.0000     9.4700   133.0000     2.4370     0.0050   -46.7300     2.5450     3.8350
 2069.5000     9.4700   131.4050     2.4320     0.0050   -46.6770     2.5300     3.8730
 2070.0000     9.4620   129.0220     2.4500     0.0050   -46.8000     2.6450     4.0410
 2070.5000     9.4550   126.8950     2.4620     0.0030   -46.9200     2.7800     4.2600
 2071.0000     9.4460   124.2170     2.4660     0.0000   -47.0390     2.9150     4.4780
 2071.5000     9.4390   124.4030     2.4690    -0.0010   -47.1590     3.0510     4.6740
