~VERSION INFORMATION
 VERS.                2.0:   CWLS LOG ASCII STANDARD - VERSION 2.0
 WRAP.                 NO:   ONE LINE PER DEPTH STEP
~WELL INFORMATION
#MNEM.UNIT      DATA TYPE    INFORMATION
#----------   ------------   ------------------------------
 STRT.F          204.5000:   START DEPTH
 STOP.F         2964.0000:   STOP DEPTH
 STEP.F            0.5000:   STEP LENGTH
 NULL.          -999.2500:   NO VALUE
 COMP.    FENIX & SCISSON:   COMPANY
 WELL. FENIX NPR 3 "AX" #14-28:   WELL
 FLD .  TEAPOT DOME NPR-3:   FIELD
 LOC .      S28 T39N R78W:   LOCATION
 CNTY.            NATRONA:   COUNTY
 STAT.            WYOMING:   STATE
 CTRY. UNITED STATES OF AMERICA:   COUNTRY
 SRVC.           BIRDWELL:   SERVICE COMPANY
 DATE.        24-MAY-1978:   LOGDATE
 API .     49025106450000:   API NUMBER
~CURVE INFORMATION
#MNEM.UNIT       API CODE    CURVE DESCRIPTION
#----------   ------------   ------------------------------
 DEPT.F                  :   
 SPR .MV     05 010 01 00:   SPONTANEOUS POTENTIAL
 CORR.G/C3   45 356 01 00:   DENSITY CORRECTION
 DEN .G/C3   45 350 01 00:   DENSITY
 CALD.IN     45 280 60 00:   CALIPER FROM DENSITY LOG
 GRD .GAPI   45 310 01 00:   GAMMA RAY FROM DENSITY LOG
 SN  .OHMM   05 040 16 00:   SHORT NORMAL 16"
 ILD .OHMM   05 120 46 00:   DEEP INDUCTION RESISTIVITY
~PARAMETER INFORMATION
#MNEM.UNIT          VALUE    DESCRIPTION
#----------   ------------   ------------------------------
 EKB .F         5042.0000:   Kelly bushing
 EGL .F         5032.0000:   Ground level
 EDF .F            0.0000:   Drilling floor
 TD  .F         2957.0000:   Total depth
 DATE.        24-MAY-1978:   Date logged
 CLNT.            A2DTECH:   Client Code
 SL  . 2410' FNL & 280' FWL:   Surface Location
 PD  .                 GL:   Permanent Datum
 EPD .F              5032:   Elevation Permanent Datum
 LMF .                 KB:   Log Measured From
 DMF .                 KB:   Drilling Measured From
 DAPD.F                10:   Feet Above Permanent Datum
 DD  .F              2950:   Depth driller
 DL  .F              2957:   Depth logger
 BLI .F              2951:   Bottom log interval
 TLI .F               225:   Top log interval
 CS1 .IN            8.625:   Casing size
 CBL1.F               225:   Casing logger 1
 BS1 .IN            7.875:   Bit size
 BSD1.F              2950:   Depth drilled with bit1
 DFT .       CHEMICAL GEL:   Type fluid in hole
 DFD .                  9:   Density
 DFV .                 34:   Viscosity
 DFPH.               10.5:   pH
 DFL .                  6:   Fluid loss
 MSS .           FLOWLINE:   Source of sample
 RMS .OHMM            1.5:   Rm
 MST .F                70:   Rm Meas. temp.
 RMF .OHMM            1.1:   Rmf
 MFST.F                78:   Rmf Meas. temp.
 RMC .OHMM            2.8:   Rmc
 MCST.F                72:   Rmc Meas. temp.
 MFSS.               MEAS:   Source Rmf.
 RMB .OHMM           0.95:   Rm. at BHT
 BHT .F               110:   BHT.
 TCS .HRS               2:   Time Circ. stopped
 MRT .F               110:   Maximum recorded temp.
 LUN .               2958:   Logging unit number
 LUL .               CASP:   Logging unit location
 ENGI.             MILLER:   Recorded By
 WITN.            RHOADES:   Witnessed by
 ORIG.           5" PRINT:   Origin of data
 UWI .     49025106450000:   Unique Well ID
 DICO. A2D TECHNOLOGIES, INC.:   Digitizing Company
~OTHER INFORMATION
~A   DEPT      SPR       CORR        DEN       CALD         GRD        SN        ILD   
# ...
 1842.5000    -4.1080     0.1820     1.6460     8.3670   114.6250     9.7710     7.8180
 1843.0000    -4.0990     0.2990     1.6820     8.3670   110.4960    10.1300     7.8100
 1843.5000    -4.0890     0.3360     1.8150     8.3670   109.7820    10.0110     7.8040
 1844.0000    -4.0800     0.3000     1.9460     8.3670   113.1530     9.8610     7.7970
 1844.5000    -4.0710     0.2610     2.0780     8.3670   115.6420     9.7110     7.7900
 1845.0000    -4.0620     0.3240     2.2090     8.3670   118.7520     9.5620     7.7830
 1845.5000    -4.0530     0.3130     2.3430     8.3670   118.3530     9.4120     7.7760
 1846.0000    -4.0440     0.2840     2.3880     8.3670   116.8240     9.4910     7.7690
 1846.5000    -4.0350     0.2390     2.3790     8.3670   114.8990     9.5690     7.7620
 1847.0000    -4.0250     0.1130     2.4910     8.3670   112.6820     9.6480     7.7550
 1847.5000    -4.0160     0.0920     2.4840     8.3670   112.7130     9.7260     7.7480
 1848.0000    -4.0070     0.0360     2.4760     8.3670   114.2990     9.8040     7.7410
 1848.5000    -3.9980     0.0270     2.4680     8.3670   114.9760     9.8830     7.7340
 1849.0000    -3.9890     0.0190     2.4630     8.3670   114.6210     9.9460     7.7270
 1849.5000    -3.9800     0.0120     2.4600     8.3670   114.7510     9.9140     7.7190
 1850.0000    -3.9710     0.0070     2.4570     8.3670   116.0740     9.8860     7.7130
 1850.5000    -3.9620     0.0120     2.4580     8.3670   117.0320     9.8600     7.7060
 1851.0000    -3.9520     0.0170     2.4590     8.3670   117.8990     9.8330     7.6980
 1851.5000    -3.9430     0.0180     2.4600     8.3670   117.6200     9.8070     7.6940
 1852.0000    -3.9340     0.0180     2.4610     8.3670   117.1640     9.7800     7.6610
 1852.5000    -3.9250     0.0180     2.4590     8.3670   116.8680     9.7540     7.6100
 1853.0000    -3.9160     0.0180     2.4520     8.3670   119.0500     9.7270     7.5590
 1853.5000    -3.9070     0.0180     2.4450     8.3670   120.5280     9.7000     7.5100
 1854.0000    -3.8980     0.0180     2.4450     8.3670   120.3810     9.6740     7.4620
 1854.5000    -3.8880     0.0220     2.4540     8.3670   119.9070     9.6470     7.4100
 1855.0000    -3.8790     0.0270     2.4600     8.3670   120.9880     9.6200     7.4120
 1855.5000    -3.8700     0.0320     2.4670     8.3670   123.2520     9.5930     7.4110
 1856.0000    -3.8610     0.0370     2.4730     8.3670   123.9670     9.5670     7.4110
 1856.5000    -3.8520     0.0370     2.4710     8.3670   123.8890     9.5400     7.4110
 1857.0000    -3.8430     0.0350     2.4720     8.3610   123.9270     9.5130     7.4110
 1857.5000    -3.8340     0.0340     2.4760     8.3410   123.9440     9.4870     7.4110
 1858.0000    -3.8240     0.0320     2.4720     8.3210   125.7000     9.4600     7.4110
 1858.5000    -3.8150     0.0310     2.4610     8.3000   124.5400     9.4330     7.4100
 1859.0000    -3.8050     0.0310     2.4520     8.2960   121.2130     9.4120     7.4450
 1859.5000    -3.7990     0.0440     2.4420     8.3330   118.9900     9.4120     7.5040
 1860.0000    -3.8000     0.0550     2.4320     8.3700   120.1420     9.4120     7.5490
 1860.5000    -3.8000     0.0710     2.4230     8.4060   121.5780     9.4120     7.5600
 1861.0000    -3.8000     0.0910     2.4110     8.4460   123.3850     9.4120     7.5700
 1861.5000    -3.8000     0.1140     2.3960     8.4370   123.2450     9.4120     7.5790
 1862.0000    -3.8000     0.1350     2.3810     8.4130   122.5690     9.4120     7.5890
 1862.5000    -3.8000     0.2120     2.3640     8.3890   121.6380     9.4120     7.5980
 1863.0000    -3.8000     0.2250     2.3690     8.3670   120.7540     9.4120     7.6080
 1863.5000    -3.8000     0.2060     2.3720     8.3410   121.0060     9.4120     7.6170
 1864.0000    -3.8000     0.1970     2.3520     8.3250   120.7580     9.4120     7.6270
 1864.5000    -3.8000     0.1970     2.3380     8.3270   120.3130     9.4120     7.6360
 1865.0000    -3.8000     0.1000     2.3130     8.3270   119.8430     9.4120     7.6460
 1865.5000    -3.8000     0.0020     2.2880     8.3270   119.3490     9.4120     7.6550
 1866.0000    -3.8000    -0.0730     2.1590     8.3270   119.0470     9.4120     7.6640
 1866.5000    -3.8000    -0.0330     2.0320     8.3270   119.0790     9.4120     7.6750
 1867.0000    -3.8000     0.0010     1.9200     8.3270   119.0680     9.4110     7.6890
 1867.5000    -3.8000     0.0430     1.8170     8.3270   119.0800     9.4160     7.6350
 1868.0000    -3.8000     0.1400     1.7510     8.3270   118.6290     9.3720     7.4980
 1868.5000    -3.8000     0.2370     1.7270     8.3270   117.7650     9.2920     7.3610
 1869.0000    -3.8000     0.2620     1.7640     8.3270   115.9910     9.2190     7.2240
 1869.5000    -3.8000     0.2850     1.9050     8.3270   115.4710     9.1450     7.1440
 1870.0000    -3.8000     0.2440     2.1220     8.3270   115.4860     9.0700     7.1500
 1870.5000    -3.8000     0.1360     2.2810     8.3270   116.4350     8.9960     7.1560
 1871.0000    -3.8000     0.1050     2.3710     8.3270   118.0870     8.9070     7.1630
 1871.5000    -3.8000     0.1260     2.4130     8.3270   121.4350     9.0790     7.1690
 1872.0000    -3.8000     0.1020     2.4370     8.3270   124.1330     9.2930     7.1750
 1872.5000    -3.8000     0.0650     2.4600     8.3270   125.9870     9.5070     7.1800
 1873.0000    -3.8000     0.0670     2.4800     8.3270   122.1930     9.7650     7.1860
 1873.5000    -3.8000     0.0690     2.4820     8.3270   118.4920     9.7560     7.1920
 1874.0000    -3.8000     0.0760     2.4830     8.3270   118.0950     9.7450     7.1970
 1874.5000    -3.8000     0.0840     2.4930     8.3270   119.0970     9.7350     7.2030
 1875.0000    -3.8000     0.0830     2.5070     8.3270   120.0280     9.7240     7.2090
 1875.5000    -3.8000     0.0580     2.5010     8.3270   121.0420     9.7140     7.2150
 1876.0000    -3.8000     0.0330     2.4610     8.3270   120.8850     9.7030     7.2200
 1876.5000    -3.8000     0.0320     2.4670     8.3270   119.1010     9.6920     7.2260
 1877.0000    -3.8000     0.0350     2.4660     8.3270   117.5330     9.6820     7.2320
 1877.5000    -3.8000     0.0380     2.4590     8.3270   117.8040     9.6710     7.2370
 1878.0000    -3.8000     0.0400     2.4480     8.3270   119.1600     9.6610     7.2430
 1878.5000    -3.8000     0.0440     2.4170     8.3270   120.5220     9.6500     7.2490
 1879.0000    -3.8000     0.0500     2.4220     8.3270   121.9050     9.6390     7.2550
 1879.5000    -3.8000     0.0570     2.4230     8.3270   120.9490     9.6290     7.2600
 1880.0000    -3.8000     0.0500     2.4460     8.3270   119.2370     9.6180     7.2660
 1880.5000    -3.8000     0.0350     2.4850     8.3270   117.4230     9.6070     7.2720
 1881.0000    -3.8000     0.0190     2.4860     8.3270   117.1900     9.5970     7.2750
 1881.5000    -3.8000     0.0150     2.4860     8.3270   118.9340     9.5860     7.2610
 1882.0000    -3.8000     0.0210     2.4840     8.3270   120.2930     9.5760     7.2490
 1882.5000    -3.8000     0.0280     2.4860     8.3270   122.5650     9.5650     7.2370
 1883.0000    -3.8000     0.0340     2.4910     8.3270   123.1140     9.5540     7.2240
 1883.5000    -3.8000     0.0320     2.4950     8.3270   123.1680     9.5440     7.2120
 1884.0000    -3.8000     0.0300     2.4940     8.3270   121.8320     9.5330     7.1990
 1884.5000    -3.8000     0.0290     2.4930     8.3270   119.2750     9.5220     7.1870
 1885.0000    -3.8000     0.0270     2.4920     8.3270   120.4140     9.5120     7.1750
 1885.5000    -3.8000     0.0250     2.4900     8.3270   122.6430     9.5010     7.1620
 1886.0000    -3.8000     0.0240     2.4890     8.3270   122.2430     9.4910     7.1500
 1886.5000    -3.8000     0.0220     2.4840     8.3270   121.9310     9.4800     7.1370
 1887.0000    -3.8000     0.0200     2.4790     8.3270   122.1380     9.4690     7.1250
 1887.5000    -3.8000     0.0190     2.4760     8.3270   122.3480     9.4590     7.1130
