~VERSION INFORMATION
 VERS.                2.0:   CWLS LOG ASCII STANDARD - VERSION 2.0
 WRAP.                 NO:   ONE LINE PER DEPTH STEP
~WELL INFORMATION
#MNEM.UNIT      DATA TYPE    INFORMATION
#----------   ------------   ------------------------------
 STRT.F           96.5000:   START DEPTH
 STOP.F         2720.0000:   STOP DEPTH
 STEP.F            0.5000:   STEP LENGTH
 NULL.          -999.2500:   NO VALUE
 COMP.          INTEX OIL:   COMPANY
 WELL. INTEX NPR 65 "AX" #3-20:   WELL
 FLD .             TEAPOT:   FIELD
 LOC .      S20 T39N R78W:   LOCATION
 CNTY.            NATRONA:   COUNTY
 STAT.            WYOMING:   STATE
 CTRY. UNITED STATES OF AMERICA:   COUNTRY
 SRVC.       SCHLUMBERGER:   SERVICE COMPANY
 DATE.        04-MAY-1966:   LOGDATE
 API .     49025094910000:   API NUMBER
~CURVE INFORMATION
#MNEM.UNIT       API CODE    CURVE DESCRIPTION
#----------   ------------   ------------------------------
 DEPT.F                  :   
 SPR .MV     05 010 01 00:   SPONTANEOUS POTENTIAL FROM RES.
 SN  .OHMM   05 040 16 00:   SHORT NORMAL 16"
 ILD .OHMM   05 120 46 00:   INDUCTION LOG DEEP
 CALD.IN     45 280 60 00:   CALIPER FROM DENSITY LOG
 CORR.G/C3   45 356 01 00:   DENSITY CORRECTION
 GRD .GAPI   45 310 01 00:   GAMMA RAY FROM DENSITY LOG
 RHOB.G/C3   45 350 01 00:   BULK DENSITY
~PARAMETER INFORMATION
#MNEM.UNIT          VALUE    DESCRIPTION
#----------   ------------   ------------------------------
 EKB .F         5053.3000:   Kelly bushing
 EGL .F         5043.0000:   Ground level
 EDF .F            0.0000:   Drilling floor
 TD  .F         2720.0000:   Total depth
 DATE.        04-MAY-1966:   Date logged
 CLNT.            A2DTECH:   Client Code
 PD  .                 GL:   Permanent Datum
 EPD .F              5043:   Elevation Permanent Datum
 LMF .                 KB:   Log Measured From
 DMF .                 KB:   Drilling Measured From
 DAPD.F              10.3:   Feet Above Permanent Datum
 DD  .F              2720:   Depth driller
 DL  .F              2720:   Depth logger
 BLI .F              2719:   Bottom log interval
 TLI .F                97:   Top log interval
 CS1 .IN            10.75:   Casing size
 CBD1.       10.75" @ 30':   Casing driller 1
 BS1 .IN            7.875:   Bit size
 BSD1.F              2720:   Depth drilled with bit1
 DFT . GEL/Q-BROX/OIL/DAKOLITE:   Type fluid in hole
 DFD .               10.3:   Density
 DFV .                 41:   Viscosity
 DFPH.                7.2:   pH
 DFL .                8.8:   Fluid loss
 MSS .           FLOWLINE:   Source of sample
 RMS .OHMM              2:   Rm
 MST .F                61:   Rm Meas. temp.
 RMF .OHMM           1.31:   Rmf
 MFST.F                65:   Rmf Meas. temp.
 MFSS.                 FP:   Source Rmf.
 RMB .OHMM           1.15:   Rm. at BHT
 BHT .F               110:   BHT.
 TCS .HRS               2:   Time Circ. stopped
 MRT .F               110:   Maximum recorded temp.
 LUN .               4507:   Logging unit number
 LUL .               CSPR:   Logging unit location
 ENGI.            MANGOLD:   Recorded By
 WITN.             TUTTLE:   Witnessed by
 ORIG.       2", 5" PRINT:   Origin of data
 UWI .     49025094910000:   Unique Well ID
 DICO. A2D TECHNOLOGIES, INC.:   Digitizing Company
~OTHER INFORMATION
~A   DEPT      SPR         SN         ILD      CALD       CORR        GRD       RHOB   
# ...
 1962.0000   -34.2650    13.2900     9.3560  -999.2500  -999.2500  -999.2500  -999.2500
 1962.5000   -34.3350    13.3790     9.3790  -999.2500  -999.2500  -999.2500  -999.2500
 1963.0000   -34.4780    13.3720     9.4040  -999.2500  -999.2500  -999.2500  -999.2500
 1963.5000   -34.5670    13.2940     9.4170  -999.2500  -999.2500  -999.2500  -999.2500
 1964.0000   -34.5730    13.1950     9.4290  -999.2500  -999.2500  -999.2500  -999.2500
 1964.5000   -34.5770    13.1100     9.4470  -999.2500  -999.2500  -999.2500  -999.2500
 1965.0000   -34.6200    13.0790     9.4660  -999.2500  -999.2500  -999.2500  -999.2500
 1965.5000   -34.6690    13.1760     9.4830  -999.2500  -999.2500  -999.2500  -999.2500
 1966.0000   -34.6960    13.4310     9.4970  -999.2500  -999.2500  -999.2500  -999.2500
 1966.5000   -34.7190    13.7480     9.5080  -999.2500  -999.2500  -999.2500  -999.2500
 1967.0000   -34.7540    13.9520     9.5120  -999.2500  -999.2500  -999.2500  -999.2500
 1967.5000   -34.7910    13.9490     9.5100  -999.2500  -999.2500  -999.2500  -999.2500
 1968.0000   -34.8230    13.7900     9.5080  -999.2500  -999.2500  -999.2500  -999.2500
 1968.5000   -34.8530    13.5940     9.5110  -999.2500  -999.2500  -999.2500  -999.2500
 1969.0000   -34.8850    13.4510     9.5120  -999.2500  -999.2500  -999.2500  -999.2500
 1969.5000   -34.9190    13.4040     9.5080  -999.2500  -999.2500  -999.2500  -999.2500
 1970.0000   -34.9510    13.4700     9.5050  -999.2500  -999.2500  -999.2500  -999.2500
 1970.5000   -34.9830    13.6280     9.5230  -999.2500  -999.2500  -999.2500  -999.2500
 1971.0000   -35.0150    13.8100     9.5810  -999.2500  -999.2500  -999.2500  -999.2500
 1971.5000   -35.0490    13.9610     9.6800  -999.2500  -999.2500  -999.2500  -999.2500
 1972.0000   -35.0820    14.0900     9.7930  -999.2500  -999.2500  -999.2500  -999.2500
 1972.5000   -35.1120    14.2450     9.8800  -999.2500  -999.2500  -999.2500  -999.2500
 1973.0000   -35.1430    14.4270     9.9230  -999.2500  -999.2500  -999.2500  -999.2500
 1973.5000   -35.1800    14.5710     9.9410  -999.2500  -999.2500  -999.2500  -999.2500
 1974.0000   -35.2140    14.6230     9.9610     8.6370     0.0100   149.0630     2.4270
 1974.5000   -35.2260    14.6030     9.9870     8.6370     0.0100   137.8130     2.4270
 1975.0000   -35.2090    14.5710    10.0080     8.6370     0.0100   141.4290     2.4270
 1975.5000   -35.1760    14.5560    10.0290     8.7150     0.0100   137.8130     2.4270
 1976.0000   -35.1440    14.5460    10.0610     8.7150     0.0100   139.0400     2.4270
 1976.5000   -35.1180    14.5280    10.0900     8.7150     0.0100   140.1560     2.4270
 1977.0000   -35.0920    14.5090    10.0740     8.7150     0.0100   142.0090     2.4270
 1977.5000   -35.0630    14.4930     9.9970     8.7030     0.0100   143.5540     2.4240
 1978.0000   -35.0340    14.4730     9.8870     8.7150     0.0100   147.3650     2.4270
 1978.5000   -35.0070    14.4540     9.7830     8.7150     0.0100   150.6300     2.4230
 1979.0000   -34.9790    14.4470     9.6930     8.7150     0.0080   150.6410     2.4190
 1979.5000   -34.9510    14.4370     9.6020     8.7150     0.0050   150.1540     2.4210
 1980.0000   -34.9230    14.3770     9.5020     8.7150     0.0030   147.8580     2.4240
 1980.5000   -34.8950    14.2350     9.4040     8.7150     0.0010   141.9960     2.4270
 1981.0000   -34.8670    14.0330     9.3120     8.7150    -0.0010   136.4260     2.4300
 1981.5000   -34.8390    13.8350     9.2180     8.7150    -0.0020   132.7860     2.4330
 1982.0000   -34.8110    13.6870     9.1170     8.7150    -0.0020   132.5040     2.4320
 1982.5000   -34.7830    13.5790     9.0190     8.7150    -0.0030   131.7670     2.4220
 1983.0000   -34.7550    13.4700     8.9360     8.7150    -0.0030   134.7190     2.4110
 1983.5000   -34.7270    13.3400     8.8660     8.7150    -0.0020   137.8300     2.4070
 1984.0000   -34.6990    13.2090     8.7920     8.7150    -0.0010   138.0650     2.4070
 1984.5000   -34.6710    13.1020     8.7070     8.7150     0.0010   131.2960     2.4090
 1985.0000   -34.6430    12.9970     8.6220     8.7150     0.0000   128.2780     2.4200
 1985.5000   -34.6150    12.8440     8.5400     8.7150    -0.0020   127.1510     2.4330
 1986.0000   -34.5880    12.6210     8.4480     8.7150    -0.0030   127.8010     2.4460
 1986.5000   -34.5600    12.3630     8.3550     8.7150    -0.0040   125.9890     2.4590
 1987.0000   -34.5320    12.1080     8.2820     8.7150    -0.0060   124.3140     2.4720
 1987.5000   -34.5040    11.8620     8.2150     8.7150    -0.0070   123.1000     2.4710
 1988.0000   -34.4760    11.6390     8.1050     8.7150    -0.0040   122.4940     2.4710
 1988.5000   -34.4480    11.4960     7.9840     8.7150     0.0000   121.9340     2.4660
 1989.0000   -34.4200    11.4610     7.9750     8.7150     0.0050   120.1370     2.4570
 1989.5000   -34.3920    11.4740     8.1340     8.7150     0.0080   117.2960     2.4490
 1990.0000   -34.3640    11.4620     8.3110     8.7150     0.0060   114.6920     2.4640
 1990.5000   -34.3350    11.4530     8.2690     8.7150     0.0050   112.1320     2.4880
 1991.0000   -34.3070    11.4970     7.9240     8.7150     0.0070   109.1590     2.4940
 1991.5000   -34.2810    11.5180     7.3980     8.7150     0.0080   108.6570     2.4900
 1992.0000   -34.2540    11.3590     6.8840     8.7150     0.0080   111.4440     2.4880
 1992.5000   -34.2220    10.9850     6.5090     8.7150     0.0060   113.9430     2.4830
 1993.0000   -34.1920    10.4970     6.2910     8.7150     0.0030   115.8280     2.4760
 1993.5000   -34.1720     9.9500     6.1520     8.7150    -0.0010   115.1080     2.4690
 1994.0000   -34.1490     9.3460     6.0130     8.7150    -0.0010   113.5940     2.4620
 1994.5000   -34.1050     8.8350     5.9000     8.7150     0.0010   112.2280     2.4550
 1995.0000   -34.0640     8.7330     5.9200     8.7150     0.0030   109.7390     2.4520
 1995.5000   -34.0780     9.1780     6.1210     8.7150     0.0040   110.4500     2.4570
 1996.0000   -34.1360     9.8890     6.4190     8.7150     0.0050   110.9390     2.4620
 1996.5000   -34.1820    10.4030     6.7030     8.7150     0.0080   111.4770     2.4670
 1997.0000   -34.2240    10.5310     6.9440     8.7150     0.0060   110.7380     2.4680
 1997.5000   -34.3470    10.4740     7.1890     8.7150     0.0030   108.5660     2.4660
 1998.0000   -34.5360    10.5150     7.4640     8.7150     0.0010   106.6620     2.4650
 1998.5000   -34.6340    10.7400     7.7390     8.7150     0.0020   104.7160     2.4710
 1999.0000   -34.5610    11.0710     7.9560     8.7160     0.0030   102.6230     2.4790
 1999.5000   -34.4510    11.4460     8.0900     8.7170     0.0050   101.4820     2.4790
 2000.0000   -34.4430    11.8390     8.1760     8.7180     0.0070   101.5660     2.4750
 2000.5000   -34.4580    12.1600     8.2790     8.7190     0.0080   102.0710     2.4840
 2001.0000   -34.3540    12.2730     8.4340     8.7200     0.0100   103.5060     2.4960
 2001.5000   -34.1900    12.1770     8.6250     8.7210     0.0060   104.8610     2.5080
 2002.0000   -34.1550    12.0620     8.8180     8.7210     0.0000   106.2020     2.5040
 2002.5000   -34.2850    12.1090     8.9840     8.7220    -0.0060   106.4910     2.4870
 2003.0000   -34.4430    12.3030     9.0850     8.7230    -0.0120   103.7850     2.4600
 2003.5000   -34.5460    12.5250     9.0970     8.7240    -0.0140   101.6020     2.4380
 2004.0000   -34.6380    12.7670     9.0410     8.7250    -0.0090   100.0050     2.4080
 2004.5000   -34.7500    13.0840     8.9790     8.7260    -0.0040    98.9930     2.4170
 2005.0000   -34.8270    13.3450     8.9560     8.7270     0.0000    99.4740     2.4310
 2005.5000   -34.8200    13.2690     8.9500     8.7280     0.0050   103.7800     2.4510
 2006.0000   -34.7570    12.7660     8.8910     8.7290     0.0070   109.6560     2.4460
 2006.5000   -34.6960    12.1130     8.7190     8.7300     0.0050   116.2400     2.4250
 2007.0000   -34.6520    11.6530     8.4430     8.7300     0.0050   119.5390     2.4300
