~VERSION INFORMATION
 VERS.                2.0:   CWLS LOG ASCII STANDARD - VERSION 2.0
 WRAP.                 NO:   ONE LINE PER DEPTH STEP
~WELL INFORMATION
#MNEM.UNIT      DATA TYPE    INFORMATION
#----------   ------------   ------------------------------
 STRT.F            9.0000:   START DEPTH
 STOP.F         2876.0000:   STOP DEPTH
 STEP.F            0.5000:   STEP LENGTH
 NULL.          -999.2500:   NO VALUE
 COMP.    FENIX & SCISSON:   COMPANY
 WELL. FENIX & SCISSON "AX" #82-29:   WELL
 FLD .        TEAPOT DOME:   FIELD
 LOC .      S29 T39N R78W:   LOCATION
 CNTY.            NATRONA:   COUNTY
 STAT.            WYOMING:   STATE
 CTRY. UNITED STATES OF AMERICA:   COUNTRY
 SRVC.           BIRDWELL:   SERVICE COMPANY
 DATE.        12-JAN-1980:   LOGDATE
 API .     49025107980000:   API NUMBER
~CURVE INFORMATION
#MNEM.UNIT       API CODE    CURVE DESCRIPTION
#----------   ------------   ------------------------------
 DEPT.F                  :   
 GRD .GAPI   45 310 01 00:   GAMMA RAY FROM DENSITY LOG
 CALD.IN     45 280 60 00:   CALIPER FROM DENSITY LOG
 CORR.G/C3   45 356 01 00:   DENSITY CORRECTION
 RHOB.G/C3   45 350 01 00:   BULK DENSITY
 SPR .MV     07 010 01 00:   SPONTANEOUS POTENTIAL
 ILD .OHMM   07 120 46 00:   DEEP INDUCTION RESISTIVITY
 SN  .OHMM   07 220 01 00:   SHALLOW FOCUSED LOG RESISTIVITY
~PARAMETER INFORMATION
#MNEM.UNIT          VALUE    DESCRIPTION
#----------   ------------   ------------------------------
 EKB .F         4985.0000:   Kelly bushing
 EGL .F         4973.0000:   Ground level
 EDF .F         4982.0000:   Drilling floor
 TD  .F         2876.0000:   Total depth
 CLNT.            A2DTECH:   Client Code
 SL  . 1821' FEL & 414' FEL:   Surface Location
 DATE.        12-JAN-1980:   Date Logged [DD-MMM-YYYY]
 DD  .F              2870:   Depth driller
 DL  .F              2876:   Depth logger
 BLI .F              2876:   Bottom log interval
 TLI .F               320:   Top log interval
 CS1 .IN            8.625:   Casing size
 CBD1.      8.625" @ 280':   Casing driller 1
 CBL1.IN              320:   Casing logger 1
 BS1 .IN            7.875:   Bit size
 BSD1.F              2870:   Depth drilled with bit1
 DFT .            GEL MUD:   Type fluid in hole
 DFD .                8.7:   Density
 DFV .                 53:   Viscosity
 DFPH.               10.5:   pH
 DFL .               15.4:   Fluid loss
 MSS .            MUD PIT:   Source of sample
 RMS .OHMM            1.8:   Rm
 MST .F                50:   Rm Meas. temp.
 RMF .OHMM            1.4:   Rmf
 MFST.F                60:   Rmf Meas. temp.
 MFSS.               MEAS:   Source Rmf.
 RMC .OHMM            1.9:   Rmc
 MCST.F                60:   Rmc Meas. temp.
 MCSS.               MEAS:   Source Rmc.
 RMB .OHMM           0.65:   Rm. at BHT
 BHT .F               138:   BHT.
 TCS .HRS              11:   Time Circ. stopped
 MRT .F               138:   Maximum recorded temp.
 LUN .               3029:   Logging unit number
 LUL .             CASPEL:   Logging unit location
 ENGI.           T. VOLFF:   Recorded By
 WITN.          MR. AMEND:   Witnessed by
 ORIG.         2.5" PRINT:   Origin of data
 UWI .     49025107980000:   Unique Well ID
 DICO. A2D TECHNOLOGIES,INC.:   Digitizing Company
 PD  .                 GL:   Permanent Datum
 EPD .F              4973:   Elevation Permanent Datum
 LMF .                 DF:   Log Measured From
 DMF .                 KB:   Drilling Measured From
 DAPD.F                 9:   Feet Above Permanent Datum
~OTHER INFORMATION
~A    DEPT      GRD      CALD       CORR       RHOB        SPR        ILD         SN   
# ...
 1010.0000   117.8116     8.3697     0.0261     2.5475   -18.2621    10.0062    10.2998
 1010.5000   119.7120     8.3682     0.0290     2.5442   -18.2606    10.0585    10.2392
 1011.0000   121.7659     8.3671     0.0228     2.5245   -18.2592    10.0881    10.0986
 1011.5000   119.5331     8.3659     0.0168     2.5184   -18.2836    10.0083    10.8356
 1012.0000   112.2246     8.3647     0.0167     2.5183   -19.2154    10.0881    11.7903
 1012.5000   107.7887     8.3635     0.0237     2.5214   -19.4742    10.1511    12.1286
 1013.0000   105.6624     8.3624     0.0331     2.5244   -18.4756    10.2952    12.1311
 1013.5000   108.9315     8.3612     0.0408     2.5305   -17.8456    10.2959    12.1335
 1014.0000   112.7778     8.3600     0.0407     2.5427   -18.0651    10.4419    11.7902
 1014.5000   116.2446     8.3588     0.0437     2.5518   -19.3018    10.4426    11.6182
 1015.0000   117.8268     8.3880     0.0436     2.5533   -20.5386    10.5908    11.3179
 1015.5000   117.1596     8.3866     0.0422     2.5517   -20.9893    10.7433    11.1624
 1016.0000   110.8392     8.3854     0.0375     2.5485   -20.9875    10.8934    11.1650
 1016.5000   107.4972     8.3842     0.0267     2.5447   -20.3763    10.7425    11.1673
 1017.0000   104.4592     8.3831     0.0174     2.5200   -19.7651    10.5627    11.1697
 1017.5000   104.2326     8.3950     0.0130     2.5150   -19.4587    10.4469    11.1721
 1018.0000   109.0214     8.4109     0.0130     2.5210   -18.8475    10.3021    11.2619
 1018.5000   112.0624     8.4097     0.0159     2.5164   -18.8303    10.1594    11.3353
 1019.0000   112.4287     8.4083     0.0219     2.5219   -19.4543    10.0188    11.1795
 1019.5000   110.5456     8.4071     0.0224     2.5240   -17.8628    10.0195    11.1818
 1020.0000   112.0669     8.4059     0.0158     2.5218   -17.0123     9.8809    11.1841
 1020.5000   113.9072     8.4047     0.0127     2.5171   -17.9847     9.8815    11.1864
 1021.0000   114.8663     8.4035     0.0096     2.5133   -19.2216     9.8822    11.0325
 1021.5000   115.4148     8.4024     0.0065     2.5070   -19.8485     9.8829    10.8811
 1022.0000   109.8842     8.4012     0.0064     2.5073   -20.0552     9.8836    10.5751
 1022.5000   107.8190     8.4000     0.0064     2.5131   -20.0533     9.7466    10.4365
 1023.0000   109.1277     8.4291     0.0093     2.5136   -19.7469     9.7473    10.2931
 1023.5000   108.9316     8.4279     0.0123     2.5115   -19.5732     9.7405    10.3292
 1024.0000   108.4313     8.4267     0.0153     2.5176   -19.4387     9.5969    10.4866
 1024.5000   109.4818     8.4254     0.0222     2.5298   -19.1324     9.4797    10.5931
 1025.0000   110.4104     8.4242     0.0303     2.5359   -19.7407     9.3484    10.5954
 1025.5000   113.1171     8.4231     0.0416     2.5389   -20.6538     9.3491    10.5976
 1026.0000   116.6447     8.4218     0.0458     2.5328   -20.6523     9.2195    10.5200
 1026.5000   114.2145     8.4206     0.0304     2.5159   -20.6509     9.1631    10.4543
 1027.0000   115.1279     8.4367     0.0149     2.5113   -20.6494     9.0280    10.3107
 1027.5000   116.6491     8.4485     0.0183     2.5237   -20.0203     8.9666    10.1690
 1028.0000   116.6506     8.4471     0.0299     2.5296   -19.3903     8.8425    10.0294
 1028.5000   115.7402     8.4459     0.0238     2.5161   -18.8156     8.8431    10.0316
 1029.0000   114.8299     8.4447     0.0177     2.5036   -19.1931     8.8437    10.0337
 1029.5000   116.9590     8.4436     0.0176     2.5161   -19.5153     8.7212    10.0357
 1030.0000   116.6565     8.4424     0.0176     2.5173   -19.4207     8.6004    10.1797
 1030.5000   114.4392     8.4109     0.0236     2.5172   -19.5498     8.4812    10.1956
 1031.0000   112.6172     8.4097     0.0296     2.5172   -19.5731     8.4783    10.3281
 1031.5000   111.2002     8.4085     0.0386     2.5190   -19.4162     8.3643    10.3302
 1032.0000   110.4215     8.4073     0.0416     2.5210   -16.9753     8.3649    10.3324
 1032.5000   109.3693     8.4061     0.0382     2.5179   -17.5836     8.3655    10.3346
 1033.0000   110.5869     8.4048     0.0226     2.5171   -18.1921     8.3661    10.2786
 1033.5000   108.1568     8.4036     0.0141     2.5129   -18.8003     8.3667    10.1948
 1034.0000   103.2950     8.4025     0.0157     2.5155   -18.7987     8.3672     9.9809
 1034.5000   103.6005     8.3869     0.0312     2.5200   -18.4923     8.4859     9.7784
 1035.0000   103.6019     8.3535     0.0451     2.5246   -18.7957     8.5524     9.6441
 1035.5000   102.9955     8.3076     0.0472     2.5307   -19.4313     8.7286     9.7828
 1036.0000   102.3891     8.2762     0.0472     2.5337   -20.3496     8.7292     9.9232
 1036.5000   104.5182     8.2144     0.0471     2.5031   -20.9254     8.8530    10.0655
 1037.0000   107.3572     8.2065     0.0412     2.4954   -20.9939     8.9786    10.3543
 1037.5000   112.5510     8.2121     0.0288     2.5015   -21.2274     9.2345    10.5028
 1038.0000   115.6269     8.2715     0.0213     2.5229   -21.1179     9.3655    10.5050
 1038.5000   116.9863     8.3006     0.0377     2.5427   -20.6143     9.3662    10.4952
 1039.0000   116.4003     8.3301     0.0528     2.5616   -20.4675     9.4991    10.3627
 1039.5000   113.9955     8.3588     0.0588     2.5808   -19.8374     9.4997    10.2204
 1040.0000   112.4316     8.3576     0.0527     2.5630   -19.3899     9.5004    10.2227
 1040.5000   110.7969     8.3622     0.0375     2.5506   -19.0836     9.5011    10.2249
 1041.0000   109.4358     8.3856     0.0374     2.5397   -18.1675     9.5017    10.2270
 1041.5000   109.2296     8.3842     0.0374     2.5329   -17.5562     9.5024    10.2292
 1042.0000   111.7082     8.3830     0.0373     2.5282   -18.1645     9.5030    10.2313
 1042.5000   112.2619     8.3818     0.0373     2.5251   -17.2484     9.5038    10.2335
 1043.0000   110.9212     8.3806     0.0402     2.5159   -16.9421     9.5045    10.0933
 1043.5000   110.0109     8.3961     0.0464     2.5156   -17.8648     9.3728    10.0954
 1044.0000   111.5321     8.4085     0.0525     2.5239   -18.8251     9.3735     9.9564
 1044.5000   112.1415     8.4071     0.0582     2.5270   -19.3766     9.2436     9.8197
 1045.0000   112.1430     8.4059     0.0540     2.5176   -19.3750     8.9887     9.8219
 1045.5000   106.9773     8.4047     0.0430     2.5270   -19.0686     8.9786     9.8239
 1046.0000   104.8511     8.4036     0.0568     2.5315   -18.3537     9.3760     9.6880
 1046.5000   103.6368     8.4024     0.0610     2.5269   -18.0285     9.2290     9.4225
 1047.0000   103.6383     8.4012     0.0507     2.5284   -18.1494     8.7028     9.4245
 1047.5000   103.9690     8.4303     0.0488     2.5314   -18.9330     8.2663     9.4521
 1048.0000   104.6344     8.4291     0.0473     2.5223   -19.8496     8.5601     9.7318
 1048.5000   106.2419     8.4583     0.0473     2.5283   -19.9741     9.0711     9.9753
 1049.0000   108.4872     8.4570     0.0503     2.5329   -19.6675     9.4290    10.1185
 1049.5000   111.8932     8.4557     0.0637     2.5298   -19.3611     9.5131    10.3273
 1050.0000   113.3736     8.4545     0.0697     2.5359   -20.2743     9.2517    10.4846
 1050.5000   112.4179     8.4534     0.0696     2.5404   -20.3048     8.8006    10.5604
 1051.0000   110.8543     8.4521     0.0635     2.5373   -19.3567     8.6257    10.4158
 1051.5000   109.1331     8.4509     0.0483     2.5311   -18.7399     8.7482    10.2727
 1052.0000   109.0030     8.4497     0.0543     2.5463   -18.4146     8.8723    10.1315
 1052.5000   114.9011     8.4483     0.0724     2.5554   -18.1326     9.2540     9.9921
 1053.0000   118.2465     8.4471     0.0693     2.5602   -18.1311     9.3853     9.9944
 1053.5000   116.1203     8.4459     0.0632     2.5631   -17.8247     9.3859     9.9964
 1054.0000   107.6111     8.4144     0.0569     2.5603   -17.5183     8.9951    10.1398
 1054.5000   105.7889     8.4133     0.0474     2.5482   -17.5168     8.7414    10.2933
 1055.0000   104.8785     8.4424     0.0358     2.5397   -17.6524     8.7709    10.4502
