~VERSION INFORMATION
 VERS.                2.0:   CWLS LOG ASCII STANDARD - VERSION 2.0
 WRAP.                 NO:   ONE LINE PER DEPTH STEP
~WELL INFORMATION
#MNEM.UNIT      DATA TYPE    INFORMATION
#----------   ------------   ------------------------------
 STRT.F            0.0000:   START DEPTH
 STOP.F         3110.5000:   STOP DEPTH
 STEP.F            0.5000:   STEP LENGTH
 NULL.          -999.2500:   NO VALUE
 COMP. LAWRENCE  ALLISON AND ASSOCIATES:   COMPANY
 WELL. LAWRENCE NPR 3 "X" #72-15:   WELL
 FLD .                NPR:   FIELD
 LOC .      S15 T38N R78W:   LOCATION
 CNTY.            NATRONA:   COUNTY
 STAT.            WYOMING:   STATE
 CTRY. UNITED STATES OF AMERICA:   COUNTRY
 SRVC.           WIRELINE:   SERVICE COMPANY
 DATE.        16-JAN-1988:   LOGDATE
 API .     49025111930000:   API NUMBER
~CURVE INFORMATION
#MNEM.UNIT       API CODE    CURVE DESCRIPTION
#----------   ------------   ------------------------------
 DEPT.F                  :   
 TENR.LBS    07 635 01 00:   TENSION FROM RESISTIVITY
 GRR .GAPI   07 310 01 00:   GAMMA RAY FROM RESISTIVITY
 SPR .MV     07 010 01 00:   SPONTANEOUS POTENTIAL
 RFOC.OHMM   07 220 04 00:   RESISTIVITY FOCUSED LOG RES.
 RILD.OHMM   07 120 46 00:   DEEP INDUCTION RESISTIVITY
 RILM.OHMM   07 120 44 00:   INDUCTION LOG MEDIUM RESISTIVITY
 TEND.LBS    45 635 01 00:   TENSION FROM DENSITY LOG
 RHOB.G/C3   45 350 01 00:   BULK DENSITY
 CORR.G/C3   45 356 01 00:   DENSITY CORRECTION
 CNC .DEC    42 890 03 00:   NEUTRON PORISITY SANDSTONE
 CALR.IN     07 280 01 00:   CALIPER FROM RESISTIVITY
~PARAMETER INFORMATION
#MNEM.UNIT          VALUE    DESCRIPTION
#----------   ------------   ------------------------------
 EKB .F         5240.0000:   Kelly bushing
 EGL .F         5229.0000:   Ground level
 EDF .F            0.0000:   Drilling floor
 TD  .F         3090.0000:   Total depth
 DATE.        16-JAN-1988:   Date logged
 CLNT.            A2DTECH:   Client Code
 SL  . 814' FNL & 1208' FEL:   Surface Location
 PD  .                 GL:   Permanent Datum
 DD  .F              3085:   Depth driller
 DL  .F              3090:   Depth logger
 BLI .F              3089:   Bottom log interval
 CS1 .IN            8.625:   Casing size
 CBD1.      8.625" @ 610':   Casing driller 1
 CBL1.F               613:   Casing logger 1
 BS1 .IN            7.875:   Bit size
 DFT .            KCL/GEL:   Type fluid in hole
 DFD .                8.8:   Density
 DFV .                 40:   Viscosity
 DFPH.                8.5:   pH
 DFL .                 10:   Fluid loss
 MSS .           FLOWLINE:   Source of sample
 RMS .OHMM           .543:   Rm
 MST .F                65:   Rm Meas. temp.
 RMF .OHMM           .349:   Rmf
 MFST.F                65:   Rmf Meas. temp.
 RMC .OHMM           .557:   Rmc
 MCST.F                65:   Rmc Meas. temp.
 MFSS.               CALC:   Source Rmf.
 RMB .OHMM           .258:   Rm. at BHT
 BHT .F               114:   BHT.
 TCS .HRS               5:   Time Circ. stopped
 MRT .F               114:   Maximum recorded temp.
 LUN .            HL-6321:   Logging unit number
 LUL .           GILLETTE:   Logging unit location
 ENGI.               CAIN:   Recorded By
 WITN.             STRONG:   Witnessed by
 ORIG.           5" PRINT:   Origin of data
 UWI .     49025111930000:   Unique Well ID
 DICO. A2D TECHNOLOGIES, INC.:   Digitizing Company
 DAPD.F                11:   Feet Above Permanent Datum
 BSD1.F              3085:   Depth drilled with bit1
 MCSS.               CALC:   Source Rmc.
 EPD .F              5229:   Elevation Permanent Datum
 LMF .                 KB:   Log Measured From
 DMF .                 KB:   Drilling Measured From
~OTHER INFORMATION
~A    DEPT    TENR         GRR       SPR       RFOC       RILD       RILM       TEND       RHOB       CORR        CNC       CALR   
# ...
 2074.0000   -64.8150   118.5740   -72.6370    12.2690     9.8630     9.5500  -999.2500  -999.2500  -999.2500  -999.2500     8.8120
 2074.5000   -64.8150   114.0600   -72.4160    12.2690    10.0240     9.6120  -999.2500  -999.2500  -999.2500  -999.2500     8.8110
 2075.0000   -64.8150   111.2060   -72.4640    11.7020    10.1850     9.6750  -999.2500  -999.2500  -999.2500  -999.2500     8.8090
 2075.5000   -64.8150   109.7950   -72.5060    11.3970    10.2980     9.7440  -999.2500  -999.2500  -999.2500  -999.2500     8.8070
 2076.0000   -64.8150   106.3110   -72.5480    11.5030    10.4080     9.7870  -999.2500  -999.2500  -999.2500  -999.2500     8.8050
 2076.5000   -64.8150   103.8690   -72.5880    11.7160    10.4570     9.8360  -999.2500  -999.2500  -999.2500  -999.2500     8.8040
 2077.0000   -64.8150   102.4600   -72.5660    11.4540    10.5050     9.8850  -999.2500  -999.2500  -999.2500  -999.2500     8.8020
 2077.5000   -64.8150   100.1310   -72.4230    10.9380    10.5540     9.9340  -999.2500  -999.2500  -999.2500  -999.2500     8.8030
 2078.0000   -64.8150    96.9380   -72.9140    10.7840    10.6030     9.9830  -999.2500  -999.2500  -999.2500  -999.2500     8.8060
 2078.5000   -64.8150    95.6660   -73.4660    11.0690    10.6520    10.0610  -999.2500  -999.2500  -999.2500  -999.2500     8.8090
 2079.0000   -64.8150    97.5260   -74.0220    11.4770    10.7010    10.2090  -999.2500  -999.2500  -999.2500  -999.2500     8.8120
 2079.5000   -64.8150    99.8790   -74.5790    11.8850    10.7490    10.3560  -999.2500  -999.2500  -999.2500  -999.2500     8.8140
 2080.0000   -64.8150   102.8230   -74.5280    12.2940    10.8180    10.4890  -999.2500  -999.2500  -999.2500  -999.2500     8.8170
 2080.5000   -64.8150   107.5080   -74.4410    12.4980    10.9350    10.4070  -999.2500  -999.2500  -999.2500  -999.2500     8.8200
 2081.0000   -64.8150   111.1970   -74.3720    12.4090    11.0510    10.3310  -999.2500  -999.2500  -999.2500  -999.2500     8.8230
 2081.5000   -64.8150   114.8690   -74.3160    12.2690    11.0860    10.2560  -999.2500  -999.2500  -999.2500  -999.2500     8.8260
 2082.0000   -64.8150   118.5320   -74.2600    11.8270    11.0860    10.2030  -999.2500  -999.2500  -999.2500  -999.2500     8.8280
 2082.5000   -64.8150   120.9700   -74.2070    11.1890    11.0860    10.1640  -999.2500  -999.2500  -999.2500  -999.2500     8.8310
 2083.0000   -64.8150   118.2690   -74.2940    11.4610    10.7670    10.1280  -999.2500  -999.2500  -999.2500  -999.2500     8.8340
 2083.5000   -64.8150   113.1230   -74.3900    11.8500    10.4760     9.9970  -999.2500  -999.2500  -999.2500  -999.2500     8.8370
 2084.0000   -64.8150   109.8290   -74.4850    12.0450    10.1860     9.7720  -999.2500  -999.2500  -999.2500  -999.2500     8.8400
 2084.5000   -66.7130   108.1240   -74.5810    12.0450     9.9250     9.5470  -999.2500  -999.2500  -999.2500  -999.2500     8.8410
 2085.0000   -68.4390   108.2580   -74.6260    12.0450     9.8260     9.3220  -999.2500  -999.2500  -999.2500  -999.2500     8.8410
 2085.5000   -70.1650   108.3440   -74.6590    11.6470     9.7350     9.0970  -999.2500  -999.2500  -999.2500  -999.2500     8.8410
 2086.0000   -71.8910   108.4250   -74.6910    10.8500     9.6540     8.8040  -999.2500  -999.2500  -999.2500  -999.2500     8.8410
 2086.5000   -73.6170   108.5100   -74.7230    10.0530     9.6250     8.9970  -999.2500  -999.2500  -999.2500  -999.2500     8.8410
 2087.0000   -70.6540   108.5260   -74.7550     9.6540     9.5990     9.2250  -999.2500  -999.2500  -999.2500  -999.2500     8.8410
 2087.5000   -56.7510   105.7050   -74.7870    10.0800     9.5660     9.4050  -999.2500  -999.2500  -999.2500  -999.2500     8.8410
 2088.0000   -42.8480   100.3930   -74.7120    10.9840     9.7390     9.5860  -999.2500  -999.2500  -999.2500  -999.2500     8.8410
 2088.5000   -28.9460    95.1150   -74.5730    11.2920     9.9860     9.7670  -999.2500  -999.2500  -999.2500  -999.2500     8.8410
 2089.0000   -26.1650    91.9440   -74.4480    11.5210    10.1720     9.9470  -999.2500  -999.2500  -999.2500  -999.2500     8.8410
 2089.5000   -28.9460    92.3710   -74.1580    11.7750    10.2980    10.1100  -999.2500  -999.2500  -999.2500  -999.2500     8.8410
 2090.0000   -31.7260    95.7780   -74.0500    12.0300    10.4230    10.0460  -999.2500  -999.2500  -999.2500  -999.2500     8.8410
 2090.5000   -34.7850    99.5350   -73.9350    12.1570    10.5490     9.9880  -999.2500  -999.2500  -999.2500  -999.2500     8.8410
 2091.0000   -34.7850   105.1070   -73.8160    11.5990    10.5870     9.9300  -999.2500  -999.2500  -999.2500  -999.2500     8.8410
 2091.5000   -34.7850   110.4260   -73.9950    11.1700    10.5870     9.8720  -999.2500  -999.2500  -999.2500  -999.2500     8.8410
 2092.0000   -34.7850   113.3540   -74.2200    10.6850    10.5090     9.8140  -999.2500  -999.2500  -999.2500  -999.2500     8.8410
 2092.5000   -34.7850   113.4410   -74.4470    10.7660    10.2500     9.7570  -999.2500  -999.2500  -999.2500  -999.2500     8.8410
 2093.0000   -34.7850   109.5140   -74.6730    10.9270    10.0170     9.6990  -999.2500  -999.2500  -999.2500  -999.2500     8.8410
 2093.5000   -34.7850   106.1070   -74.8340    11.0890     9.8750     9.6410  -999.2500  -999.2500  -999.2500  -999.2500     8.8410
 2094.0000   -34.7850   106.2160   -74.9110    11.2510     9.7470     9.5830  -999.2500  -999.2500  -999.2500  -999.2500     8.8410
 2094.5000   -34.7850   106.2090   -74.9890    11.3970     9.6180     9.3890  -999.2500  -999.2500  -999.2500  -999.2500     8.8410
 2095.0000   -34.7850   104.4260   -75.0660    11.1460     9.4890     9.1370  -999.2500  -999.2500  -999.2500  -999.2500     8.8410
 2095.5000   -35.3470   100.1300   -75.1410    10.8670     9.3610     8.8840  -999.2500  -999.2500  -999.2500  -999.2500     8.8410
 2096.0000   -36.4720    96.6510   -75.1520    10.5880     9.2190     8.6320  -999.2500  -999.2500  -999.2500  -999.2500     8.8410
 2096.5000   -37.5970    99.6120   -74.9460    10.2120     9.2190     8.2540  -999.2500  -999.2500  -999.2500  -999.2500     8.8410
 2097.0000   -38.7210   106.9340   -74.7460     9.6070     9.2190     8.3600  -999.2500  -999.2500  -999.2500  -999.2500     8.8410
 2097.5000   -39.8460   110.5950   -74.5460     9.1350     9.2190     8.5740  -999.2500  -999.2500  -999.2500  -999.2500     8.8410
 2098.0000   -40.9710   109.8660   -74.3460     9.1350     9.2190     8.7870  -999.2500  -999.2500  -999.2500  -999.2500     8.8410
 2098.5000   -42.0950   108.4440   -74.1470    10.5070     9.4420     9.0010  -999.2500  -999.2500  -999.2500  -999.2500     8.8410
 2099.0000   -43.2200   104.3870   -73.9920    11.9900     9.6440     9.2150  -999.2500  -999.2500  -999.2500  -999.2500     8.8410
 2099.5000   -44.3450    99.4760   -73.9640    12.2690     9.8470     9.4280  -999.2500  -999.2500  -999.2500  -999.2500     8.8410
 2100.0000   -45.4700    99.6200   -73.9330    12.1360    10.0490     9.6420  -999.2500  -999.2500  -999.2500  -999.2500     8.8410
 2100.5000   -46.5940   101.6040   -73.9010    11.6920    10.2510     9.8340  -999.2500  -999.2500  -999.2500  -999.2500     8.8410
 2101.0000   -47.7190   103.7010   -73.8700    11.2920    10.3930     9.6080  -999.2500  -999.2500  -999.2500  -999.2500     8.8410
 2101.5000   -48.8440   105.1200   -73.8390    11.0590    10.0510     9.4020  -999.2500  -999.2500  -999.2500  -999.2500     8.8410
 2102.0000   -49.9690   106.5810   -73.8050    10.8470     9.8290     9.1350  -999.2500  -999.2500  -999.2500  -999.2500     8.8410
 2102.5000   -51.0930   108.0540   -73.6950    10.3090     9.8140     9.1630  -999.2500  -999.2500  -999.2500  -999.2500     8.8410
 2103.0000   -52.2180   109.2910   -73.5740     9.8340     9.7990     9.2030  -999.2500  -999.2500  -999.2500  -999.2500     8.8410
 2103.5000   -53.3430   107.8160   -73.4530     9.7440     9.7840     9.2440  -999.2500  -999.2500  -999.2500  -999.2500     8.8410
 2104.0000   -54.4670   103.7420   -73.3310    10.3080     9.7690     9.2840  -999.2500  -999.2500  -999.2500  -999.2500     8.8410
