~VERSION INFORMATION
 VERS.                2.0:   CWLS LOG ASCII STANDARD - VERSION 2.0
 WRAP.                 NO:   ONE LINE PER DEPTH STEP
~WELL INFORMATION
#MNEM.UNIT      DATA TYPE    INFORMATION
#----------   ------------   ------------------------------
 STRT.F          170.5000:   START DEPTH
 STOP.F         3160.0000:   STOP DEPTH
 STEP.F            0.5000:   STEP LENGTH
 NULL.          -999.2500:   NO VALUE
 COMP.  FENIX AND SCISSON:   COMPANY
 WELL.    FENIX "A" #85-3:   WELL
 FLD .       TEA POT DOME:   FIELD
 LOC .       S3 T38N R78W:   LOCATION
 CNTY.            NATRONA:   COUNTY
 STAT.            WYOMING:   STATE
 CTRY. UNITED STATES OF AMERICA:   COUNTRY
 SRVC.           BIRDWELL:   SERVICE COMPANY
 DATE.        20-DEC-1977:   LOGDATE
 API .     49025104450000:   API NUMBER
~CURVE INFORMATION
#MNEM.UNIT       API CODE    CURVE DESCRIPTION
#----------   ------------   ------------------------------
 DEPT.F                  :   
 CALD.IN     45 280 60 00:   CALIPER FROM DENSITY LOG
 GRD .GAPI   45 310 01 00:   GAMMA RAY FROM DENSITY LOG
 RHOB.G/C3   45 350 01 00:   BULK DENSITY
 CORR.G/C3   45 356 01 00:   DENSITY CORRECTION
 SPR .MV     05 010 01 00:   SPONTANEOUS POTENTIAL
 SN  .OHMM   05 040 00 00:   SHORT NORMAL
 ILD .OHMM   05 120 46 00:   DEEP INDUCTION RESISTIVITY
~PARAMETER INFORMATION
#MNEM.UNIT          VALUE    DESCRIPTION
#----------   ------------   ------------------------------
 EKB .F         5165.0000:   Kelly bushing
 EGL .F         5155.0000:   Ground level
 TD  .F         3151.0000:   Total depth
 DATE.        20-DEC-1977:   Date logged
 CLNT.            A2DTECH:   Client Code
 SL  . 2000' FSL & 100'FEL:   Surface Location
 PD  .                 GL:   Permanent Datum
 EPD .F              5155:   Elevation Permanent Datum
 LMF .                 KB:   Log Measured From
 DMF .                 KB:   Drilling Measured From
 DAPD.F                10:   Feet Above Permanent Datum
 DD  .F              3150:   Depth driller
 DL  .F              3151:   Depth logger
 BLI .F              3146:   Bottom log interval
 TLI .F               200:   Top log interval
 CS1 .IN            8.625:   Casing size
 CBD1.      8.625" @ 223':   Casing driller 1
 BS1 .IN            7.875:   Bit size
 BSD1.F              3150:   Depth drilled with bit1
 DFT .                KCL:   Type fluid in hole
 DFD .                8.9:   Density
 DFV .                 40:   Viscosity
 DFPH.                 11:   pH
 DFL .                7.2:   Fluid loss
 MSS .           FLOWLINE:   Source of sample
 RMS .OHMM            0.4:   Rm
 MST .F                62:   Rm Meas. temp.
 RMF .OHMM           0.48:   Rmf
 MFST.F                63:   Rmf Meas. temp.
 RMC .OHMM           0.52:   Rmc
 MCST.F                63:   Rmc Meas. temp.
 MFSS.               MEAS:   Source Rmf.
 MCSS.               MEAS:   Source Rmc.
 TCS .HRS             3.5:   Time Circ. stopped
 MRT .F               118:   Maximum recorded temp.
 LUN .               2958:   Logging unit number
 LUL .             CASPER:   Logging unit location
 ENGI.             MILLER:   Recorded By
 WITN.         HERRINGTON:   Witnessed by
 ORIG.           5" PRINT:   Origin of data
 UWI .     49025104450000:   Unique Well ID
 DICO. A2D TECHNOLOGIES, INC.:   Digitizing Company
~OTHER INFORMATION
~A   DEPT     CALD        GRD       RHOB        CORR       SPR         SN        ILD   
# ...
 2536.5000    10.9386    96.1815     2.4543     0.2936   -65.8924     7.2667     5.9860
 2537.0000    10.9390    99.9924     2.3893     0.2916   -66.5099     7.1263     5.9797
 2537.5000    10.9593   102.4012     2.2905     0.2856   -67.1274     7.1848     5.9747
 2538.0000    10.9397    98.7993     2.1313     0.2736   -67.7450     7.6566     6.4844
 2538.5000    11.0202   101.0079     2.0073     0.2445   -67.7668     7.7195     6.5984
 2539.0000    11.1005   101.8113     1.9973     0.2007   -67.9873     7.7115     6.6526
 2539.5000    10.8605   105.1056     2.1994     0.1644   -68.0091     7.7034     6.7073
 2540.0000    11.4220   107.2333     2.1994     0.1624   -68.0310     7.7667     6.3944
 2540.5000    10.9614   105.6369     2.3815     0.2807   -68.0529     7.8305     6.2742
 2541.0000    14.1692   104.6377     2.3815     0.2777   -68.0748     7.8949     6.2676
 2541.5000    14.1894   100.4530     2.2478     0.1449   -68.0967     7.9598     6.3191
 2542.0000    13.2715    94.4272     2.1345    -0.0580   -67.9200     8.0252     6.2544
 2542.5000    12.3535    95.2307     2.1346    -0.0660   -67.7434     8.0912     6.1335
 2543.0000    10.9833    99.9869     2.4506     0.0102   -67.7652     8.0827     6.0707
 2543.5000    11.0034   104.7432     2.5377     0.0112   -67.7871     8.0743     6.0643
 2544.0000    11.5452   109.2776     2.5637     0.0223   -67.4163     8.0658     6.0023
 2544.5000    11.5453   109.6836     2.5707     0.0223   -67.6324     8.0574     5.8862
 2545.0000    11.3454   108.4876     2.5698     0.0213   -67.6542     8.0489     5.8260
 2545.5000    11.2856   108.4906     2.5678     0.0233   -67.8747     8.0405     5.5572
 2546.0000    11.0654   112.7056     2.5658     0.0224   -67.6980     7.9582     5.3996
 2546.5000    10.6646   111.9076     2.5608     0.0214   -67.7199     7.9499     5.3939
 2547.0000    10.6048   109.1072     2.5599     0.0214   -67.7418     8.0152     5.3883
 2547.5000    10.6051   107.3062     2.5569     0.0224   -67.5651     8.0068     5.3826
 2548.0000    10.5653   106.9100     2.5610     0.0214   -67.5870     8.1476     5.3770
 2548.5000    10.5456   109.1212     2.5589     0.0195   -67.4103     8.1390     5.3713
 2549.0000    10.5459   112.1350     2.5599     0.0225   -67.4322     8.3589     5.4155
 2549.5000    10.5461   113.7450     2.5640     0.0275   -67.4541     8.4276     5.5106
 2550.0000    10.5666   110.5405     2.5742     0.0285   -67.4760     8.4188     5.7121
 2550.5000    10.5669   110.3460     2.5690     0.0286   -67.2993     8.4880     5.7590
 2551.0000    10.5472   108.5444     2.5690     0.0296   -67.3212     8.4791     5.7001
 2551.5000    10.5274   108.3488     2.5712     0.0256   -67.3431     8.3924     5.7469
 2552.0000    10.5077   108.7551     2.5602     0.0146   -67.3650     8.3836     5.7409
 2552.5000    10.4679   106.5529     2.5531     0.0066   -67.1883     8.4525     5.6845
 2553.0000    10.4481   106.1564     2.5511     0.0086   -67.2102     8.4437     5.5722
 2553.5000    10.4284   106.9630     2.5522     0.0087   -67.2321     8.3573     5.5711
 2554.0000    10.3685   105.9655     2.5532     0.0077   -67.2540     8.3485     5.5094
 2554.5000    10.3488   105.5689     2.5552     0.0057   -67.2759     8.3398     5.5547
 2555.0000    10.3692   106.3766     2.5532     0.0057   -67.2977     8.3310     5.5489
 2555.5000    10.3695   109.1905     2.5523     0.0088   -67.3196     8.2458     5.5430
 2556.0000    10.4099   109.3963     2.5583     0.0168   -67.5400     8.2371     5.5886
 2556.5000    10.4102   110.0035     2.5633     0.0198   -67.5619     8.3819     5.5326
 2557.0000    10.4167   109.6071     2.5693     0.0198   -67.5838     8.4508     5.6286
 2557.5000    10.3769   109.6122     2.5614     0.0169   -67.6057     8.5203     5.8140
 2558.0000    10.3572   110.2195     2.5614     0.0169   -67.6276     8.6701     5.8824
 2558.5000    10.3575   109.2207     2.5634     0.0149   -67.6495     8.8225     6.0413
 2559.0000    10.3579   109.0249     2.5654     0.0159   -67.8699     8.9776     6.2609
 2559.5000    10.3784   109.0300     2.5675     0.0180   -68.0903     9.0515     6.3723
 2560.0000    10.3587   108.4336     2.5715     0.0210   -68.1122     9.3823     6.7284
 2560.5000    10.3791   112.4560     2.5765     0.0230   -68.1341     9.5493     6.7866
 2561.0000    10.3794   114.4695     2.5795     0.0230   -68.1560     9.5453     7.0332
 2561.5000    10.3597   114.4727     2.5806     0.0200   -68.1778     9.5577     7.0911
 2562.0000    10.3601   107.8520     2.5716     0.0151   -68.1997     9.5700     7.1494
 2562.5000    10.3605   107.4542     2.5696     0.0141   -68.2216     9.5824     7.1419
 2563.0000    10.3608   104.8469     2.5716     0.0131   -68.2435     9.5949     7.1344
 2563.5000    10.3612   104.2491     2.5687     0.0141   -68.2654     9.6073     7.1269
 2564.0000    10.3415   103.6512     2.5747     0.0202   -68.2873     9.6197     7.1194
 2564.5000    10.3418    99.0353     2.5847     0.0272   -68.1106     9.6322     7.1119
 2565.0000    10.3221    98.6379     2.5877     0.0282   -68.1325     9.6447     7.1045
 2565.5000    10.3225    96.0305     2.5897     0.0272   -68.3529     9.6572     7.0970
 2566.0000    10.3228   104.0720     2.5748     0.0202   -68.1762     9.6697     7.0896
 2566.5000    10.3031   107.8956     2.5688     0.0183   -68.3967     9.6822     7.0821
 2567.0000    10.3035   107.6977     2.5708     0.0183   -68.2200     9.6948     7.1404
 2567.5000    10.3038   103.8844     2.5718     0.0193   -68.4404     9.7073     7.1329
 2568.0000    10.3042   104.8940     2.5739     0.0213   -68.4623     9.7199     7.1254
 2568.5000    10.3247   108.5165     2.5749     0.0214   -68.4842     9.7379     7.0525
 2569.0000    10.3250   109.9284     2.5739     0.0214   -68.5061     9.5556     7.0451
 2569.5000    10.3254   111.1395     2.5759     0.0214   -68.5280     9.4579     6.9729
 2570.0000    10.3459   112.1507     2.5730     0.0174   -68.5499     9.1033     6.9016
 2570.5000    10.3261   112.1528     2.5670     0.0144   -68.5717     9.1781     6.8309
 2571.0000    10.3466   105.9291     2.5660     0.0125   -68.5936     9.1685     6.8237
 2571.5000    10.3470   105.9330     2.5670     0.0125   -68.8140     9.1589     6.8166
 2572.0000    10.3474   109.7568     2.5671     0.0155   -69.0345     9.1493     6.8094
 2572.5000    10.3678   110.5661     2.5751     0.0175   -69.2549     9.1397     6.8023
 2573.0000    10.3682   110.7723     2.5691     0.0186   -69.2768     9.1302     6.7951
 2573.5000    10.3686   110.5763     2.5691     0.0186   -68.9016     9.2053     6.7880
 2574.0000    10.3690   109.5759     2.5722     0.0176   -69.3205     9.1956     6.8438
 2574.5000    10.3693   107.9722     2.5762     0.0136   -69.3424     9.1860     7.0288
 2575.0000    10.3697   108.1773     2.5572     0.0096   -69.3643     9.1764     6.9569
 2575.5000    10.3701   110.5967     2.5542     0.0127   -69.1877     9.1667     7.0141
 2576.0000    10.3705   109.9984     2.5623     0.0197   -69.2095     9.4165     7.0718
 2576.5000    10.3708   110.0035     2.5723     0.0197   -68.8343     9.5821     6.9994
 2577.0000    10.3712   111.4166     2.5733     0.0187   -68.8562     9.6609     7.0569
 2577.5000    10.3715   110.8183     2.5703     0.0198   -68.8781     9.7404     7.0495
 2578.0000    10.3920   108.6105     2.5734     0.0248   -68.9000     9.6407     7.0421
 2578.5000    10.3924   107.2073     2.5874     0.0268   -68.7321     9.6306     7.1000
 2579.0000    10.3928   107.2122     2.5874     0.0238   -68.5467     9.6205     7.0926
 2579.5000    10.4133   107.4184     2.5774     0.0158   -68.5686     9.6044     7.1509
 2580.0000    10.4137   108.4294     2.5605     0.0109   -68.3919     9.7708     7.1434
 2580.5000    10.4140   108.6346     2.5635     0.0119   -68.4138     9.7692     7.0703
 2581.0000    10.4144   109.0421     2.5685     0.0109   -68.4357     9.7610     7.1284
 2581.5000    10.4349   106.6322     2.5595     0.0099   -68.2590     9.5702     7.0555
