~VERSION INFORMATION
 VERS.                2.0:   CWLS LOG ASCII STANDARD - VERSION 2.0
 WRAP.                 NO:   ONE LINE PER DEPTH STEP
~WELL INFORMATION
#MNEM.UNIT      DATA TYPE    INFORMATION
#----------   ------------   ------------------------------
 STRT.F          502.0000:   START DEPTH
 STOP.F         4210.0000:   STOP DEPTH
 STEP.F            0.5000:   STEP LENGTH
 NULL.          -999.2500:   NO VALUE
 COMP.   FENIX & SCISSION:   COMPANY
 WELL. FENIX NPR 3 "JX" #43-34:   WELL
 FLD .              N P R:   FIELD
 LOC .      S34 T39N R78W:   LOCATION
 CNTY.            NATRONA:   COUNTY
 STAT.            WYOMING:   STATE
 CTRY. UNITED STATES OF AMERICA:   COUNTRY
 SRVC.              WELEX:   SERVICE COMPANY
 DATE.        05-FEB-1979:   LOGDATE
 API .     49025107690000:   API NUMBER
~CURVE INFORMATION
#MNEM.UNIT       API CODE    CURVE DESCRIPTION
#----------   ------------   ------------------------------
 DEPT.F                  :   
 TENR.LBS    07 635 01 00:   TENSION FROM RESISTIVITY
 SPR .MV     07 010 01 00:   SPONTANEOUS POTENTIAL
 SFL .OHMM   07 220 01 00:   SHALLOW FOCUSED LOG RESISTIVITY
 ILD .OHMM   07 120 46 00:   DEEP INDUCTION RESISTIVITY
 ILM .OHMM   07 120 44 00:   INDUCTION LOG MEDIUM RESISTIVITY
 TEND.LBS    45 635 01 00:   TENSION FROM DENSITY LOG
 CALD.IN     45 280 60 00:   CALIPER FROM DENSITY LOG
 GRD .GAPI   45 310 01 00:   GAMMA RAY FROM DENSITY LOG
 CORR.G/C3   45 356 01 00:   DENSITY CORRECTION
 NPHI.DEC    42 890 03 00:   NEUTRON POROSITY SANDSTONE
 RHOB.G/C3   45 350 01 00:   BULK DENSITY
~PARAMETER INFORMATION
#MNEM.UNIT          VALUE    DESCRIPTION
#----------   ------------   ------------------------------
 EKB .F         5108.0000:   Kelly bushing
 EGL .F         5098.0000:   Ground level
 TD  .F         4204.0000:   Total depth
 DATE.        05-FEB-1979:   Date logged
 CLNT.            A2DTECH:   Client Code
 SL  . 1627' FNL & 2110' FWL:   Surface Location
 PD  .                 GL:   Permanent Datum
 DD  .F              4200:   Depth driller
 DL  .F              4204:   Depth logger
 BLI .F              4202:   Bottom log interval
 CS1 .IN            8.625:   Casing size
 CBD1.      8.625" @ 506':   Casing driller 1
 CBL1.F               506:   Casing logger 1
 BS1 .IN            7.875:   Bit size
 DFT .           CHEM/GEL:   Type fluid in hole
 DFD .                9.2:   Density
 DFV .                 55:   Viscosity
 DFPH.                9.5:   pH
 DFL .                5.7:   Fluid loss
 MSS .            MUD/PIT:   Source of sample
 RMS .OHMM            1.1:   Rm
 MST .F                52:   Rm Meas. temp.
 RMF .OHMM            .45:   Rmf
 MFST.F                52:   Rmf Meas. temp.
 RMC .OHMM            1.8:   Rmc
 MCST.F                52:   Rmc Meas. temp.
 MFSS.               MEAS:   Source Rmf.
 RMB .OHMM           5.06:   Rm. at BHT
 BHT .F               128:   BHT.
 TCS .HRS               8:   Time Circ. stopped
 MRT .F               128:   Maximum recorded temp.
 LUN .               9685:   Logging unit number
 LUL .             CASPER:   Logging unit location
 ENGI.        KEIN/JOINER:   Recorded By
 WITN.        J. DINSMORE:   Witnessed by
 ORIG.           5" PRINT:   Origin of data
 UWI .     49025107690000:   Unique Well ID
 DICO. A2D TECHNOLOGIES, INC.:   Digitizing Company
 DAPD.F                10:   Feet Above Permanent Datum
 BSD1.F              4200:   Depth drilled with bit1
 MCSS.               MEAS:   Source Rmc.
 EPD .F              5098:   Elevation Permanent Datum
 LMF .                 KB:   Log Measured From
 DMF .                 KB:   Drilling Measured From
 TLI .F               500:   Top log interval
~OTHER INFORMATION
~A   DEPT     TENR        SPR        SFL        ILD        ILM        TEND        CALD       GRD        CORR       NPHI       RHOB 
# ...
  746.0000   740.0000   -62.9430     7.1950     5.2290     4.5740   813.6250    10.2400   123.6160     0.0010     0.3040     2.4160
  746.5000   740.0000   -62.9540     7.1950     5.2990     4.5870   813.7660    10.2310   123.5970    -0.0010     0.3030     2.4150
  747.0000   740.0000   -62.9650     7.3240     5.3580     4.6010   813.9080    10.2210   123.5960    -0.0030     0.3040     2.4140
  747.5000   740.0000   -62.9770     7.4650     5.3870     4.6140   814.0490    10.2280   123.6010    -0.0050     0.3040     2.4140
  748.0000   740.0000   -62.9880     7.4650     5.4130     4.6280   814.1910    10.2380   123.6130    -0.0060     0.3060     2.4120
  748.5000   740.0000   -62.9990     7.4650     5.4380     4.6410   814.3320    10.2480   123.5520    -0.0080     0.3090     2.4210
  749.0000   740.0000   -63.0100     7.4650     5.4630     4.6550   814.4730    10.2580   124.1020    -0.0100     0.3120     2.4150
  749.5000   740.0000   -63.0220     7.4830     5.4890     4.6680   814.6150    10.2680   125.0600    -0.0120     0.3100     2.3960
  750.0000   740.0000   -63.0330     7.5060     5.5140     4.6820   814.7560    10.2780   125.9850    -0.0130     0.3040     2.3990
  750.5000   740.0000   -63.0440     7.5300     5.5390     4.6950   814.8980    10.2880   126.8720    -0.0100     0.3030     2.3970
  751.0000   740.0000   -63.0550     7.5530     5.5590     4.7090   815.0390    10.2990   127.5160    -0.0020     0.3020     2.4210
  751.5000   740.0000   -63.0670     7.5760     5.5990     4.7220   815.1800    10.2860   126.6430     0.0070     0.2990     2.4260
  752.0000   740.0000   -63.0780     7.6040     5.6480     4.7360   815.3220    10.2680   125.9330     0.0140     0.3020     2.4270
  752.5000   740.0000   -63.0890     7.7180     5.6980     4.7490   815.4630    10.2500   125.1210     0.0230     0.2970     2.4190
  753.0000   740.0000   -63.1010     7.8890     5.7470     4.7630   815.6050    10.2330   124.3840     0.0210     0.2930     2.4180
  753.5000   740.0000   -63.1120     7.9020     5.7960     4.7760   815.7460    10.2150   123.6250     0.0160     0.2950     2.4180
  754.0000   740.0000   -63.1230     7.9180     5.8460     4.7900   815.8870    10.1980   123.8180     0.0120     0.2940     2.4010
  754.5000   740.0000   -63.1340     7.9340     5.8810     4.8010   816.0290    10.1810   124.2410     0.0110     0.2930     2.4070
  755.0000   740.0000   -63.1460     7.9500     5.8960     4.8090   816.1700    10.1890   124.4250     0.0110     0.2940     2.4200
  755.5000   740.0000   -63.1470     7.9660     5.9100     4.8170   816.3120    10.1960   124.3860     0.0120     0.2970     2.4250
  756.0000   740.0000   -63.1480     7.9820     5.9240     4.8250   816.4530    10.2050   124.3960     0.0120     0.2990     2.4170
  756.5000   740.0000   -63.1470     7.9980     5.9390     4.8330   816.5940    10.2130   124.4800     0.0120     0.2980     2.4140
  757.0000   740.0000   -63.1470     8.0130     5.9540     4.8410   816.7360    10.2190   125.1570     0.0130     0.2960     2.4160
  757.5000   740.0000   -63.1470     8.0360     5.9680     4.8490   816.8770    10.1870   125.9250     0.0130     0.2940     2.4140
  758.0000   740.0000   -63.1470     7.9820     5.9830     4.8570   817.0190    10.1450   124.5030     0.0130     0.2920     2.4130
  758.5000   740.0000   -63.1470     7.8920     5.9970     4.8650   817.1600    10.1030   124.9180     0.0130     0.2940     2.4250
  759.0000   740.0000   -63.1470     7.8020     6.0120     4.8720   817.3010    10.0620   125.3630     0.0140     0.2930     2.4330
  759.5000   740.0000   -63.1470     7.7120     6.0260     4.8810   817.4430    10.0220   125.8850     0.0140     0.2910     2.4300
  760.0000   740.0000   -63.1470     7.6040     6.0410     4.8870   817.5840    10.0130   123.9650     0.0140     0.2920     2.4240
  760.5000   740.0000   -63.1470     7.7520     6.0550     4.9070   817.7260    10.0040   122.0060     0.0150     0.2910     2.4300
  761.0000   740.0000   -63.1470     8.1220     6.0700     4.9230   817.8670     9.9970   120.4230     0.0150     0.2870     2.4410
  761.5000   740.0000   -63.1470     8.4920     6.0840     4.9390   818.0080     9.9890   120.4210     0.0180     0.2830     2.4400
  762.0000   740.0000   -63.1470     8.4920     6.0960     4.9550   818.1500     9.9810   120.3870     0.0290     0.2780     2.4460
  762.5000   740.0000   -63.1470     8.4920     6.2000     4.9710   818.2910     9.9740   120.4220     0.0350     0.2770     2.4490
  763.0000   740.0000   -63.1470     8.4920     6.2860     4.9870   818.4330     9.9660   120.1720     0.0280     0.2790     2.4350
  763.5000   740.0000   -63.1470     8.4920     6.3730     5.0030   818.5740     9.9580   119.8120     0.0190     0.2740     2.4210
  764.0000   740.0000   -63.1470     9.1670     6.4420     5.0190   818.7160     9.9510   118.7820     0.0090     0.2690     2.4160
  764.5000   740.0000   -63.1470     9.8410     6.3490     5.0350   818.8570     9.9430   117.2080    -0.0020     0.2670     2.4120
  765.0000   740.0000   -63.1470     9.3450     6.2090     5.0520   818.9980     9.9400   115.5840    -0.0130     0.2660     2.4080
  765.5000   740.0000   -63.1470     8.6500     6.2760     5.0680   819.1400     9.9400   115.0080    -0.0250     0.2660     2.4080
  766.0000   740.0000   -63.1470     8.8380     6.4420     5.0840   819.2810     9.9400   115.8760    -0.0160     0.2710     2.4090
  766.5000   740.0000   -63.1470     9.1500     6.6080     5.1000   819.4230     9.9410   116.6120    -0.0010     0.2690     2.4270
  767.0000   740.0000   -63.1480     9.4620     6.8080     5.1160   819.5640     9.9310   117.1460     0.0000     0.2650     2.4550
  767.5000   740.0000   -63.1400     9.7740     6.8080     5.1320   819.7050     9.9130   116.9210     0.0020     0.2620     2.4830
  768.0000   740.0000   -63.1240    10.0240     6.9350     5.1470   819.8470     9.8960   116.7640     0.0070     0.2600     2.5080
  768.5000   740.0000   -63.1080    12.2750     6.4990     5.1630   819.9880     9.8810   116.3180     0.0230     0.2640     2.4480
  769.0000   740.0000   -63.0930    10.1100     6.2090     5.1350   820.1300     9.8620   118.2640     0.0120     0.2710     2.4280
  769.5000   740.0000   -63.0780     8.8110     6.2090     5.1060   820.2710     9.8910   121.9680     0.0090     0.2830     2.4290
  770.0000   740.0000   -63.0620     8.6350     6.1530     5.0780   820.4120     9.9320   123.9770     0.0150     0.2840     2.4270
  770.5000   740.0000   -63.0470     8.4590     6.0970     5.0490   820.5540     9.9710   126.0010     0.0180     0.2860     2.4190
  771.0000   740.0000   -63.0310     8.2820     6.0410     5.0200   820.6950    10.0160   127.2860     0.0140     0.2900     2.4120
  771.5000   740.0000   -63.0160     8.0360     5.9850     4.9910   820.8370    10.0310   127.3000     0.0100     0.2950     2.4050
  772.0000   740.0000   -63.0010     8.0530     5.9700     4.9620   820.9780    10.0450   126.4140     0.0060     0.3050     2.3970
  772.5000   740.0000   -62.9850     8.0820     5.9450     4.9330   821.1190    10.0580   125.4560     0.0010     0.3010     2.3970
  773.0000   740.0000   -62.9700     8.1110     5.9200     4.9040   821.2610    10.0730   125.9060     0.0000     0.2990     2.4030
  773.5000   740.0000   -62.9550     8.1390     5.8950     4.8760   821.4020    10.0860   127.3570     0.0030     0.2920     2.4100
  774.0000   740.0000   -62.9390     8.1850     5.8750     4.8500   821.5440    10.1000   128.3690     0.0060     0.2900     2.4140
  774.5000   740.4390   -62.9240     8.1300     5.8110     4.8240   821.6850    10.1140   127.7750     0.0090     0.2920     2.4200
  775.0000   740.9870   -62.9080     7.9930     5.7300     4.7980   821.8260    10.1270   127.0250     0.0130     0.2950     2.4200
  775.5000   741.5350   -62.8930     7.8550     5.6490     4.7710   821.9680    10.1420   126.2370     0.0150     0.3010     2.4190
  776.0000   742.0830   -62.8780     7.7450     5.5680     4.7450   822.1090    10.1560   125.5060     0.0190     0.3050     2.4290
