~VERSION INFORMATION
 VERS.                2.0:   CWLS LOG ASCII STANDARD - VERSION 2.0
 WRAP.                 NO:   ONE LINE PER DEPTH STEP
~WELL INFORMATION
#MNEM.UNIT      DATA TYPE    INFORMATION
#----------   ------------   ------------------------------
 STRT.F          450.0000:   START DEPTH
 STOP.F         3098.0000:   STOP DEPTH
 STEP.F            0.5000:   STEP LENGTH
 NULL.          -999.2500:   NO VALUE
 COMP. FENIX & SCISSON - U.S NAVY:   COMPANY
 WELL. FENIX NPR 3 "AX" #11-33:   WELL
 FLD .              N P R:   FIELD
 LOC .      S33 T39N R78W:   LOCATION
 CNTY.            NATRONA:   COUNTY
 STAT.            WYOMING:   STATE
 CTRY. UNITED STATES OF AMERICA:   COUNTRY
 SRVC.              WELEX:   SERVICE COMPANY
 DATE.        12-MAR-1977:   LOGDATE
 API .     49025103210000:   API NUMBER
~CURVE INFORMATION
#MNEM.UNIT       API CODE    CURVE DESCRIPTION
#----------   ------------   ------------------------------
 DEPT.F                  :   
 CALD.IN     45 280 60 00:   CALIPER FROM DENSITY LOG
 GRD .GAPI   45 310 01 00:   GAMMA RAY FROM DENSITY LOG
 RHOB.G/C3   45 350 01 00:   BULK DENSITY
 CORR.G/C3   45 356 01 00:   DENSITY CORRECTION
 SPR .MV     07 010 01 00:   SPONTANEOUS POTENTIAL
 SGRD.MV     07 010 01 00:   SHALLOW GUARD RESISTIVITY
 ILD .OHMM   07 120 46 00:   DEEP INDUCTION RESISTIVITY
 ILM .OHMM   07 120 44 00:   INDUCTION LOG MEDIUM RESISTIVITY
~PARAMETER INFORMATION
#MNEM.UNIT          VALUE    DESCRIPTION
#----------   ------------   ------------------------------
 EKB .F         5133.0000:   Kelly bushing
 EGL .F         5122.0000:   Ground level
 TD  .F         3130.0000:   Total depth
 DATE.        12-MAR-1977:   Date logged
 CLNT.            A2DTECH:   Client Code
 SL  . 331' FNL & 430' FWL:   Surface Location
 PD  .                 GL:   Permanent Datum
 DD  .F              3130:   Depth driller
 DL  .F              3102:   Depth logger
 BLI .F              3100:   Bottom log interval
 CS1 .IN            8.625:   Casing size
 CBD1.      8.625" @ 459':   Casing driller 1
 CBL1.F               455:   Casing logger 1
 BS1 .IN            7.875:   Bit size
 DFT .                KCL:   Type fluid in hole
 DFD .                9.3:   Density
 DFV .                 36:   Viscosity
 DFL .               16.2:   Fluid loss
 MSS .           FLOWLINE:   Source of sample
 RMS .OHMM           0.37:   Rm
 MST .F                50:   Rm Meas. temp.
 RMF .OHMM           0.32:   Rmf
 MFST.F                55:   Rmf Meas. temp.
 RMC .OHMM           0.58:   Rmc
 MCST.F                55:   Rmc Meas. temp.
 MFSS.               MEAS:   Source Rmf.
 RMB .OHMM           .168:   Rm. at BHT
 BHT .F               110:   BHT.
 TCS .HRS               4:   Time Circ. stopped
 MRT .F               110:   Maximum recorded temp.
 LUN .               0716:   Logging unit number
 LUL .             VERNAT:   Logging unit location
 ENGI.        E. CALLAHAN:   Recorded By
 WITN.            K. JAPP:   Witnessed by
 ORIG.           5" PRINT:   Origin of data
 UWI .     49025103210000:   Unique Well ID
 DICO. A2D TECHNOLOGIES, INC.:   Digitizing Company
 DAPD.F                11:   Feet Above Permanent Datum
 BSD1.               3950:   Depth drilled with bit1
 MCSS.               CALC:   Source Rmc.
 EPD .F              5122:   Elevation Permanent Datum
 LMF .                 KB:   Log Measured From
 DMF .                 KB:   Drilling Measured From
 TLI .F               455:   Top log interval
~OTHER INFORMATION
~A   DEPT       CALD       GRD        RHOB      CORR       SPR       SGRD        ILD        ILM   
# ...
 2515.5000    10.0417   136.9933     2.5046     0.0698   -30.7171     8.4261     5.9970     7.1423
 2516.0000    10.0613   137.9834     2.5084     0.0738   -30.7135     8.4275     5.9988     7.1440
 2516.5000    10.0611   139.9658     2.4894     0.0638   -30.7098     8.2784     5.9992     7.1452
 2517.0000    10.0609   139.3686     2.4894     0.0838   -30.7062     8.2040     5.8908     7.0809
 2517.5000    10.0409   138.1758     2.5114     0.0838   -30.7025     7.9088     5.6793     7.0172
 2518.0000     9.9613   139.1662     2.5040     0.0638   -30.8965     7.6948     5.6797     6.8273
 2518.5000     9.9611   139.3627     2.4966     0.0558   -31.0906     7.4180     5.5772     6.7040
 2519.0000     9.9411   139.5591     2.4914     0.0538   -31.0869     6.8296     5.5271     6.5828
 2519.5000     9.9409   140.1511     2.5054     0.0578   -30.8856     6.6448     5.4774     6.5234
 2520.0000     9.9407   139.5551     2.4944     0.0558   -30.8819     7.7004     5.4781     6.5243
 2520.5000     9.9603   136.1798     2.5084     0.0538   -30.8783     7.9899     5.4790     6.4665
 2521.0000     9.9403   135.5826     2.5094     0.0418   -30.4769     8.1396     5.5306     6.5269
 2521.5000     9.9401   134.7870     2.4834     0.0438   -31.2641     8.2921     5.5826     6.6492
 2522.0000     9.8605   134.1898     2.5094     0.0378   -31.4582     8.2935     5.6354     6.7116
 2522.5000     9.9198   134.1878     2.4977     0.0358   -31.2568     8.2949     5.7941     6.8373
 2523.0000     9.9196   133.7891     2.4894     0.0358   -31.4509     8.2963     5.8484     6.9019
 2523.5000     9.8996   134.7791     2.5034     0.0378   -31.8427     8.2222     5.6884     6.9031
 2524.0000     9.9192   135.7691     2.4864     0.0378   -31.6413     8.0731     5.6891     6.9042
 2524.5000     9.9190   135.7675     2.5044     0.0378   -31.2422     8.0744     5.6903     6.9054
 2525.0000     9.9188   134.9793     2.4854     0.0398   -31.2386     8.0758     5.6910     6.9065
 2525.5000     9.9186   134.1910     2.4884     0.0438   -30.6417     8.0768     5.6922     6.9077
 2526.0000     9.9184   133.5791     2.5153     0.0638   -30.4433     8.0784     5.6929     6.9088
 2526.5000     9.9182   136.1560     2.5163     0.0777   -30.4389     8.0058     5.6941     6.8462
 2527.0000     9.9180   137.1460     2.5049     0.0658   -30.4360     7.6471     5.6948     6.7847
 2527.5000     9.8980   137.9381     2.4935     0.0438   -30.6293     7.7904     5.4919     6.7860
 2528.0000     9.8978   139.3249     2.4854     0.0448   -30.8234     7.7917     5.4930     6.7252
 2528.5000     9.8777   140.3150     2.5103     0.0638   -30.8198     7.7930     5.5958     6.7263
 2529.0000     9.8577   140.3134     2.4934     0.0358   -30.4214     7.7943     5.8063     6.7272
 2529.5000     9.7980   140.3114     2.5083     0.0338   -30.2199     7.7956     5.9155     6.7908
 2530.0000     9.7581   136.3405     2.5083     0.0378   -29.8215     8.2394     6.0820     6.9180
 2530.5000     9.7183   135.3465     2.4964     0.0398   -29.6193     8.6287     6.2531     7.5164
 2531.0000     9.6982   133.1621     2.5133     0.0438   -30.4067     9.1198     6.4888     7.7280
 2531.5000     9.6980   130.7792     2.4993     0.0498   -30.7978     9.6351     6.6101     7.9456
 2532.0000     9.6978   130.5788     2.5083     0.0558   -30.9919    10.0899     6.7340     8.0201
 2532.5000     9.6777   130.7752     2.5363     0.0637   -30.9883    10.2790     6.8604     8.1707
 2533.0000     9.6775   131.7653     2.5248     0.0458   -30.9854    10.4715     6.8611     8.3243
 2533.5000     9.6575   133.1513     2.5174     0.0438   -30.9817    10.1882     6.9901     8.3251
 2534.0000     9.6375   129.3797     2.5103     0.0418   -30.7803     9.7315     7.0554     8.4035
 2534.5000     9.6373   131.1641     2.5103     0.0398   -30.7766     9.4682     7.1223     8.4046
 2535.0000     9.6371   132.5510     2.4804     0.0358   -30.7730     9.4701     7.3877     8.4062
 2535.5000     9.6170   132.7474     2.5083     0.0358   -30.3738     9.7402     7.4565     8.4071
 2536.0000     9.5970   133.9358     2.4764     0.0318   -30.3708     9.7425     7.4585     8.3318
 2536.5000     9.5571   134.1322     2.4964     0.0298   -30.7605     9.7438     7.4595     8.2568
 2537.0000     9.5569   134.9239     2.5093     0.0358   -30.9561     9.7454     7.3927     8.1826
 2537.5000     9.5567   135.3187     2.4948     0.0338   -30.9532     9.7470     7.3259     8.1087
 2538.0000     9.5565   136.1099     2.4843     0.0378   -30.5532     9.8344     7.2601     8.0363
 2538.5000     9.5762   135.3147     2.5098     0.0397   -30.1547     9.8363     7.1950     8.0374
 2539.0000     9.5760   133.9239     2.5068     0.0417   -30.1511     9.7479     7.0027     8.0387
 2539.5000     9.5559   133.3267     2.5038     0.0457   -30.7400     9.7492     7.0039     8.0403
 2540.0000     9.5557   132.9283     2.5013     0.0357   -30.9342     9.9358     6.9409     8.0417
 2540.5000     9.5158   134.7116     2.4918     0.0377   -30.9305    10.1219     6.9423     7.9691
 2541.0000     9.5156   136.2972     2.4968     0.0417   -30.9276    10.1239     6.8796     7.9707
 2541.5000     9.5154   138.0809     2.4903     0.0497   -30.5254     9.9410     6.8178     7.7553
 2542.0000     9.5152   139.2693     2.4903     0.0537   -30.7196     9.5835     6.7567     7.6850
 2542.5000     9.5150   139.2673     2.4995     0.0577   -31.5071     9.1542     6.6344     7.7576
 2543.0000     9.5148   139.4637     2.5086     0.0777   -31.7013     9.1554     6.7590     7.7589
 2543.5000     9.5146   139.8586     2.5163     0.0577   -31.6976     9.1569     6.6369     7.7597
 2544.0000     9.5343   140.2534     2.5183     0.0577   -31.2984     9.3291     6.6380     7.7607
 2544.5000     9.5539   140.2514     2.5322     0.0697   -31.6903     9.5036     6.6391     7.7620
 2545.0000     9.5537   142.2327     2.5362     0.0697   -31.8845     9.5923     6.5792     7.8353
 2545.5000     9.5337   141.6363     2.5272     0.0697   -32.0787     9.5942     6.5803     7.9090
 2546.0000     9.5137   140.0470     2.5068     0.0437   -32.2728     9.5955     6.5814     7.9836
 2546.5000     9.4936   140.0451     2.4923     0.0337   -32.6648     9.6861     6.5822     7.8394
 2547.0000     9.5133   139.2495     2.4863     0.0357   -33.2546     9.6880     6.5831     7.8407
 2547.5000     9.4932   139.0491     2.5003     0.0417   -33.6467     9.6893     6.6457     7.8420
 2548.0000     9.5129   137.0630     2.5302     0.0517   -33.2474     9.6912     6.6464     7.8433
 2548.5000     9.4928   136.2674     2.5282     0.0497   -33.0459     9.6925     6.6479     7.8446
 2549.0000     9.5125   136.0670     2.5272     0.0477   -32.8445     9.6934     6.6490     7.8459
 2549.5000     9.5123   136.0654     2.5222     0.0357   -32.8408     9.6960     6.6499     7.9929
 2550.0000     9.5121   133.4830     2.5262     0.0437   -33.0372     9.6085     6.6506     7.9942
 2550.5000     9.5119   134.4733     2.5202     0.0417   -33.2292     9.3488     6.6521     7.9956
 2551.0000     9.4918   135.0675     2.5102     0.0377   -33.6213     9.3501     6.6535     7.9969
 2551.5000     9.4718   133.9507     2.5062     0.0397   -34.0133     9.8825     6.7158     7.9982
 2552.0000     9.4716   132.8802     2.5212     0.0517   -34.2075    10.0636     6.7170     7.9995
 2552.5000     9.4714   136.0519     2.5262     0.0537   -34.2039     9.7953     6.7179     8.0748
 2553.0000     9.4712   136.8436     2.5282     0.0537   -34.3981     9.4427     6.7192     7.9289
 2553.5000     9.4512   136.8428     2.5222     0.0577   -34.5923     9.4446     6.7203     7.9302
 2554.0000     9.4708   138.8248     2.5162     0.0656   -34.9844     9.7104     6.7835     8.0049
 2554.5000     9.4706   140.4101     2.5272     0.0736   -34.9808     9.9834     6.7844     7.9329
 2555.0000     9.4704   140.8049     2.5192     0.0676   -34.7793    10.0773     6.7232     7.9342
 2555.5000     9.4702   141.7950     2.5082     0.0656   -34.7757     9.7152     6.6020     7.8629
