~VERSION INFORMATION
 VERS.                2.0:   CWLS LOG ASCII STANDARD - VERSION 2.0
 WRAP.                 NO:   ONE LINE PER DEPTH STEP
~WELL INFORMATION
#MNEM.UNIT      DATA TYPE    INFORMATION
#----------   ------------   ------------------------------
 STRT.F           60.0000:   START DEPTH
 STOP.F         5768.0000:   STOP DEPTH
 STEP.F            0.5000:   STEP LENGTH
 NULL.          -999.2500:   NO VALUE
 COMP.              RMOTC:   COMPANY
 WELL. RMOTC NPR-3 61 "X" #2-15:   WELL
 FLD .            N P R-3:   FIELD
 LOC .      S15 T38N R78W:   LOCATION
 CNTY.            NATRONA:   COUNTY
 STAT.            WYOMING:   STATE
 CTRY. UNITED STATES OF AMERICA:   COUNTRY
 SRVC.       SCHLUMBERGER:   SERVICE COMPANY
 DATE.        07-JAN-2002:   LOGDATE
 API .     49025230310000:   API NUMBER
~CURVE INFORMATION
#MNEM.UNIT       API CODE    CURVE DESCRIPTION
#----------   ------------   ------------------------------
 DEPT.F                  :   
 CALD.IN     45 280 60 00:   CALIPER FROM DENSITY LOG
 TEND.LBS    45 635 01 00:   TENSION FROM DENSITY LOG
 PEFZ.B/E    45 358 01 00:   HILT PHOTOELECTRIC FACTOR
 RHOZ.G/C3   45 350 01 00:   HILT BULK DENSITY
 NPOR.DEC    42 890 03 00:   ALPHA PROCESSED NEUTRON POROSITY
 HDRA.G/C3   45 356 01 00:   DELTA RHO HIP TOOL
 GRS .GAPI   60 310 01 00:   GAMMA RAY FROM SONIC LOG
 DTSM.US/F   61 523 00 00:   SHEAR-WAVE INTERVAL TRANSIT TIME DELTA-T
 GRR .GAPI   07 310 01 00:   GAMMA RAY FROM RESISTIVITY
 TENR.LBS    01 635 01 00:   TENSION FROM RES.
 SPR .MV     07 010 01 00:   SPONTANEOUS POTENTIAL
 HLLD.OHMM   11 220 10 00:   LATEROLOG DEEP RES.
 HLLS.OHMM   11 220 09 00:   LATEROLOG SHALLOW RES.
 HRLD.OHMM   11 220 10 00:   HIGH RESOLUTION DEEP RESISTIVITY
~PARAMETER INFORMATION
#MNEM.UNIT          VALUE    DESCRIPTION
#----------   ------------   ------------------------------
 EKB .F         5244.0000:   Kelly bushing
 EGL .F         5227.0000:   Ground level
 EDF .F         5243.0000:   Drilling floor
 EPD .F            0.0000:   Permanent datum
 TD  .F         5756.0000:   Total depth
 DATE.        07-JAN-2002:   Date logged
 CLNT.            A2DTECH:   Client Code
 SL  . 189' FNL & 1895' FEL:   Surface Location
 PD  .                 GL:   Permanent Datum
 DD  .F              5750:   Depth driller
 DL  .F              5756:   Depth logger
 BLI .F              5748:   Bottom log interval
 CS1 .IN             3054:   Casing size
 CBD1.     9.625" @ 3052':   Casing driller 1
 CBL1.F              3054:   Casing logger 1
 BS1 .IN            8.750:   Bit size
 DFT .             3% KCL:   Type fluid in hole
 DFD .                9.3:   Density
 DFV .                 42:   Viscosity
 DFPH.                  8:   pH
 DFL .                 28:   Fluid loss
 MSS .           FLOWLINE:   Source of sample
 RMS .OHMM          0.413:   Rm
 MST .F                74:   Rm Meas. temp.
 RMF .OHMM          0.305:   Rmf
 MFST.F                74:   Rmf Meas. temp.
 RMC .OHMM          0.637:   Rmc
 MCST.F                74:   Rmc Meas. temp.
 MFSS.               CALC:   Source Rmf.
 RMB .OHMM          0.187:   Rm. at BHT
 BHT .F               172:   BHT.
 TCS .HRS            0800:   Time Circ. stopped
 MRT .F               172:   Maximum recorded temp.
 LUN .               2211:   Logging unit number
 LUL .             CASPER:   Logging unit location
 ENGI.        J.L. FLORES:   Recorded By
 WITN.      MARK MILLIKEN:   Witnessed by
 ORIG.           5" PRINT:   Origin of data
 UWI .     49025230310000:   Unique Well ID
 DICO. A2D TECHNOLOGIES, INC.:   Digitizing Company
 DAPD.                 17:   Feet Above Permanent Datum
 BSD1.               5750:   Depth drilled with bit1
 MCSS.               CALC:   Source Rmc.
 LMF .                 KB:   Log Measured From
 DMF .                 KB:   Drilling Measured From
 TLI .               3054:   Top log interval
~OTHER INFORMATION
~A   DEPT     CALD       TEND       PEFZ       RHOZ       NPOR       HDRA        GRS       DTSM         GRR      TENR        SPR       HLLD       HLLS       HRLD   
# ...
 3588.0000     9.8150  2256.4609     2.7600     2.4560     0.3570     0.0770   145.2870  -999.2500   163.0950  2262.2610   -26.9160     7.4920     7.7960     7.5850
 3588.5000     9.7800  2256.4609     2.6940     2.4860     0.3260     0.0640   147.5810  -999.2500   167.5590  2258.8301   -15.8490     7.5230     7.7010     7.4370
 3589.0000     9.7760  2256.4609     2.6350     2.4760     0.3190     0.0350   147.1830  -999.2500   168.4880  2255.3979   -10.1860     7.4480     7.5850     7.2460
 3589.5000     9.7870  2256.4609     2.6340     2.4620     0.3180     0.0080   147.0050  -999.2500   167.7600  2274.0811   -15.6040     7.8780     7.9830     7.9630
 3590.0000     9.8250  2243.6150     2.6580     2.4580     0.2990     0.0060   148.1730  -999.2500   168.1110  2274.0811   -23.6750     8.5320     8.5880     8.4650
 3590.5000     9.9960  2258.9390     2.6700     2.4630     0.2960     0.0100   149.3050  -999.2500   168.6810  2274.0811   -19.9430     9.2760     9.2760     9.0580
 3591.0000    10.1090  2274.2620     2.6540     2.4330     0.2980     0.0160   150.4040  -999.2500   169.0440  2274.0811   -21.5460     9.4470     8.8010     9.3610
 3591.5000     9.8440  2266.0481     2.7290     2.3750     0.3500     0.0220   149.5130  -999.2500   167.6560  2274.0811   -29.0910     8.4050     6.9980     7.8260
 3592.0000     9.8410  2243.9141     2.8130     2.3730     0.3900     0.0410   141.3770  -999.2500   164.9850  2274.0811   -33.1120     6.1620     5.1950     5.6450
 3592.5000     9.9080  2236.5811     2.8660     2.4250     0.3650     0.0510   129.4380  -999.2500   162.3840  2267.4399   -37.1290     3.9200     3.5180     3.1810
 3593.0000     9.7240  2246.2681     2.9130     2.4600     0.3310     0.0540   127.9850  -999.2500   161.6350  2261.2209   -36.9280     5.1050     3.3920     5.2480
 3593.5000     9.7690  2255.3230     3.1590     2.4110     0.3200     0.0560   138.4470  -999.2500   162.4560  2254.2200   -34.4120    11.7660     9.9800    14.5210
 3594.0000     9.8200  2273.5979     3.4390     2.3350     0.3680     0.0650   148.4040  -999.2500   162.9040  2256.4509   -32.0640     7.9590     7.2220     9.2140
 3594.5000     9.8570  2263.6379     3.6070     2.2900     0.4260     0.0830   151.7250  -999.2500   161.0550  2259.0020   -31.7590     3.5500     3.6830     3.6160
 3595.0000     9.8050  2256.4609     3.5410     2.3200     0.4480     0.0860   150.1590  -999.2500   158.0300  2261.5540   -32.5610     3.5180     3.9020     3.4230
 3595.5000     9.7540  2261.0759     3.2690     2.3840     0.4220     0.0710   136.1500  -999.2500   152.7700  2264.1050   -34.1790     4.1110     4.3590     3.9520
 3596.0000     9.7040  2266.3181     3.0030     2.4390     0.3660     0.0330   115.2390  -999.2500   142.8110  2266.6560   -35.7970     5.2010     5.9110     4.4220
 3596.5000     9.6580  2271.5601     2.7280     2.4530     0.3210     0.0100   109.7390  -999.2500   133.4760  2269.2080   -37.3940     7.9400     7.7960     8.5430
 3597.0000     9.6570  2276.3420     2.6580     2.4520     0.3240     0.0080   110.4630  -999.2500   127.2250  2271.7590   -39.0020     7.1860     7.0360     7.0820
 3597.5000     9.6570  2262.4250     2.7020     2.4540     0.3290     0.0130   113.4650  -999.2500   125.9950  2274.0811   -39.9000     5.8720     5.8720     5.8180
 3598.0000     9.6570  2271.0869     2.7520     2.4580     0.3180     0.0160   118.4230  -999.2500   127.0840  2274.0811   -38.0460     6.6420     6.5680     6.3650
 3598.5000     9.6580  2279.7480     2.7890     2.4670     0.3060     0.0150   123.1630  -999.2500   128.0070  2274.0811   -35.0850     7.7570     7.5770     8.2430
 3599.0000     9.6730  2288.4089     2.8260     2.4710     0.2950     0.0100   127.8930  -999.2500   129.6950  2274.0811   -33.7970     8.6220     8.2360     9.1920
 3599.5000     9.6770  2296.2229     2.8510     2.4340     0.3200     0.0050   132.8020  -999.2500   131.4640  2274.0811   -32.3850     7.2850     7.2980     9.1920
 3600.0000     9.6790  2246.5210     2.9500     2.3610     0.3350     0.0030   132.2650  -999.2500   133.2160  2274.0811   -31.0940     5.7940     6.2520     6.1100
 3600.5000     9.7700  2238.9199     3.1420     2.3080     0.4090     0.0040   129.6980  -999.2500   133.1370  2274.0811   -31.4320     4.3020     5.2050     3.5830
 3601.0000     9.9580  2261.9050     3.3390     2.3460     0.4410     0.0100   118.6520  -999.2500   126.6870  2274.0811   -31.7100     3.8200     4.2440     3.4540
 3601.5000     9.9070  2284.8911     3.3790     2.3980     0.4100     0.0110   112.3710  -999.2500   119.3750  2274.0811   -32.6730     5.5610     5.9180     5.7310
 3602.0000     9.8410  2296.2229     3.3540     2.3980     0.3770     0.0120   111.6780  -999.2500   114.1520  2274.0811   -35.2170     7.0180     7.1440     7.1480
 3602.5000     9.8220  2290.7939     3.3030     2.2920     0.3540     0.0170   112.8970  -999.2500   117.5150  2274.0811   -37.7340     6.8590     7.6900     6.7970
 3603.0000     9.7770  2283.1321     3.2680     2.1990     0.3480     0.0350   117.2590  -999.2500   125.1810  2275.5000   -39.6420     7.1150     8.0680     7.0240
 3603.5000     9.7590  2276.3420     3.1810     2.1090     0.3560     0.0700   121.6310  -999.2500   133.6390  2277.0759   -39.9020     7.5160     8.3880     7.3540
 3604.0000     9.7970  2270.8459     3.0980     2.1250     0.3600     0.1100   129.8660  -999.2500   139.9860  2278.6531   -35.9570     7.3530     8.3880     7.5850
 3604.5000     9.9850  2260.1750     3.0150     2.2340     0.3280     0.1510   130.3260  -999.2500   139.9880  2280.2290    -7.0080     7.0260     8.1220     7.1300
 3605.0000    10.1930  2249.5029     2.9600     2.3760     0.3290     0.1500   129.9940  -999.2500   139.6010  2281.8049    21.5060     6.7970     7.7410     6.6740
 3605.5000    10.3190  2238.8311     2.9370     2.4360     0.3310     0.1380   129.8230  -999.2500   139.9970  2283.3811    31.0590     7.2460     7.3600     7.1250
 3606.0000    10.2400  2228.1599     2.9130     2.4800     0.3180     0.1120   134.7880  -999.2500   143.5930  2284.9580    36.5660     7.0060     7.1150     7.1510
 3606.5000    10.1770  2216.7000     2.8940     2.4780     0.2840     0.0860   140.4690  -999.2500   149.9400  2286.5339    30.7880     6.7390     7.1150     6.5570
 3607.0000    10.1920  2230.5371     2.9070     2.4760     0.2720     0.0670   145.6890  -999.2500   155.6370  2288.1101    21.7070     6.4930     7.2230     6.2600
 3607.5000    10.2170  2245.4771     2.9110     2.4780     0.2750     0.0620   149.7390  -999.2500   157.9340  2289.6860    -6.4060     6.8820     7.3800     6.7210
 3608.0000    10.3550  2260.4170     2.8970     2.4800     0.2780     0.0500   151.7270  -999.2500   159.9850  2291.2629   -29.3350     7.5850     7.5180     7.2970
 3608.5000    10.4240  2276.3420     2.8770     2.4740     0.2810     0.0390   148.6410  -999.2500   162.0770  2292.8391   -40.7430     7.5260     7.7510     7.5850
 3609.0000    10.0270  2277.2451     2.8560     2.4700     0.2860     0.0280   143.6990  -999.2500   162.9200  2293.9419   -40.5420     7.4410     8.0280     7.3590
 3609.5000     9.9880  2279.9370     2.8300     2.4700     0.2900     0.0250   140.1310  -999.2500   160.4940  2288.9771   -35.3790     7.3550     8.3190     7.1530
 3610.0000     9.9580  2282.6289     2.8290     2.4720     0.2730     0.0460   136.5670  -999.2500   159.7780  2283.4600   -25.5540     7.2460     8.4650     7.0500
 3610.5000    10.5480  2285.3210     2.8810     2.4900     0.2630     0.0970   135.3750  -999.2500   161.5990  2277.9431   -13.0320     7.3980     8.1610     7.3450
 3611.0000    10.6200  2288.0120     2.8930     2.4800     0.2750     0.1280   136.0980  -999.2500   164.0900  2274.0811   -17.4800     7.5160     8.3130     7.5510
 3611.5000    10.5280  2290.7041     2.8930     2.4270     0.2700     0.1310   144.0330  -999.2500   170.1550  2274.0811   -26.4160     7.3680     8.4650     7.2290
 3612.0000    10.2820  2293.3960     2.9650     2.3120     0.2650     0.1190   151.2620  -999.2500   179.3510  2274.0811   -30.9490     6.9220     7.3130     6.8590
