~VERSION INFORMATION
 VERS.                2.0:   CWLS LOG ASCII STANDARD - VERSION 2.0
 WRAP.                 NO:   ONE LINE PER DEPTH STEP
~WELL INFORMATION
#MNEM.UNIT      DATA TYPE    INFORMATION
#----------   ------------   ------------------------------
 STRT.F           85.5000:   START DEPTH
 STOP.F         3267.0000:   STOP DEPTH
 STEP.F            0.5000:   STEP LENGTH
 NULL.          -999.2500:   NO VALUE
 COMP. LAWRENCE ALLISON & ASSOCIATES:   COMPANY
 WELL. LAWRENCE "X" #78-33:   WELL
 FLD .           N P R #3:   FIELD
 LOC .      S33 T39N R78W:   LOCATION
 CNTY.            NATRONA:   COUNTY
 STAT.            WYOMING:   STATE
 CTRY. UNITED STATES OF AMERICA:   COUNTRY
 SRVC.      DRESSER ATLAS:   SERVICE COMPANY
 DATE.        04-FEB-1986:   LOGDATE
 API .     49025110630000:   API NUMBER
~CURVE INFORMATION
#MNEM.UNIT       API CODE    CURVE DESCRIPTION
#----------   ------------   ------------------------------
 DEPT.F                  :   
 CNC .DEC    42 890 03 00:   NEUTRON PORISITY SANDSTONE
 DEN .G/C3   45 350 01 00:   BULK DENSITY
 DCOR.G/C3   45 356 01 00:   DENSITY CORRECTION
 TEND.LBS    45 635 01 00:   TENSION FROM DENSITY LOG
 GRR .GAPI   07 310 01 00:   GAMMA RAY FROM RESISTIVITY
 CALR.IN     07 280 01 00:   CALIPER FROM RESISTIVITY
 RILM.OHMM   07 120 44 00:   INDUCTION LOG MEDIUM RESISTIVITY
 RILD.OHMM   07 120 46 00:   DEEP INDUCTION RESISTIVITY
 RFOC.OHMM   07 220 04 00:   RESISTIVITY FOCUSED LOG RES.
 TENR.LBS    07 635 01 00:   TENSION FROM RESISTIVITY
 DT  .US/F   60 520 00 00:   DELTA TIME
 TENS.LBS    60 635 01 00:   TENSION FROM SONIC
 SPR .MV     07 010 01 00:   SPONTANEOUS POTENTIAL
~PARAMETER INFORMATION
#MNEM.UNIT          VALUE    DESCRIPTION
#----------   ------------   ------------------------------
 EKB .F            0.0000:   Kelly bushing
 EGL .F         5150.0000:   Ground level
 EDF .F         5161.0000:   Drilling floor
 TD  .F         3260.0000:   Total depth
 DATE.        04-FEB-1986:   Date logged
 CLNT.            A2DTECH:   Client Code
 SL  . 1200' FEL & 650' FEL:   Surface Location
 PD  .                 GL:   Permanent Datum
 DD  .F              3260:   Depth driller
 DL  .F              3260:   Depth logger
 BLI .F              3258:   Bottom log interval
 CS1 .IN            8.625:   Casing size
 CBD1.      8.625" @ 566':   Casing driller 1
 CBL1.F               566:   Casing logger 1
 BS1 .IN            7.875:   Bit size
 DFT .        POLYMER-KCL:   Type fluid in hole
 DFD .                9.0:   Density
 DFV .                 36:   Viscosity
 DFPH.                8.5:   pH
 DFL .                 14:   Fluid loss
 MSS .           FLOWLINE:   Source of sample
 RMS .OHMM          0.367:   Rm
 MST .F                65:   Rm Meas. temp.
 RMF .OHMM          0.275:   Rmf
 MFST.F                65:   Rmf Meas. temp.
 RMC .OHMM          0.459:   Rmc
 MCST.F                65:   Rmc Meas. temp.
 MFSS.               CALC:   Source Rmf.
 RMB .OHMM          0.227:   Rm. at BHT
 BHT .F               105:   BHT.
 TCS .HRS               6:   Time Circ. stopped
 MRT .F               105:   Maximum recorded temp.
 LUN .               6274:   Logging unit number
 LUL .           GILLETTE:   Logging unit location
 ENGI.             MILLER:   Recorded By
 WITN.             STRONG:   Witnessed by
 ORIG.           5" PRINT:   Origin of data
 UWI .     49025110630000:   Unique Well ID
 DICO. A2D TECHNOLOGIES, INC.:   Digitizing Company
 DAPD.                 11:   Feet Above Permanent Datum
 BSD1.               3260:   Depth drilled with bit1
 MCSS.               CALC:   Source Rmc.
 EPD .F              5150:   Elevation Permanent Datum
 LMF .                 KB:   Log Measured From
 DMF .                 KB:   Drilling Measured From
 TLI .                566:   Top log interval
~OTHER INFORMATION
~A   DEPT      CNC        DEN       DCOR       TEND         GRR      CALR       RILM       RILD       RFOC       TENR         DT       TENS        SPR   
# ...
  735.5000  -999.2500  -999.2500  -999.2500  -999.2500    86.7350     9.2250    10.1630    11.3610    11.2600   -52.8730  -999.2500  -999.2500   -65.1930
  736.0000  -999.2500  -999.2500  -999.2500  -999.2500    85.3800     9.2210     9.8900    11.1010    10.8000   -53.6970  -999.2500  -999.2500   -65.0620
  736.5000  -999.2500  -999.2500  -999.2500  -999.2500    81.2090     9.2140     9.5680    10.8400    10.2570   -54.5200  -999.2500  -999.2500   -64.9110
  737.0000  -999.2500  -999.2500  -999.2500  -999.2500    83.1170     9.2120     9.1840    10.6600    10.2320   -54.6190  -999.2500  -999.2500   -64.9720
  737.5000  -999.2500  -999.2500  -999.2500  -999.2500    86.5300     9.2440     9.1420    10.5310    10.2010   -53.7040  -999.2500  -999.2500   -65.0370
  738.0000  -999.2500  -999.2500  -999.2500  -999.2500    86.5880     9.2770     9.1000    10.4010    10.1630   -52.7890  -999.2500  -999.2500   -65.1120
  738.5000  -999.2500  -999.2500  -999.2500  -999.2500    84.8990     9.3080     9.1840    10.2710     9.4410   -51.8740  -999.2500  -999.2500   -65.4760
  739.0000  -999.2500  -999.2500  -999.2500  -999.2500    81.6480     9.3560     8.9150    10.1630     8.9340   -50.9590  -999.2500  -999.2500   -65.8100
  739.5000  -999.2500  -999.2500  -999.2500  -999.2500    80.5600     9.3830     8.7340    10.1830     8.9340   -50.0440  -999.2500  -999.2500   -66.1320
  740.0000  -999.2500  -999.2500  -999.2500  -999.2500    81.2790     9.3780     8.8560    10.2000     9.1000   -49.1300  -999.2500  -999.2500   -66.4840
  740.5000  -999.2500  -999.2500  -999.2500  -999.2500    82.1880     9.3620     8.9780    10.2180     9.4990   -48.2150  -999.2500  -999.2500   -66.5850
  741.0000  -999.2500  -999.2500  -999.2500  -999.2500    82.3860     9.3520     9.1000    10.2350     9.9780   -47.3000  -999.2500  -999.2500   -66.6400
  741.5000  -999.2500  -999.2500  -999.2500  -999.2500    80.3180     9.3730     9.1670    10.2570    10.0340   -46.3850  -999.2500  -999.2500   -66.6910
  742.0000  -999.2500  -999.2500  -999.2500  -999.2500    81.0560     9.4080     9.1120    10.1970    10.0700   -45.4700  -999.2500  -999.2500   -66.6400
  742.5000  -999.2500  -999.2500  -999.2500  -999.2500    85.2470     9.3870     9.0570    10.1100     9.8410   -46.0000  -999.2500  -999.2500   -66.6020
  743.0000  -999.2500  -999.2500  -999.2500  -999.2500    87.5430     9.3430     9.0160    10.0240     9.6640   -48.0580  -999.2500  -999.2500   -66.5770
  743.5000  -999.2500  -999.2500  -999.2500  -999.2500    89.0200     9.3960     8.8300     9.9130     9.4880   -50.1170  -999.2500  -999.2500   -66.5180
  744.0000  -999.2500  -999.2500  -999.2500  -999.2500    88.2540     9.4190     8.5510     9.7730     9.3550   -52.1750  -999.2500  -999.2500   -66.5140
  744.5000  -999.2500  -999.2500  -999.2500  -999.2500    85.1450     9.3400     8.2230     9.6330     9.3140   -54.2330  -999.2500  -999.2500   -66.6650
  745.0000  -999.2500  -999.2500  -999.2500  -999.2500    84.9640     9.3430     8.2120     9.4930     9.2810   -56.2920  -999.2500  -999.2500   -66.8250
  745.5000  -999.2500  -999.2500  -999.2500  -999.2500    86.9020     9.3860     8.1940     9.3530     9.1410   -58.3500  -999.2500  -999.2500   -66.9450
  746.0000  -999.2500  -999.2500  -999.2500  -999.2500    90.2330     9.3980     8.1760     9.2690     8.8310   -60.4080  -999.2500  -999.2500   -67.0840
  746.5000  -999.2500  -999.2500  -999.2500  -999.2500    92.3750     9.4280     8.1590     9.1940     8.4530   -62.4670  -999.2500  -999.2500   -67.2040
  747.0000  -999.2500  -999.2500  -999.2500  -999.2500    91.0220     9.4470     8.1150     9.1320     8.5650   -65.0000  -999.2500  -999.2500   -67.3390
  747.5000  -999.2500  -999.2500  -999.2500  -999.2500    90.5590     9.4700     8.0300     9.0690     8.7070   -64.1150  -999.2500  -999.2500   -67.4920
  748.0000  -999.2500  -999.2500  -999.2500  -999.2500    91.5420     9.4890     7.9440     9.0070     8.7580   -62.9650  -999.2500  -999.2500   -67.6840
  748.5000  -999.2500  -999.2500  -999.2500  -999.2500    92.5220     9.4890     7.8530     8.9440     8.7340   -61.8140  -999.2500  -999.2500   -67.9250
  749.0000  -999.2500  -999.2500  -999.2500  -999.2500    93.6430     9.4890     7.6090     8.8820     8.7110   -60.6640  -999.2500  -999.2500   -68.1720
  749.5000  -999.2500  -999.2500  -999.2500  -999.2500    93.7440     9.4970     7.3480     8.7480     8.6900   -59.5130  -999.2500  -999.2500   -68.4210
  750.0000  -999.2500  -999.2500  -999.2500  -999.2500    94.2800     9.5080     7.0870     8.5460     8.0730   -58.3630  -999.2500  -999.2500   -68.6580
  750.5000  -999.2500  -999.2500  -999.2500  -999.2500    97.3510     9.5100     6.9030     8.3450     8.0730   -57.2130  -999.2500  -999.2500   -68.9170
  751.0000  -999.2500  -999.2500  -999.2500  -999.2500   100.1290     9.5080     6.9470     8.1440     8.0730   -56.0620  -999.2500  -999.2500   -69.0740
  751.5000  -999.2500  -999.2500  -999.2500  -999.2500   100.3140     9.5100     6.9800     7.9990     7.4500   -55.0000  -999.2500  -999.2500   -69.0040
  752.0000  -999.2500  -999.2500  -999.2500  -999.2500    99.6640     9.5070     7.0140     7.8530     7.0960   -56.4000  -999.2500  -999.2500   -68.9130
  752.5000  -999.2500  -999.2500  -999.2500  -999.2500   100.1150     9.5110     7.0480     7.8860     7.3930   -58.0000  -999.2500  -999.2500   -68.8600
  753.0000  -999.2500  -999.2500  -999.2500  -999.2500   100.8010     9.5060     7.0820     7.9170     7.6270   -59.6000  -999.2500  -999.2500   -68.7770
  753.5000  -999.2500  -999.2500  -999.2500  -999.2500    99.1620     9.4670     7.1160     7.9490     7.7810   -61.2000  -999.2500  -999.2500   -68.7150
  754.0000  -999.2500  -999.2500  -999.2500  -999.2500    95.8960     9.4200     7.1500     7.9800     7.8920   -62.8000  -999.2500  -999.2500   -68.6850
  754.5000  -999.2500  -999.2500  -999.2500  -999.2500    93.7420     9.3910     7.1830     8.0110     7.9990   -64.4000  -999.2500  -999.2500   -68.6880
  755.0000  -999.2500  -999.2500  -999.2500  -999.2500    92.6120     9.3830     7.2160     8.0420     7.8980   -63.6810  -999.2500  -999.2500   -68.7610
  755.5000  -999.2500  -999.2500  -999.2500  -999.2500    90.5610     9.3810     7.3200     8.0730     7.7810   -61.5700  -999.2500  -999.2500   -68.8490
  756.0000  -999.2500  -999.2500  -999.2500  -999.2500    89.4200     9.3750     7.4690     8.1970     7.8380   -59.4600  -999.2500  -999.2500   -68.9240
  756.5000  -999.2500  -999.2500  -999.2500  -999.2500    91.4740     9.3700     7.6190     8.3190     7.9080   -57.3490  -999.2500  -999.2500   -69.0840
  757.0000  -999.2500  -999.2500  -999.2500  -999.2500    93.7690     9.3580     7.7350     8.4420     7.9780   -55.2380  -999.2500  -999.2500   -69.1780
  757.5000  -999.2500  -999.2500  -999.2500  -999.2500    94.6230     9.3450     7.7980     8.5640     8.0470   -53.1280  -999.2500  -999.2500   -69.3340
  758.0000  -999.2500  -999.2500  -999.2500  -999.2500    95.4310     9.3300     7.8620     8.6900     8.1170   -51.0170  -999.2500  -999.2500   -69.4850
  758.5000  -999.2500  -999.2500  -999.2500  -999.2500    95.9520     9.3010     7.9260     8.8780     8.1710   -48.9060  -999.2500  -999.2500   -69.2100
  759.0000  -999.2500  -999.2500  -999.2500  -999.2500    95.6320     9.2720     7.9900     9.0170     8.2130   -46.7960  -999.2500  -999.2500   -68.9390
  759.5000  -999.2500  -999.2500  -999.2500  -999.2500    94.3560     9.2410     8.0540     9.1560     8.2550   -45.0000  -999.2500  -999.2500   -68.4200
  760.0000  -999.2500  -999.2500  -999.2500  -999.2500    90.7980     9.2120     8.1180     9.2960     8.2990   -46.9000  -999.2500  -999.2500   -67.7530
  760.5000  -999.2500  -999.2500  -999.2500  -999.2500    86.8900     9.2070     8.2330     9.4350     8.4290   -48.5530  -999.2500  -999.2500   -67.8810
  761.0000  -999.2500  -999.2500  -999.2500  -999.2500    86.1100     9.2070     8.3930     9.5740     8.6040   -50.2070  -999.2500  -999.2500   -68.1160
