~VERSION INFORMATION
 VERS.                2.0:   CWLS LOG ASCII STANDARD - VERSION 2.0
 WRAP.                 NO:   ONE LINE PER DEPTH STEP
~WELL INFORMATION
#MNEM.UNIT      DATA TYPE    INFORMATION
#----------   ------------   ------------------------------
 STRT.F            5.5000:   START DEPTH
 STOP.F         3006.0000:   STOP DEPTH
 STEP.F            0.5000:   STEP LENGTH
 NULL.          -999.2500:   NO VALUE
 COMP.    FENIX & SCISSON:   COMPANY
 WELL.  FENIX "AX" #28-28:   WELL
 FLD .  TEAPOT DOME NPR-3:   FIELD
 LOC .      S28 T39N R78W:   LOCATION
 CNTY.            NATRONA:   COUNTY
 STAT.            WYOMING:   STATE
 CTRY. UNITED STATES OF AMERICA:   COUNTRY
 SRVC.           BIRDWELL:   SERVICE COMPANY
 DATE.        23-JAN-1980:   LOGDATE
 API .     49025107960000:   API NUMBER
~CURVE INFORMATION
#MNEM.UNIT       API CODE    CURVE DESCRIPTION
#----------   ------------   ------------------------------
 DEPT.F                  :   
 GRD .GAPI   45 310 01 00:   GAMMA RAY FROM DENSITY LOG
 CALD.IN     45 280 60 00:   CALIPER FROM DENSITY LOG
 DPHI.DEC    45 890 12 00:   DENSITY POROSITY SANDSTONE
 NPHI.DEC    42 890 03 00:   NEUTRON POROSITY SANDSTONE
 CORR.G/C3   45 356 01 00:   DENSITY CORRECTION
 SPR .MV     05 010 01 00:   SPONTANEOUS POTENTIAL FROM RES.
 ILD .OHMM   05 120 40 00:   INDUCTION LOG DEEP RESISTIVITY
 SN  .OHMM   05 040 16 00:   SHORT NORMAL 16"
~PARAMETER INFORMATION
#MNEM.UNIT          VALUE    DESCRIPTION
#----------   ------------   ------------------------------
 EKB .F         5120.0000:   Kelly bushing
 EGL .F         5110.0000:   Ground level
 EDF .F         5119.0000:   Drilling floor
 EPD .F         5110.0000:   Permanent datum
 TD  .F         3006.0000:   Total depth
 CLNT.            A2DTECH:   Client Code
 SL  . 600' FSL & 1300' FWL:   Surface Location
 PD  .                 GL:   Permanent Datum
 DAPD.F                 9:   Feet Above Permanent Datum
 DATE.        23-JAN-1980:   Date Logged [DD-MMM-YYYY]
 DD  .F              3006:   Depth driller
 DL  .F              3006:   Depth logger
 BLI .F              3006:   Bottom log interval
 TLI .F                10:   Top log interval
 CS1 .IN            8.625:   Casing size
 CBD1.      8.625" @ 440':   Casing driller 1
 CBL1.F               460:   Casing logger 1
 BS1 .IN            7.875:   Bit size
 BSD1.F              3006:   Depth drilled with bit1
 DFT .       GEL MUD FULL:   Type fluid in hole
 DFD .                  9:   Density
 DFV .                 46:   Viscosity
 DFPH.                 11:   pH
 DFL .               17.2:   Fluid loss
 MSS .           MUD TANK:   Source of sample
 RMS .OHMM            1.9:   Rm
 MST .F                60:   Rm Meas. temp.
 RMF .OHMM            .73:   Rmf
 MFST.F                62:   Rmf Meas. temp.
 MFSS.               MEAS:   Source Rmf.
 RMC .OHMM            .95:   Rmc
 MCST.F                62:   Rmc Meas. temp.
 TCS .HRS               5:   Time Circ. stopped
 MRT .F               110:   Maximum recorded temp.
 LUN .               3029:   Logging unit number
 LUL .             CASPER:   Logging unit location
 ENGI.           T. WOLFF:   Recorded By
 WITN.           DINSMORE:   Witnessed by
 ORIG.           5" PRINT:   Origin of data
 UWI .     49025107960000:   Unique Well ID
 DICO. A2D TECHNOLOGIES, INC.:   Digitizing Company
~OTHER INFORMATION
~A    DEPT      GRD      CALD       DPHI         NPHI     CORR        SPR        ILD         SN   
# ...
 1463.5000    92.4211     8.6226     0.2098     0.0649     0.0050   -38.0798     9.8516     9.5011
 1464.0000    93.1850     8.6252     0.2124     0.0679     0.0052   -39.0951     9.8599     9.5064
 1464.5000    95.1341     8.5970     0.2064     0.0697     0.0085   -38.9236     9.8681     9.5798
 1465.0000    95.4536     8.5842     0.2031     0.0705     0.0057   -38.6036     9.8764     9.5852
 1465.5000    99.1805     8.5566     0.2072     0.0705     0.0090   -38.2836     9.8144     9.5905
 1466.0000   103.6481     8.5294     0.2138     0.0692     0.0122   -37.2219     9.8247     9.5276
 1466.5000   103.2268     8.5166     0.2218     0.0683     0.0155   -37.9405     9.7609     9.5019
 1467.0000   101.1408     8.5196     0.2305     0.0675     0.0127   -38.5193     9.7712     9.5385
 1467.5000    97.3848     8.5207     0.2473     0.0610     0.0069   -38.6359     9.7794     9.4758
 1468.0000    98.4133     8.5079     0.2539     0.0562     0.0057   -38.7610     9.7875     9.4824
 1468.5000    97.3994     8.5104     0.2550     0.0562     0.0136   -38.2869     9.8659     9.6240
 1469.0000    95.4967     8.5125     0.2360     0.0585     0.0198   -37.6702     9.9448     9.6983
 1469.5000    96.5569     8.5145     0.2261     0.0675     0.0185   -37.8012     9.9532     9.9137
 1470.0000   100.1357     8.5165     0.2228     0.0656     0.0203   -37.9263    10.0328    10.0617
 1470.5000    98.6774     8.5186     0.2221     0.0572     0.0387   -38.1940    10.1148    10.2120
 1471.0000    90.7005     8.5206     0.2182     0.0437     0.0449   -38.1708    10.2673    10.2909
 1471.5000    89.3320     8.5226     0.2152     0.0433     0.0331   -38.1476    10.2778    10.2234
 1472.0000    96.3765     8.5246     0.2196     0.0538     0.0244   -38.1244    10.2864    10.3025
 1472.5000    97.1404     8.5118     0.2304     0.0641     0.0186   -37.9451    10.2950    10.2348
 1473.0000    96.7192     8.5139     0.2355     0.0675     0.0098   -37.1662    10.1577    10.2420
 1473.5000    97.1926     8.5164     0.2392     0.0651     0.0085   -36.7194    10.0939    10.2477
 1474.0000   100.3269     8.5184     0.2456     0.0602     0.0168   -37.4381    10.0285    10.1791
 1474.5000    99.1649     8.5205     0.2428     0.0584     0.0196   -37.5632     9.9655    10.1132
 1475.0000    99.0341     8.5072     0.2380     0.0640     0.0199   -37.5342     9.9047    10.0461
 1475.5000   100.6927     8.4795     0.2359     0.0658     0.0126   -37.3626     9.7729     9.9816
 1476.0000   100.1175     8.4821     0.2385     0.0724     0.0023   -37.3394     9.7811     9.9162
 1476.5000   100.7391     8.4841     0.2427     0.0768     0.0026   -37.1678     9.7197     9.8511
 1477.0000   101.4369     8.4861     0.2454     0.0723     0.0149   -37.4413     9.6586     9.7866
 1477.5000    97.5262     8.4882     0.2249     0.0501     0.0286   -39.0502     9.6688     9.7225
 1478.0000    95.7423     8.4902     0.2108     0.0515     0.0244   -39.4777     9.6769     9.7292
 1478.5000    92.5499     8.4774     0.2171     0.0629     0.0156   -39.5972     9.7543     9.7347
 1479.0000    91.3735     8.4799     0.2194     0.0661     0.0038   -38.8263     9.8324     9.7401
 1479.5000    94.2173     8.4820     0.2188     0.0673     0.0057   -38.3580     9.9111     9.7455
 1480.0000    94.9813     8.4840     0.2175     0.0667     0.0074   -38.4890     9.9883     9.7504
 1480.5000   100.7822     8.4860     0.2148     0.0717    -0.0014   -38.6141     9.9273     9.7564
 1481.0000    97.2498     8.4727     0.2163     0.0744    -0.0042   -38.2884     9.8652     9.6911
 1481.5000    99.1990     8.4752     0.2255     0.0695    -0.0039   -37.9684     9.8384     9.6979
 1482.0000    99.5126     8.4624     0.2354     0.0653    -0.0037   -37.3517     9.7421     9.7033
 1482.5000    97.0231     8.4645     0.2428     0.0575    -0.0050   -37.2847     9.7521     9.7134
 1483.0000    92.8981     8.4665     0.2356     0.0589    -0.0032   -37.6024     9.6889     9.7951
 1483.5000    94.5688     8.4685     0.2320     0.0616     0.0031   -37.1291     9.7684    10.0023
 1484.0000    95.4630     8.4706     0.2334     0.0618     0.0064   -36.9621     9.9171    10.0911
 1484.5000    96.3809     8.4731     0.2280     0.0618     0.0081   -37.6749    10.0681    10.2301
 1485.0000   101.4411     8.4751     0.2184     0.0599     0.0038   -38.1026    10.2213    10.2358
 1485.5000   103.8346     8.4618     0.2159     0.0548    -0.0019   -38.3762    10.3031    10.2415
 1486.0000    99.8578     8.4644     0.2183     0.0614     0.0014   -38.3471    10.3856    10.2472
 1486.5000   101.8069     8.4664     0.2135     0.0595     0.0032   -38.1755    10.3943    10.1800
 1487.0000   102.4169     8.4531     0.2188     0.0541     0.0095   -37.1138    10.3662    10.1857
 1487.5000   100.6681     8.4556     0.2248     0.0544     0.0127   -36.9480    10.2642    10.1189
 1488.0000    98.3200     8.4576     0.2289     0.0567     0.0054   -37.9575    10.1272    10.1247
 1488.5000   100.8626     8.4597     0.2313     0.0618     0.0057   -38.2315     9.9942    10.1305
 1489.0000    99.8312     8.4617     0.2265     0.0600     0.0044   -38.3562    10.0026    10.0652
 1489.5000    96.6964     8.4489     0.2228     0.0509     0.0062   -38.1677    10.0110    10.0709
 1490.0000    92.1972     8.4663     0.2282     0.0413     0.0155   -37.1170     9.9461    10.0034
 1490.5000    92.5167     8.4683     0.2342     0.0389     0.0187   -38.4291     9.8836    10.0104
 1491.0000    94.4658     8.4703     0.2365     0.0486     0.0113   -38.5601     9.8940    10.0155
 1491.5000   100.5631     8.4724     0.2380     0.0598     0.0072   -38.3827     9.9018    10.0216
 1492.0000   101.1730     8.4744     0.2454     0.0621     0.0045   -38.2111     9.9106    10.0272
 1492.5000    97.0539     8.4611     0.2502     0.0636     0.0017   -37.8911     9.9899    10.1045
 1493.0000    95.2935     8.4636     0.2505     0.0647     0.0020   -37.4228     9.9984    10.1103
 1493.5000   100.3595     8.4657     0.2477     0.0632     0.0052   -38.1414    10.0786    10.1885
 1494.0000   101.5679     8.4677     0.2300     0.0608     0.0069   -38.1182    10.0888    10.1954
 1494.5000   100.2504     8.4697     0.2248     0.0607     0.0027   -37.3516    10.1233    10.2741
 1495.0000    94.9037     8.4718     0.2308     0.0613     0.0030   -37.0326    10.1781    10.3535
 1495.5000    93.9337     8.4743     0.2345     0.0606     0.0062   -37.3067    10.2595    10.3585
 1496.0000    94.5553     8.4763     0.2385     0.0594     0.0095   -37.5803    10.2681    10.2899
 1496.5000    95.7636     8.4630     0.2328     0.0708     0.0067   -37.7054    10.2037    10.2225
 1497.0000    96.3794     8.4502     0.2337     0.0707     0.0087   -37.5280    10.2122    10.1555
 1497.5000    98.9211     8.4379     0.2393     0.0710     0.0133   -37.5048    10.1479     9.9875
 1498.0000   101.7591     8.4246     0.2474     0.0712     0.0105   -37.3332    10.1566     9.9528
 1498.5000   101.6342     8.4271     0.2485     0.0712     0.0123   -38.2002    10.0929     9.8174
 1499.0000    97.9536     8.4292     0.2413     0.0679     0.0231   -38.9188    10.0189     9.8230
 1499.5000    95.8889     8.4312     0.2412     0.0585     0.0370   -39.1924     9.8957     9.7598
 1500.0000    93.2593     8.4484     0.2430     0.0606     0.0387   -38.9361     9.8348     9.6945
 1500.5000    92.3907     8.4350     0.2442     0.0609     0.0389   -38.1756     9.7695     9.7693
 1501.0000    94.9541     8.4373     0.2451     0.0567     0.0312   -37.2676     9.6384     9.7053
 1501.5000    94.3624     8.4392     0.2363     0.0548     0.0169   -37.8344     9.6446     9.7120
 1502.0000    92.1605     8.4411     0.2189     0.0583     0.0096   -38.2538     9.6508     9.7174
 1502.5000    90.6943     8.4430     0.2123     0.0568     0.0038   -38.2129     9.6685     9.7924
 1503.0000    92.0530     8.4449     0.2122     0.0541     0.0010   -37.4644     9.8032     9.8680
 1503.5000    95.4808     8.4468     0.2248     0.0570     0.0013   -36.4089     9.9503     9.9443
