~VERSION INFORMATION
 VERS.                2.0:   CWLS LOG ASCII STANDARD - VERSION 2.0
 WRAP.                 NO:   ONE LINE PER DEPTH STEP
~WELL INFORMATION
#MNEM.UNIT      DATA TYPE    INFORMATION
#----------   ------------   ------------------------------
 STRT.F          200.0000:   START DEPTH
 STOP.F         3160.0000:   STOP DEPTH
 STEP.F            0.5000:   STEP LENGTH
 NULL.          -999.2500:   NO VALUE
 COMP.    FENIX & SCISSON:   COMPANY
 WELL. FENIX NPR 3 "AX" #72-3:   WELL
 FLD .             TEAPOT:   FIELD
 LOC .       S3 T38N R78W:   LOCATION
 CNTY.            NATRONA:   COUNTY
 STAT.            WYOMING:   STATE
 CTRY. UNITED STATES OF AMERICA:   COUNTRY
 SRVC.           BIRDWELL:   SERVICE COMPANY
 DATE.        10-JAN-1978:   LOGDATE
 API .     49025105530000:   API NUMBER
~CURVE INFORMATION
#MNEM.UNIT       API CODE    CURVE DESCRIPTION
#----------   ------------   ------------------------------
 DEPT.F                  :   
 CALD.IN     45 280 60 00:   CALIPER FROM DENSITY LOG
 GRD .GAPI   45 310 01 00:   GAMMA RAY FROM DENSITY LOG
 DEN .LBS    45 635 01 00:   BUCK DENSITY
 CORR.G/C3   45 356 01 00:   DENSITY CORRECTION
 SPR .MV     07 010 01 00:   SPONTANEOUS POTENTIAL
 ILD .OHMM   07 120 46 00:   DEEP INDUCTION RESISTIVITY
 ILM .OHMM   07 120 44 00:   INDUCTION LOG MEDIUM RESISTIVITY
~PARAMETER INFORMATION
#MNEM.UNIT          VALUE    DESCRIPTION
#----------   ------------   ------------------------------
 EKB .F         5164.0000:   Kelly bushing
 EGL .F         5153.0000:   Ground level
 TD  .F         3157.0000:   Total depth
 DATE.        10-JAN-1978:   Date logged
 CLNT.            A2DTECH:   Client Code
 SL  . 900' FNL & 900' FEL:   Surface Location
 PD  .                 GL:   Permanent Datum
 EPD .F              5153:   Elevation Permanent Datum
 LMF .                 KB:   Log Measured From
 DMF .                 KB:   Drilling Measured From
 DAPD.F                11:   Feet Above Permanent Datum
 DD  .F              3156:   Depth driller
 DL  .F              3157:   Depth logger
 BLI .F              3157:   Bottom log interval
 TLI .F               200:   Top log interval
 CS1 .IN            8.625:   Casing size
 CBD1.      8.625" @ 222':   Casing driller 1
 CBL1.F               220:   Casing logger 1
 BS1 .IN            7.875:   Bit size
 BSD1.F              3156:   Depth drilled with bit1
 DFT .                KCL:   Type fluid in hole
 DFD .                8.5:   Density
 DFV .                 36:   Viscosity
 DFPH.                 10:   pH
 DFL .                8.8:   Fluid loss
 MSS .           FLOWLINE:   Source of sample
 RMS .OHMM            1.4:   Rm
 MST .F                66:   Rm Meas. temp.
 RMF .OHMM            .85:   Rmf
 MFST.F                74:   Rmf Meas. temp.
 RMC .OHMM            1.4:   Rmc
 MCST.F                72:   Rmc Meas. temp.
 MFSS.               MEAS:   Source Rmf.
 MCSS.               MEAS:   Source Rmc.
 RMB .OHMM            .83:   Rm. at BHT
 BHT .F               112:   BHT.
 TCS .HRS               4:   Time Circ. stopped
 MRT .F               112:   Maximum recorded temp.
 LUN .               2958:   Logging unit number
 LUL .             CASPER:   Logging unit location
 ENGI.            POINTER:   Recorded By
 WITN.         HARRINGTON:   Witnessed by
 ORIG.           5" PRINT:   Origin of data
 UWI .     49025105530000:   Unique Well ID
 DICO. A2D TECHNOLOGIES, INC.:   Digitizing Company
~OTHER INFORMATION
~A   DEPT     CALD        GRD          DEN     CORR        SPR        ILD        ILM   
# ...
  609.5000    10.0086    81.4384     2.4139     0.1091   -46.8242    12.9247    15.9708
  610.0000    10.0091    83.2285     2.4209     0.1091   -46.6145    12.9288    15.9753
  610.5000    10.0095    83.8283     2.4219     0.1131   -46.4328    12.9328    15.9797
  611.0000    10.0099    83.6346     2.4219     0.1152   -46.4135    12.9276    15.9745
  611.5000    10.0103    83.6393     2.4219     0.1152   -46.4135    12.9271    15.9741
  612.0000    10.0108    83.6439     2.4209     0.1113   -47.0112    13.0460    15.8274
  612.5000    10.0112    83.6486     2.4229     0.1173   -46.4135    12.9259    15.9734
  613.0000    10.0117    83.6533     2.4259     0.1173   -46.4135    12.8069    15.9730
  613.5000    10.0121    83.6580     2.4290     0.1174   -46.2143    12.6889    15.9726
  614.0000    10.0126    83.2659     2.4320     0.1174   -46.2143    12.4568    15.6808
  614.5000    10.0131    82.8739     2.4340     0.1174   -46.2143    12.6878    15.9719
  615.0000    10.0135    82.4818     2.4370     0.1175   -46.2143    12.6872    15.9715
  615.5000    10.0140    82.2881     2.4390     0.1095   -46.4135    12.6866    15.8247
  616.0000    10.0144    82.2928     2.4450     0.1075   -46.4135    12.6860    15.6792
  616.5000    10.0149    82.4959     2.4490     0.1076   -46.4135    12.5691    15.6788
  617.0000    10.0153    83.8890     2.4530     0.1076   -46.4135    12.5685    15.5347
  617.5000    10.0158    86.2730     2.4590     0.1077   -46.4135    12.5679    15.5342
  618.0000    10.0162    88.8562     2.4641     0.1057   -46.4135    12.5674    15.3914
  618.5000    10.0167    89.2575     2.4661     0.1017   -46.4135    12.5667    15.1099
  619.0000    10.0171    88.2704     2.4671     0.0998   -46.4135    12.4508    14.9708
  619.5000    10.0176    86.6882     2.4671     0.0958   -46.4135    12.4502    14.4285
  620.0000    10.0180    85.8995     2.4651     0.0938   -46.4135    12.3354    14.4280
  620.5000    10.0185    86.1025     2.4591     0.0939   -46.4135    12.2386    14.0944
  621.0000    10.0189    86.5038     2.4552     0.0939   -46.4029    12.2306    13.7876
  621.5000    10.0193    86.1118     2.4522     0.0939   -46.3973    12.1225    13.5404
  622.0000    10.0197    84.1331     2.4472     0.0960   -45.9933    12.1267    13.4208
  622.5000    10.0202    83.5428     2.4512     0.0960   -45.9878    12.2227    13.3013
  623.0000    10.0206    84.9358     2.4492     0.0961   -45.9822    12.2236    13.3060
  623.5000    10.0211    86.9237     2.4462     0.0981   -45.9766    12.1900    12.9475
  624.0000    10.0215    88.7133     2.4442     0.0981   -46.1702    12.1566    12.9511
  624.5000    10.0220    89.3129     2.4443     0.0942   -45.9654    12.1232    12.7198
  625.0000    10.0224    89.9124     2.4533     0.0922   -45.9599    12.0899    12.3772
  625.5000    10.0229    90.1144     2.4553     0.0882   -46.1535    12.0567    12.0437
  626.0000    10.0233    90.3174     2.4553     0.0863   -46.1479    12.0236    11.9374
  626.5000    10.0238    90.5203     2.4543     0.0863   -46.1423    11.9906    12.0521
  627.0000    10.0242    90.9215     2.4503     0.0863   -46.3337    11.9577    12.0563
  627.5000    10.0247    91.7194     2.4433     0.0864   -46.3303    11.9249    12.0605
  628.0000    10.0251    91.7239     2.4404     0.0864   -46.5239    11.8921    12.0647
  628.5000    10.0256    91.5302     2.4364     0.0885   -46.5183    11.8595    12.0688
  629.0000    10.0260    90.3450     2.4334     0.0905   -46.7119    11.8269    11.9623
  629.5000    10.0265    88.7615     2.4344     0.0905   -46.7063    11.7945    11.9664
  630.0000    10.0269    87.5763     2.4434     0.0906   -46.7007    11.7621    11.9706
  630.5000    10.0274    87.3826     2.4414     0.0926   -46.6951    11.7345    11.7560
  631.0000    10.0278    87.5855     2.4395     0.0986   -46.6906    11.8500    11.7600
  631.5000    10.0283    88.7799     2.4375     0.0987   -46.6851    11.5493    11.5492
  632.0000    10.0286    91.9590     2.4345     0.0987   -46.4803    11.5533    11.5532
  632.5000    10.0291    94.7379     2.4345     0.0987   -46.6739    11.3462    11.3461
  633.0000    10.0295    95.1391     2.4405     0.0988   -46.2700    11.2460    11.2459
  633.5000    10.0300    93.9539     2.4465     0.0968   -46.0653    11.1467    11.1466
  634.0000    10.0304    89.7962     2.4565     0.0968   -45.8606    11.1505    11.1504
  634.5000    10.0309    87.2214     2.4575     0.0989   -45.6559    11.1544    11.1543
  635.0000    10.0313    86.4329     2.4556     0.1029   -45.6503    11.1583    11.1582
  635.5000    10.0318    87.6272     2.4516     0.1030   -45.8436    11.0597    11.0596
  636.0000    10.0322    89.8137     2.4466     0.1070   -45.4420    11.1660    11.0635
  636.5000    10.0327    93.7838     2.4466     0.1110   -45.6345    11.2390    10.4718
  637.0000    10.0331    96.1677     2.4476     0.1111   -45.6289    11.2773    10.1897
  637.5000    10.0336    97.3618     2.4516     0.1091   -45.8215    11.2811    10.0070
  638.0000    10.0340    97.5646     2.4516     0.1011   -46.2142    11.2850     9.8276
  638.5000    10.0345    97.3709     2.4627     0.0992   -46.4077    11.2889     9.8310
  639.0000    10.0349    95.3928     2.4637     0.0952   -46.4022    11.2928     9.8345
  639.5000    10.0354    93.0164     2.4627     0.0932   -46.3966    11.2967     9.9290
  640.0000    10.0358    91.2366     2.4627     0.0953   -46.3910    11.3007     9.9324
  640.5000    10.0363    90.0517     2.4647     0.0933   -46.5845    11.3046    10.0279
  641.0000    10.0367    90.0563     2.4717     0.0933   -46.5789    11.5189    10.0321
  641.5000    10.0372    90.2591     2.4807     0.0914   -46.5733    11.5229    10.9029
  642.0000    10.0376    90.6602     2.4918     0.0834   -45.7714    11.5269    11.4212
  642.5000    10.0380    90.6666     2.5008     0.0755   -46.5622    11.9640    11.9640
  643.0000    10.0385    89.8782     2.5028     0.0735   -46.3575    12.0790    12.0790
  643.5000    10.0389    89.0898     2.5048     0.0715   -46.3519    12.3081    12.3081
  644.0000    10.0394    87.7067     2.4998     0.0676   -46.3463    11.9765    11.9765
  644.5000    10.0398    87.9096     2.4990     0.0716   -46.3408    12.3166    12.3166
  645.0000    10.0403    89.6984     2.4958     0.0736   -46.3352    12.3209    12.3209
  645.5000    10.0407    91.8827     2.4879     0.0697   -46.3296    12.2121    12.2121
  646.0000    10.0412    94.2662     2.4799     0.0577   -46.3240    12.3294    12.3294
  646.5000    10.0416    99.2266     2.4779     0.0578   -46.3184    12.2205    12.2205
  647.0000    10.0421   101.6100     2.4889     0.0578   -46.3129    12.2248    12.2248
  647.5000    10.0425   105.5791     2.4979     0.0598   -46.1082    12.5702    12.2290
  648.0000    10.0430   118.6676     2.4969     0.0599   -45.9036    12.5761    12.2333
  648.5000    10.0434   118.2711     2.4840     0.0579   -45.8980    12.5807    12.2375
  649.0000    10.0439   104.2049     2.4720     0.0579   -45.8924    12.5842    12.1294
  649.5000    10.0443   104.2075     2.4760     0.0580   -46.0859    12.5885    12.1336
  650.0000    10.0448   104.0138     2.4810     0.0540   -46.0803    12.5929    12.3629
  650.5000    10.0452   104.4138     2.4840     0.0520   -46.0747    12.5973    12.1412
  651.0000    10.0457    95.1047     2.4840     0.0481   -46.0692    12.4860    12.1454
  651.5000    10.0461    95.3074     2.4770     0.0461   -46.0636    12.4903    12.1497
  652.0000    10.0466    95.7084     2.4701     0.0461   -46.0580    12.3792    12.0424
  652.5000    10.0470    95.7130     2.4615     0.0442   -46.0524    12.2698    12.0465
  653.0000    10.0474    94.9247     2.4529     0.0442   -46.0469    11.9426    11.8306
  653.5000    10.0478    93.5418     2.4443     0.0462   -46.0424    11.9469    11.6185
  654.0000    10.0483    92.5553     2.4361     0.0543   -46.0368    11.9496    11.4951
  654.5000    10.0487    93.7491     2.4260     0.0563   -46.0313    11.7343    11.2878
