~VERSION INFORMATION
 VERS.                2.0:   CWLS LOG ASCII STANDARD - VERSION 2.0
 WRAP.                 NO:   ONE LINE PER DEPTH STEP
~WELL INFORMATION
#MNEM.UNIT      DATA TYPE    INFORMATION
#----------   ------------   ------------------------------
 STRT.F            0.0000:   START DEPTH
 STOP.F         4044.0000:   STOP DEPTH
 STEP.F            0.5000:   STEP LENGTH
 NULL.          -999.2500:   NO VALUE
 COMP. LAWRENCE-ALLISON & ASSOC.:   COMPANY
 WELL. LAWRENCE "X" #24-34:   WELL
 FLD .           N P R #3:   FIELD
 LOC .      S34 T39N R78W:   LOCATION
 CNTY.            NATRONA:   COUNTY
 STAT.            WYOMING:   STATE
 CTRY. UNITED STATES OF AMERICA:   COUNTRY
 SRVC.      DRESSER ATLAS:   SERVICE COMPANY
 DATE.        29-MAR-1984:   LOGDATE
 API .     49025109660000:   API NUMBER
~CURVE INFORMATION
#MNEM.UNIT       API CODE    CURVE DESCRIPTION
#----------   ------------   ------------------------------
 DEPT.F                  :   
 DT  .US/F   60 520 00 00:   DELTA TIME
 TENS.LBS    60 635 01 00:   TENSION FROM SONIC
 GRR .GAPI   07 310 01 00:   GAMMA RAY FROM RESISTIVITY
 SPR .MV     07 010 01 00:   SPONTANEOUS POTENTIAL
 CALR.IN     07 280 01 00:   CALIPER FROM RESISTIVITY
 TENR.LBS    07 635 01 00:   TENSION FROM RESISTIVITY
 RSFL.OHMM   07 221 01 00:   AMPPLIFIED SHALLOW FOCUSED LOG RESISTIVITY
 RILD.OHMM   07 120 46 00:   DEEP INDUCTION RESISTIVITY
 RILM.OHMM   07 120 44 00:   INDUCTION LOG MEDIUM RESISTIVITY
 RHOB.G/C3   45 350 01 00:   BULK DENSITY
 DRHO.G/C3   45 356 01 00:   DENSITY CORRECTION
 TEND.LBS    45 635 01 00:   TENSION FROM DENSITY LOG
 NPHI.DEC    42 890 03 00:   NEUTRON POROSITY SANDSTONE
~PARAMETER INFORMATION
#MNEM.UNIT          VALUE    DESCRIPTION
#----------   ------------   ------------------------------
 EKB .F         5101.0000:   Kelly bushing
 EGL .F         5089.0000:   Ground level
 EDF .F         5100.0000:   Drilling floor
 TD  .F         4050.0000:   Total depth
 DATE.        29-MAR-1984:   Date logged
 CLNT.            A2DTECH:   Client Code
 SL  . 2415' FNL & 839' FWL:   Surface Location
 PD  .                 GL:   Permanent Datum
 EPD .F              5089:   Elevation Permanent Datum
 LMF .                 KB:   Log Measured From
 DMF .                 KB:   Drilling Measured From
 DD  .F              4050:   Depth driller
 DL  .F              4043:   Depth logger
 BLI .F              4041:   Bottom log interval
 CS1 .IN            8.625:   Casing size
 CBD1.       8.625 @ 673':   Casing driller 1
 CBL1.F               671:   Casing logger 1
 BS1 .IN            7.875:   Bit size
 DFT .            GEL-KCL:   Type fluid in hole
 DFD .                8.9:   Density
 DFV .                 45:   Viscosity
 DFPH.                  8:   pH
 DFL .               12.8:   Fluid loss
 MSS .           MUD TANK:   Source of sample
 RMS .OHMM           0.46:   Rm
 MST .F                71:   Rm Meas. temp.
 RMF .OHMM           0.31:   Rmf
 MFST.F                71:   Rmf Meas. temp.
 RMC .OHMM           0.55:   Rmc
 MCST.F                71:   Rmc Meas. temp.
 MFSS.               MEAS:   Source Rmf.
 RMB .OHMM           0.25:   Rm. at BHT
 BHT .F               139:   BHT.
 TCS .HRS               4:   Time Circ. stopped
 MRT .F               139:   Maximum recorded temp.
 LUN .               6302:   Logging unit number
 LUL .               CODY:   Logging unit location
 ENGI.              GETTY:   Recorded By
 WITN.           JENNINGS:   Witnessed by
 ORIG.           5" PRINT:   Origin of data
 UWI .     49025109660000:   Unique Well ID
 DICO. A2D TECHNOLOGIES, INC.:   Digitizing Company
 DAPD.                 12:   Feet Above Permanent Datum
 BSD1.               4050:   Depth drilled with bit1
 MCSS.               MEAS:   Source Rmc.
~OTHER INFORMATION
~A  DEPTH       DT       TENS        GRR        SPR       CALR       TENR       RSFL       RILD       RILM       RHOB       DRHO       TEND       NPHI
# ...
 2678.0000    77.5470  -147.3390    86.8520   -25.4170     8.8540  -163.8800     7.5780     7.7270     7.8840     2.5770     0.0520  -155.9190     0.1880
 2678.5000    76.5600  -147.4340    84.3370   -25.3390     8.8520  -163.8800     8.1730     8.0170     8.1420     2.5780     0.0310  -155.5250     0.1830
 2679.0000    76.7860  -147.5290    81.7990   -25.1630     8.8500  -163.8800     8.9680     8.3070     8.4000     2.5790     0.0130  -155.1320     0.1740
 2679.5000    77.3400  -147.6240    81.5030   -24.8900     8.8590  -163.8800     9.7620     8.5970     8.6580     2.5820     0.0290  -154.7390     0.1680
 2680.0000    77.2260  -147.7190    83.1670   -24.6180     8.8680  -163.8800    10.6030     8.8870     8.8810     2.5840     0.0450  -154.3450     0.1730
 2680.5000    76.1390  -147.8140    84.6800   -24.3450     8.8780  -163.8800    10.2950     9.1430     8.7020     2.5850     0.0540  -153.9520     0.1850
 2681.0000    75.0510  -147.9090    85.0200   -24.0730     8.8880  -163.8800     9.8800     9.2100     8.5550     2.5820     0.0450  -153.5580     0.1980
 2681.5000    74.0240  -148.0040    86.2640   -23.8000     8.8870  -163.8800     9.4650     9.2770     8.5550     2.5720     0.0200  -153.1650     0.2030
 2682.0000    74.3280  -148.0990    87.5670   -23.5280     8.8840  -163.8800     9.0480     9.3050     8.5850     2.5630    -0.0070  -152.7710     0.2010
 2682.5000    75.4600  -148.1940    88.3970   -23.2560     8.8800  -163.8800     9.0480     9.0330     8.6620     2.5640    -0.0210  -152.3780     0.2000
 2683.0000    76.9570  -148.2890    87.0970   -22.9830     8.8770  -163.8800     9.2710     8.8810     8.7390     2.5650     0.0070  -151.9840     0.1950
 2683.5000    77.6260  -148.3840    85.8580   -22.7110     8.8740  -163.8800     9.4930     9.1840     8.8650     2.5650     0.0280  -151.5910     0.1900
 2684.0000    78.1780  -148.4790    83.7720   -22.4380     8.8700  -163.8800     9.7690     9.4800     9.1510     2.5670     0.0320  -151.1970     0.1840
 2684.5000    78.2510  -148.5740    81.2810   -22.1650     8.8670  -163.8800    10.2120     9.7770     9.3920     2.5720     0.0230  -150.8040     0.1790
 2685.0000    77.9720  -148.6690    78.7840   -21.8940     8.8630  -163.8800    10.6550     9.9330     9.4800     2.5710     0.0040  -150.4100     0.1780
 2685.5000    77.2330  -148.7640    76.8350   -21.6960     8.8600  -163.8800    11.0980     9.5850     9.2090     2.5710    -0.0140  -150.0530     0.1830
 2686.0000    76.3800  -148.8590    77.3810   -21.6990     8.8560  -163.8800    11.4250     8.8690     8.6640     2.5790    -0.0180  -153.4030     0.1890
 2686.5000    75.5270  -148.9540    78.9430   -21.6980     8.8530  -163.8800    11.1310     8.1540     7.9920     2.5830     0.0160  -156.4690     0.1920
 2687.0000    75.0730  -149.0490    83.0780   -21.7040     8.8490  -163.8800    10.2070     7.4390     7.3210     2.5810     0.0420  -159.5340     0.1910
 2687.5000    74.7320  -149.1440    88.8170   -22.0150     8.8460  -163.8800     8.6930     6.7240     6.6490     2.5710     0.0690  -162.6000     0.1990
 2688.0000    74.9720  -149.2380    97.8720   -22.3540     8.8420  -163.8800     7.1790     6.1170     5.9770     2.5620     0.0660  -165.6650     0.2110
 2688.5000    76.0600  -149.3330   105.8820   -22.6930     8.8390  -163.8800     6.1660     5.5980     5.3060     2.5570     0.0530  -168.7310     0.2240
 2689.0000    78.8170  -149.4280   107.4740   -23.0310     8.8350  -163.8800     5.9970     5.0780     4.9630     2.5560     0.0410  -171.7970     0.2370
 2689.5000    81.9260  -149.5230   109.2260   -23.3690     8.8320  -163.8800     5.8270     4.6440     4.8010     2.5560     0.0280  -174.8620     0.2460
 2690.0000    84.7440  -149.6180   111.9000   -23.7070     8.8300  -163.8800     5.6580     4.5440     4.6380     2.5590     0.0260  -177.9280     0.2490
 2690.5000    86.7170  -149.7130   118.5060   -24.0450     8.8420  -163.8800     5.4880     4.4440     4.4760     2.5620     0.0250  -180.9930     0.2490
 2691.0000    87.7970  -149.8080   123.3980   -24.3830     8.8540  -163.8800     5.3190     4.3430     4.3130     2.5590     0.0190  -184.0590     0.2460
 2691.5000    88.6150  -149.9030   120.4210   -24.7210     8.8660  -163.8800     5.1490     4.2430     4.2760     2.5530     0.0090  -187.1250     0.2340
 2692.0000    89.2980  -149.9980   117.5090   -25.0590     8.8790  -163.8800     5.0260     4.1320     4.2560     2.5460    -0.0020  -190.1900     0.2260
 2692.5000    89.7280  -150.0930   115.4890   -25.3970     8.8910  -163.8800     5.1070     4.1880     4.2350     2.5430     0.0000  -191.6380     0.2420
 2693.0000    90.0570  -150.1880   113.8400   -25.7350     8.9030  -163.8800     5.1710     4.2520     4.2100     2.5430     0.0170  -192.8610     0.2580
 2693.5000    90.4040  -150.2830   110.8650   -26.0730     8.9150  -163.8800     5.2350     4.3170     4.2680     2.5450     0.0340  -194.0830     0.2650
 2694.0000    90.1740  -150.3780   107.6640   -26.4110     8.9270  -163.8800     5.2990     4.3810     4.3510     2.5480     0.0460  -195.3060     0.2630
 2694.5000    89.9310  -150.4730   108.4640   -26.7490     8.9390  -163.8800     5.3630     4.4450     4.4340     2.5520     0.0460  -196.5280     0.2530
 2695.0000    89.6870  -150.5680   111.7840   -27.0870     8.9510  -163.8800     5.4270     4.5100     4.5160     2.5590     0.0460  -197.7510     0.2420
 2695.5000    89.4430  -150.6630   115.0630   -27.4250     8.9630  -163.8800     5.4910     4.5740     4.5990     2.5730     0.0480  -198.9740     0.2420
 2696.0000    88.9680  -150.7580   118.4610   -27.7630     8.9750  -163.4220     5.6010     4.6380     4.6820     2.5880     0.0650  -200.1960     0.2510
 2696.5000    88.4330  -150.8530   116.0830   -28.1010     8.9870  -162.8320     5.7450     4.7030     4.7650     2.6010     0.0800  -205.0480     0.2390
 2697.0000    87.8990  -150.9480   113.9340   -28.4390     8.9990  -162.2420     5.8900     4.7670     4.8160     2.5990     0.0690  -212.3830     0.2290
 2697.5000    87.3640  -151.0430   112.0480   -28.7770     9.0110  -161.6520     6.0010     4.8420     4.8420     2.5970     0.0510  -219.7190     0.2260
 2698.0000    87.0110  -151.1380   111.8830   -29.1160     9.0230  -161.0630     5.8310     4.8140     4.7940     2.5960     0.0350  -227.0550     0.2360
 2698.5000    86.8830  -151.2330   112.5960   -29.4540     9.0090  -160.4730     5.6660     4.7800     4.7600     2.5940     0.0690  -227.6920     0.2440
 2699.0000    87.2860  -151.3280   112.7400   -29.5640     9.0100  -159.8830     5.5020     4.7460     4.7260     2.5920     0.0680  -214.3900     0.2460
 2699.5000    87.7730  -151.4230   112.1720   -29.6570     9.0100  -159.2930     5.4160     4.7120     4.6920     2.5910     0.0660  -201.0870     0.2460
 2700.0000    88.2590  -151.5180   111.6020   -29.7510     9.0100  -158.7030     5.6220     4.6780     4.6580     2.5950     0.0640  -187.7850     0.2460
 2700.5000    88.7870  -151.6130   111.0370   -29.8450     9.0100  -158.1130     5.5640     4.6440     4.6210     2.6000     0.0760  -174.4830     0.2470
 2701.0000    88.8160  -151.7080   112.1460   -29.9390     9.0100  -157.5230     5.4830     4.6210     4.6330     2.6040     0.1000  -160.1810     0.2530
 2701.5000    88.8480  -151.8030   113.4210   -30.0330     9.0100  -156.9340     5.4010     4.6350     4.6470     2.6010     0.1170  -180.4370     0.2600
 2702.0000    88.8800  -151.8980   114.7550   -30.1280     9.0100  -156.3440     5.3160     4.6460     4.6600     2.5930     0.0940  -190.5650     0.2680
 2702.5000    89.1710  -151.9930   113.7680   -30.2220     9.0100  -155.7540     5.4470     4.6560     4.6730     2.5850     0.0560  -190.5650     0.2630
 2703.0000    89.5440  -152.0870   112.1370   -30.3020     9.0100  -155.1640     5.5860     4.6670     4.6870     2.5840     0.0380  -190.5650     0.2590
 2703.5000    89.6290  -152.1820   110.4960   -30.3000     9.0100  -154.5740     5.7280     4.6770     4.7000     2.5870     0.0380  -190.5650     0.2540
