~VERSION INFORMATION
 VERS.                2.0:   CWLS LOG ASCII STANDARD - VERSION 2.0
 WRAP.                 NO:   ONE LINE PER DEPTH STEP
~WELL INFORMATION
#MNEM.UNIT      DATA TYPE    INFORMATION
#----------   ------------   ------------------------------
 STRT.F           60.0000:   START DEPTH
 STOP.F         3178.0000:   STOP DEPTH
 STEP.F            0.5000:   STEP LENGTH
 NULL.          -999.2500:   NO VALUE
 COMP. LAWRENCE-ALLISON & ASSOSCIATES:   COMPANY
 WELL. LAWRENCE "AX" #46-21:   WELL
 FLD .             NPR #3:   FIELD
 LOC .      S21 T39N R78W:   LOCATION
 CNTY.            NATRONA:   COUNTY
 STAT.            WYOMING:   STATE
 CTRY. UNITED STATES OF AMERICA:   COUNTRY
 SRVC.       SCHLUMBERGER:   SERVICE COMPANY
 DATE.        03-JUN-1982:   LOGDATE
 API .     49025108890000:   API NUMBER
~CURVE INFORMATION
#MNEM.UNIT       API CODE    CURVE DESCRIPTION
#----------   ------------   ------------------------------
 DEPT.F                  :   
 TEND.LBS    45 635 01 00:   TENSION FORM DENSITY LOG
 CALD.IN     45 280 60 00:   CALIPER FROM DENSITY LOG
 CORR.G/C3   45 356 01 00:   DENSITY CORRECTION
 RHOB.G/C3   45 350 01 00:   BULK DENSITY
 NPHI.DEC    42 890 03 00:   NEUTRON POROSITY SANDSTONE
 GRR .GAPI   07 310 01 00:   GAMMA RAY FROM RESISTIVITY
 SPR .MV     07 010 01 00:   SPONTANEOUS POTENTIAL
 SFL .OHMM   07 220 01 00:   SHALLOW FOCUSED LOG RESISTIVITY
 ILD .OHMM   07 120 46 00:   DEEP INDUCTION RESISTIVITY
 ILM .OHMM   07 120 44 00:   INDUCTION LOG MEDIUM RESISTIVITY
 TENR.LBS    07 635 01 00:   TENSION FROM RESISTIVITY
~PARAMETER INFORMATION
#MNEM.UNIT          VALUE    DESCRIPTION
#----------   ------------   ------------------------------
 EKB .F         5008.0000:   Kelly bushing
 EGL .F         4998.0000:   Ground level
 EDF .F         5007.0000:   Drilling floor
 TD  .F         3230.0000:   Total depth
 CLNT.            A2DTECH:   Client Code
 SL  . 1864' FSL & 2484' FWL:   Surface Location
 PD  .                 GL:   Permanent Datum
 EPD .F              4998:   Elevation Permanent Datum
 LMF .                 KB:   Log Measured From
 DMF .                 KB:   Drilling Measured From
 DAPD.F                10:   Feet Above Permanent Datum
 DATE.        03-JUN-1982:   Date Logged [DD-MMM-YYYY]
 DD  .F              3230:   Depth driller
 DL  .F              3200:   Depth logger
 BLI .F              3190:   Bottom log interval
 TLI .F               475:   Top log interval
 CS1 .IN            9.625:   Casing size
 CBD1.      9.625" @ 465':   Casing driller 1
 CBL1.F               475:   Casing logger 1
 BS1 .IN             8.75:   Bit size
 BSD1.F              3230:   Depth drilled with bit1
 DFT .   FORM WATER / AIR:   Type fluid in hole
 TCS .HRS            1530:   Time Circ. stopped
 TLAB.HRS            1900:   Time logger at bottom
 MRT .F               135:   Maximum recorded temp.
 LUN .               8035:   Logging unit number
 LUL .               CSPR:   Logging unit location
 ENGI.              PENNY:   Recorded By
 WITN.           JENNINGS:   Witnessed by
 ORIG.      2.5" 5" PRINT:   Origin of data
 UWI .     49025108890000:   Unique Well ID
 DICO. A2D TECHNOLOGIES, INC.:   Digitizing Company
~OTHER INFORMATION
~A   DEPT     TEND       CALD       CORR       RHOB       NPHI        GRR        SPR        SFL        ILD        ILM       TENR   
# ...
 1737.5000  1733.9314     9.2968    -0.0145     2.2579  -999.2500   191.5909  -999.2500  -999.2500     5.1448     4.9141  1731.0607
 1738.0000  1732.1375     9.2827    -0.0265     2.3858  -999.2500   197.2057  -999.2500  -999.2500     5.1448     4.9144  1731.5153
 1738.5000  1730.3440     9.2838     0.0158     2.4507  -999.2500   201.6543  -999.2500  -999.2500     5.1387     4.9841  1748.5311
 1739.0000  1743.4977     9.2846     0.0453     2.4598  -999.2500   204.7697  -999.2500  -999.2500     5.0732     4.9939  1762.8020
 1739.5000  1741.4474     9.2855     0.0529     2.4292  -999.2500   204.4906  -999.2500  -999.2500     5.1448     5.1435  1763.2335
 1740.0000  1739.7073     9.2863     0.0121     2.4000  -999.2500   200.7287  -999.2500  -999.2500     5.2173     5.2975  1763.6650
 1740.5000  1738.1166     9.2725    -0.0003     2.4031  -999.2500   200.1758  -999.2500  -999.2500     5.3285     5.4230  1764.0966
 1741.0000  1736.2272     9.2589     0.0013     2.4459  -999.2500   202.1097  -999.2500  -999.2500     5.5955     5.5414  1764.5454
 1741.5000  1734.5291     9.2450     0.0172     2.4726  -999.2500   203.0274  -999.2500  -999.2500     5.7544     5.6568  1765.0000
 1742.0000  1747.6946     9.2459     0.0451     2.4832  -999.2500   204.4606  -999.2500  -999.2500     5.8355     5.7371  1765.4545
 1742.5000  1745.8893     9.2467     0.0362     2.4724  -999.2500   207.6667  -999.2500  -999.2500     6.0011     5.9006  1765.9091
 1743.0000  1743.7795     9.2476     0.0122     2.4500  -999.2500   217.1145  -999.2500  -999.2500     6.0857     5.9010  1766.3636
 1743.5000  1742.0394     9.2486     0.0000     2.4381  -999.2500   224.8061  -999.2500  -999.2500     6.1715     5.9847  1736.5151
 1744.0000  1740.5083     9.2495    -0.0064     2.4365  -999.2500   228.9217  -999.2500  -999.2500     6.2585     5.9964  1737.0302
 1744.5000  1738.5593     9.2503    -0.0093     2.4466  -999.2500   228.8697  -999.2500  -999.2500     6.2585     6.0700  1737.4617
 1745.0000  1736.9209     9.2512    -0.0138     2.4474  -999.2500   225.8196  -999.2500  -999.2500     6.2585     6.0705  1737.8932
 1745.5000  1735.1270     9.2667    -0.0174     2.4400  -999.2500   224.4646  -999.2500  -999.2500     6.2585     6.0709  1708.0217
 1746.0000  1748.2869     9.2822    -0.0234     2.4341  -999.2500   222.6551  -999.2500  -999.2500     6.1715     6.0713  1708.4849
 1746.5000  1746.4020     9.2980    -0.0120     2.4387  -999.2500   217.6638  -999.2500  -999.2500     6.0857     5.9872  1708.9393
 1747.0000  1744.3717     9.3135     0.0114     2.4470  -999.2500   213.9758  -999.2500  -999.2500     5.9177     5.9043  1709.3938
 1747.5000  1742.8999     9.3290     0.0319     2.4583  -999.2500   212.4547  -999.2500  -999.2500     5.7544     5.7415  1709.8484
 1748.0000  1740.8916     9.3446     0.0463     2.4629  -999.2500   208.3276  -999.2500  -999.2500     5.5893     5.5831  1710.3030
 1748.5000  1754.0991     9.3748     0.0253     2.4525  -999.2500   204.8059  -999.2500  -999.2500     5.3516     5.3486  1710.8265
 1749.0000  1752.3591     9.4641     0.0902     2.4676  -999.2500   204.0727  -999.2500  -999.2500     5.1036     5.0342  1680.9091
 1749.5000  1750.6190     9.4942     0.1611     2.5127  -999.2500   204.7939  -999.2500  -999.2500     4.8794     4.6743  1681.3636
 1750.0000  1718.9835     9.4603     0.2334     2.4850  -999.2500   206.3651  -999.2500  -999.2500     4.6321     4.2393  1681.8182
 1750.5000  1729.7068     9.4198     0.2085     2.4176  -999.2500   207.2828  -999.2500  -999.2500     4.4106     4.0781  1682.2727
 1751.0000  1740.4302     9.3793     0.0522     2.3150  -999.2500   203.2006  -999.2500  -999.2500     4.4106     4.1340  1682.7273
 1751.5000  1752.9541     9.3970     0.0206     2.2760  -999.2500   194.1183  -999.2500  -999.2500     4.4106     4.2201  1683.1818
 1752.0000  1772.0172     9.3545     0.0335     2.3842  -999.2500   186.2183  -999.2500  -999.2500     4.4106     4.2800  1683.6364
 1752.5000  1770.4272     9.3858     0.0637     2.4352  -999.2500   181.2577  -999.2500  -999.2500     4.3493     4.2803  1699.5775
 1753.0000  1768.9088     9.4167     0.1060     2.4593  -999.2500   179.5988  -999.2500  -999.2500     4.2811     4.2210  1714.8485
 1753.5000  1767.2648     9.4623     0.1438     2.4474  -999.2500   179.9427  -999.2500  -999.2500     4.1568     4.1027  1715.3030
 1754.0000  1765.6205     9.4785     0.2079     2.3778  -999.2500   182.2849  -999.2500  -999.2500     4.0930     3.9767  1715.7576
 1754.5000  1763.8025     9.4801     0.1157     2.2674  -999.2500   185.4000  -999.2500  -999.2500     3.9742     3.8272  1716.2207
 1755.0000  1762.3318     9.4816     0.0386     2.2073  -999.2500   188.7287  -999.2500  -999.2500     3.9433     3.7742  1716.6665
 1755.5000  1760.6875     9.4395     0.0327     2.3383  -999.2500   191.4646  -999.2500  -999.2500     3.8885     3.7745  1717.1211
 1756.0000  1743.8199     9.4260     0.0426     2.4104  -999.2500   191.9879  -999.2500  -999.2500     3.8885     3.7748  1717.5757
 1756.5000  1741.7463     9.4279     0.0404     2.4255  -999.2500   191.0274  -999.2500  -999.2500     3.9433     3.8284  1700.0234
 1757.0000  1723.4514     9.3997     0.0518     2.4458  -999.2500   190.0970  -999.2500  -999.2500     3.9433     3.9375  1688.1818
 1757.5000  1709.0225     9.3869     0.0927     2.4646  -999.2500   188.6213  -999.2500  -999.2500     3.9989     4.0497  1688.6364
 1758.0000  1707.6232     9.3738     0.1115     2.4662  -999.2500   186.1449  -999.2500  -999.2500     4.0656     4.1652  1689.0909
 1758.5000  1690.8949     9.3611     0.0890     2.4213  -999.2500   182.8364  -999.2500  -999.2500     4.1457     4.3485  1689.5454
 1759.0000  1689.3872     9.3476     0.0786     2.3989  -999.2500   180.6182  -999.2500  -999.2500     4.3363     4.5484  1690.0000
 1759.5000  1687.7429     9.3495     0.0711     2.4088  -999.2500   180.8848  -999.2500  -999.2500     4.5674     4.7418  1690.4546
 1760.0000  1685.9927     9.3217     0.0464     2.4193  -999.2500   185.6378  -999.2500  -999.2500     4.9332     5.0227  1690.9091
 1760.5000  1684.4543     9.3232     0.0134     2.4097  -999.2500   185.7515  -999.2500  -999.2500     5.2908     5.2785  1691.3638
 1761.0000  1682.8103     9.3248    -0.0059     2.4188  -999.2500   184.2915  -999.2500  -999.2500     5.7544     5.6781  1691.8182
 1761.5000  1680.9579     9.3117    -0.0091     2.4551  -999.2500   184.7547  -999.2500  -999.2500     6.1715     6.1705  1692.2728
 1762.0000  1694.7131     9.2985    -0.0059     2.4804  -999.2500   188.4909  -999.2500  -999.2500     6.6227     6.4360  1692.7274
 1762.5000  1692.5934     9.3005    -0.0013     2.4897  -999.2500   190.3030  -999.2500  -999.2500     6.9273     6.6194  1693.2538
 1763.0000  1691.4009     9.3020     0.0041     2.4920  -999.2500   191.7212  -999.2500  -999.2500     7.1988     6.9042  1693.6853
 1763.5000  1701.9083     9.3036     0.0087     2.4951  -999.2500   193.3060  -999.2500  -999.2500     7.1988     7.0054  1694.0908
 1764.0000  1702.9036     9.3198     0.0149     2.4966  -999.2500   196.7697  -999.2500  -999.2500     7.1988     7.1015  1694.5454
 1764.5000  1701.1958     9.3364     0.0239     2.5012  -999.2500   203.6868  -999.2500  -999.2500     7.1443     7.1020  1695.0000
 1765.0000  1684.6040     9.3380     0.0286     2.5095  -999.2500   210.7287  -999.2500  -999.2500     6.9028     7.0035  1695.4546
 1765.5000  1682.6560     9.3395     0.0347     2.5103  -999.2500   214.3737  -999.2500  -999.2500     6.7122     6.8649  1695.9091
 1766.0000  1681.3156     9.3411     0.0513     2.5112  -999.2500   217.1097  -999.2500  -999.2500     6.6189     6.6663  1696.3636
 1766.5000  1679.3439     9.3426     0.0770     2.5157  -999.2500   218.9365  -999.2500  -999.2500     6.4362     6.4400  1696.8181
 1767.0000  1678.0271     9.3442     0.1012     2.5060  -999.2500   220.3394  -999.2500  -999.2500     6.3406     6.2624  1697.2727
 1767.5000  1676.3826     9.3310     0.0919     2.4924  -999.2500   221.3030  -999.2500  -999.2500     6.2585     6.2628  1697.7848
