~VERSION INFORMATION
 VERS.                2.0:   CWLS LOG ASCII STANDARD - VERSION 2.0
 WRAP.                 NO:   ONE LINE PER DEPTH STEP
~WELL INFORMATION
#MNEM.UNIT      DATA TYPE    INFORMATION
#----------   ------------   ------------------------------
 STRT.F            0.0000:   START DEPTH
 STOP.F         4044.0000:   STOP DEPTH
 STEP.F            0.5000:   STEP LENGTH
 NULL.          -999.2500:   NO VALUE
 COMP. LAWRENCE-ALLISON & ASSOC.:   COMPANY
 WELL. LAWRENCE "X" #24-34:   WELL
 FLD .           N P R #3:   FIELD
 LOC .      S34 T39N R78W:   LOCATION
 CNTY.            NATRONA:   COUNTY
 STAT.            WYOMING:   STATE
 CTRY. UNITED STATES OF AMERICA:   COUNTRY
 SRVC.      DRESSER ATLAS:   SERVICE COMPANY
 DATE.        29-MAR-1984:   LOGDATE
 API .     49025109660000:   API NUMBER
~CURVE INFORMATION
#MNEM.UNIT       API CODE    CURVE DESCRIPTION
#----------   ------------   ------------------------------
 DEPT.F                  :   
 DT  .US/F   60 520 00 00:   DELTA TIME
 TENS.LBS    60 635 01 00:   TENSION FROM SONIC
 GRR .GAPI   07 310 01 00:   GAMMA RAY FROM RESISTIVITY
 SPR .MV     07 010 01 00:   SPONTANEOUS POTENTIAL
 CALR.IN     07 280 01 00:   CALIPER FROM RESISTIVITY
 TENR.LBS    07 635 01 00:   TENSION FROM RESISTIVITY
 RSFL.OHMM   07 221 01 00:   AMPPLIFIED SHALLOW FOCUSED LOG RESISTIVITY
 RILD.OHMM   07 120 46 00:   DEEP INDUCTION RESISTIVITY
 RILM.OHMM   07 120 44 00:   INDUCTION LOG MEDIUM RESISTIVITY
 RHOB.G/C3   45 350 01 00:   BULK DENSITY
 DRHO.G/C3   45 356 01 00:   DENSITY CORRECTION
 TEND.LBS    45 635 01 00:   TENSION FROM DENSITY LOG
 NPHI.DEC    42 890 03 00:   NEUTRON POROSITY SANDSTONE
~PARAMETER INFORMATION
#MNEM.UNIT          VALUE    DESCRIPTION
#----------   ------------   ------------------------------
 EKB .F         5101.0000:   Kelly bushing
 EGL .F         5089.0000:   Ground level
 EDF .F         5100.0000:   Drilling floor
 TD  .F         4050.0000:   Total depth
 DATE.        29-MAR-1984:   Date logged
 CLNT.            A2DTECH:   Client Code
 SL  . 2415' FNL & 839' FWL:   Surface Location
 PD  .                 GL:   Permanent Datum
 EPD .F              5089:   Elevation Permanent Datum
 LMF .                 KB:   Log Measured From
 DMF .                 KB:   Drilling Measured From
 DD  .F              4050:   Depth driller
 DL  .F              4043:   Depth logger
 BLI .F              4041:   Bottom log interval
 CS1 .IN            8.625:   Casing size
 CBD1.       8.625 @ 673':   Casing driller 1
 CBL1.F               671:   Casing logger 1
 BS1 .IN            7.875:   Bit size
 DFT .            GEL-KCL:   Type fluid in hole
 DFD .                8.9:   Density
 DFV .                 45:   Viscosity
 DFPH.                  8:   pH
 DFL .               12.8:   Fluid loss
 MSS .           MUD TANK:   Source of sample
 RMS .OHMM           0.46:   Rm
 MST .F                71:   Rm Meas. temp.
 RMF .OHMM           0.31:   Rmf
 MFST.F                71:   Rmf Meas. temp.
 RMC .OHMM           0.55:   Rmc
 MCST.F                71:   Rmc Meas. temp.
 MFSS.               MEAS:   Source Rmf.
 RMB .OHMM           0.25:   Rm. at BHT
 BHT .F               139:   BHT.
 TCS .HRS               4:   Time Circ. stopped
 MRT .F               139:   Maximum recorded temp.
 LUN .               6302:   Logging unit number
 LUL .               CODY:   Logging unit location
 ENGI.              GETTY:   Recorded By
 WITN.           JENNINGS:   Witnessed by
 ORIG.           5" PRINT:   Origin of data
 UWI .     49025109660000:   Unique Well ID
 DICO. A2D TECHNOLOGIES, INC.:   Digitizing Company
 DAPD.                 12:   Feet Above Permanent Datum
 BSD1.               4050:   Depth drilled with bit1
 MCSS.               MEAS:   Source Rmc.
~OTHER INFORMATION
~A  DEPTH       DT       TENS        GRR        SPR       CALR       TENR       RSFL       RILD       RILM       RHOB       DRHO       TEND       NPHI
# ...
  676.0000  -999.2500  -999.2500    74.3230   -16.1270    12.6150  -180.5980     4.5690     2.3220     4.0730  -999.2500  -999.2500  -999.2500  -999.2500
  676.5000  -999.2500  -999.2500    75.7850   -17.3730    13.1890  -179.0310     4.9070     3.4600     4.9830  -999.2500  -999.2500  -999.2500  -999.2500
  677.0000  -999.2500  -999.2500    79.4410   -18.6190    13.3350  -177.4650     5.2450     5.2140     5.8940  -999.2500  -999.2500  -999.2500  -999.2500
  677.5000  -999.2500  -999.2500    81.4930   -19.9140    13.3710  -175.8990     5.5290     6.9170     6.8040  -999.2500  -999.2500  -999.2500  -999.2500
  678.0000  -999.2500  -999.2500    82.4410   -22.2210    13.3920  -174.3330     5.7840     7.5540     7.3950  -999.2500  -999.2500  -999.2500  -999.2500
  678.5000  -999.2500  -999.2500    82.6040   -24.5840    13.3960  -172.7660     6.0380     7.6260     7.6020  -999.2500  -999.2500  -999.2500  -999.2500
  679.0000  -999.2500  -999.2500    82.5940   -27.7100    13.4000  -171.2000     6.1720     7.6980     7.7930  -999.2500  -999.2500  -999.2500  -999.2500
  679.5000  -999.2500  -999.2500    82.0580   -31.2540    13.4040  -169.6340     6.2680     8.0440     8.7610  -999.2500  -999.2500  -999.2500  -999.2500
  680.0000  -999.2500  -999.2500    80.8030   -34.8130    13.4070  -168.0680     6.3580     8.5160     9.4780  -999.2500  -999.2500  -999.2500  -999.2500
  680.5000  -999.2500  -999.2500    79.6430   -38.4070    13.4110  -166.5010     6.4480     8.9890     8.3760  -999.2500  -999.2500  -999.2500  -999.2500
  681.0000  -999.2500  -999.2500    75.8990   -39.9200    13.4150  -164.9350     6.5370     9.6060     7.2910  -999.2500  -999.2500  -999.2500  -999.2500
  681.5000  -999.2500  -999.2500    77.0060   -39.7530    13.4190  -174.0120     6.6270    10.3580     6.7750  -999.2500  -999.2500  -999.2500  -999.2500
  682.0000  -999.2500  -999.2500    78.1280   -37.8400    13.4230  -174.0120     6.7170    11.1090     6.7750  -999.2500  -999.2500  -999.2500  -999.2500
  682.5000  -999.2500  -999.2500    76.7780   -34.3880    13.4270  -174.0120     6.7750    11.7500     6.7750  -999.2500  -999.2500  -999.2500  -999.2500
  683.0000  -999.2500  -999.2500    75.2140   -30.9700    13.4260  -174.0120     6.7440    10.4850     6.7750  -999.2500  -999.2500  -999.2500  -999.2500
  683.5000  -999.2500  -999.2500    73.6500   -27.5130    13.4120  -173.2290     6.7160     9.3840     6.7750  -999.2500  -999.2500  -999.2500  -999.2500
  684.0000  -999.2500  -999.2500    72.7620   -26.3090    13.3990  -168.5780     6.6890     9.0710     6.7750  -999.2500  -999.2500  -999.2500  -999.2500
  684.5000  -999.2500  -999.2500    73.4190   -28.8540    13.3860  -163.9260     6.6610     9.0480     6.7750  -999.2500  -999.2500  -999.2500  -999.2500
  685.0000  -999.2500  -999.2500    74.7600   -30.6030    13.3730  -159.2750     6.6500     9.0480     6.7740  -999.2500  -999.2500  -999.2500  -999.2500
  685.5000  -999.2500  -999.2500    75.7020   -32.3550    13.3600  -154.6240     6.7210     9.0480     6.8250  -999.2500  -999.2500  -999.2500  -999.2500
  686.0000  -999.2500  -999.2500    74.8990   -34.1150    13.3530  -159.2870     6.7720     9.0480     6.8670  -999.2500  -999.2500  -999.2500  -999.2500
  686.5000  -999.2500  -999.2500    72.1750   -35.0320    13.3680  -166.1090     6.8230     9.0830     6.9090  -999.2500  -999.2500  -999.2500  -999.2500
  687.0000  -999.2500  -999.2500    70.0730   -35.5440    13.3820  -172.9310     6.8740     9.1260     6.9510  -999.2500  -999.2500  -999.2500  -999.2500
  687.5000  -999.2500  -999.2500    69.7250   -36.0510    13.3960  -170.5210     6.9030     9.5500     6.9930  -999.2500  -999.2500  -999.2500  -999.2500
  688.0000  -999.2500  -999.2500    69.2820   -36.5580    13.4110  -166.3720     6.7940    10.0460     7.0330  -999.2500  -999.2500  -999.2500  -999.2500
  688.5000  -999.2500  -999.2500    68.3990   -37.0660    13.4250  -162.2240     6.7190    10.3110     6.9180  -999.2500  -999.2500  -999.2500  -999.2500
  689.0000  -999.2500  -999.2500    67.8970   -37.5750    13.4390  -158.0750     6.6500     9.9050     6.8110  -999.2500  -999.2500  -999.2500  -999.2500
  689.5000  -999.2500  -999.2500    68.7440   -38.0820    13.4540  -153.9270     6.5130     9.4450     6.7120  -999.2500  -999.2500  -999.2500  -999.2500
  690.0000  -999.2500  -999.2500    72.3240   -38.5560    13.4680  -149.7780     6.3570     8.9850     6.4110  -999.2500  -999.2500  -999.2500  -999.2500
  690.5000  -999.2500  -999.2500    75.9320   -38.8270    13.4820  -145.6300     6.2010     8.5250     6.1340  -999.2500  -999.2500  -999.2500  -999.2500
  691.0000  -999.2500  -999.2500    77.8250   -39.1040    13.4960  -150.9860     6.0450     8.0650     5.8350  -999.2500  -999.2500  -999.2500  -999.2500
  691.5000  -999.2500  -999.2500    79.3120   -39.3830    13.5110  -174.2420     5.8890     7.6050     5.5840  -999.2500  -999.2500  -999.2500  -999.2500
  692.0000  -999.2500  -999.2500    78.4440   -39.6730    13.5250  -194.2760     5.7330     7.1280     5.3100  -999.2500  -999.2500  -999.2500  -999.2500
  692.5000  -999.2500  -999.2500    74.3200   -39.2560    13.5450  -197.4840     5.5690     6.6140     5.0370  -999.2500  -999.2500  -999.2500  -999.2500
  693.0000  -999.2500  -999.2500    72.1180   -38.7290    13.5680  -200.8950     5.3740     6.1010     4.7520  -999.2500  -999.2500  -999.2500  -999.2500
  693.5000  -999.2500  -999.2500    72.1790   -38.2010    13.5920  -204.3060     5.1690     5.5410     4.3130  -999.2500  -999.2500  -999.2500  -999.2500
  694.0000  -999.2500  -999.2500    74.3630   -37.6740    13.6150  -207.7170     4.9640     4.7470     3.8550  -999.2500  -999.2500  -999.2500  -999.2500
  694.5000  -999.2500  -999.2500    77.0690   -37.1470    13.6380  -211.1280     4.7090     3.9530     3.3970  -999.2500  -999.2500  -999.2500  -999.2500
  695.0000  -999.2500  -999.2500    79.5340   -36.6200    13.6610  -214.5390     4.2380     3.1590     2.9390  -999.2500  -999.2500  -999.2500  -999.2500
  695.5000  -999.2500  -999.2500    80.0010   -36.0930    13.6870  -206.8450     3.7680     2.7430     2.4820  -999.2500  -999.2500  -999.2500  -999.2500
  696.0000  -999.2500  -999.2500    79.7080   -35.5660    13.6300  -197.2520     3.2980     2.5740     2.0330  -999.2500  -999.2500  -999.2500  -999.2500
  696.5000  -999.2500  -999.2500    78.1930   -35.0370    13.5530  -187.6580     2.8280     2.4060     2.0900  -999.2500  -999.2500  -999.2500  -999.2500
  697.0000  -999.2500  -999.2500    73.4710   -34.5110    13.4870  -190.6280     2.1910     2.2110     2.1590  -999.2500  -999.2500  -999.2500  -999.2500
  697.5000  -999.2500  -999.2500    69.1910   -34.1020    13.4830  -200.8610     2.4380     2.5740     2.4950  -999.2500  -999.2500  -999.2500  -999.2500
  698.0000  -999.2500  -999.2500    66.5150   -34.8480    13.4770  -211.0940     2.8230     3.0060     2.8820  -999.2500  -999.2500  -999.2500  -999.2500
  698.5000  -999.2500  -999.2500    68.8020   -36.6250    13.4720  -218.3220     3.9680     3.4370     3.2420  -999.2500  -999.2500  -999.2500  -999.2500
  699.0000  -999.2500  -999.2500    71.9230   -38.3860    13.4660  -204.6770     5.1070     3.8230     4.1090  -999.2500  -999.2500  -999.2500  -999.2500
  699.5000  -999.2500  -999.2500    75.0200   -40.1520    13.4600  -191.0330     5.2170     4.4810     4.9210  -999.2500  -999.2500  -999.2500  -999.2500
  700.0000  -999.2500  -999.2500    76.1240   -41.9170    13.4540  -195.0770     5.2620     5.4380     5.7330  -999.2500  -999.2500  -999.2500  -999.2500
  700.5000  -999.2500  -999.2500    76.9270   -43.6820    13.4490  -197.7750     5.3040     6.3940     6.5440  -999.2500  -999.2500  -999.2500  -999.2500
  701.0000  -999.2500  -999.2500    77.7880   -45.4470    13.4430  -200.4730     5.5220     7.2760     7.0860  -999.2500  -999.2500  -999.2500  -999.2500
  701.5000  -999.2500  -999.2500    80.0110   -47.2120    13.4370  -203.1700     5.8110     7.6340     7.5210  -999.2500  -999.2500  -999.2500  -999.2500
