~VERSION INFORMATION
 VERS.                2.0:   CWLS LOG ASCII STANDARD - VERSION 2.0
 WRAP.                 NO:   ONE LINE PER DEPTH STEP
~WELL INFORMATION
#MNEM.UNIT      DATA TYPE    INFORMATION
#----------   ------------   ------------------------------
 STRT.F          298.0000:   START DEPTH
 STOP.F         3084.0000:   STOP DEPTH
 STEP.F            0.5000:   STEP LENGTH
 NULL.          -999.2500:   NO VALUE
 COMP. LAWERNCE ALLISON AND ASSOCIATED:   COMPANY
 WELL. LAWERNCE "TX" #77-20:   WELL
 FLD .        TEAPOT DOME:   FIELD
 LOC .      S20 T39N R78W:   LOCATION
 CNTY.            NATRONA:   COUNTY
 STAT.            WYOMING:   STATE
 CTRY. UNITED STATES OF AMERICA:   COUNTRY
 SRVC.       SCHLUMBERGER:   SERVICE COMPANY
 DATE.        22-JAN-1982:   LOGDATE
 API .     49025108840000:   API NUMBER
~CURVE INFORMATION
#MNEM.UNIT       API CODE    CURVE DESCRIPTION
#----------   ------------   ------------------------------
 DEPT.F                  :   
 CALD.IN     45 280 60 00:   CALIPER FROM DENSITY LOG
 GRD .GAPI   45 310 01 00:   GAMMA RAY FROM DENSITY LOG
 TEND.LBS    45 635 01 00:   TENSION FROM DENSITY LOG
 RHOB.G/C3   45 350 01 00:   BULK DENSITY
 NPHI.DEC    42 890 03 00:   NEUTRON POROSITY SANDSTONE
 CORR.G/C3   45 356 01 00:   DENSITY CORRECTION
 SFLU.OHMM   07 220 01 00:   SPHERICALLY FOCUSED LOG UNAVERAGED RESISTIVITY
 ILD .OHMM   07 120 46 00:   INDUCTION LOG DEEP RESISTIVITY
 ILM .OHMM   07 120 44 00:   INDUCTION LOG MEDIUM RESISTIVITY
 TENR.LBS    07 635 01 00:   TENSION
 SPR .MV     07 010 01 00:   SPONTANEOUS POTENTIAL
~PARAMETER INFORMATION
#MNEM.UNIT          VALUE    DESCRIPTION
#----------   ------------   ------------------------------
 EKB .F         5022.0000:   Kelly bushing
 EGL .F         5012.0000:   Ground level
 EDF .F         5021.0000:   Drilling floor
 TD  .F         3079.0000:   Total depth
 DATE.        22-JAN-1982:   Date logged
 CLNT.            A2DTECH:   Client Code
 SL  . 986' FSL & 779' FEL:   Surface Location
 PD  .                 GL:   Permanent Datum
 EPD .F              5012:   Elevation Permanent Datum
 LMF .                 KB:   Log Measured From
 DMF .                 KB:   Drilling Measured From
 DAPD.F                10:   Feet Above Permanent Datum
 DD  .F              3079:   Depth driller
 DL  .F              3070:   Depth logger
 BLI .F              3064:   Bottom log interval
 TLI .F               328:   Top log interval
 CS1 .IN            9.625:   Casing size
 CBD1.      9.625" @ 300':   Casing driller 1
 CBL1.F               328:   Casing logger 1
 BS1 .IN            7.875:   Bit size
 BSD1.F              3079:   Depth drilled with bit1
 DFT .           CHEM/GEL:   Type fluid in hole
 DFD .                8.9:   Density
 DFV .                 50:   Viscosity
 DFPH.               10.5:   pH
 DFL .                  8:   Fluid loss
 MSS .           FLOWLINE:   Source of sample
 RMS .OHMM           2.53:   Rm
 MST .F                49:   Rm Meas. temp.
 RMF .OHMM           2.04:   Rmf
 MFST.F                49:   Rmf Meas. temp.
 RMC .OHMM           3.80:   Rmc
 MCST.F                49:   Rmc Meas. temp.
 MFSS.               MEAS:   Source Rmf.
 MCSS.               CALC:   Source Rmc.
 RMB .OHMM           1.04:   Rm. at BHT
 BHT .F               119:   BHT.
 TCS .HRS            0330:   Time Circ. stopped
 TLAB.HRS            0800:   Time logger at bottom
 MRT .F               119:   Maximum recorded temp.
 LUN .               8043:   Logging unit number
 LUL .               CSPR:   Logging unit location
 ENGI.            PERAKIS:   Recorded By
 WITN.              SCOTT:   Witnessed by
 ORIG.           5" PRINT:   Origin of data
 UWI .     49025108840000:   Unique Well ID
 DICO. A2D TECHNOLOGIES, INC.:   Digitizing Company
~OTHER INFORMATION
~A   DEPT       CALD       GRD      TEND         RHOB       NPHI     CORR       SFLU        ILD        ILM       TENR        SPR   
# ...
  877.5000    11.0910    98.9490   697.5080     2.5150     0.3640     0.0350     7.8950     7.7670     7.3740   659.3630    -7.0440
  878.0000    11.1340    98.7000   696.5760     2.5050     0.3580     0.0240     7.8220     7.7470     7.3370   659.6380    -7.1260
  878.5000    11.1520   100.0110   695.6440     2.4940     0.3520     0.0080     7.8730     7.7350     7.3000   659.0370    -7.2080
  879.0000    11.1520   101.1750   694.7120     2.4880     0.3520     0.0000     7.9150     7.7230     7.2630   658.4370    -7.0950
  879.5000    11.1540    98.4150   693.7790     2.4910     0.3530     0.0040     7.9560     7.7120     7.2260   657.8360    -6.7300
  880.0000    11.0930    95.1760   692.8470     2.4940     0.3430     0.0110     7.9970     7.7000     7.1910   657.2350    -6.3700
  880.5000    11.0290    94.4280   691.9150     2.4910     0.3280     0.0190     8.0390     7.6880     7.2630   656.6340    -6.0110
  881.0000    11.0340    96.5070   690.9830     2.4880     0.3330     0.0160     8.1680     7.6770     7.4170   656.0330    -5.5910
  881.5000    11.0380    97.8550   690.0510     2.4870     0.3430     0.0080     8.3110     7.8260     7.5710   655.4330    -5.3020
  882.0000    11.0420    98.2350   689.1190     2.4890     0.3570     0.0000     8.4530     7.9660     7.7250   654.8320    -5.7170
  882.5000    11.0460    98.6670   688.1860     2.4980     0.3500     0.0000     8.5960     8.1050     7.8940   654.2310    -6.1420
  883.0000    11.0490   100.1850   687.2540     2.5100     0.3360     0.0040     8.6690     8.1200     7.8860   653.6300    -6.5630
  883.5000    11.0880   101.7550   686.3220     2.5220     0.3280     0.0150     8.4290     8.1200     7.8750   653.0300    -6.8860
  884.0000    11.1460   101.7970   685.3900     2.5290     0.3250     0.0180     8.4290     8.1200     7.8650   652.4290    -6.9590
  884.5000    11.2040   101.0050   684.4580     2.5180     0.3390     0.0150     8.7180     8.1200     7.8540   651.8280    -7.0360
  885.0000    11.2630    98.9560   683.5260     2.5040     0.3500     0.0190     8.9150     8.1200     7.8430   651.2270    -7.1130
  885.5000    11.2580    98.5890   682.5930     2.5050     0.3630     0.0300     8.9150     8.1200     7.8330   650.6260    -7.1900
  886.0000    11.1800   101.0470   681.6610     2.5190     0.3580     0.0390     8.7560     8.1200     7.8220   650.0260    -7.2670
  886.5000    11.1020   101.8150   680.7290     2.5190     0.3480     0.0350     8.4540     8.0760     7.8110   649.4250    -7.3430
  887.0000    11.0250    98.9000   679.9660     2.4930     0.3480     0.0220     8.1960     8.0290     7.8010   648.8240    -7.4210
  887.5000    10.9600    96.0690   678.9710     2.4860     0.3510     0.0120     8.1200     7.9700     7.7900   648.2230    -7.4990
  888.0000    10.9300    94.5430   677.9750     2.4940     0.3520     0.0140     8.1480     7.9760     7.7790   647.6230    -7.5730
  888.5000    10.9080    96.5930   676.9800     2.5030     0.3470     0.0170     8.1980     7.9950     7.7690   647.0220    -7.6190
  889.0000    10.9100    98.5280   675.9840     2.5040     0.3440     0.0160     8.2490     8.0140     7.7580   646.4210    -7.6930
  889.5000    10.9110   100.4640   674.9890     2.4950     0.3460     0.0040     8.2990     8.0330     7.7460   645.8200    -7.3780
  890.0000    10.9120   100.9420   673.9930     2.4870     0.3510    -0.0080     8.3510     8.0520     7.7310   645.2190    -7.1070
  890.5000    10.9140   100.1890   672.9980     2.4880     0.3580    -0.0030     8.3510     8.0700     7.7160   644.6190    -6.8180
  891.0000    10.9150    99.4110   672.0020     2.5020     0.3630     0.0080     8.2900     8.0890     7.7010   644.0180    -6.5200
  891.5000    10.9160    99.2440   671.0070     2.5170     0.3620     0.0190     8.1880     8.1080     7.6850   643.4170    -6.6310
  892.0000    10.9180   100.1650   670.0110     2.5310     0.3600     0.0300     8.0850     8.1270     7.6700   642.8160    -6.9050
  892.5000    10.9190   101.0250   669.0160     2.5320     0.3570     0.0300     7.9700     8.1460     7.6550   642.2160    -7.1830
  893.0000    10.9200   100.6370   668.0200     2.5290     0.3550     0.0280     8.0350     8.1650     7.6390   641.6150    -7.4560
  893.5000    10.9220    99.6400   667.0250     2.5270     0.3550     0.0260     8.1410     8.1840     7.6240   641.0140    -7.2360
  894.0000    10.9230    98.2930   666.0290     2.5260     0.3580     0.0280     8.2480     8.2020     7.6060   640.4130    -6.9740
  894.5000    10.9250    96.9340   665.0340     2.5230     0.3600     0.0340     8.3510     8.2210     7.7140   639.8120    -6.7250
  895.0000    10.9260    95.5850   664.0380     2.5150     0.3480     0.0360     8.3510     8.2400     7.8450   639.5940    -6.6430
  895.5000    10.9270    96.8930   663.0430     2.5070     0.3340     0.0330     8.1960     8.2590     7.9700   639.5940    -7.0640
  896.0000    10.9280   100.1480   662.0470     2.5040     0.3280     0.0300     8.7140     8.2730     7.8740   639.5940    -7.4760
  896.5000    10.9370   103.0830   661.0520     2.5070     0.3380     0.0270     9.1680     8.1680     7.7270   639.5940    -7.8930
  897.0000    10.9480   101.5070   660.0560     2.5070     0.3510     0.0240     8.9180     8.0840     7.5810   639.5940    -8.3270
  897.5000    10.9580    99.8300   660.7350     2.5040     0.3670     0.0210     8.6090     8.0000     7.4340   639.5940    -8.4410
  898.0000    10.9680    98.4560   661.7290     2.4930     0.3830     0.0180     8.3010     7.9160     7.3090   639.5940    -8.3120
  898.5000    10.9780    98.8440   662.7230     2.4810     0.3940     0.0160     7.9930     7.8320     7.2440   639.5940    -8.1800
  899.0000    10.9890    99.6000   663.7170     2.4800     0.3910     0.0200     7.8630     7.7270     7.1790   639.5940    -8.0450
  899.5000    10.9990   100.2040   664.7120     2.4930     0.3830     0.0240     7.8150     7.6200     7.1150   639.5940    -7.9200
  900.0000    11.0090    98.3670   665.7060     2.5050     0.3850     0.0400     7.7670     7.5130     7.0500   639.5940    -7.6350
  900.5000    11.0190    95.8240   666.7000     2.5150     0.3890     0.0560     7.7190     7.3960     6.9850   639.5940    -7.7720
  901.0000    11.0290    93.2720   667.6940     2.5120     0.3950     0.0630     7.6720     7.3270     6.9200   639.5940    -8.0120
  901.5000    11.0400    91.0860   668.6880     2.5080     0.4050     0.0700     7.6290     7.3270     6.8550   639.5940    -8.2460
  902.0000    11.0520    91.6250   669.6820     2.5040     0.4160     0.0750     7.5860     7.3270     6.7990   639.5940    -8.4280
  902.5000    10.9830    92.1840   670.6760     2.4990     0.4230     0.0800     7.5440     7.3270     6.7990   639.5940    -8.8320
  903.0000    10.8910    90.9580   671.6700     2.4970     0.4110     0.0840     7.5010     7.3270     6.9170   639.5940    -8.5480
  903.5000    10.8280    89.5210   672.6640     2.4980     0.3940     0.0860     7.4650     7.3270     6.9640   639.5940    -8.2860
  904.0000    10.8440    88.3250   673.6590     2.5030     0.3770     0.0800     7.5640     7.3270     7.0430   640.6550    -8.0270
  904.5000    10.8580    88.8910   674.6530     2.5150     0.3610     0.0740     7.6490     7.3980     7.1750   642.5020    -7.7650
  905.0000    10.8730    87.7550   675.6470     2.5240     0.3530     0.0650     7.7340     7.5800     7.3080   644.3500    -7.6910
  905.5000    10.8870    85.1680   676.6410     2.5100     0.3570     0.0510     7.8190     7.7630     7.4410   646.1970    -7.9030
  906.0000    10.9020    84.3020   677.6350     2.4980     0.3630     0.0460     7.9040     7.9460     7.5740   648.0450    -8.1140
  906.5000    10.9120    86.2800   678.6290     2.5050     0.3690     0.1110     7.9890     8.1290     7.7070   649.8930    -8.3250
  907.0000    10.9240    88.2850   679.6230     2.5150     0.3730     0.1920     8.0740     8.2160     7.8390   651.7400    -8.5360
  907.5000    11.0120    88.1120   680.7570     2.4320     0.3820     0.2460     8.1590     8.2470     7.9720   653.5880    -8.7460
