~VERSION INFORMATION
 VERS.                2.0:   CWLS LOG ASCII STANDARD - VERSION 2.0
 WRAP.                 NO:   ONE LINE PER DEPTH STEP
~WELL INFORMATION
#MNEM.UNIT      DATA TYPE    INFORMATION
#----------   ------------   ------------------------------
 STRT.F          200.0000:   START DEPTH
 STOP.F         2968.0000:   STOP DEPTH
 STEP.F            0.5000:   STEP LENGTH
 NULL.          -999.2500:   NO VALUE
 COMP. FENIX & SCISSON U.S. NAVY:   COMPANY
 WELL.   FENIX "A" #23-28:   WELL
 FLD .              NPR 3:   FIELD
 LOC .      S28 T39N R78W:   LOCATION
 CNTY.            NATRONA:   COUNTY
 STAT.            WYOMING:   STATE
 CTRY. UNITED STATES OF AMERICA:   COUNTRY
 SRVC.       SCHLUMBERGER:   SERVICE COMPANY
 DATE.        10-JUN-1977:   LOGDATE
 API .     49025103860000:   API NUMBER
~CURVE INFORMATION
#MNEM.UNIT       API CODE    CURVE DESCRIPTION
#----------   ------------   ------------------------------
 DEPT.F                  :   
 SPR .MV     07 010 01 00:   SPONTANEOUS POTENTIAL
 RILM.OHMM   07 120 44 00:   INDUCTION LOG MEDIUM RESISTIVITY
 RILD.OHMM   07 120 46 00:   DEEP INDUCTION RESISTIVITY
 LL8 .None   99 022 08 00:   LATEROLOG
 GRD .GAPI   45 310 01 00:   GAMMA RAY FROM DENSITY LOG
 CALD.IN     45 280 60 00:   CALIPER FROM DENSITY LOG
 RHOB.G/C3   45 350 01 00:   BULK DENSITY
 DRHO.G/C3   45 356 01 00:   DENSITY CORRECTION
~PARAMETER INFORMATION
#MNEM.UNIT          VALUE    DESCRIPTION
#----------   ------------   ------------------------------
 EKB .F         5019.0000:   Kelly bushing
 EGL .F         5009.0000:   Ground level
 EDF .F            0.0000:   Drilling floor
 EPD .F         5009.0000:   Permanent datum
 TD  .F         2971.0000:   Total depth
 DATE.        10-JUN-1977:   Date logged
 CLNT.            A2DTECH:   Client Code
 SL  . 1650' FNL & 990' FWL:   Surface Location
 DAPD.F                10:   Feet Above Permanent Datum
 DD  .F              2970:   Depth driller
 DL  .F              2971:   Depth logger
 BLI .F              2905:   Bottom log interval
 TLI .F               216:   Top log interval
 CS1 .IN            8.625:   Casing size
 CBD1.      9.625" @ 216':   Casing driller 1
 CBL1.F               216:   Casing logger 1
 BS1 .IN            7.875:   Bit size
 BSD1.F              2970:   Depth drilled with bit1
 DFT .            KCL MUD:   Type fluid in hole
 DFD .                8.8:   Density
 DFV .                 32:   Viscosity
 DFPH.                8.5:   pH
 DFL .                7.4:   Fluid loss
 MSS .               CIRC:   Source of sample
 RMS .OHMM           1.87:   Rm
 MST .F                85:   Rm Meas. temp.
 RMF .OHMM           1.69:   Rmf
 MFST.F                85:   Rmf Meas. temp.
 RMC .OHMM           2.80:   Rmc
 MCST.F                85:   Rmc Meas. temp.
 MFSS.               MEAS:   Source Rmf.
 MCSS.               CALC:   Source Rmc.
 RMB .OHMM           1.43:   Rm. at BHT
 BHT .F               111:   BHT.
 TCS .HRS            1600:   Time Circ. stopped
 TLAB.HRS            0945:   Time logger at bottom
 MRT .F               111:   Maximum recorded temp.
 LUN .               7711:   Logging unit number
 LUL .               CSPR:   Logging unit location
 ENGI.             SAYLER:   Recorded By
 WITN.         HARRINGTON:   Witnessed by
 ORIG.           5" PRINT:   Origin of data
 UWI .     49025103860000:   Unique Well ID
 DICO. A2D TECHNOLOGIES, INC.:   Digitizing Company
~OTHER INFORMATION
~A  DEPTH      SPR       RILM       RILD        LL8        GRD       CALD       RHOB       DRHO
# ...
 2184.5000   -59.6170     9.5260     9.3550    14.2900   135.6030     8.8830     2.4540     0.0200
 2185.0000   -59.6740    10.0840     9.5170    13.0580   137.3400     8.9450     2.4480     0.0270
 2185.5000   -59.7340     9.4640     9.7960    11.1440   138.1210     9.0090     2.4460     0.0330
 2186.0000   -59.7960     8.9050    10.4480    11.8730   135.4260     8.9650     2.4390     0.0260
 2186.5000   -59.8720     8.3460     9.3550    13.3390   129.6010     8.9670     2.4310     0.0270
 2187.0000   -60.0190     7.8450     9.0580    14.1590   130.8570     9.0000     2.4300     0.0180
 2187.5000   -60.1640     7.3780     8.4210    10.6210   133.4150     8.9620     2.4310     0.0310
 2188.0000   -60.3070     6.9100     7.7240     7.4990   138.0700     8.9900     2.4360     0.0240
 2188.5000   -60.4280     6.4420     7.0270     8.6970   142.7840     9.0100     2.4420     0.0150
 2189.0000   -60.6420     5.9740     6.4130    10.2620   147.4810     9.0310     2.4480     0.0200
 2189.5000   -60.8580     5.3020     6.2880    11.1440   150.0420     9.0440     2.4410     0.0200
 2190.0000   -61.0730     4.1210     5.6440     9.4800   152.3630     9.0620     2.4340     0.0140
 2190.5000   -61.2350     4.1560     4.8990     7.0300   152.9370     9.0770     2.4290     0.0080
 2191.0000   -61.2980     4.1980     4.7670     5.0940   151.1000     9.0930     2.4390     0.0160
 2191.5000   -61.3610     3.8900     4.3030     5.3820   153.1980     9.1080     2.4550     0.0250
 2192.0000   -61.4210     3.6230     3.6230     5.5850   156.3850     9.1190     2.4420     0.0300
 2192.5000   -61.6690     3.7300     3.7050     5.0410   154.7310     9.2360     2.4250     0.0440
 2193.0000   -61.9150     3.8740     3.8600     4.4650   152.3620     9.1940     2.4000     0.0330
 2193.5000   -61.9820     4.0090     3.9720     4.0460   151.1640     9.2270     2.4130     0.0300
 2194.0000   -61.9320     4.7800     3.9250     5.1410   146.8500     9.2480     2.4560     0.0620
 2194.5000   -61.8830     5.7950     3.9000     5.4100   143.0680     9.3310     2.5010     0.0760
 2195.0000   -61.8330     5.5630     4.0950     5.8430   139.6620     9.4420     2.5120     0.0480
 2195.5000   -61.7820     5.1760     4.1980     5.3160   135.2060     9.4910     2.5210     0.0270
 2196.0000   -61.7320     4.7880     4.1590     4.6880   133.8330     9.5600     2.5310     0.0310
 2196.5000   -61.6820     4.5190     4.4770     4.8120   133.4450     9.6280     2.5340     0.0310
 2197.0000   -61.6320     4.9050     4.3960     5.0530   133.3130     9.6970     2.5240     0.0370
 2197.5000   -61.5820     5.2010     4.4410     5.2950   130.9100     9.7640     2.5160     0.0260
 2198.0000   -61.5320     5.4330     4.5410     5.5340   126.8590     9.8340     2.5270     0.0170
 2198.5000   -61.4820     5.3760     4.7060     5.4390   122.8380     9.8630     2.5410     0.0210
 2199.0000   -61.4320     5.3190     4.8200     5.3460   118.8350     9.8990     2.5310     0.0190
 2199.5000   -61.4250     5.2620     4.7380     5.2530   115.2980     9.9430     2.5200     0.0180
 2200.0000   -61.5510     5.1880     4.6680     5.1880   114.5480     9.9890     2.5270     0.0330
 2200.5000   -61.6770     5.3580     4.6030     5.4600   112.9400    10.0360     2.5300     0.0270
 2201.0000   -61.8030     5.6760     4.9280     5.7800   111.7320    10.0540     2.5180     0.0150
 2201.5000   -61.9290     5.6290     4.6450     5.7290   110.5240    10.0620     2.5350     0.0170
 2202.0000   -62.0660     5.5360     4.7330     5.6280   109.4840    10.0690     2.5480     0.0320
 2202.5000   -62.2100     5.3960     4.9450     5.4830   111.9050    10.0740     2.5620     0.0580
 2203.0000   -62.3520     5.4920     5.1570     5.6890   114.5080    10.0790     2.5740     0.0520
 2203.5000   -62.5060     5.7920     5.3830     6.0940   115.2840    10.0850     2.5640     0.0400
 2204.0000   -62.6610     6.1810     5.0010     6.4130   113.1770    10.0900     2.5500     0.0290
 2204.5000   -62.8160     6.0620     5.2360     6.1250   110.8170    10.0950     2.5580     0.0240
 2205.0000   -62.9710     5.9020     5.0570     5.9570   113.0930    10.1010     2.5680     0.0320
 2205.5000   -63.1250     6.1970     4.7790     6.3870   116.5600    10.1060     2.5530     0.0300
 2206.0000   -63.2800     6.4720     4.5310     6.6530   120.0250    10.1300     2.5400     0.0400
 2206.5000   -63.4340     5.6680     4.0090     5.5230   121.6410    10.1210     2.5320     0.0590
 2207.0000   -63.5890     4.5190     4.1290     4.5610   115.6410    10.1140     2.5360     0.0250
 2207.5000   -63.7440     4.5330     4.1980     4.5760   112.2680    10.1090     2.5340     0.0010
 2208.0000   -63.8980     4.5610     3.5140     4.6030   111.0450    10.1360     2.5310     0.0090
 2208.5000   -64.0530     4.2450     3.0690     4.3540   113.8070    10.1640     2.5270     0.0140
 2209.0000   -64.2070     3.7000     3.1700     3.8240   115.9830    10.1560     2.5250     0.0140
 2209.5000   -64.3620     3.0690     3.2100     3.1220   117.9540    10.1310     2.5270     0.0180
 2210.0000   -64.5170     3.3760     3.1500     3.3190   118.7520    10.1780     2.5290     0.0200
 2210.5000   -64.5630     3.8600     3.0690     3.7130   119.2980    10.2260     2.5310     0.0170
 2211.0000   -64.5310     4.1390     3.1550     4.1980   121.5850    10.2290     2.5280     0.0170
 2211.5000   -64.4980     3.9000     3.0530     4.0090   124.3330    10.2290     2.5250     0.0070
 2212.0000   -64.4640     3.9720     3.0130     4.0460   127.0820    10.2670     2.5190     0.0080
 2212.5000   -64.4310     3.7760     3.2640     3.8180   129.8220    10.3070     2.4990     0.0030
 2213.0000   -64.3980     3.5240     3.3650     3.5240   131.5550    10.2920     2.4850     0.0080
 2213.5000   -64.3640     3.7240     3.3040     3.7590   130.9700    10.2750     2.4830     0.0130
 2214.0000   -64.3310     3.6230     3.3340     3.6560   128.9370    10.3260     2.4810     0.0160
 2214.5000   -64.2980     4.0250     3.2740     4.2060   126.2980    10.3580     2.4900     0.0120
 2215.0000   -64.2650     3.6900     3.2140     3.7590   123.3810    10.2990     2.4960     0.0160
 2215.5000   -64.2310     3.8310     3.2640     3.8480   119.4550    10.2410     2.5010     0.0150
 2216.0000   -64.1970     4.0460     3.3060     4.1590   115.5680    10.2280     2.4930     0.0090
 2216.5000   -64.1800     3.9250     3.3340     3.9620   113.0990    10.2890     2.4840     0.0060
 2217.0000   -64.1640     3.8090     3.2830     3.8110   116.1000    10.2630     2.4820     0.0050
 2217.5000   -64.1480     3.7240     3.2440     3.9310   119.5030    10.2720     2.4840     0.0030
 2218.0000   -64.1330     3.8040     3.2140     4.0460   124.3130    10.3290     2.4710     0.0060
 2218.5000   -64.1170     3.8570     3.2140     4.0090   123.1350     9.9590     2.4580     0.0120
 2219.0000   -64.1020     3.9000     3.2080     4.0830   120.8010     9.7880     2.4440     0.0200
 2219.5000   -64.0860     3.7750     3.1940     4.0090   120.4810     9.6330     2.4330     0.0290
 2220.0000   -64.0700     3.5890     3.1840     4.0400   116.4880     9.5980     2.4350     0.0350
 2220.5000   -64.0550     3.6800     3.2540     3.9000   117.3080     9.5730     2.4300     0.0280
 2221.0000   -64.0390     3.8500     3.3040     3.9990   119.6710     9.5950     2.4240     0.0180
 2221.5000   -64.0240     4.0090     3.2770     4.1070   123.4410     9.6170     2.4250     0.0240
 2222.0000   -64.0080     3.9200     3.4220     3.9250   125.7760     9.6440     2.4280     0.0340
 2222.5000   -63.9920     3.7850     3.5890     3.6560   125.0950     9.6600     2.4330     0.0400
 2223.0000   -63.9990     3.6510     3.4850     4.0250   125.7070     9.6750     2.4330     0.0440
 2223.5000   -64.0390     3.5260     3.3560     4.4780   126.4590     9.6910     2.4390     0.0510
 2224.0000   -64.0780     3.4180     3.2540     5.0470   126.1110     9.7070     2.4250     0.0410
 2224.5000   -64.1160     3.3110     3.2000     4.6440   125.7300     9.7120     2.4010     0.0310
