~VERSION INFORMATION
 VERS.                2.0:   CWLS LOG ASCII STANDARD - VERSION 2.0
 WRAP.                 NO:   ONE LINE PER DEPTH STEP
~WELL INFORMATION
#MNEM.UNIT      DATA TYPE    INFORMATION
#----------   ------------   ------------------------------
 STRT.F           48.0000:   START DEPTH
 STOP.F         3235.5000:   STOP DEPTH
 STEP.F            0.5000:   STEP LENGTH
 NULL.          -999.2500:   NO VALUE
 COMP.    TESORO PEROLEUM:   COMPANY
 WELL. TESORO P46 T 28 N.P.R. #3-28:   WELL
 FLD .        TEAPOT DOME:   FIELD
 LOC .      S28 T39N R78W:   LOCATION
 CNTY.            NATRONA:   COUNTY
 STAT.            WYOMING:   STATE
 CTRY. UNITED STATES OF AMERICA:   COUNTRY
 SRVC.      DRESSER ATLAS:   SERVICE COMPANY
 DATE.        17-SEP-1975:   LOGDATE
 API .     49025102530000:   API NUMBER
~CURVE INFORMATION
#MNEM.UNIT       API CODE    CURVE DESCRIPTION
#----------   ------------   ------------------------------
 DEPT.F                  :   
 CALD.IN     45 280 60 00:   CALIPER FROM DENSITY LOG
 RHOB.G/C3   45 350 01 00:   BULK DENSITY
 CORR.G/C3   45 356 01 00:   DENSITY CORRECTION
 TEND.LBS    45 635 01 00:   TENSION FORM DENSITY LOG
 NPHI.DEC    42 890 03 00:   NEUTRON POROSITY SANDSTONE
 SPR .MV     07 010 01 00:   SPONTANEOUS POTENTIAL
 ILD .OHMM   07 120 46 00:   DEEP INDUCTION RESISTIVITY
 ILM .OHMM   07 120 44 00:   INDUCTION LOG MEDIUM RESISTIVITY
 SFL .OHMM   07 220 01 00:   SHALLOW FOCUSED LOG RESISTIVITY
 GRD .GAPI   45 310 01 00:   GAMMA RAY FROM DENSITY LOG
~PARAMETER INFORMATION
#MNEM.UNIT          VALUE    DESCRIPTION
#----------   ------------   ------------------------------
 EKB .F         5088.0000:   Kelly bushing
 EGL .F         5075.0000:   Ground level
 TD  .F         3218.0000:   Total depth
 CLNT.            A2DTECH:   Client Code
 SL  . 2310' FWL & 1650' FSL:   Surface Location
 PD  .                 GL:   Permanent Datum
 EPD .F              5075:   Elevation Permanent Datum
 LMF .                 KB:   Log Measured From
 DMF .                 KB:   Drilling Measured From
 DAPD.F                13:   Feet Above Permanent Datum
 DATE.        17-SEP-1975:   Date Logged [DD-MMM-YYYY]
 DD  .F              3218:   Depth driller
 DL  .F              3217:   Depth logger
 BLI .F              3215:   Bottom log interval
 TLI .F               395:   Top log interval
 CS1 .IN            8.625:   Casing size
 CBD1.      8.625" @ 393':   Casing driller 1
 CBL1.F               395:   Casing logger 1
 BS1 .IN            7.875:   Bit size
 BSD1.F              3218:   Depth drilled with bit1
 DFT .           CHEM GEL:   Type fluid in hole
 DFD .                9.5:   Density
 DFV .                 60:   Viscosity
 DFPH.                9.5:   pH
 DFL .                 11:   Fluid loss
 MSS .           FLOWLINE:   Source of sample
 RMS .OHMM           0.55:   Rm
 MST .F                60:   Rm Meas. temp.
 RMF .OHMM           0.48:   Rmf
 MFST.F                62:   Rmf Meas. temp.
 MFSS.               MEAS:   Source Rmf.
 RMC .OHMM            1.6:   Rmc
 MCST.F                62:   Rmc Meas. temp.
 MCSS.               MEAS:   Source Rmc.
 RMB .OHMM            0.3:   Rm. at BHT
 BHT .F               112:   BHT.
 TCS .HRS               5:   Time Circ. stopped
 MRT .F               112:   Maximum recorded temp.
 LUN .               6008:   Logging unit number
 LUL .              GLTTE:   Logging unit location
 ENGI.            MILHOAN:   Recorded By
 WITN.               WOLF:   Witnessed by
 ORIG.           5" PRINT:   Origin of data
 UWI .     49025102530000:   Unique Well ID
 DICO. A2DTECHNOLOGIES,INC.:   Digitizing Company
~OTHER INFORMATION
~A   DEPT     CALD       RHOB       CORR       TEND       NPHI         SPR         ILD        ILM        SFL      GRD   
# ...
 2259.0000     8.9259     2.5346     0.0065  1981.6974     0.3079   -27.2741     2.6144     2.7981     3.6979    87.4218
 2259.5000     8.8827     2.5361     0.0066  1980.2504     0.3051   -27.2669     2.6708     2.8387     3.2632    88.0278
 2260.0000     8.8849     2.5302     0.0098  1978.8041     0.2958   -27.5601     2.7523     2.9202     2.9607    89.9521
 2260.5000     8.9017     2.5310     0.0190  1992.4628     0.2940   -27.5528     2.9056     3.0250     3.1532    90.9112
 2261.0000     8.9184     2.5417     0.0222  1990.6548     0.2945   -27.5470     3.0305     3.1336     3.5015    91.6534
 2261.5000     8.9199     2.5530     0.0238  2019.4192     0.2975   -27.5412     3.1828     3.2460     3.5024    91.4448
 2262.0000     8.9219     2.5607     0.0224  2033.0786     0.2981   -27.3865     3.3660     3.4574     3.5034    90.5262
 2262.5000     8.9236     2.5660     0.0196  2076.9490     0.2956   -27.3807     3.5352     3.7082     3.5784    89.1195
 2263.0000     8.9403     2.5701     0.0214  2075.5291     0.2908   -27.5237     3.7910     3.9223     3.7582    87.2331
 2263.5000     8.9421     2.5745     0.0245  2074.0183     0.2869   -27.5179     4.0372     4.2662     4.0025    85.3468
 2264.0000     8.9589     2.5769     0.0276  2072.5078     0.2772   -27.5119     4.3596     4.5814     4.3225    83.4604
 2264.5000     8.9611     2.5792     0.0338  2040.5889     0.2775   -27.5060     4.6106     4.7456     4.7062    82.0538
 2265.0000     8.9628     2.5838     0.0415  2008.9304     0.2780   -27.3501     4.7424     4.7754     4.9773    80.8716
 2265.5000     8.9646     2.5884     0.0477  1962.1670     0.2801   -27.1955     4.8107     4.6790     5.1137    80.2000
 2266.0000     8.9813     2.5930     0.0478  1945.6144     0.2783   -27.0409     4.8800     4.4588     5.0443    79.5212
 2266.5000     8.9981     2.5939     0.0465  1944.1090     0.2797   -26.8862     4.8820     4.3385     4.8391    78.3545
 2267.0000     8.9998     2.5827     0.0436  1972.9325     0.2884   -26.8804     4.8841     4.2209     4.5781    78.3871
 2267.5000     9.0016     2.5618     0.0422  2001.6976     0.2944   -26.8746     4.8527     4.4652     4.0396    81.5382
 2268.0000     9.0033     2.5400     0.0454  1999.8888     0.2836   -26.8687     4.7877     4.7229     3.7685    83.7298
 2268.5000     9.0051     2.5529     0.0565  1998.4425     0.2799   -26.8629     4.7560     4.7582     4.7774    83.0428
 2269.0000     9.0073     2.5771     0.0457  1996.9785     0.2880   -27.0059     4.7584     4.7275     5.3422    80.4368
 2269.5000     8.9790     2.5907     0.0217  1995.1875     0.2892   -27.3011     4.7604     4.7297     5.3499    77.7900
 2270.0000     8.9508     2.5938     0.0143  1994.1022     0.2889   -27.4604     4.8290     4.7320     5.0554    74.7532
 2270.5000     8.9226     2.5893     0.0130  2007.5526     0.2885   -27.8798     4.8646     4.7348     4.4608    73.1067
 2271.0000     8.8939     2.5872     0.0161  2006.0424     0.2900   -28.1716     4.8329     4.7370     4.9424    74.3387
 2271.5000     8.8811     2.5934     0.0208  2004.5066     0.2984   -28.3160     4.7682     4.6738     5.1309    77.2499
 2272.0000     8.8978     2.5980     0.0240  1987.9155     0.2936   -28.0111     4.6394     4.6114     5.0612    78.7219
 2272.5000     8.8996     2.6019     0.0272  2001.6133     0.2881   -28.0053     4.5773     4.5184     4.5283    79.4742
 2273.0000     8.9023     2.6042     0.0288  1999.8046     0.2854   -27.9995     4.5160     4.4886     4.7559    80.2265
 2273.5000     8.9331     2.6035     0.0290  2013.4640     0.2944   -27.9937     4.5215     4.5542     4.4065    80.9773
 2274.0000     8.9352     2.5982     0.0321  2042.5903     0.2971   -27.9878     4.7125     4.6850     3.9425    81.5176
 2274.5000     8.9520     2.5932     0.0338  2063.3672     0.2867   -27.9820     4.8473     4.9554     4.2284    81.7719
 2275.0000     8.9537     2.5972     0.0355  2069.7878     0.2789   -27.8274     5.0556     5.1691     5.0695    82.0444
 2275.5000     8.9555     2.6022     0.0356  2067.9758     0.2702   -27.6726     5.2002     5.3921     5.6689    81.8290
 2276.0000     8.9572     2.6072     0.0358  2066.2917     0.2681   -27.6667     5.4237     5.4836     5.7902    80.4306
 2276.5000     8.9590     2.6132     0.0359  2049.7390     0.2813   -27.6596     5.5788     5.7867     5.7084    78.7841
 2277.0000     8.9607     2.6193     0.0360  2048.2927     0.2782   -27.6538     5.7383     5.8705     5.4287    79.2965
 2277.5000     8.9629     2.6239     0.0362  2031.7223     0.2740   -27.6480     5.8210     5.9143     5.1840    80.0488
 2278.0000     8.9793     2.6285     0.0363  2014.8262     0.2697   -27.6422     5.9048     5.9171     5.2582    79.5951
 2278.5000     8.9814     2.6301     0.0365  1998.2732     0.2637   -27.6363     5.9072     5.9613     5.8799    77.8954
 2279.0000     8.9982     2.6257     0.0367  1966.6155     0.2662   -27.9281     5.9096     5.9641     6.0900    75.3573
 2279.5000     8.9999     2.6175     0.0368  1965.1685     0.2696   -27.9223     5.9121     5.9670     5.9656    74.9021
 2280.0000     8.9567     2.6168     0.0370  1948.6405     0.2690   -27.9165     5.9145     5.9698     5.5270    77.5816
 2280.5000     8.8980     2.6162     0.0371  1930.3627     0.2666   -27.9107     5.8606     5.9727     5.8454    78.8136
 2281.0000     8.8403     2.6155     0.0357  1900.0443     0.2641   -27.9048     5.8377     5.9755     6.0543    78.3665
 2281.5000     8.7970     2.6141     0.0314  1868.3857     0.2626   -28.1966     5.8407     5.9785     6.0983    75.0409
 2282.0000     8.7838     2.6097     0.0255  1847.1289     0.2623   -28.1893     5.8430     5.9819     6.1000    74.5931
 2282.5000     8.7856     2.6038     0.0211  1835.2810     0.2635   -28.1835     5.8454     5.8205     6.0102    74.1467
 2283.0000     8.7877     2.6001     0.0137  1833.8347     0.2674   -28.1777     5.7666     5.6635     5.7724    74.1805
 2283.5000     8.7745     2.5950     0.0094  1862.5991     0.2670   -27.8742     5.6893     5.4346     5.8148    73.9803
 2284.0000     8.7608     2.5868     0.0035  1876.2585     0.2655   -27.8684     5.5363     5.3614     6.3677    74.0129
 2284.5000     8.7326     2.5779     0.0051  1889.7283     0.2651   -27.5650     5.3868     5.3268     7.3218    73.5658
 2285.0000     8.6898     2.5652     0.0053  1888.1094     0.2663   -27.5591     5.3141     5.3672     7.4780    73.1187
 2285.5000     8.6466     2.5568     0.0115  1886.6624     0.2747   -27.4926     5.3168     5.4072     6.4624    73.1514
 2286.0000     8.6183     2.5496     0.0177  1885.1962     0.2843   -27.2499     5.3934     5.2981     5.1008    77.2620
 2286.5000     8.6205     2.5466     0.0269  1883.4073     0.2821   -26.9464     5.3956     5.1911     5.4703    80.6530
 2287.0000     8.6519     2.5535     0.0361  1882.1753     0.2692   -26.9286     5.3570     5.1218     5.7854    82.6176
 2287.5000     8.6840     2.5769     0.0358  1880.6648     0.2728   -26.6369     5.2520     5.1185     6.0340    83.8781
 2288.0000     8.7157     2.5959     0.0198  1879.0670     0.2764   -26.6299     5.1464     5.0912     6.0779    85.0769
 2288.5000     8.7172     2.5929     0.0139  1877.5001     0.2823   -26.7729     5.1123     5.1298     5.3075    86.0691
 2289.0000     8.7190     2.5869     0.0095  1876.1327     0.2883   -26.7670     5.1149     5.2404     4.9000    86.8214
 2289.5000     8.7210     2.5804     0.0172  1874.6227     0.2859   -26.7612     5.3720     5.4285     5.0402    87.5737
 2290.0000     8.7227     2.5812     0.0249  1873.1116     0.2744   -26.9056     5.6813     5.7021     5.5581    87.6064
 2290.5000     8.7245     2.5843     0.0251  1871.4724     0.2645   -26.8988     5.9255     6.0734     6.2152    87.6390
 2291.0000     8.7262     2.5904     0.0237  1870.0908     0.2611   -27.0413     6.2232     6.4689     7.0475    87.6717
 2291.5000     8.7280     2.5973     0.0208  1868.5800     0.2593   -27.1845     6.4907     6.6546     7.1478    87.4473
 2292.0000     8.7302     2.6011     0.0149  1867.0693     0.2671   -27.4762     6.6763     6.7510     6.3956    84.1470
