~VERSION INFORMATION
 VERS.                2.0:   CWLS LOG ASCII STANDARD - VERSION 2.0
 WRAP.                 NO:   ONE LINE PER DEPTH STEP
~WELL INFORMATION
#MNEM.UNIT      DATA TYPE    INFORMATION
#----------   ------------   ------------------------------
 STRT.F           36.0000:   START DEPTH
 STOP.F         3014.5000:   STOP DEPTH
 STEP.F            0.5000:   STEP LENGTH
 NULL.          -999.2500:   NO VALUE
 COMP.    TESRO PETROLEUM:   COMPANY
 WELL. TESORO N.P.R. "A" #6-21:   WELL
 FLD .             TEAPOT:   FIELD
 LOC .      S21 T39N R78W:   LOCATION
 CNTY.            NATRONA:   COUNTY
 STAT.            WYOMING:   STATE
 CTRY. UNITED STATES OF AMERICA:   COUNTRY
 SRVC.              WELEX:   SERVICE COMPANY
 DATE.        16-JUL-1968:   LOGDATE
 API .     49025100180000:   API NUMBER
~CURVE INFORMATION
#MNEM.UNIT       API CODE    CURVE DESCRIPTION
#----------   ------------   ------------------------------
 DEPT.F                  :   
 SPR .MV     05 010 01 00:   SPONTANEOUS POTENTIAL FROM RES.
 ASN .OHMM   05 041 18 00:   AMPLIFIED SHORT NORMAL 18"
 IL  .OHMM   05 120 00 00:   INDUCTION LOG
 GRD .GAPI   45 310 01 00:   GAMMA RAY FROM DENSITY LOG
 CALD.IN     45 280 60 00:   CALIPER FROM DENSITY LOG
 GDEN.CPS    45 350 30 00:   GAMMA DENS
~PARAMETER INFORMATION
#MNEM.UNIT          VALUE    DESCRIPTION
#----------   ------------   ------------------------------
 EKB .F         5002.0000:   Kelly bushing
 EGL .F         4991.0000:   Ground level
 EDF .F         5001.0000:   Drilling floor
 TD  .F         3025.0000:   Total depth
 DATE.        16-JUL-1968:   Date logged
 CLNT.            A2DTECH:   Client Code
 PD  .                 GL:   Permanent Datum
 EPD .F              4991:   Elevation Permanent Datum
 LMF .                 KB:   Log Measured From
 DMF .                 KB:   Drilling Measured From
 DD  .F              3025:   Depth driller
 DL  .F              3019:   Depth logger
 BLI .F              3014:   Bottom log interval
 TLI .F              2670:   Top log interval
 CS1 .IN            10.75:   Casing size
 CBD1.      10.75" @ 325':   Casing driller 1
 CBL1.F               325:   Casing logger 1
 BS1 .IN                9:   Bit size
 BSD1.F              3025:   Depth drilled with bit1
 DFT .     WATER BASE MUD:   Type fluid in hole
 DFD .                9.7:   Density
 DFV .                 60:   Viscosity
 DFL .                6.4:   Fluid loss
 MSS .              CIRC.:   Source of sample
 RMS .OHMM            2.2:   Rm
 MST .F                84:   Rm Meas. temp.
 RMF .OHMM            1.6:   Rmf
 MFST.F                70:   Rmf Meas. temp.
 RMC .OHMM            3.3:   Rmc
 MCST.F                68:   Rmc Meas. temp.
 MFSS.               MEAS:   Source Rmf.
 RMB .OHMM           1.55:   Rm. at BHT
 BHT .F               120:   BHT.
 MRT .F               120:   Maximum recorded temp.
 LUN .               6869:   Logging unit number
 LUL .                 NC:   Logging unit location
 ENGI.          H. STEITZ:   Recorded By
 WITN.                MAY:   Witnessed by
 ORIG.           5" PRINT:   Origin of data
 UWI .     49025100180000:   Unique Well ID
 DICO. A2D TECHNOLOGIES, INC.:   Digitizing Company
~OTHER INFORMATION
~A   DEPT      SPR        ASN           IL      GRD       CALD       GDEN   
# ...
 2012.0000   -29.3410     4.3760     2.8370    81.4200     9.5940  1308.6150
 2012.5000   -29.5330     4.3290     2.8700    82.9120     9.5950  1268.3230
 2013.0000   -29.7240     4.0280     2.9080    86.5020     9.5960  1244.6320
 2013.5000   -29.9120     4.1040     2.9480    89.0450     9.5970  1276.2140
 2014.0000   -30.0520     4.5230     2.9870    91.3130     9.5990  1302.2860
 2014.5000   -30.1950     4.2740     3.0280    94.3980     9.6000  1282.0470
 2015.0000   -30.1920     3.7990     2.9950    94.9300     9.6010  1296.1010
 2015.5000   -29.9890     3.8130     2.9350    93.9570     9.6020  1324.2100
 2016.0000   -29.7860     4.1060     2.8740    92.3370     9.6030  1324.1550
 2016.5000   -29.8560     4.3620     2.8120    89.8960     9.6040  1275.4470
 2017.0000   -30.2200     4.3680     2.7500    87.5350     9.6050  1234.0850
 2017.5000   -30.5900     4.3320     2.7500    88.7460     9.5980  1176.0439
 2018.0000   -30.5260     4.3930     3.0530    94.5750     9.5910  1187.3521
 2018.5000   -30.3380     4.8180     3.3690    97.1580     9.5850  1199.9010
 2019.0000   -30.1480     5.2570     3.6850    94.6240     9.5780  1196.9180
 2019.5000   -29.9640     5.5400     4.0000    93.7020     9.5710  1149.7340
 2020.0000   -29.6860     5.7240     4.3160    95.1390     9.5640  1115.3280
 2020.5000   -29.7830     6.0500     4.5840    97.0130     9.5580  1103.3051
 2021.0000   -29.8730     6.3760     4.7540    97.8710     9.5510  1107.5220
 2021.5000   -29.9610     6.6530     4.9230    97.1860     9.5440  1111.4310
 2022.0000   -30.0470     6.8710     5.0890    96.4370     9.5370  1111.2290
 2022.5000   -30.1330     7.1080     5.3210    94.3760     9.5310  1113.9890
 2023.0000   -30.2190     7.3810     5.5630    92.2550     9.5240  1115.9561
 2023.5000   -30.2890     7.6340     5.8060    90.9820     9.5170  1112.4150
 2024.0000   -30.3680     8.0720     6.0470    92.1610     9.5100  1110.5551
 2024.5000   -30.4480     8.5240     6.2310    94.3590     9.5040  1117.4540
 2025.0000   -30.5290     8.4810     6.2270    95.7850     9.4990  1124.3540
 2025.5000   -30.6090     8.3470     6.1920    96.3150     9.4940  1120.5140
 2026.0000   -30.6890     8.2140     6.1250    96.7870     9.4880  1114.4139
 2026.5000   -30.7700     8.0780     6.0580    98.5340     9.4830  1119.0699
 2027.0000   -30.8500     8.0580     5.9910    98.2440     9.4770  1123.3600
 2027.5000   -30.9290     8.0810     5.9080    98.5090     9.4720  1121.4960
 2028.0000   -31.0070     8.3570     5.9270    95.9980     9.4690  1117.2800
 2028.5000   -30.9730     8.8330     6.4130    93.3870     9.4790  1114.3400
 2029.0000   -30.6260     9.3090     6.8980    92.2980     9.4880  1121.7810
 2029.5000   -30.2900     9.8100     7.3820    92.8560     9.4980  1129.2220
 2030.0000   -29.9580    10.8050     7.8660    93.0130     9.5070  1136.6620
 2030.5000   -29.6930    11.2530     8.3500    90.6840     9.5170  1121.0341
 2031.0000   -29.8020    11.7810     8.8350    90.4200     9.5260  1124.3540
 2031.5000   -29.9360    12.0390     9.3200    92.4550     9.5360  1114.0760
 2032.0000   -30.1890    12.1000     9.7900    94.7680     9.5460  1105.4080
 2032.5000   -30.4410    12.1640     9.7220    94.5920     9.5460  1093.1200
 2033.0000   -30.6910    12.2770     9.6290    91.0260     9.5460  1077.8220
 2033.5000   -30.8730    12.4650     9.5350    88.2150     9.5460  1066.7000
 2034.0000   -30.8680    12.6530     9.4390    87.6400     9.5460  1085.2000
 2034.5000   -30.8670    12.8450     9.4130    90.0860     9.5460  1080.8630
 2035.0000   -30.8790    12.9840     9.4190    92.8740     9.5460  1076.5270
 2035.5000   -31.2550    13.1100     9.5290    94.9180     9.5460  1079.1660
 2036.0000   -31.6430    13.1600     9.6360    95.9470     9.5460  1086.5811
 2036.5000   -31.6470    13.0190     9.7430    98.3200     9.5460  1095.3290
 2037.0000   -31.3530    12.8820     9.8060   101.1470     9.5460  1105.0270
 2037.5000   -31.0510    12.8670     9.7860   100.5650     9.5460  1114.4139
 2038.0000   -30.7490    13.0530     9.7680   102.2310     9.5460  1123.4080
 2038.5000   -30.4480    13.2360     9.7500   100.2390     9.5460  1128.3300
 2039.0000   -30.1470    13.4190     9.7320   101.7100     9.5460  1121.3160
 2039.5000   -29.8460    13.6030     9.7140   103.7750     9.5460  1107.1490
 2040.0000   -29.5490    13.4780     9.6670   100.8360     9.5460  1097.1420
 2040.5000   -29.3030    13.0200     9.6040    94.0210     9.5460  1090.8180
 2041.0000   -29.4600    12.9500     9.5400    91.0950     9.5460  1084.5920
 2041.5000   -29.6130    12.9050     9.4770    87.3780     9.5460  1084.5920
 2042.0000   -29.7640    13.1100     9.4150    86.2130     9.5460  1092.3260
 2042.5000   -29.9150    13.3310     9.4110    87.3940     9.5460  1101.8831
 2043.0000   -30.0580    13.5520     9.5040    86.2240     9.5460  1106.4611
 2043.5000   -30.2020    13.7730     9.6550    84.6140     9.5460  1103.3730
 2044.0000   -30.2530    13.8960     9.8050    83.5240     9.5460  1101.4910
 2044.5000   -30.2030    13.8990     9.9550    84.8800     9.5460  1110.4370
 2045.0000   -30.1550    13.9960    10.1060    88.1740     9.5460  1107.4550
 2045.5000   -30.1100    14.4480    10.2560    90.9670     9.5460  1117.1400
 2046.0000   -30.2310    14.8670    10.4070    95.9540     9.5480  1134.2939
 2046.5000   -30.2020    15.0070    10.5580   101.3510     9.5500  1158.1510
 2047.0000   -30.0800    14.7320    10.7080   105.9760     9.5520  1169.8610
 2047.5000   -29.9540    14.3930    10.8580   102.0410     9.5540  1175.6810
 2048.0000   -29.8220    14.1880    11.0000    95.7410     9.5560  1169.1030
 2048.5000   -29.6490    14.3000    10.9490    92.1930     9.5580  1162.5260
 2049.0000   -29.3450    14.4710    10.6750    92.8390     9.5600  1155.9480
 2049.5000   -29.2960    14.6450    10.4040    94.1680     9.5620  1151.1930
 2050.0000   -29.2900    14.6780    10.1250    94.1440     9.5640  1151.1930
 2050.5000   -29.2900    14.4680    10.1290    95.3180     9.5660  1152.0730
 2051.0000   -29.2900    14.2640    10.1510    96.5260     9.5650  1151.2430
 2051.5000   -29.2900    14.0620    10.1740    96.5460     9.5640  1159.1450
 2052.0000   -29.2900    13.8890    10.1960    94.4260     9.5630  1152.9420
 2052.5000   -29.2900    13.9220    10.1760    93.9820     9.5620  1141.8210
 2053.0000   -29.2900    13.9930    10.0910    94.2930     9.5620  1130.5540
 2053.5000   -29.2890    13.9930    10.0070    93.7290     9.5610  1136.2570
 2054.0000   -29.2600    13.8070     9.9240    93.4930     9.5600  1137.2760
 2054.5000   -29.2320    13.5940     9.8400    93.2340     9.5590  1135.2880
 2055.0000   -29.2040    13.3830     9.7560    92.2500     9.5580  1145.2290
 2055.5000   -29.1760    13.2010     9.6720    90.5590     9.5580  1138.2040
 2056.0000   -29.1480    12.9310     9.5890    90.2140     9.5570  1146.0900
 2056.5000   -29.1200    12.6600     9.5050    90.8120     9.5560  1151.5510
 2057.0000   -29.0940    12.5220     9.4210    92.8280     9.5550  1151.1930
 2057.5000   -29.0400    12.6390     9.3380    94.6010     9.5540  1134.7200
 2058.0000   -28.9200    12.6910     9.2540    89.3500     9.5540  1096.3361
 2058.5000   -28.8000    12.1340     9.1700    86.1670     9.5530  1079.5430
 2059.0000   -28.6930    12.1020     9.0890    83.8110     9.5520  1068.3010
 2059.5000   -28.8860    12.1010     8.9150    82.2240     9.5510  1049.8010
 2060.0000   -29.1380    12.0930     8.7380    82.9200     9.5510  1057.9189
 2060.5000   -29.3930    11.8500     8.5610    84.4640     9.5500  1066.3020
 2061.0000   -29.4790    11.5850     8.3840    85.7700     9.5490  1072.1110
 2061.5000   -29.4590    11.4550     8.2190    86.0130     9.5480  1082.5670
 2062.0000   -29.4390    11.3710     8.1910    86.3600     9.5470  1093.0229
 2062.5000   -29.4200    11.2890     8.1150    85.9030     9.5470  1103.4790
 2063.0000   -29.4000    11.2070     8.3460    83.2080     9.5490  1103.4790
 2063.5000   -29.3800    11.1210     8.6630    80.3910     9.5530  1077.6340
