~VERSION INFORMATION
 VERS.                2.0:   CWLS LOG ASCII STANDARD - VERSION 2.0
 WRAP.                 NO:   ONE LINE PER DEPTH STEP
~WELL INFORMATION
#MNEM.UNIT      DATA TYPE    INFORMATION
#----------   ------------   ------------------------------
 STRT.F          640.0000:   START DEPTH
 STOP.F         2792.0000:   STOP DEPTH
 STEP.F            0.5000:   STEP LENGTH
 NULL.          -999.2500:   NO VALUE
 COMP.    FENIX & SCISSON:   COMPANY
 WELL.   FENIX SHX #41-11:   WELL
 FLD .        TEAPOT DOME:   FIELD
 LOC .      S11 T38N R78W:   LOCATION
 CNTY.            NATRONA:   COUNTY
 STAT.            WYOMING:   STATE
 CTRY. UNITED STATES OF AMERICA:   COUNTRY
 SRVC.           BIRDWELL:   SERVICE COMPANY
 DATE.        07-JUL-1979:   LOGDATE
 API .     49025107880000:   API NUMBER
~CURVE INFORMATION
#MNEM.UNIT       API CODE    CURVE DESCRIPTION
#----------   ------------   ------------------------------
 DEPT.F                  :   
 CALD.IN     45 280 60 00:   CALIPER FROM DENSITY LOG
 RHOB.G/C3   45 350 01 00:   BULK DENSITY
 CORR.G/C3   45 356 01 00:   DENSITY CORRECTION
 GRD .GAPI   45 310 01 00:   GAMMA RAY FROM DENSITY LOG
~PARAMETER INFORMATION
#MNEM.UNIT          VALUE    DESCRIPTION
#----------   ------------   ------------------------------
 EKB .F         5168.0000:   Kelly bushing
 EGL .F         5158.0000:   Ground level
 EDF .F            0.0000:   Drilling floor
 EPD .F            0.0000:   Permanent datum
 TD  .F         2801.0000:   Total depth
 DATE.        07-JUL-1979:   Date logged
 CLNT.            A2DTECH:   Client Code
 SL  . 95' FNL & 2414' FWL:   Surface Location
 PD  .                 GL:   Permanent Datum
 DAPD.F                10:   Feet Above Permanent Datum
 DD  .F              2801:   Depth driller
 DL  .F              2791:   Depth logger
 BLI .F              2790:   Bottom log interval
 TLI .F               640:   Top log interval
 CS1 .IN            9.625:   Casing size
 CBD1.      9.625" @ 909':   Casing driller 1
 CBL1.F               910:   Casing logger 1
 BS1 .IN             8.75:   Bit size
 BSD1.F              2801:   Depth drilled with bit1
 DFT .                AIR:   Type fluid in hole
 LUN .               2959:   Logging unit number
 LUL .             CASPER:   Logging unit location
 ENGI.         B. RULLINS:   Recorded By
 WITN.           GINSMORE:   Witnessed by
 ORIG.           5" PRINT:   Origin of data
 UWI .     49025107880000:   Unique Well ID
 DICO. A2D TECHNOLOGIES, INC.:   Digitizing Company
~OTHER INFORMATION
~A   DEPT     CALD       RHOB       CORR         GRD  
# ...
 2246.0000     9.6600     2.4680     0.0180   149.6630
 2246.5000     9.6580     2.4650     0.0220   150.9440
 2247.0000     9.6560     2.4610     0.0250   151.0140
 2247.5000     9.6540     2.4610     0.0290   150.6640
 2248.0000     9.6520     2.4680     0.0330   148.4380
 2248.5000     9.6500     2.4690     0.0340   146.2410
 2249.0000     9.6480     2.4640     0.0320   144.9890
 2249.5000     9.6460     2.4550     0.0220   146.4860
 2250.0000     9.6440     2.4450     0.0120   149.2790
 2250.5000     9.6430     2.4350     0.0020   152.1710
 2251.0000     9.6410     2.4340    -0.0040   152.7660
 2251.5000     9.6390     2.4340     0.0010   151.2300
 2252.0000     9.6370     2.4460     0.0090   149.6460
 2252.5000     9.6350     2.4530     0.0180   150.5380
 2253.0000     9.6320     2.4530     0.0260   155.9900
 2253.5000     9.6300     2.4530     0.0290   161.2110
 2254.0000     9.6270     2.4520     0.0330   161.6000
 2254.5000     9.6250     2.4600     0.0500   161.4740
 2255.0000     9.6220     2.4770     0.0700   163.9270
 2255.5000     9.6200     2.4890     0.0830   166.6080
 2256.0000     9.6170     2.4840     0.0740   167.0480
 2256.5000     9.6150     2.4750     0.0570   160.3460
 2257.0000     9.6130     2.4670     0.0440   156.7010
 2257.5000     9.6100     2.4580     0.0460   154.0310
 2258.0000     9.6080     2.4520     0.0540   151.4340
 2258.5000     9.6050     2.4450     0.0530   148.6270
 2259.0000     9.6030     2.4390     0.0500   150.8150
 2259.5000     9.5900     2.4390     0.0460   154.2820
 2260.0000     9.5610     2.4550     0.0490   157.7740
 2260.5000     9.5310     2.4710     0.0570   160.3300
 2261.0000     9.5020     2.4730     0.0620   158.2940
 2261.5000     9.4720     2.4740     0.0570   155.7760
 2262.0000     9.4430     2.4740     0.0460   153.2830
 2262.5000     9.4140     2.4690     0.0340   151.5850
 2263.0000     9.3840     2.4650     0.0220   152.2070
 2263.5000     9.3550     2.4600     0.0110   153.9260
 2264.0000     9.3260     2.4550     0.0100   153.3920
 2264.5000     9.2960     2.4550     0.0140   152.0740
 2265.0000     9.2830     2.4640     0.0180   151.6900
 2265.5000     9.2870     2.4680     0.0180   153.1830
 2266.0000     9.2910     2.4680     0.0190   151.6580
 2266.5000     9.2960     2.4730     0.0290   149.4980
 2267.0000     9.3000     2.4850     0.0400   147.3290
 2267.5000     9.3050     2.4940     0.0440   145.0160
 2268.0000     9.3090     2.4920     0.0420   150.6600
 2268.5000     9.3130     2.4880     0.0370   159.0340
 2269.0000     9.3180     2.4840     0.0320   167.4860
 2269.5000     9.3220     2.4800     0.0270   176.2440
 2270.0000     9.3270     2.4710     0.0220   177.6660
 2270.5000     9.3310     2.4610     0.0170   172.8790
 2271.0000     9.3350     2.4590     0.0120   167.2260
 2271.5000     9.3400     2.4640     0.0100   161.5100
 2272.0000     9.3440     2.4700     0.0110   160.2880
 2272.5000     9.3490     2.4750     0.0110   167.0830
 2273.0000     9.3530     2.4730     0.0120   166.9180
 2273.5000     9.3570     2.4680     0.0120   160.0740
 2274.0000     9.3620     2.4630     0.0120   155.1360
 2274.5000     9.3660     2.4620     0.0100   150.2340
 2275.0000     9.3700     2.4680     0.0110   146.8420
 2275.5000     9.3750     2.4680     0.0170   146.0560
 2276.0000     9.3790     2.4670     0.0180   145.2230
 2276.5000     9.3860     2.4650     0.0150   144.6680
 2277.0000     9.3950     2.4620     0.0110   144.3930
 2277.5000     9.4030     2.4600     0.0080   147.3520
 2278.0000     9.4120     2.4570     0.0070   153.2210
 2278.5000     9.4200     2.4560     0.0060   154.3900
 2279.0000     9.4290     2.4560     0.0050   153.8650
 2279.5000     9.4370     2.4590     0.0030   152.4150
 2280.0000     9.4460     2.4640     0.0020   152.1200
 2280.5000     9.4540     2.4680     0.0060   154.3320
 2281.0000     9.4630     2.4730     0.0110   154.5880
 2281.5000     9.4710     2.4760     0.0160   154.6570
 2282.0000     9.4790     2.4680     0.0140   157.5730
 2282.5000     9.4880     2.4600     0.0100   160.7850
 2283.0000     9.4960     2.4510     0.0070   161.9490
 2283.5000     9.5050     2.4520     0.0040   160.3660
 2284.0000     9.5130     2.4720     0.0060   158.7050
 2284.5000     9.5260     2.4730     0.0170   157.0520
 2285.0000     9.5560     2.4710     0.0220   155.5300
 2285.5000     9.5740     2.4660     0.0240   160.1380
 2286.0000     9.5910     2.4620     0.0310   164.1850
 2286.5000     9.6080     2.4630     0.0390   164.9950
 2287.0000     9.6250     2.4650     0.0420   166.6850
 2287.5000     9.6420     2.4650     0.0440   165.9710
 2288.0000     9.6590     2.4640     0.0450   164.9580
 2288.5000     9.6770     2.4630     0.0520   165.0030
 2289.0000     9.6700     2.4660     0.0540   165.7280
 2289.5000     9.6310     2.4690     0.0470   165.8660
 2290.0000     9.5940     2.4650     0.0410   163.1240
 2290.5000     9.5560     2.4600     0.0340   158.7160
 2291.0000     9.5180     2.4560     0.0280   154.3070
 2291.5000     9.4800     2.4570     0.0290   151.0950
 2292.0000     9.4420     2.4580     0.0340   153.0390
 2292.5000     9.4040     2.4590     0.0380   155.3830
 2293.0000     9.3660     2.4590     0.0420   156.8020
 2293.5000     9.3280     2.4590     0.0460   157.2330
 2294.0000     9.2910     2.4570     0.0500   159.6310
 2294.5000     9.2590     2.4530     0.0520   162.0060
 2295.0000     9.2540     2.4500     0.0530   163.9900
 2295.5000     9.2480     2.4480     0.0380   164.0220
 2296.0000     9.2420     2.4500     0.0210   163.2750
 2296.5000     9.2360     2.4520     0.0200   160.0930
 2297.0000     9.2310     2.4530     0.0200   158.0020
 2297.5000     9.2250     2.4530     0.0190   158.8070
 2298.0000     9.2190     2.4480     0.0130   160.1940
 2298.5000     9.2140     2.4410     0.0070   161.6150
 2299.0000     9.2080     2.4400     0.0010   161.7590
 2299.5000     9.2020     2.4400    -0.0050   159.4580
 2300.0000     9.1900     2.4410    -0.0100   157.2330
 2300.5000     9.1830     2.4420    -0.0090   158.6610
 2301.0000     9.1850     2.4430    -0.0030   159.6130
 2301.5000     9.1880     2.4440     0.0040   159.6540
 2302.0000     9.1910     2.4570     0.0100   155.9550
 2302.5000     9.1930     2.4570     0.0070   148.0450
 2303.0000     9.1960     2.4530     0.0040   146.4880
 2303.5000     9.1990     2.4540     0.0040   156.6410
 2304.0000     9.2010     2.4600     0.0090   164.1350
 2304.5000     9.2040     2.4660     0.0180   170.3070
 2305.0000     9.2060     2.4720     0.0270   174.3540
 2305.5000     9.2090     2.4760     0.0280   175.4340
 2306.0000     9.2120     2.4690     0.0200   174.1910
 2306.5000     9.2140     2.4540     0.0110   175.1720
 2307.0000     9.2170     2.4400     0.0100   177.2860
 2307.5000     9.2190     2.4420     0.0130   179.3710
 2308.0000     9.2390     2.4480     0.0180   181.2540
 2308.5000     9.2650     2.4520     0.0240   181.2860
 2309.0000     9.2910     2.4520     0.0240   180.6510
 2309.5000     9.3170     2.4520     0.0240   178.6190
 2310.0000     9.3430     2.4520     0.0240   176.5630
 2310.5000     9.3630     2.4550     0.0240   172.5850
 2311.0000     9.3680     2.4590     0.0240   166.9380
 2311.5000     9.3730     2.4590     0.0240   161.3760
 2312.0000     9.3780     2.4590     0.0210   161.8350
 2312.5000     9.3840     2.4560     0.0170   163.2760
 2313.0000     9.3890     2.4480     0.0120   161.1000
 2313.5000     9.3940     2.4410     0.0100   157.6630
 2314.0000     9.3990     2.4340     0.0100   154.9900
 2314.5000     9.4050     2.4270     0.0100   155.1000
 2315.0000     9.4100     2.4250     0.0160   164.6720
 2315.5000     9.4150     2.4280     0.0230   171.5840
 2316.0000     9.4200     2.4360     0.0300   172.7430
 2316.5000     9.4190     2.4410     0.0340   172.8460
 2317.0000     9.4160     2.4410     0.0340   171.4940
 2317.5000     9.4130     2.4380     0.0340   165.9160
 2318.0000     9.4110     2.4360     0.0330   161.2880
 2318.5000     9.4080     2.4360     0.0310   162.2610
