~VERSION INFORMATION
 VERS.                2.0:   CWLS LOG ASCII STANDARD - VERSION 2.0
 WRAP.                 NO:   ONE LINE PER DEPTH STEP
~WELL INFORMATION
#MNEM.UNIT      DATA TYPE    INFORMATION
#----------   ------------   ------------------------------
 STRT.F            0.0000:   START DEPTH
 STOP.F         3205.0000:   STOP DEPTH
 STEP.F            0.5000:   STEP LENGTH
 NULL.          -999.2500:   NO VALUE
 COMP. LAWRENCE-ALLISON AND ASSOCIATES:   COMPANY
 WELL. LAWRENCE "X" #64-28:   WELL
 FLD .          N.P.R. #3:   FIELD
 LOC .      S28 T39N R78W:   LOCATION
 CNTY.            NATRONA:   COUNTY
 STAT.            WYOMING:   STATE
 CTRY. UNITED STATES OF AMERICA:   COUNTRY
 SRVC.      DRESSER ATLAS:   SERVICE COMPANY
 DATE.        25-MAY-1986:   LOGDATE
 API .     49025110730000:   API NUMBER
~CURVE INFORMATION
#MNEM.UNIT       API CODE    CURVE DESCRIPTION
#----------   ------------   ------------------------------
 DEPT.F                  :   
 GRR .GAPI   07 310 01 00:   GAMMA RAY FROM RESISTIVITY
 SPR .MV     07 010 01 00:   SPONTANEOUS POTENTIAL
 RILD.OHMM   07 120 46 00:   DEEP INDUCTION RESISTIVITY
 RILM.OHMM   07 120 44 00:   INDUCTION LOG MEDIUM RESISTIVITY
 RSFL.OHMM   07 221 01 00:   AMPPLIFIED SHALLOW FOCUSED LOG RESISTIVITY
 TENR.LBS    07 635 01 00:   TENSION FROM RESISTIVITY
 CNC .DEC    42 890 03 00:   NEUTRON POROSITY SANDSTONE
 CALD.IN     45 280 60 00:   CALIPER FROM DENSITY LOG
 DEN .G/C3   45 350 01 00:   BULK DENSITY
 CORR.G/C3   45 356 01 00:   DENSITY CORRECTION
 TEND.LBS    45 635 01 00:   TENSION FROM DENSITY LOG
~PARAMETER INFORMATION
#MNEM.UNIT          VALUE    DESCRIPTION
#----------   ------------   ------------------------------
 EKB .F         5070.0000:   Kelly bushing
 EGL .F         5058.0000:   Ground level
 TD  .F         3205.0000:   Total depth
 DATE.        25-MAY-1986:   Date logged
 CLNT.            A2DTECH:   Client Code
 SL  . 2248' FNL & 1636' FEL:   Surface Location
 PD  .                 GL:   Permanent Datum
 EPD .F              5058:   Elevation Permanent Datum
 LMF .                 KB:   Log Measured From
 DMF .                 KB:   Drilling Measured From
 DAPD.F                12:   Feet Above Permanent Datum
 DD  .F              3205:   Depth driller
 DL  .F              3203:   Depth logger
 BLI .F              3201:   Bottom log interval
 CS1 .IN            8.625:   Casing size
 CBD1.      8.625" @ 476':   Casing driller 1
 CBL1.F               478:   Casing logger 1
 BS1 .IN            7.875:   Bit size
 BSD1.F              3205:   Depth drilled with bit1
 DFT .        POLYMER-KCL:   Type fluid in hole
 DFD .                  9:   Density
 DFV .                 37:   Viscosity
 DFPH.                8.5:   pH
 DFL .                 10:   Fluid loss
 MSS .           FLOWLINE:   Source of sample
 RMS .OHMM           0.31:   Rm
 MST .F                69:   Rm Meas. temp.
 RMF .OHMM           0.25:   Rmf
 MFST.F                69:   Rmf Meas. temp.
 RMC .OHMM           0.39:   Rmc
 MCST.F                69:   Rmc Meas. temp.
 MFSS.               MEAS:   Source Rmf.
 MCSS.               CALC:   Source Rmc.
 RMB .OHMM           0.19:   Rm. at BHT
 BHT .F               115:   BHT.
 TCS .HRS               4:   Time Circ. stopped
 MRT .F               115:   Maximum recorded temp.
 LUN .            HL-6274:   Logging unit number
 LUL .           GILLETTE:   Logging unit location
 ENGI.             RAUTIO:   Recorded By
 WITN.             STRONG:   Witnessed by
 ORIG.           5" PRINT:   Origin of data
 UWI .     49025110730000:   Unique Well ID
 DICO. A2D TECHNOLOGIES, INC.:   Digitizing Company
~OTHER INFORMATION
~A    DEPT     GRR        SPR       RILD       RILM       RSFL       TENR        CNC       CALD        DEN       CORR       TEND   
# ...
  854.0000    87.9540   -51.3910     7.2980     7.0460     7.8680   -34.8420  -999.2500  -999.2500  -999.2500  -999.2500  -999.2500
  854.5000    92.9340   -50.9750     7.3040     7.0770     7.7860   -33.3960  -999.2500  -999.2500  -999.2500  -999.2500  -999.2500
  855.0000    97.1280   -50.5730     7.4020     7.1280     7.7180   -31.9500  -999.2500  -999.2500  -999.2500  -999.2500  -999.2500
  855.5000   100.1540   -50.4220     7.5140     7.1770     7.6540   -30.5050  -999.2500  -999.2500  -999.2500  -999.2500  -999.2500
  856.0000    98.1120   -50.3820     7.4010     7.1350     7.7980   -29.0590  -999.2500  -999.2500  -999.2500  -999.2500  -999.2500
  856.5000    95.5940   -50.4140     7.2690     7.0950     7.9680   -27.6130  -999.2500  -999.2500  -999.2500  -999.2500  -999.2500
  857.0000    95.1130   -50.5660     7.1370     7.0550     8.0880   -26.1680  -999.2500  -999.2500  -999.2500  -999.2500  -999.2500
  857.5000    92.0380   -50.7680     7.0460     7.0150     7.9400   -27.5700  -999.2500  -999.2500  -999.2500  -999.2500  -999.2500
  858.0000    90.5880   -50.9570     7.1120     6.9750     7.7180   -31.7860  -999.2500  -999.2500  -999.2500  -999.2500  -999.2500
  858.5000    91.6210   -51.1420     7.1770     6.9360     7.5180   -36.0030  -999.2500  -999.2500  -999.2500  -999.2500  -999.2500
  859.0000    92.7430   -51.3440     7.2270     7.0420     7.3180   -40.2200  -999.2500  -999.2500  -999.2500  -999.2500  -999.2500
  859.5000    91.7800   -51.5210     7.3100     7.2720     7.1110   -45.4090  -999.2500  -999.2500  -999.2500  -999.2500  -999.2500
  860.0000    86.1710   -51.4560     7.8680     7.5010     7.1930   -39.8490  -999.2500  -999.2500  -999.2500  -999.2500  -999.2500
  860.5000    83.8150   -51.1840     8.3900     7.7300     7.4110   -32.6200  -999.2500  -999.2500  -999.2500  -999.2500  -999.2500
  861.0000    87.7260   -50.9480     8.4420     7.9600     7.6280   -25.3920  -999.2500  -999.2500  -999.2500  -999.2500  -999.2500
  861.5000    93.0190   -50.6750     8.5060     8.1890     7.8460   -18.1640  -999.2500  -999.2500  -999.2500  -999.2500  -999.2500
  862.0000    97.4660   -50.4100     8.5710     8.4190     8.0140   -22.5220  -999.2500  -999.2500  -999.2500  -999.2500  -999.2500
  862.5000    95.8490   -50.3400     8.6350     8.5460     8.4520   -35.4290  -999.2500  -999.2500  -999.2500  -999.2500  -999.2500
  863.0000    90.2700   -50.2960     8.7000     8.5460     8.7850   -28.2440  -999.2500  -999.2500  -999.2500  -999.2500  -999.2500
  863.5000    88.9360   -50.2200     8.7650     8.5460     8.9210   -19.8100  -999.2500  -999.2500  -999.2500  -999.2500  -999.2500
  864.0000    90.8340   -50.2400     8.8230     8.5460     9.0500   -17.1620  -999.2500  -999.2500  -999.2500  -999.2500  -999.2500
  864.5000    91.9350   -50.2780     8.8780     8.6940     9.1140   -20.6520  -999.2500  -999.2500  -999.2500  -999.2500  -999.2500
  865.0000    92.7970   -50.3560     8.9480     8.8660     9.1140   -24.1410  -999.2500  -999.2500  -999.2500  -999.2500  -999.2500
  865.5000    92.8550   -50.3880     8.9570     8.8410     9.1220   -27.6310  -999.2500  -999.2500  -999.2500  -999.2500  -999.2500
  866.0000    90.6290   -50.1810     8.9690     8.8070     9.1360   -31.1210  -999.2500  -999.2500  -999.2500  -999.2500  -999.2500
  866.5000    89.2940   -49.9200     8.9810     8.7850     9.1500   -35.4290  -999.2500  -999.2500  -999.2500  -999.2500  -999.2500
  867.0000    89.1040   -49.8530     8.9930     8.7850     9.1640   -34.1800  -999.2500  -999.2500  -999.2500  -999.2500  -999.2500
  867.5000    87.9850   -49.9370     9.0050     8.7850     9.1780   -32.5480  -999.2500  -999.2500  -999.2500  -999.2500  -999.2500
  868.0000    87.1360   -50.0430     9.0170     8.7850     9.1930   -30.9160  -999.2500  -999.2500  -999.2500  -999.2500  -999.2500
  868.5000    85.5610   -50.1440     9.0310     8.7080     9.1430   -29.2830  -999.2500  -999.2500  -999.2500  -999.2500  -999.2500
  869.0000    84.0440   -50.2360     8.8950     8.5830     9.0520   -27.6510  -999.2500  -999.2500  -999.2500  -999.2500  -999.2500
  869.5000    85.4180   -50.3440     8.7310     8.4570     8.9480   -26.0190  -999.2500  -999.2500  -999.2500  -999.2500  -999.2500
  870.0000    88.1300   -50.4380     8.5660     8.3310     8.8150   -26.3640  -999.2500  -999.2500  -999.2500  -999.2500  -999.2500
  870.5000    90.7680   -50.5320     8.4010     8.2050     8.6590   -27.7690  -999.2500  -999.2500  -999.2500  -999.2500  -999.2500
  871.0000    94.5900   -50.7630     8.2360     8.0800     8.5020   -29.1750  -999.2500  -999.2500  -999.2500  -999.2500  -999.2500
  871.5000    96.4490   -51.1130     8.0880     7.9540     8.3450   -30.5810  -999.2500  -999.2500  -999.2500  -999.2500  -999.2500
  872.0000    94.3030   -51.5780     8.0200     7.8280     8.2190   -31.9860  -999.2500  -999.2500  -999.2500  -999.2500  -999.2500
  872.5000    94.1270   -51.9530     7.9590     7.7020     8.1610   -33.3920  -999.2500  -999.2500  -999.2500  -999.2500  -999.2500
  873.0000    96.1320   -51.9560     7.8980     7.5760     8.0880   -34.7970  -999.2500  -999.2500  -999.2500  -999.2500  -999.2500
  873.5000    95.7350   -51.7440     7.8370     7.4450     8.0530   -33.7420  -999.2500  -999.2500  -999.2500  -999.2500  -999.2500
  874.0000    95.1410   -51.4120     7.7760     7.4250     8.0060   -30.6750  -999.2500  -999.2500  -999.2500  -999.2500  -999.2500
  874.5000    95.6920   -50.9440     7.7150     7.4040     7.9600   -27.6080  -999.2500  -999.2500  -999.2500  -999.2500  -999.2500
  875.0000    94.5900   -50.6440     7.6540     7.3820     7.9130   -24.5420  -999.2500  -999.2500  -999.2500  -999.2500  -999.2500
  875.5000    92.7760   -50.7520     7.6540     7.3610     7.8680   -21.4750  -999.2500  -999.2500  -999.2500  -999.2500  -999.2500
  876.0000    92.6260   -51.0230     7.6540     7.3390     7.8940   -18.4090  -999.2500  -999.2500  -999.2500  -999.2500  -999.2500
  876.5000    92.6280   -51.2840     7.6540     7.3180     7.9210   -15.4690  -999.2500  -999.2500  -999.2500  -999.2500  -999.2500
  877.0000    93.3780   -51.6060     7.6540     7.2970     7.9400   -21.3240  -999.2500  -999.2500  -999.2500  -999.2500  -999.2500
  877.5000    95.7560   -51.8130     7.5850     7.2750     7.8550   -26.9460  -999.2500  -999.2500  -999.2500  -999.2500  -999.2500
  878.0000    95.6140   -51.7890     7.5310     7.2540     7.7860   -32.5680  -999.2500  -999.2500  -999.2500  -999.2500  -999.2500
  878.5000    94.1250   -51.8180     7.5790     7.2770     7.7240   -38.1900  -999.2500  -999.2500  -999.2500  -999.2500  -999.2500
  879.0000    95.1410   -51.7940     7.6720     7.3460     7.8680   -45.4090  -999.2500  -999.2500  -999.2500  -999.2500  -999.2500
  879.5000    95.9260   -51.3700     7.7660     7.4160     7.9730   -41.7860  -999.2500  -999.2500  -999.2500  -999.2500  -999.2500
  880.0000    96.8730   -50.9500     7.8600     7.4850     8.1200   -36.7270  -999.2500  -999.2500  -999.2500  -999.2500  -999.2500
  880.5000    96.7460   -50.7890     7.9540     7.5550     8.2680   -31.6670  -999.2500  -999.2500  -999.2500  -999.2500  -999.2500
  881.0000    91.9480   -50.8170     7.9760     7.6240     8.3900   -26.6070  -999.2500  -999.2500  -999.2500  -999.2500  -999.2500
  881.5000    89.3380   -50.9890     7.8730     7.6360     8.2110   -21.5470  -999.2500  -999.2500  -999.2500  -999.2500  -999.2500
  882.0000    90.4090   -50.8970     7.7700     7.6060     8.0580   -15.4690  -999.2500  -999.2500  -999.2500  -999.2500  -999.2500
  882.5000    89.6080   -50.8000     7.6680     7.5760     7.9040   -17.3940  -999.2500  -999.2500  -999.2500  -999.2500  -999.2500
  883.0000    89.4540   -51.0320     7.5650     7.5460     7.7240   -19.8030  -999.2500  -999.2500  -999.2500  -999.2500  -999.2500
  883.5000    91.5420   -51.2380     7.4450     7.5160     7.8260   -22.2130  -999.2500  -999.2500  -999.2500  -999.2500  -999.2500
  884.0000    93.5300   -51.4070     7.3610     7.4860     7.9490   -24.6220  -999.2500  -999.2500  -999.2500  -999.2500  -999.2500
