~VERSION INFORMATION
 VERS.                2.0:   CWLS LOG ASCII STANDARD - VERSION 2.0
 WRAP.                 NO:   ONE LINE PER DEPTH STEP
~WELL INFORMATION
#MNEM.UNIT      DATA TYPE    INFORMATION
#----------   ------------   ------------------------------
 STRT.F           11.0000:   START DEPTH
 STOP.F         3368.0000:   STOP DEPTH
 STEP.F            0.5000:   STEP LENGTH
 NULL.          -999.2500:   NO VALUE
 COMP. LAWRENCE ALLISON AND ASSOC.:   COMPANY
 WELL. LAWRENCE NPR "AX" #3-11:   WELL
 FLD .                NPR:   FIELD
 LOC .      S11 T38N R78W:   LOCATION
 CNTY.            NATRONA:   COUNTY
 STAT.            WYOMING:   STATE
 CTRY. UNITED STATES OF AMERICA:   COUNTRY
 SRVC.      DRESSER ATLAS:   SERVICE COMPANY
 DATE.        17-JAN-1986:   LOGDATE
 API .     49025110540000:   API NUMBER
~CURVE INFORMATION
#MNEM.UNIT       API CODE    CURVE DESCRIPTION
#----------   ------------   ------------------------------
 DEPT.F                  :   
 TEND.LBS    45 635 01 00:   TENSION FROM DENSITY LOG
 DEN .G/C3   45 350 01 00:   BULK DENSITY
 CORR.G/C3   45 356 01 00:   DENSITY CORRECTION
 CNC .DEC    42 890 03 00:   NEUTRON PORISITY SANDSTONE
 TENR.LBS    07 635 01 00:   TENSION FROM RESISTIVITY
 CALR.IN     07 280 01 00:   CALIPER FROM RESISTIVITY
 SPR .MV     07 010 01 00:   SPONTANEOUS POTENTIAL
 GRR .GAPI   07 310 01 00:   GAMMA RAY FROM RESISTIVITY
 RFOC.OHMM   07 220 04 00:   RESISTIVITY FOCUSED LOG RES.
 RILD.OHMM   07 120 46 00:   INDUCTION LOG DEEP RESISTIVITY
 RILM.OHMM   07 120 44 00:   INDUCTION LOG MEDIUM RESISTIVITY
 TENS.LBS    60 635 01 00:   TENSION FROM SONIC
 AC  .US/F   60 250 00 00:   ACCOUSTIC
~PARAMETER INFORMATION
#MNEM.UNIT          VALUE    DESCRIPTION
#----------   ------------   ------------------------------
 EKB .F         5195.5000:   Kelly bushing
 EGL .F         5183.2000:   Ground level
 EDF .F         5194.5000:   Drilling floor
 TD  .F         3360.0000:   Total depth
 DATE.        17-JAN-1986:   Date logged
 CLNT.            A2DTECH:   Client Code
 SL  . 2389' FSL & 461'FWL:   Surface Location
 PD  .                 GL:   Permanent Datum
 EPD .F            5183.2:   Elevation Permanent Datum
 LMF .                 KB:   Log Measured From
 DMF .                 KB:   Drilling Measured From
 DAPD.F              12.3:   Feet Above Permanent Datum
 DD  .F              3360:   Depth driller
 DL  .F              3358:   Depth logger
 BLI .F              3356:   Bottom log interval
 TLI .F               575:   Top log interval
 CS1 .IN            8.625:   Casing size
 CBD1.      8.625" @ 575':   Casing driller 1
 CBL1.F               575:   Casing logger 1
 BS1 .IN            7.875:   Bit size
 BSD1.F              3360:   Depth drilled with bit1
 DFT .        POLYMER-KCL:   Type fluid in hole
 DFD .                  9:   Density
 DFV .                 36:   Viscosity
 DFPH.                  9:   pH
 DFL .                9.5:   Fluid loss
 MSS .           FLOWLINE:   Source of sample
 RMS .OHMM           .633:   Rm
 MST .F                68:   Rm Meas. temp.
 RMF .OHMM           .475:   Rmf
 MFST.F                68:   Rmf Meas. temp.
 RMC .OHMM           .791:   Rmc
 MCST.F                68:   Rmc Meas. temp.
 RMB .OHMM            .44:   Rm. at BHT
 BHT .F                98:   BHT.
 TCS .HRS               4:   Time Circ. stopped
 MRT .F                98:   Maximum recorded temp.
 LUN .               6264:   Logging unit number
 LUL .               GLTE:   Logging unit location
 ENGI.             MILLER:   Recorded By
 WITN.             STRONG:   Witnessed by
 ORIG.        2" 5" PRINT:   Origin of data
 UWI .     49025110540000:   Unique Well ID
 DICO. A2D TECHNOLOGIES, INC.:   Digitizing Company
~OTHER INFORMATION
~A   DEPT     TEND        DEN       CORR        CNC       TENR       CALR        SPR         GRR      RFOC       RILD       RILM       TENS         AC   
# ...
 1675.0000  -999.2500  -999.2500  -999.2500  -999.2500  -112.4860     9.2810   -49.6070   100.1020     7.4640     6.3980     6.5710   -85.6370    90.3750
 1675.5000  -999.2500  -999.2500  -999.2500  -999.2500  -113.2200     9.2800   -49.6450   101.5750     7.3690     6.3980     6.5310   -85.4400    90.5730
 1676.0000  -999.2500  -999.2500  -999.2500  -999.2500  -113.9550     9.2720   -49.6820   103.0000     7.2750     6.3710     6.4920   -85.2430    90.7720
 1676.5000  -999.2500  -999.2500  -999.2500  -999.2500  -114.7290     9.2640   -49.7640   103.6670     7.2040     6.3230     6.4530   -85.0460    90.7470
 1677.0000  -999.2500  -999.2500  -999.2500  -999.2500  -108.0880     9.2560   -49.9190   101.5920     7.1770     6.2760     6.4140   -84.8490    90.5770
 1677.5000  -999.2500  -999.2500  -999.2500  -999.2500  -106.6750     9.2480   -50.4530    99.4890     7.1470     6.2280     6.3750   -84.6690    90.4060
 1678.0000  -999.2500  -999.2500  -999.2500  -999.2500  -110.4590     9.2400   -50.8010    97.4720     7.2970     6.1660     6.3390   -82.8660    90.2500
 1678.5000  -999.2500  -999.2500  -999.2500  -999.2500  -114.2440     9.2320   -50.2550    97.1330     7.4160     6.2170     6.4210   -81.2080    90.0090
 1679.0000  -999.2500  -999.2500  -999.2500  -999.2500  -113.9050     9.2240   -49.7240    96.8670     7.3680     6.2920     6.4950   -79.5510    89.7850
 1679.5000  -999.2500  -999.2500  -999.2500  -999.2500  -112.9590     9.2160   -49.1970    96.7990     7.3240     6.3670     6.5700   -77.8930    89.5620
 1680.0000  -999.2500  -999.2500  -999.2500  -999.2500  -112.0120     9.2080   -48.6680    97.9440     7.2800     6.4420     6.6440   -76.2360    89.3500
 1680.5000  -999.2500  -999.2500  -999.2500  -999.2500  -111.0660     9.2070   -48.2160    99.1010     7.3060     6.5170     6.7190   -74.6490    89.5580
 1681.0000  -999.2500  -999.2500  -999.2500  -999.2500  -110.1200     9.2120   -47.9010   100.1140     7.3320     6.5920     6.7930   -75.1680    89.7570
 1681.5000  -999.2500  -999.2500  -999.2500  -999.2500  -109.1740     9.2170   -47.5900   100.9380     7.3740     6.6570     6.8650   -75.6650    89.6390
 1682.0000  -999.2500  -999.2500  -999.2500  -999.2500  -108.2280     9.2230   -47.2790    99.7010     7.4460     6.7060     6.9330   -76.1620    89.2420
 1682.5000  -999.2500  -999.2500  -999.2500  -999.2500  -107.2820     9.2280   -46.9710    96.7630     7.5170     6.7550     7.0020   -76.6600    88.8450
 1683.0000  -999.2500  -999.2500  -999.2500  -999.2500  -106.3360     9.2330   -47.0930    93.9150     7.5890     6.8040     7.0710   -77.1570    88.4480
 1683.5000  -999.2500  -999.2500  -999.2500  -999.2500  -105.3900     9.2380   -47.2760    91.0860     7.6240     6.8530     7.1470   -77.6540    88.0500
 1684.0000  -999.2500  -999.2500  -999.2500  -999.2500  -104.7090     9.2430   -47.6910    87.9280     7.5640     6.8880     7.0810   -78.1510    87.9180
 1684.5000  -999.2500  -999.2500  -999.2500  -999.2500  -104.7090     9.2480   -48.1340    91.3690     7.4410     6.7960     6.9840   -78.6490    87.8740
 1685.0000  -999.2500  -999.2500  -999.2500  -999.2500  -104.7090     9.2530   -48.5150    98.3010     7.3480     6.7100     6.8870   -79.1460    87.9240
 1685.5000  -999.2500  -999.2500  -999.2500  -999.2500  -104.7090     9.2580   -48.8510   102.3430     7.3480     6.6240     6.7900   -79.6430    88.0670
 1686.0000  -999.2500  -999.2500  -999.2500  -999.2500  -104.7090     9.2640   -49.1880   105.2720     7.3480     6.5380     6.6930   -80.1400    88.3150
 1686.5000  -999.2500  -999.2500  -999.2500  -999.2500  -104.7090     9.2780   -49.5260   102.9320     7.3260     6.4520     6.5960   -80.6380    88.6490
 1687.0000  -999.2500  -999.2500  -999.2500  -999.2500  -104.7090     9.2930   -49.8600    99.9520     7.2120     6.3690     6.5000   -81.1350    89.0860
 1687.5000  -999.2500  -999.2500  -999.2500  -999.2500  -104.7090     9.3080   -50.0570    98.3520     7.0980     6.2910     6.3980   -81.6320    89.5220
 1688.0000  -999.2500  -999.2500  -999.2500  -999.2500  -104.7090     9.3230   -49.8770   100.5900     6.9520     6.2320     6.3980   -82.1290    89.9590
 1688.5000  -999.2500  -999.2500  -999.2500  -999.2500  -104.7090     9.3370   -49.7070   102.6880     7.0150     6.3250     6.5120   -82.6270    90.3960
 1689.0000  -999.2500  -999.2500  -999.2500  -999.2500  -104.7090     9.3520   -49.5380   101.6180     7.1020     6.4150     6.5970   -83.1240    90.6500
 1689.5000  -999.2500  -999.2500  -999.2500  -999.2500  -104.7090     9.3670   -49.3690   100.0620     7.1470     6.5050     6.6820   -83.6210    90.5500
 1690.0000  -999.2500  -999.2500  -999.2500  -999.2500  -104.7090     9.3820   -49.1340    98.5000     7.1470     6.5960     6.7670   -84.1180    89.8120
 1690.5000  -999.2500  -999.2500  -999.2500  -999.2500  -105.6900     9.3970   -48.8630    97.9230     7.3870     6.6860     6.8520   -84.6690    88.9980
 1691.0000  -999.2500  -999.2500  -999.2500  -999.2500  -106.8350     9.4100   -48.5920    97.5700     7.6130     6.7470     6.9520   -83.7110    88.1840
 1691.5000  -999.2500  -999.2500  -999.2500  -999.2500  -107.9790     9.4210   -48.3160    97.2010     7.8380     6.8250     6.9420   -82.6360    87.3700
 1692.0000  -999.2500  -999.2500  -999.2500  -999.2500  -109.1230     9.4320   -48.0310    99.0690     7.7280     6.8050     6.9290   -81.5600    86.4500
 1692.5000  -999.2500  -999.2500  -999.2500  -999.2500  -110.2670     9.4430   -47.7080   102.5710     7.6190     6.7550     6.9170   -80.4850    87.0440
 1693.0000  -999.2500  -999.2500  -999.2500  -999.2500  -111.4110     9.4540   -46.5980   106.0370     7.5100     6.7040     6.9040   -79.4100    87.7280
 1693.5000  -999.2500  -999.2500  -999.2500  -999.2500  -112.5550     9.4650   -45.5530   108.0070     7.4080     6.6540     6.8920   -78.3350    88.4120
 1694.0000  -999.2500  -999.2500  -999.2500  -999.2500  -113.6990     9.4760   -46.0480   104.6290     7.3500     6.6040     6.7650   -77.2600    89.0950
 1694.5000  -999.2500  -999.2500  -999.2500  -999.2500  -114.8440     9.4740   -46.6190   100.3550     7.2910     6.5530     6.5850   -76.1850    89.6350
 1695.0000  -999.2500  -999.2500  -999.2500  -999.2500  -115.9880     9.4590   -47.1220    99.6610     7.2330     6.5170     6.6250   -75.1100    89.8870
 1695.5000  -999.2500  -999.2500  -999.2500  -999.2500  -117.1320     9.4430   -47.5460    99.4850     7.1970     6.5410     6.6780   -74.0350    90.1400
 1696.0000  -999.2500  -999.2500  -999.2500  -999.2500  -118.2760     9.4270   -47.9710    98.4870     7.1720     6.5590     6.7300   -72.9590    90.3930
 1696.5000  -999.2500  -999.2500  -999.2500  -999.2500  -119.4200     9.4120   -48.3960    96.3540     7.1470     6.5780     6.7830   -71.8840    90.6450
 1697.0000  -999.2500  -999.2500  -999.2500  -999.2500  -120.5640     9.3960   -48.8220    94.3330     7.2320     6.6390     6.8320   -70.8090    90.9500
 1697.5000  -999.2500  -999.2500  -999.2500  -999.2500  -121.7090     9.3770   -49.0040    95.2180     7.3150     6.6650     6.8640   -69.7340    90.4180
 1698.0000  -999.2500  -999.2500  -999.2500  -999.2500  -122.8530     9.3440   -49.1260    96.0850     7.3980     6.7080     6.8970   -68.6590    89.7490
 1698.5000  -999.2500  -999.2500  -999.2500  -999.2500  -123.9970     9.3120   -49.2480    95.2230     7.4850     6.7520     6.9290   -67.5840    89.0790
 1699.0000  -999.2500  -999.2500  -999.2500  -999.2500  -124.1490     9.2790   -49.2200    93.5970     7.5570     6.7950     6.9620   -66.5090    88.2500
 1699.5000  -999.2500  -999.2500  -999.2500  -999.2500  -122.3940     9.2470   -49.0670    93.8820     7.6140     6.8250     6.9940   -65.4340    88.2500
 1700.0000  -999.2500  -999.2500  -999.2500  -999.2500  -120.6390     9.2130   -48.9140    97.3950     7.5300     6.7910     7.0160   -64.6290    88.5160
 1700.5000  -999.2500  -999.2500  -999.2500  -999.2500  -118.8840     9.2100   -48.7630   100.6200     7.4460     6.7600     6.9150   -65.9240    88.7280
