~VERSION INFORMATION
 VERS.                2.0:   CWLS LOG ASCII STANDARD - VERSION 2.0
 WRAP.                 NO:   ONE LINE PER DEPTH STEP
~WELL INFORMATION
#MNEM.UNIT      DATA TYPE    INFORMATION
#----------   ------------   ------------------------------
 STRT.F            9.5000:   START DEPTH
 STOP.F         3154.0000:   STOP DEPTH
 STEP.F            0.5000:   STEP LENGTH
 NULL.          -999.2500:   NO VALUE
 COMP. LAWRENCE ALISON AND ASSOCIATES:   COMPANY
 WELL. LAWRENCE "X" #86-3:   WELL
 FLD .          N.P.R. #3:   FIELD
 LOC .       S3 T38N R78W:   LOCATION
 CNTY.            NATRONA:   COUNTY
 STAT.            WYOMING:   STATE
 CTRY. UNITED STATES OF AMERICA:   COUNTRY
 SRVC.       DRESSER ALAS:   SERVICE COMPANY
 DATE.        13-JUN-1986:   LOGDATE
 API .     49025110920000:   API NUMBER
~CURVE INFORMATION
#MNEM.UNIT       API CODE    CURVE DESCRIPTION
#----------   ------------   ------------------------------
 DEPT.F                  :   
 CALD.IN     45 280 60 00:   CALIPER FROM DENSITY LOG
 RHOB.G/C3   45 350 01 00:   BULK DENSITY
 CORR.G/C3   45 356 01 00:   DENSITY CORRECTION
 CNC .DEC    42 890 03 00:   NEUTRON PORISITY LIMESTONE
 SPR .MV     07 010 01 00:   SPONTANEOUS POTENTIAL
 GRR .GAPI   07 310 01 00:   GAMMA RAY FROM RESISTIVITY
 RFOC.OHMM   07 220 04 00:   RESISTIVITY FOCUSED LOG RES.
 ILD .OHMM   07 120 46 00:   DEEP INDUCTION RESISTIVITY
 ILM .OHMM   07 120 44 00:   INDUCTION LOG MEDIUM RESISTIVITY
 TENR.LBS    07 635 01 00:   TENSION FROM RESISTIVITY
~PARAMETER INFORMATION
#MNEM.UNIT          VALUE    DESCRIPTION
#----------   ------------   ------------------------------
 EKB .F         5153.0000:   Kelly bushing
 EGL .F         5142.0000:   Ground level
 EDF .F         5151.0000:   Drilling floor
 TD  .F         3151.0000:   Total depth
 DATE.        13-JUN-1986:   Date logged
 CLNT.            A2DTECH:   Client Code
 SL  . 1450' FSL & 144' FEL:   Surface Location
 PD  .                 GL:   Permanent Datum
 EPD .F              5142:   Elevation Permanent Datum
 LMF .                 KB:   Log Measured From
 DMF .                 KB:   Drilling Measured From
 DAPD.F                11:   Feet Above Permanent Datum
 DD  .F              3151:   Depth driller
 DL  .F              3151:   Depth logger
 BLI .F              3146:   Bottom log interval
 TLI .F                11:   Top log interval
 CS1 .IN            8.625:   Casing size
 CBD1.      8.625" @ 584':   Casing driller 1
 CBL1.F               592:   Casing logger 1
 BS1 .IN            7.875:   Bit size
 BSD1.F              3151:   Depth drilled with bit1
 DFT .            KCL-GEL:   Type fluid in hole
 DFD .                8.8:   Density
 DFV .                 35:   Viscosity
 DFPH.                8.5:   pH
 DFL .               15.5:   Fluid loss
 MSS .           FLOWLINE:   Source of sample
 RMS .OHMM           0.49:   Rm
 MST .F                80:   Rm Meas. temp.
 RMF .OHMM           0.38:   Rmf
 MFST.F                80:   Rmf Meas. temp.
 RMC .OHMM           0.61:   Rmc
 MCST.F                80:   Rmc Meas. temp.
 MFSS.               MEAS:   Source Rmf.
 MCSS.               CALC:   Source Rmc.
 RMB .OHMM           0.37:   Rm. at BHT
 BHT .F               112:   BHT.
 TCS .HRS            0.37:   Time Circ. stopped
 MRT .F               112:   Maximum recorded temp.
 LUN .            HL-6274:   Logging unit number
 LUL .           GILLETTE:   Logging unit location
 WITN.             STRONG:   Witnessed by
 ORIG.           5" PRINT:   Origin of data
 UWI .     49025110920000:   Unique Well ID
 DICO. A2D TECHNOLOGIES, INC.:   Digitizing Company
~OTHER INFORMATION
~A    DEPT    CALD       RHOB       CORR        CNC        SPR        GRR       RFOC        ILD        ILM       TENR   
# ...
 3091.5000     8.1220     2.4807     0.0439     0.2473   -43.7075   116.0117     3.7629     3.3193     3.2783   140.7534
 3092.0000     8.1421     2.4858     0.0499     0.2393   -43.6378   114.7967     3.8326     3.4125     3.3910   140.8523
 3092.5000     8.1219     2.4938     0.0620     0.2364   -43.5682   114.3883     4.2029     3.5739     3.4440   140.9514
 3093.0000     8.1218     2.5039     0.0761     0.2251   -43.4985   113.1733     4.5666     3.7086     3.5409   141.0504
 3093.5000     8.1218     2.5169     0.0841     0.2243   -43.4289   113.1672     4.8710     3.9935     3.7345   151.2099
 3094.0000     8.1621     2.5200     0.0741     0.2304   -43.3592   114.3719     4.9157     4.1057     4.0301   151.3088
 3094.5000     8.1626     2.5230     0.0440     0.2308   -43.2896   114.3668     4.6504     4.1051     4.0300   171.5485
 3095.0000     8.1630     2.5200     0.0340     0.2288   -43.2199   114.3617     4.6072     4.2206     4.0672   171.6476
 3095.5000     8.1635     2.5140     0.0340     0.2276   -43.1503   113.5501     4.6067     4.2205     4.0668   171.7466
 3096.0000     8.1640     2.5079     0.0360     0.2337   -43.0806   112.7395     4.6922     4.1042     3.9548   171.8456
 3096.5000     8.1645     2.4999     0.0802     0.2462   -43.0110   112.3311     4.6921     3.9913     3.8106   161.8842
 3097.0000     8.1649     2.4859     0.0983     0.2490   -42.9413   112.3240     4.6055     3.8458     3.6716   172.0437
 3097.5000     8.1654     2.4789     0.1204     0.2491   -42.8717   113.1265     4.5208     3.7054     3.6038   172.1427
 3098.0000     8.1659     2.4799     0.1224     0.2454   -42.8020   112.7181     4.3969     3.6371     3.4725   172.2418
 3098.5000     8.1663     2.4859     0.0983     0.2454   -42.7324   111.9066     4.1214     3.5372     3.4083   182.4012
 3099.0000     8.1668     2.4899     0.0803     0.2503   -42.6627   114.3209     3.9717     3.4719     3.3454   192.5606
 3099.5000     8.1673     2.4899     0.0682     0.2628   -42.5931   116.7331     3.8986     3.4395     3.3451   192.6597
 3100.0000     8.1678     2.4900     0.0522     0.2648   -42.5234   117.9387     3.8983     3.4391     3.3140   192.7587
 3100.5000     8.1682     2.4798     0.0250     0.2561   -42.4538   117.3489     3.9321     3.4388     3.3348   212.9296
 3101.0000  -999.2500     2.4789     0.0040     0.2451   -42.3851   115.1036     4.0439     3.5349     3.3751   202.8541
 3101.5000  -999.2500     2.4799     0.0000     0.2394   -42.3165   114.6941     4.1188     3.5348     3.4062   202.8654
 3102.0000  -999.2500     2.4849     0.0020     0.2362   -42.2479   113.8814     4.1948     3.6004     3.5343   243.1195
 3102.5000  -999.2500     2.4839     0.0261     0.2342   -42.1793   113.8752     4.1561     3.7359     3.6335   212.9456
 3103.0000  -999.2500     2.4779     0.0361     0.2342   -42.1107   114.2721     4.4329     3.8407     3.7007   223.0172
 3103.5000  -999.2500     2.4728     0.0441     0.2366   -42.0421   115.4753     4.6847     3.8404     3.7005   233.0887
 3104.0000  -999.2500     2.4809     0.0080     0.2398   -41.9734   114.6627     4.6841     3.8397     3.7346   233.0987
 3104.5000  -999.2500     2.5140    -0.0402     0.2463   -41.9048   115.4627     4.4312     3.8393     3.7340   233.1087
 3105.0000  -999.2500     2.5361    -0.0583     0.2520   -41.8362   115.4565     4.1533     3.8385     3.7335   233.1187
 3105.5000  -999.2500     2.5431    -0.0302     0.2548   -41.7676   116.2564     4.1146     3.7824     3.6986   253.2539
 3106.0000  -999.2500     2.4919     0.0220     0.2564   -41.6990   116.6533     4.0763     3.7271     3.6302   253.2643
 3106.5000  -999.2500     2.4568     0.0120     0.2496   -41.6304   114.6313     4.0758     3.6725     3.5302   273.4006
 3107.0000  -999.2500     2.4477     0.0000     0.2451   -41.5617   114.2220     4.0379     3.6188     3.4972   273.4115
 3107.5000  -999.2500     2.4477     0.0039     0.2443   -41.4931   115.4250     4.1126     3.5659     3.4328   283.4857
 3108.0000  -999.2500     2.4447     0.0039     0.2460   -41.4245   116.6280     4.1121     3.5289     3.4006   283.4971
 3108.5000  -999.2500     2.4447    -0.0001     0.2475   -41.3559   118.2341     4.1116     3.4959     3.3999   296.6566
 3109.0000  -999.2500     2.4477    -0.0001     0.2532   -41.2873   119.8400     4.0733     3.4632     3.3684   296.8561
 3109.5000  -999.2500     2.4497     0.0019     0.2589   -41.2187   120.2367     4.0728     3.4309     3.3059   297.0557
 3110.0000  -999.2500     2.4497     0.0039     0.2661   -41.1501   119.4242     4.0349     3.4306     3.3056   297.2553
 3110.5000  -999.2500  -999.2500  -999.2500     0.2698   -41.5981   118.6117     3.8880     3.3588     3.1847   303.6813
 3111.0000  -999.2500  -999.2500  -999.2500     0.2738   -41.6012   120.6194     3.7466     3.2886     3.1258   313.7575
 3111.5000  -999.2500  -999.2500  -999.2500     0.2759   -41.6038   121.8221     3.7461     3.2198     3.0967   313.7691
 3112.0000  -999.2500  -999.2500  -999.2500     0.2759   -41.6088  -999.2500     3.7109     3.1248     3.0393   323.8459
 3112.5000  -999.2500  -999.2500  -999.2500     0.2742   -41.6120  -999.2500     3.7106     3.1246     3.0110   303.7269
 3113.0000  -999.2500  -999.2500  -999.2500     0.2690   -41.6152  -999.2500     3.6423     3.0105     2.9279   303.7387
 3113.5000  -999.2500  -999.2500  -999.2500     0.2662   -41.6183  -999.2500     3.6418     3.0103     2.8472   303.7502
 3114.0000  -999.2500  -999.2500  -999.2500     0.2650   -41.6215  -999.2500     3.5418     2.9547     2.8207   313.8299
 3114.5000  -999.2500  -999.2500  -999.2500     0.2755   -40.7201  -999.2500     3.5414     2.8999     2.7684   323.9078
 3115.0000  -999.2500  -999.2500  -999.2500     0.2811   -40.6979  -999.2500     3.4442     2.8462     2.6921   323.9196
 3115.5000  -999.2500  -999.2500  -999.2500     0.2807   -40.6757  -999.2500     3.3188     2.7934     2.6918   323.9314
 3116.0000  -999.2500  -999.2500  -999.2500     0.2771   -39.8250  -999.2500     3.1801     2.7416     2.6913   354.1438
 3116.5000  -999.2500  -999.2500  -999.2500     0.2642   -39.8257  -999.2500     3.1682     2.6908     2.6911   364.2232
 3117.0000  -999.2500  -999.2500  -999.2500     0.2634   -39.8295  -999.2500     3.2568     2.6410     2.6909   374.3031
 3117.5000  -999.2500  -999.2500  -999.2500     0.2610   -39.7759  -999.2500     3.3790     2.5920     2.6903   384.3833
 3118.0000  -999.2500  -999.2500  -999.2500     0.2610   -39.7224  -999.2500     3.4735     2.5207     2.6651   384.3968
 3118.5000  -999.2500  -999.2500  -999.2500     0.2521   -39.6689  -999.2500     3.3471     2.5205     2.6402   384.4098
 3119.0000  -999.2500  -999.2500  -999.2500     0.2141   -39.6153  -999.2500     3.2551     2.5202     2.5913   384.4228
 3119.5000  -999.2500  -999.2500  -999.2500     0.1915   -39.5618  -999.2500     3.1078     2.4951     2.5433   394.5041
 3120.0000  -999.2500  -999.2500  -999.2500     0.2077   -39.5082  -999.2500     3.1074     2.4702     2.5430   394.5174
 3120.5000  -999.2500  -999.2500  -999.2500     0.2311   -39.4547  -999.2500     3.0784     2.4456     2.5193   394.5305
 3121.0000  -999.2500  -999.2500  -999.2500     0.2327   -39.4011  -999.2500     3.1066     2.4212     2.4726   404.6126
 3121.5000  -999.2500  -999.2500  -999.2500     0.2327   -39.3476  -999.2500     3.1062     2.3970     2.4494   414.7033
 3122.0000  -999.2500  -999.2500  -999.2500     0.2335   -39.2940  -999.2500     3.0772     2.3731     2.4265   434.8528
 3122.5000  -999.2500  -999.2500  -999.2500  -999.2500   -39.2405  -999.2500     3.0204     2.3495     2.4262   444.9279
 3123.0000  -999.2500  -999.2500  -999.2500  -999.2500   -39.1870  -999.2500     2.9647     2.3260     2.4034   455.0122
 3123.5000  -999.2500  -999.2500  -999.2500  -999.2500   -39.1334  -999.2500     2.8832     2.3028     2.4031   444.9597
 3124.0000  -999.2500  -999.2500  -999.2500  -999.2500   -39.0799  -999.2500     2.9368     2.2938     2.3806   444.9739
 3124.5000  -999.2500  -999.2500  -999.2500  -999.2500   -39.0263  -999.2500     3.0189     2.2307     2.3365   455.0584
