~VERSION INFORMATION
 VERS.                2.0:   CWLS LOG ASCII STANDARD - VERSION 2.0
 WRAP.                 NO:   ONE LINE PER DEPTH STEP
~WELL INFORMATION
#MNEM.UNIT      DATA TYPE    INFORMATION
#----------   ------------   ------------------------------
 STRT.F          470.0000:   START DEPTH
 STOP.F         3791.5000:   STOP DEPTH
 STEP.F            0.5000:   STEP LENGTH
 NULL.          -999.2500:   NO VALUE
 COMP.    FENIX & SCISSON:   COMPANY
 WELL.   FENIX MDX #44-10:   WELL
 FLD .                NPR:   FIELD
 LOC .      S10 T38N R78W:   LOCATION
 CNTY.            NATRONA:   COUNTY
 STAT.            WYOMING:   STATE
 CTRY. UNITED STATES OF AMERICA:   COUNTRY
 SRVC.       SCHLUMBERGER:   SERVICE COMPANY
 DATE.        25-OCT-1977:   LOGDATE
 API .     49025104310000:   API NUMBER
~CURVE INFORMATION
#MNEM.UNIT       API CODE    CURVE DESCRIPTION
#----------   ------------   ------------------------------
 DEPT.F                  :   
 DT  .US/F   60 520 00 00:   DELTA TIME
 SPR .MV     11 010 01 00:   SPONTANEOUS POTENTIAL FROM RES.
 LLS .OHMM   11 220 09 00:   LATEROLOG LOG SHALLOW
 LLD .OHMM   11 220 10 00:   LATEROLOG LOG DEEP
 MSFL.OHMM   11 270 04 00:   MICRO SPHERICALLY FOCUSED
 NPOR.DEC    42 890 03 00:   ALPHA PROCESSED NEUTRON POROSITY
 RHOB.G/C3   45 350 01 00:   BULK DENSITY
 CORR.G/C3   45 356 01 00:   DENSITY CORRECTION
 GRD .GAPI   45 310 01 00:   GAMMA RAY FROM DENSITY LOG
 CALD.IN     45 280 60 00:   CALIPER FROM DENSITY LOG
~PARAMETER INFORMATION
#MNEM.UNIT          VALUE    DESCRIPTION
#----------   ------------   ------------------------------
 EKB .F         5239.0000:   Kelly bushing
 EGL .F         5229.0000:   Ground level
 EDF .F            0.0000:   Drilling floor
 EPD .F           10.0000:   Permanent datum
 TD  .F         3802.0000:   Total depth
 DATE.        25-OCT-1977:   Date logged
 CLNT.            A2DTECH:   Client Code
 SL  . 2640' FNL & 2640' FEL:   Surface Location
 PD  .                 GL:   Permanent Datum
 DD  .F              3802:   Depth driller
 DL  .F              3791:   Depth logger
 BLI .F              3789:   Bottom log interval
 TLI .F               505:   Top log interval
 CS1 .IN            8.625:   Casing size
 CBD1.       8.625 @ 505':   Casing driller 1
 CBL1.F               505:   Casing logger 1
 BS1 .IN            7.875:   Bit size
 DFT .            KCL MUD:   Type fluid in hole
 DFD .                9.1:   Density
 DFV .                 45:   Viscosity
 DFPH.               10.5:   pH
 DFL .                  8:   Fluid loss
 MSS .             MUDPIT:   Source of sample
 RMS .OHMM           .209:   Rm
 MST .F                72:   Rm Meas. temp.
 RMF .OHMM           .179:   Rmf
 MFST.F                72:   Rmf Meas. temp.
 RMC .OHMM           .314:   Rmc
 MCST.F                72:   Rmc Meas. temp.
 MFSS.               MEAS:   Source Rmf.
 RMB .OHMM           .122:   Rm. at BHT
 BHT .F               123:   BHT.
 TCS .HRS            1400:   Time Circ. stopped
 MRT .F               123:   Maximum recorded temp.
 LUN .               5642:   Logging unit number
 LUL .               CSPR:   Logging unit location
 ENGI.             SAYLER:   Recorded By
 WITN.         PETTINGILL:   Witnessed by
 ORIG.           5" PRINT:   Origin of data
 UWI .     49025104310000:   Unique Well ID
 DICO. A2D TECHNOLOGIES, INC.:   Digitizing Company
 DAPD.                 10:   Feet Above Permanent Datum
 BSD1.               3802:   Depth drilled with bit1
 MCSS.               CALC:   Source Rmc.
~OTHER INFORMATION
~A   DEPT        DT       SPR        LLS        LLD       MSFL       NPOR       RHOB       CORR        GRD       CALD   
# ...
 3116.5000    94.4300   -56.7590     7.5970     4.9940     8.1480     0.3090     2.4740     0.0130   141.8160     8.4510
 3117.0000    96.2500   -56.4950     7.7810     5.3100    11.5620     0.3120     2.4630     0.0050   140.9820     8.4510
 3117.5000    95.9500   -56.2300     7.6190     5.6270    11.5620     0.3100     2.4800     0.0170   137.5090     8.4500
 3118.0000    94.6750   -55.9620     7.4990     5.8480     9.8860     0.2990     2.4930    -0.0020   134.1490     8.4500
 3118.5000    93.2220   -55.7080     7.4990     5.6580     9.7960     0.2730     2.4960    -0.0040   129.9990     8.4350
 3119.0000    91.7280   -55.4530     7.8150     5.5850     9.9320     0.2550     2.4960    -0.0050   124.8870     8.4170
 3119.5000    91.2500   -55.1960     8.1660     6.2620    10.2420     0.2530     2.4930     0.0160   119.8010     8.4230
 3120.0000    89.0920   -54.9390     8.5170     7.0050    10.6190     0.2560     2.4920    -0.0040   114.7710     8.4430
 3120.5000    87.5490   -54.6830     8.8680     7.2950    10.9960     0.2480     2.4980     0.0170   110.8580     8.4620
 3121.0000    86.5700   -54.4260     9.1840     7.3630    11.3730     0.2400     2.5100     0.0080   110.9310     8.4820
 3121.5000    84.1580   -54.1690     9.1840     7.2130    11.5620     0.2320     2.5240     0.0200   110.8830     8.5020
 3122.0000    82.8730   -53.9130     9.1840     7.0310    11.1870     0.2300     2.5170     0.0200   112.1170     8.5210
 3122.5000    83.0600   -53.6550     8.6320     6.5210    10.6390     0.2300     2.5070     0.0010   115.5280     8.5410
 3123.0000    83.0640   -53.3990     8.1310     6.1570    10.0910     0.2300     2.4980     0.0160   119.4260     8.5600
 3123.5000    82.8980   -53.1620     7.6290     6.0120     9.5430     0.2330     2.5050     0.0010   122.3860     8.5690
 3124.0000    83.1450   -53.1320     7.1280     5.4220     9.1840     0.2380     2.5140     0.0230   122.3080     8.5690
 3124.5000    83.5600   -53.0930     6.7770     5.0470     9.9080     0.2430     2.5180     0.0080   122.0880     8.5690
 3125.0000    84.1710   -53.0530     6.7150     5.1390    10.8400     0.2480     2.5130     0.0210   121.8670     8.5690
 3125.5000    85.2390   -53.0140     6.8920     5.4480    10.6070     0.2530     2.5070     0.0000   121.6490     8.5690
 3126.0000    85.6690   -52.9740     7.0560     5.7560     9.8300     0.2640     2.5030     0.0170   121.2470     8.5690
 3126.5000    86.3380   -52.9350     7.2200     6.0000     9.3550     0.2500     2.5120     0.0120   120.4640     8.5690
 3127.0000    86.7580   -52.8950     7.3850     6.2380     9.7040     0.2460     2.5180    -0.0040   119.6860     8.5690
 3127.5000    86.5680   -52.8550     7.4990     6.2380    10.2030     0.2490     2.5150     0.0180   118.9380     8.5690
 3128.0000    86.3780   -52.8140     7.4210     6.2380    10.3520     0.2510     2.5090     0.0110   118.2300     8.5690
 3128.5000    86.1890   -52.7680     7.3610     6.2380     9.7780     0.2440     2.5140     0.0210   117.5350     8.5660
 3129.0000    86.0950   -52.9850     7.2950     6.2380     9.2560     0.2380     2.5230     0.0080   115.7320     8.5600
 3129.5000    86.2500   -53.2230     7.2950     6.2380     9.1000     0.2390     2.5140     0.0190   114.0870     8.5550
 3130.0000    85.4170   -53.4610     7.5480     6.5540     9.7200     0.2400     2.5050     0.0220   116.6930     8.5490
 3130.5000    85.4780   -53.6990     8.0550     7.0710    10.4100     0.2420     2.5050     0.0050   119.1230     8.5440
 3131.0000    85.9500   -53.9370     8.5620     7.5870    11.0990     0.2430     2.5070     0.0200   117.2140     8.5380
 3131.5000    85.6010   -54.1740     9.0690     8.1040    11.7890     0.2400     2.5080     0.0010   115.0100     8.5320
 3132.0000    85.1500   -54.4120     9.5750     8.6210    12.5550     0.2340     2.5120     0.0130   116.2840     8.5150
 3132.5000    84.3350   -54.6500    10.0820     9.1370    14.4820     0.2280     2.5200    -0.0030   118.8470     8.4890
 3133.0000    83.5500   -54.8880    10.5890     9.7060    17.6190     0.2210     2.5270     0.0180   117.7860     8.4620
 3133.5000    83.2270   -55.1290    10.8400     9.7960    19.1880     0.2160     2.5340     0.0000   116.4270     8.4350
 3134.0000    82.2370   -55.3680    10.8400     9.1370    16.4540     0.2060     2.5260     0.0130   116.3760     8.4110
 3134.5000    80.6200   -55.6100     8.8210     7.1620    11.6870     0.1930     2.5350    -0.0020   119.2740     8.4350
 3135.0000    79.3750   -55.8530     7.8740     6.5650     9.8570     0.1850     2.5250     0.0140   121.5100     8.4630
 3135.5000    78.8100   -56.0960     7.3260     6.0220     9.2850     0.1820     2.5230     0.0170   123.6440     8.4910
 3136.0000    78.6500   -56.3390     6.9640     5.5090     8.7300     0.2020     2.5350     0.0040   125.8800     8.5200
 3136.5000    80.8260   -56.5810     6.6530     5.4750     8.6900     0.2260     2.5190     0.0210   128.1560     8.5330
 3137.0000    84.0500   -56.8240     6.6080     5.4470     8.8130     0.2440     2.5060     0.0050   130.1110     8.5420
 3137.5000    85.6500   -57.0670     6.5170     5.4330     9.0160     0.2620     2.4880    -0.0010   132.0440     8.5510
 3138.0000    87.0200   -57.3110     6.3660     5.2490     8.6410     0.2740     2.5020    -0.0040   129.4080     8.5600
 3138.5000    88.1980   -57.5490     6.1540     4.8820     8.0560     0.2720     2.5030     0.0100   128.0050     8.5690
 3139.0000    89.0840   -57.7130     5.9430     4.4770     7.4710     0.2730     2.5010    -0.0040   128.2030     8.5780
 3139.5000    89.3460   -57.9240     5.7950     4.3960     7.2950     0.2760     2.4950     0.0190   128.4210     8.5870
 3140.0000    88.7860   -57.9200     5.8150     4.4750     7.4900     0.2790     2.4880     0.0010   131.0280     8.5960
 3140.5000    89.9180   -57.9250     5.8820     4.6330     7.8780     0.2840     2.4810     0.0270   132.2960     8.6050
 3141.0000    92.3500   -57.7730     5.9020     4.7760     8.0730     0.2900     2.4700     0.0150   131.4910     8.6070
 3141.5000    92.7740   -57.6080     5.7060     4.7760     7.6960     0.2910     2.4760     0.0270   128.4790     8.6040
 3142.0000    92.7850   -57.4420     5.5280     4.4540     7.3530     0.2870     2.4890     0.0240   126.5350     8.6000
 3142.5000    92.0610   -57.2770     5.3490     4.2390     7.0110     0.2690     2.4900     0.0110   127.3420     8.5970
 3143.0000    91.3880   -57.1240     5.1880     4.0460     6.7150     0.2680     2.4820     0.0200   129.0960     8.5930
 3143.5000    91.1500   -57.1520     5.1880     4.0460     6.7150     0.2770     2.4710     0.0040   130.8290     8.5900
 3144.0000    91.9020   -57.1850     5.5910     4.2430     7.9990     0.2890     2.4490     0.0210   130.0680     8.5750
 3144.5000    93.4220   -57.2180     5.9130     4.6500     7.9440     0.3020     2.4520     0.0000   129.1770     8.5590
 3145.0000    93.8500   -57.2510     6.2350     5.0560     7.9260     0.3120     2.4580     0.0020   127.3870     8.5430
 3145.5000    93.7090   -57.2840     6.5570     5.4630     8.6890     0.3070     2.4630     0.0170   125.2080     8.5270
 3146.0000    93.3290   -57.3180     7.8410     6.2070     9.6750     0.2840     2.4670     0.0020   121.4360     8.5120
 3146.5000    92.3500   -57.3230     8.7710     7.0960    10.6610     0.2540     2.4760     0.0190   117.6300     8.4940
 3147.0000    90.6500   -57.4340     8.3460     7.3630    11.3510     0.2460     2.4880     0.0100   116.4270     8.5020
 3147.5000    89.1900   -57.5540     7.9600     6.9310    10.5540     0.2360     2.5000     0.0290   116.5220     8.5100
 3148.0000    86.7080   -57.6750     7.5730     6.4520     9.5290     0.2250     2.5130     0.0460   119.4850     8.5170
 3148.5000    83.5500   -57.7950     7.1870     5.9720     9.5290     0.2210     2.5470     0.0530   122.7180     8.5250
 3149.0000    82.8500   -57.9150     6.8400     5.5850     9.6730     0.2260     2.5460     0.0390   124.6640     8.5340
 3149.5000    84.0500   -58.0330     6.8500     5.5850     9.8330     0.2350     2.5270     0.0500   126.6070     8.5500
