~VERSION INFORMATION
 VERS.                2.0:   CWLS LOG ASCII STANDARD - VERSION 2.0
 WRAP.                 NO:   ONE LINE PER DEPTH STEP
~WELL INFORMATION
#MNEM.UNIT      DATA TYPE    INFORMATION
#----------   ------------   ------------------------------
 STRT.F           46.5000:   START DEPTH
 STOP.F         3160.0000:   STOP DEPTH
 STEP.F            0.5000:   STEP LENGTH
 NULL.          -999.2500:   NO VALUE
 COMP. LAWRENCE ALLISON & WEST:   COMPANY
 WELL. LAWRENCE NPR 3 "AX" #42-34:   WELL
 FLD .                NPR:   FIELD
 LOC .      S34 T39N R78W:   LOCATION
 CNTY.            NATRONA:   COUNTY
 STAT.            WYOMING:   STATE
 CTRY. UNITED STATES OF AMERICA:   COUNTRY
 SRVC.      WESTERN ATLAS:   SERVICE COMPANY
 DATE.        19-OCT-1987:   LOGDATE
 API .     49025111830000:   API NUMBER
~CURVE INFORMATION
#MNEM.UNIT       API CODE    CURVE DESCRIPTION
#----------   ------------   ------------------------------
 DEPT.F                  :   
 CALD.IN     45 280 60 00:   CALIPER FROM DENSITY LOG
 DEN .LBS    45 635 01 00:   BUCK DENSITY
 CORR.G/C3   45 356 01 00:   DENSITY CORRECTION
 NPOR.DEC    42 890 03 00:   ALPHA PROCESSED NEUTRON POROSITY
 SPR .MV     07 010 01 00:   SPONTANEOUS POTENTIAL
 GRR .GAPI   07 310 01 00:   GAMMA RAY FROM RESISTIVITY
 RFOC.OHMM   07 220 04 00:   RESISTIVITY FOCUSED LOG RES.
 RILD.OHMM   07 120 46 00:   DEEP INDUCTION RESISTIVITY
 RILM.OHMM   07 120 44 00:   INDUCTION LOG MEDIUM RESISTIVITY
 TENR.LBS    07 635 01 00:   TENSION FROM RESISTIVITY
~PARAMETER INFORMATION
#MNEM.UNIT          VALUE    DESCRIPTION
#----------   ------------   ------------------------------
 EKB .F         5088.0000:   Kelly bushing
 EGL .F         5077.0000:   Ground level
 EDF .F         5087.0000:   Drilling floor
 TD  .F         3151.0000:   Total depth
 DATE.        19-OCT-1987:   Date logged
 CLNT.            A2DTECH:   Client Code
 SL  . 1032' FNL & 2316' FWL:   Surface Location
 PD  .                 GL:   Permanent Datum
 EPD .F              5077:   Elevation Permanent Datum
 LMF .                 KB:   Log Measured From
 DMF .                 KB:   Drilling Measured From
 DAPD.F                11:   Feet Above Permanent Datum
 DD  .F              3151:   Depth driller
 DL  .F              3151:   Depth logger
 BLI .F              3149:   Bottom log interval
 TLI .F                50:   Top log interval
 CS1 .IN            8.625:   Casing size
 CBD1.      8.625" @ 693':   Casing driller 1
 CBL1.F               693:   Casing logger 1
 BS1 .IN            7.875:   Bit size
 BSD1.F              3151:   Depth drilled with bit1
 DFT .        KCL/POLYMER:   Type fluid in hole
 DFD .                9.2:   Density
 DFV .                 53:   Viscosity
 DFPH.                9.5:   pH
 DFL .               11.8:   Fluid loss
 MSS .            MUD/PIT:   Source of sample
 RMS .OHMM           .441:   Rm
 MST .F                66:   Rm Meas. temp.
 RMF .OHMM           .336:   Rmf
 MFST.F                66:   Rmf Meas. temp.
 RMC .OHMM           .711:   Rmc
 MCST.F                66:   Rmc Meas. temp.
 MFSS.               MEAS:   Source Rmf.
 MCSS.               MEAS:   Source Rmc.
 RMB .OHMM           .244:   Rm. at BHT
 BHT .F               119:   BHT.
 TCS .HRS               3:   Time Circ. stopped
 MRT .F               119:   Maximum recorded temp.
 LUN .            HL-6343:   Logging unit number
 LUL .               CODY:   Logging unit location
 ENGI.               JULL:   Recorded By
 WITN.             STRONG:   Witnessed by
 ORIG.           5" PRINT:   Origin of data
 UWI .     49025111830000:   Unique Well ID
 DICO. A2D TECHNOLOGIES, INC.:   Digitizing Company
~OTHER INFORMATION
~A   DEPT     CALD        DEN       CORR       NPOR        SPR         GRR      RFOC       RILD       RILM       TENR   
# ...
 2492.0000     8.2999     2.5332    -0.0310     0.2511   -25.6334   117.9593     7.7149     6.1140     6.0762   -53.2392
 2492.5000     8.3394     2.5372    -0.0209     0.2551   -25.8405   119.9730     7.5698     6.1688     6.0739   -73.1149
 2493.0000     8.3116     2.5391    -0.0129     0.2600   -25.6437   119.9638     7.2909     6.2826     6.0716   -72.7682
 2493.5000     8.2967     2.5421     0.0173     0.2592   -25.4460   119.9547     7.0880     6.1078     6.0696   -82.5328
 2494.0000     8.3360     2.5471     0.0193     0.2552   -25.4507   120.3504     7.1520     6.1058     6.0681   -61.9638
 2494.5000     8.2950     2.5501     0.0192     0.2504   -25.8594   120.7462     7.3520     6.1039     6.0661   -81.8395
 2495.0000     8.3119     2.5511     0.0029     0.2484   -26.4724   118.7125     7.4184     6.0454     6.0638   -81.4929
 2495.5000     8.2722     2.5531    -0.0012     0.2476   -26.8801   114.6545     7.3474     5.9875     6.0615   -81.0770
 2496.0000     8.2712     2.5550     0.0068     0.2537   -27.4940   114.2405     7.0767     5.9856     6.0202   -70.6192
 2496.5000     8.3113     2.5570     0.0229     0.2545   -27.2963   114.6363     7.0745     5.9837     5.9462   -70.2726
 2497.0000     8.3296     2.5580     0.0269     0.2501   -27.0985   116.2467     7.0063     5.9260     5.9439   -69.9260
 2497.5000     8.3286     2.5579     0.0490     0.2521   -26.9008   120.6913     7.0695     5.8149     5.8870   -69.5793
 2498.0000     8.3477     2.5609     0.0590     0.2558   -26.7031   125.9436     7.0672     5.8131     5.8851   -69.2327
 2498.5000     8.3465     2.5598     0.0650     0.2558   -26.7087   127.9587     7.0650     5.8112     5.8832   -68.8861
 2499.0000     8.3254     2.5537     0.0589     0.2562   -26.9158   122.2814     7.0627     5.6655     5.8268   -88.7618
 2499.5000     8.3243     2.5446     0.0250     0.2594   -26.7181   116.6006     7.0605     5.5525     5.7175   -78.3040
 2500.0000     8.3028     2.5405    -0.0021     0.2599   -26.7228   115.3805     6.8640     5.4050     5.5582   -67.7769
 2500.5000     8.2848     2.5364    -0.0039     0.2620   -26.7278   116.4778     6.7415     5.2611     5.3151   -67.4218
 2501.0000     8.2808     2.5394    -0.0002     0.2644   -26.3274   122.6496     6.5497     5.0477     5.0623   -67.4756
 2501.5000     8.3209     2.5424    -0.0003     0.2689   -26.1297   124.2598     6.3094     4.9539     4.9464   -67.3253
 2502.0000     8.2993     2.5383    -0.0024     0.2693   -26.3368   126.2748     5.9107     4.9530     4.9210   -87.3978
 2502.5000     8.2984     2.5352    -0.0065     0.2819   -26.1391   131.9277     5.7468     4.9062     4.9200   -77.1361
 2503.0000     8.3178     2.5311     0.0056     0.2835   -25.9414   131.9240     5.7996     5.0442     4.9192   -76.9859
 2503.5000     8.2966     2.5311     0.0217     0.2746   -25.9461   130.2955     6.3640     4.9967     4.9184   -66.7241
 2504.0000     8.2957     2.5290     0.0034     0.2690   -25.9508   127.4506     6.7911     5.0425     5.0100   -76.6854
 2504.5000     8.2948     2.5340    -0.0129     0.2662   -25.5516   128.6559     6.8534     5.1364     5.1033   -76.4450
 2505.0000     8.3135     2.5380    -0.0170     0.2654   -25.1515   128.2418     6.8523     5.2319     5.1984   -86.4966
 2505.5000     8.3132     2.5431    -0.0171     0.2629   -24.7514   128.2308     6.7877     5.3293     5.2953   -86.3464
 2506.0000     8.3323     2.5471     0.0071     0.2614   -24.5538   128.2234     6.6615     5.3782     5.3439   -86.1962
 2506.5000     8.3120     2.5501     0.0272     0.2630   -25.1657   131.8574     6.5987     5.3773     5.3430   -86.0160
 2507.0000     8.3103     2.5490     0.0413     0.2630   -25.5752   132.6577     6.7215     5.3266     5.2926   -85.8657
 2507.5000     8.3094     2.5500     0.0352     0.2639   -25.7823   131.8352     6.7204     5.2764     5.2427   -75.6036
 2508.0000     8.3087     2.5479     0.0330     0.2643   -25.5846   130.2105     6.7193     5.2267     5.1932   -75.4533
 2508.5000     8.3076     2.5438     0.0249     0.2647   -25.7880   128.5821     6.7181     5.1773     5.1440   -85.4151
 2509.0000     8.3064     2.5367     0.0228     0.2635   -25.9979   127.3567     6.5925     5.0339     5.0014   -85.2649
 2509.5000     8.3059     2.5316     0.0045     0.2635   -26.4093   127.3475     6.4105     5.0331     5.0006   -85.1147
 2510.0000     8.3053     2.5275    -0.0199     0.2619   -26.8187   127.7430     6.2912     4.9395     4.9075   -84.9645
 2510.5000     8.3238     2.5335    -0.0098     0.2579   -27.2282   128.1386     6.3490     5.0314     4.9989   -84.8143
 2511.0000     8.3032     2.5386    -0.0099     0.2535   -27.6377   127.3198     6.3479     5.0306     4.9981   -84.6640
 2511.5000     8.3023     2.5436     0.0041     0.2543   -28.0471   128.5249     6.2881     5.0767     5.0440   -84.5138
 2512.0000     8.3012     2.5496     0.0081     0.2572   -29.2661   133.3727     6.2288     5.2683     5.2346   -94.4760
 2512.5000     8.3205     2.5546     0.0141     0.2641   -29.4703   134.5825     6.2278     5.3664     5.3321   -84.1833
 2513.0000     8.2994     2.5576     0.0120     0.2621   -27.8588   133.3589     6.6458     5.5689     5.5336   -84.0331
 2513.5000     8.2991     2.5586     0.0018     0.2564   -27.6611   131.3259     7.0264     5.8877     5.9050   -83.8829
 2514.0000     8.3179     2.5575     0.0139     0.2473   -27.6658   129.6977     7.3595     6.1099     5.9597   -93.8453
 2514.5000     8.2968     2.5727     0.0603     0.2395   -27.4681   126.8535     8.0758     6.3998     6.1849   -83.5824
 2515.0000     8.2959     2.5686     0.0603     0.2366   -27.4738   124.4159     8.3806     6.6411     6.4785   -83.4322
 2515.5000     8.2949     2.5534     0.0825     0.2310   -27.6808   118.7358     8.6967     6.7650     6.6609   -73.1692
 2516.0000     8.2537     2.5452     0.0885     0.2298   -27.8879   115.0842     8.6953     6.9551     6.8485   -83.1317
 2516.5000     8.2932     2.5422     0.1046     0.2298   -27.8916   111.8373     8.3762     7.0845     7.0414   -82.9815
 2517.0000     8.2925     2.5442     0.0944     0.2323   -28.2591   111.8283     8.0689     7.0834     7.1727   -82.8313
 2517.5000     8.2913     2.5785     0.0822     0.2335   -28.3067   112.6287     7.9188     7.3508     7.3747   -82.6810
 2518.0000     8.2905     2.5997     0.0761     0.2489   -28.9184   114.2384     7.9175     7.8441     7.7245   -92.6438
 2518.5000     8.2894     2.6139     0.0739     0.2497   -29.1254   116.2529     8.3986     7.6983     7.7237   -72.2675
 2519.0000     8.2887     2.5956     0.0698     0.2502   -29.3334   117.4607     8.7165     7.6970     7.7224   -72.0871
 2519.5000     8.2876     2.5723     0.0657     0.2514   -29.3379   118.2592     8.9620     7.6957     7.7934   -82.0500
 2520.0000     8.2873     2.5672     0.0635     0.2526   -29.3418   119.8706     8.6838     7.6944     7.7921   -81.8998
 2520.5000     8.2859     2.5661     0.0311     0.2543   -28.9418   121.0756     8.3652     7.4116     7.7908   -81.7495
 2521.0000     8.2849     2.5722     0.0269     0.2559   -28.7451   122.2805     8.0582     7.2743     7.6458   -81.5993
 2521.5000     8.2841     2.5711     0.0268     0.2555   -28.3451   127.5274     7.9820     7.0726     7.3647   -71.3356
 2522.0000     8.2630     2.5701     0.0349     0.2531   -28.3498   130.3491     7.9807     6.8768     7.0942   -81.2988
 2522.5000     8.2626     2.5710     0.0369     0.2467   -28.3544   127.9137     7.9794     6.7489     6.8336   -91.2620
 2523.0000     8.3014     2.5710     0.0489     0.2442   -27.9545   123.0485     8.0527     6.8108     6.7068   -70.8847
 2523.5000     8.2601     2.5720     0.0366     0.2439   -27.7568   115.7554     8.0513     6.5609     6.5204   -70.7344
 2524.0000     8.3602     2.5790     0.0386     0.2447   -27.7615   112.9137     7.9755     6.3792     6.3992   -70.5841
 2524.5000     8.2709     2.5759     0.0425     0.2455   -27.5639   116.9512     7.8271     6.2606     6.2801   -70.4338
 2525.0000     8.2776     2.5708     0.0485     0.2528   -27.3653   122.2025     7.4009     6.1441     6.1058   -80.3672
