~VERSION INFORMATION
 VERS.                2.0:   CWLS LOG ASCII STANDARD - VERSION 2.0
 WRAP.                 NO:   ONE LINE PER DEPTH STEP
~WELL INFORMATION
#MNEM.UNIT      DATA TYPE    INFORMATION
#----------   ------------   ------------------------------
 STRT.F          176.0000:   START DEPTH
 STOP.F         3442.0000:   STOP DEPTH
 STEP.F            0.5000:   STEP LENGTH
 NULL.          -999.2500:   NO VALUE
 COMP.  FENIX AND SCISSON:   COMPANY
 WELL.  FENIX "AX" #65-15:   WELL
 FLD . NAVAL PETROLEUM RESERVE #3:   FIELD
 LOC .      S15 T38N R78W:   LOCATION
 CNTY.            NATRONA:   COUNTY
 STAT.            WYOMING:   STATE
 CTRY. UNITED STATES OF AMERICA:   COUNTRY
 SRVC.       SCHLUMBERGER:   SERVICE COMPANY
 DATE.        09-APR-1981:   LOGDATE
 API .     49025108710000:   API NUMBER
~CURVE INFORMATION
#MNEM.UNIT       API CODE    CURVE DESCRIPTION
#----------   ------------   ------------------------------
 DEPT.F                  :   
 TENR.LBS    07 635 01 00:   TENSION
 SPR .MV     07 010 01 00:   SPONTANEOUS POTENTIAL
 ILD .OHMM   07 120 46 00:   INDUCTION LOG DEEP RESISTIVITY
 ILM .OHMM   07 120 44 00:   INDUCTION LOG MEDIUM RESISTIVITY
 SFL .OHMM   07 220 01 00:   SHALLOW FOCUSED LOG RESISTIVITY
 TEND.LBS    45 635 01 00:   TENSION FROM DENSITY LOG
 CALD.IN     45 280 60 00:   CALIPER FROM DENSITY LOG
 GRD .GAPI   45 310 01 00:   GAMMA RAY FROM DENSITY LOG
 RHOB.G/C3   45 350 01 00:   BULK DENSITY
 CORR.G/C3   45 356 01 00:   DENSITY CORRECTION
~PARAMETER INFORMATION
#MNEM.UNIT          VALUE    DESCRIPTION
#----------   ------------   ------------------------------
 EKB .F         5287.0000:   Kelly bushing
 EGL .F         5277.0000:   Ground level
 EDF .F            0.0000:   Drilling floor
 TD  .F         5476.0000:   Total depth
 DATE.        09-APR-1981:   Date logged
 CLNT.            A2DTECH:   Client Code
 SL  . 1945' FSL & 1161' FEL:   Surface Location
 PD  .                 GL:   Permanent Datum
 EPD .F              5277:   Elevation Permanent Datum
 LMF .                 KB:   Log Measured From
 DMF .                 KB:   Drilling Measured From
 DAPD.F                10:   Feet Above Permanent Datum
 DD  .F              5476:   Depth driller
 DL  .F              5436:   Depth logger
 BLI .F              5430:   Bottom log interval
 TLI .F               190:   Top log interval
 CS1 .IN            8.625:   Casing size
 CBD1.      8.625" @ 190':   Casing driller 1
 CBL1.F               190:   Casing logger 1
 BS1 .IN            7.875:   Bit size
 BSD1.F              5476:   Depth drilled with bit1
 DFT .           CHEM GEL:   Type fluid in hole
 DFD .                9.1:   Density
 DFV .                 42:   Viscosity
 DFPH.                9.5:   pH
 DFL .                  8:   Fluid loss
 MSS .            MUDTANK:   Source of sample
 RMS .OHMM           1.62:   Rm
 MST .F                71:   Rm Meas. temp.
 RMF .OHMM           1.45:   Rmf
 MFST.F                71:   Rmf Meas. temp.
 MFSS.               MEAS:   Source Rmf.
 RMB .OHMM           1.02:   Rm. at BHT
 BHT .F               116:   BHT.
 TCS .HRS            1600:   Time Circ. stopped
 TLAB.HRS            1830:   Time logger at bottom
 MRT .F               116:   Maximum recorded temp.
 LUN .               8035:   Logging unit number
 LUL .               CSPR:   Logging unit location
 ENGI.            BEATTIE:   Recorded By
 WITN.              EIVAS:   Witnessed by
 ORIG.           5" PRINT:   Origin of data
 UWI .     49025108710000:   Unique Well ID
 DICO. A2D TECHNOLOGIES, INC.:   Digitizing Company
~OTHER INFORMATION
~A   DEPT     TENR        SPR        ILD        ILM        SFL       TEND       CALD         GRD      RHOB       CORR   
# ...
 1047.0000   385.3750   -19.9650     6.4610     6.0710     6.8960   386.1390     8.4160   115.1310     2.5030     0.0100
 1047.5000   385.3750   -19.9390     6.4780     6.0830     6.8960   385.7930     8.4160   115.2110     2.5040     0.0100
 1048.0000   385.3750   -19.9130     6.4950     6.0940     6.8960   385.4470     8.4160   115.8530     2.5070     0.0110
 1048.5000   385.3750   -19.8870     6.5120     6.1050     6.8960   385.1010     8.4160   118.6000     2.5100     0.0110
 1049.0000   385.3750   -19.8610     6.5290     6.1150     6.8960   384.7540     8.4160   121.7230     2.5050     0.0060
 1049.5000   385.3750   -19.8360     6.5460     6.1260     6.8960   384.4080     8.4160   122.8510     2.5000     0.0010
 1050.0000   385.3750   -19.8060     6.5630     6.1370     6.8960   384.2320     8.4160   121.1190     2.4990     0.0060
 1050.5000   385.3750   -19.8040     6.5800     6.1480     6.8960   384.2320     8.4160   119.4110     2.5050     0.0120
 1051.0000   385.3750   -19.8030     6.5970     6.1590     6.8960   384.2320     8.4160   119.2070     2.5110     0.0170
 1051.5000   385.3750   -19.8040     6.6140     6.1690     6.8960   384.2320     8.4160   121.1530     2.5100     0.0180
 1052.0000   385.3750   -19.8040     6.6310     6.1800     6.8960   384.2320     8.4160   123.5390     2.5080     0.0190
 1052.5000   385.3750   -19.8040     6.6480     6.1910     6.8960   384.2320     8.4160   124.2810     2.5080     0.0200
 1053.0000   385.3750   -19.8040     6.6650     6.2020     6.8950   384.2320     8.4160   122.6940     2.5120     0.0210
 1053.5000   385.3750   -19.8040     6.6820     6.2120     6.8950   384.2320     8.4160   121.1910     2.5170     0.0210
 1054.0000   385.3750   -19.8040     6.6990     6.2230     6.8970   384.2320     8.4160   121.1890     2.5160     0.0180
 1054.5000   385.3750   -19.8040     6.7160     6.2340     6.8930   384.2320     8.4160   122.3500     2.5100     0.0140
 1055.0000   385.3750   -19.8040     6.7330     6.2450     6.8970   384.2320     8.4160   121.5530     2.5040     0.0090
 1055.5000   385.3750   -19.8040     6.7500     6.2550     6.8960   384.2320     8.4160   119.4550     2.5040     0.0050
 1056.0000   385.3750   -19.8040     6.7670     6.2660     7.0580   384.2320     8.4160   117.0080     2.5110     0.0040
 1056.5000   385.3750   -19.8040     6.7840     6.2770     7.2020   384.2320     8.4160   113.5290     2.5150     0.0080
 1057.0000   385.3750   -19.8040     6.8010     6.2880     7.3460   384.2320     8.4160   114.5950     2.5120     0.0130
 1057.5000   385.3750   -19.8040     6.8170     6.2980     7.4900   384.2320     8.4160   115.8980     2.5120     0.0170
 1058.0000   385.3750   -19.8040     6.8340     6.3090     7.6340   384.2320     8.4160   117.7430     2.5120     0.0210
 1058.5000   385.3750   -19.8030     6.8510     6.3200     7.6910   384.2320     8.4160   120.0160     2.5110     0.0170
 1059.0000   385.3750   -19.8040     6.8680     6.3310     7.6910   384.2320     8.4160   123.0980     2.5080     0.0130
 1059.5000   385.3750   -19.8060     6.8850     6.3420     7.6910   384.2320     8.4180   127.3520     2.5050     0.0090
 1060.0000   385.3750   -19.7980     6.9020     6.3520     7.6910   384.2320     8.4200   129.2460     2.5050     0.0040
 1060.5000   385.3750   -19.8670     6.9190     6.3630     7.6910   384.2320     8.4220   129.3590     2.5080     0.0090
 1061.0000   385.3750   -19.9870     6.9360     6.3740     7.6910   384.2320     8.4240   127.8290     2.5140     0.0130
 1061.5000   385.3750   -20.0960     6.9540     6.3840     7.6910   384.2320     8.4260   123.7820     2.5130     0.0180
 1062.0000   385.3750   -20.1920     6.9710     6.3950     7.6910   384.2320     8.4280   120.9000     2.5030     0.0150
 1062.5000   385.3750   -20.1840     6.9870     6.4060     7.7300   384.2320     8.4300   122.3980     2.4980     0.0080
 1063.0000   385.3750   -20.1460     7.0030     6.4120     7.7660   384.2320     8.4310   125.4940     2.4940     0.0060
 1063.5000   385.3750   -20.1070     7.0210     6.4110     7.8020   384.2320     8.4330   128.0640     2.4950     0.0110
 1064.0000   385.3750   -20.0680     6.9770     6.4110     7.8330   384.2320     8.4350   124.9320     2.4960     0.0160
 1064.5000   385.3750   -20.0290     6.9300     6.4110     7.5170   384.2320     8.4380   122.0880     2.4970     0.0150
 1065.0000   385.3750   -19.9900     6.8820     6.4110     7.2830   384.2320     8.4450   119.5120     2.4960     0.0100
 1065.5000   385.3750   -19.9510     6.8330     6.3760     7.2830   384.2320     8.4510   118.6370     2.4990     0.0060
 1066.0000   385.3750   -19.9120     6.7850     6.3310     7.2300   384.2320     8.4610   119.6500     2.5030     0.0070
 1066.5000   385.3750   -19.8730     6.7360     6.2850     7.1750   384.2320     8.4940   120.2450     2.5060     0.0180
 1067.0000   385.3750   -19.8340     6.6880     6.2400     7.1210   384.2320     8.5280   119.4670     2.5030     0.0290
 1067.5000   385.3750   -19.7950     6.6400     6.1950     7.0670   384.2320     8.5310   116.4780     2.4930     0.0410
 1068.0000   385.3750   -19.7570     6.5910     6.1500     7.0120   384.2320     8.5270   113.4720     2.4790     0.0470
 1068.5000   385.3750   -19.7180     6.5430     6.1040     6.9580   384.2320     8.5220   113.3960     2.4640     0.0330
 1069.0000   385.3750   -19.6790     6.4950     6.0560     6.8960   384.2320     8.5180   113.6970     2.4590     0.0180
 1069.5000   385.3750   -19.6400     6.4460     6.0120     6.8960   384.1040     8.5150   111.8500     2.4760     0.0050
 1070.0000   385.3750   -19.6010     6.2960     5.9610     6.8960   383.7910     8.5150   110.3520     2.4930     0.0010
 1070.5000   385.3750   -19.5610     6.2960     5.8540     6.8960   383.4790     8.5150   110.7330     2.4990     0.0040
 1071.0000   385.3750   -19.5240     6.2960     5.8540     6.8960   383.1670     8.5040   113.8990     2.5050     0.0080
 1071.5000   385.3750   -19.4850     6.2960     5.8860     6.8960   382.8540     8.4790   114.0040     2.5100     0.0120
 1072.0000   385.3750   -19.4400     6.2960     5.9220     6.8960   382.5420     8.4540   112.8080     2.5070     0.0070
 1072.5000   385.3750   -19.4240     6.2960     5.9590     6.8960   382.2290     8.4300   112.9890     2.5000     0.0010
 1073.0000   385.3750   -19.2870     6.2960     5.9950     6.8960   381.9170     8.4160   117.7710     2.4960     0.0020
 1073.5000   385.3750   -18.8340     6.3530     6.0310     6.8960   381.6040     8.4140   121.0220     2.5010     0.0040
 1074.0000   385.3750   -18.7440     6.4130     6.0670     6.8960   381.2920     8.4110   119.5980     2.5070     0.0040
 1074.5000   385.3750   -19.2060     6.4730     6.1030     6.8960   380.9800     8.4090   114.7000     2.5120     0.0010
 1075.0000   385.3750   -19.4310     6.5340     6.1390     6.8960   380.6670     8.4060   112.9260     2.5100    -0.0020
 1075.5000   385.3750   -19.4040     6.5940     6.1750     6.8960   380.3550     8.4040   113.3320     2.5000    -0.0010
 1076.0000   385.3750   -19.4140     6.6540     6.2110     6.8960   380.0420     8.4010   113.9110     2.4900     0.0000
 1076.5000   385.3750   -19.4130     6.7140     6.2470     6.8960   379.7300     8.3990   113.8610     2.4930     0.0000
 1077.0000   385.3750   -19.4110     6.7710     6.2830     6.8960   379.4180     8.3960   112.7990     2.4990     0.0000
 1077.5000   385.3750   -19.4130     6.8960     6.2960     7.0150   379.1050     8.3940   111.3210     2.5040     0.0010
 1078.0000   385.3750   -19.4120     7.0220     6.5290     7.1970   378.7930     8.3910   110.5800     2.5040     0.0010
 1078.5000   385.3750   -19.4120     7.1510     6.5290     7.3790   378.4800     8.3880   112.5410     2.5000     0.0020
 1079.0000   385.3750   -19.4120     7.1510     6.6490     7.5620   378.1680     8.3860   114.0770     2.4920     0.0010
 1079.5000   385.3750   -19.4120     7.2830     6.6490     7.7440   377.8550     8.3830   112.8200     2.5040     0.0040
 1080.0000   385.3750   -19.4120     7.5800     6.7710     7.8330   377.5430     8.3810   108.5270     2.5250     0.0110
