~VERSION INFORMATION
 VERS.                2.0:   CWLS LOG ASCII STANDARD - VERSION 2.0
 WRAP.                 NO:   ONE LINE PER DEPTH STEP
~WELL INFORMATION
#MNEM.UNIT      DATA TYPE    INFORMATION
#----------   ------------   ------------------------------
 STRT.F            0.0000:   START DEPTH
 STOP.F         3504.0000:   STOP DEPTH
 STEP.F            0.5000:   STEP LENGTH
 NULL.          -999.2500:   NO VALUE
 COMP. LAWRENCE-ALLISON AND ASSOCIATES:   COMPANY
 WELL. LAWRENCE "TX" #16-34:   WELL
 FLD .              NPR 3:   FIELD
 LOC .      S34 T39N R78W:   LOCATION
 CNTY.            NATRONA:   COUNTY
 STAT.            WYOMING:   STATE
 CTRY. UNITED STATES OF AMERICA:   COUNTRY
 SRVC.       SCHLUMBERGER:   SERVICE COMPANY
 DATE.        10-APR-1982:   LOGDATE
 API .     49025108970000:   API NUMBER
~CURVE INFORMATION
#MNEM.UNIT       API CODE    CURVE DESCRIPTION
#----------   ------------   ------------------------------
 DEPT.F                  :   
 SPR .MV     07 010 01 00:   SPONTANEOUS POTENTIAL
 ILD .OHMM   07 120 46 00:   DEEP INDUCTION RESISTIVITY
 SFLU.OHMM   07 220 01 00:   SPHERICALLY FOCUSED LOG UNAVERAGED RESISTIVITY
 TENR.LBS    07 635 01 00:   TENSION FROM RESISTIVITY
 ILM .OHMM   07 120 44 00:   INDUCTION LOG MEDIUM RESISTIVITY
 GRD .GAPI   45 310 01 00:   GAMMA RAY FROM DENSITY LOG
 CALD.IN     45 280 60 00:   CALIPER FROM DENSITY LOG
 RHOB.G/C3   45 350 01 00:   BULK DENSITY
 CORR.G/C3   45 356 01 00:   DENSITY CORRECTION
 TEND.LBS    45 635 01 00:   TENSION FROM DENSITY LOG
 NPHI.DEC    42 890 03 00:   NEUTRON POROSITY SANDSTONE
~PARAMETER INFORMATION
#MNEM.UNIT          VALUE    DESCRIPTION
#----------   ------------   ------------------------------
 EKB .F         5149.0000:   Kelly bushing
 EGL .F         5139.0000:   Ground level
 EDF .F            0.0000:   Drilling floor
 TD  .F         3500.0000:   Total depth
 DATE.        10-APR-1982:   Date logged
 CLNT.            A2DTECH:   Client Code
 SL  . 1406' FSL & 423' FWL:   Surface Location
 PD  .                 GL:   Permanent Datum
 EPD .F              5139:   Elevation Permanent Datum
 LMF .                 KB:   Log Measured From
 DMF .                 KB:   Drilling Measured From
 DAPD.F                10:   Feet Above Permanent Datum
 DD  .F              3500:   Depth driller
 DL  .F              3497:   Depth logger
 BLI .F              3491:   Bottom log interval
 TLI .F               658:   Top log interval
 CS1 .IN            9.625:   Casing size
 CBD1.      9.625" @ 632':   Casing driller 1
 CBL1.F               658:   Casing logger 1
 BS1 .IN             8.75:   Bit size
 BSD1.F              3500:   Depth drilled with bit1
 DFT .           SPUD MUD:   Type fluid in hole
 DFD .                  9:   Density
 DFV .                 44:   Viscosity
 DFPH.                 10:   pH
 DFL .                  7:   Fluid loss
 MSS .           FLOWLINE:   Source of sample
 RMS .OHMM              2:   Rm
 MST .F                53:   Rm Meas. temp.
 RMF .OHMM            1.9:   Rmf
 MFST.F                53:   Rmf Meas. temp.
 RMC .OHMM            1.5:   Rmc
 MCST.F                53:   Rmc Meas. temp.
 MFSS.               MEAS:   Source Rmf.
 MCSS.               CALC:   Source Rmc.
 RMB .OHMM              1:   Rm. at BHT
 BHT .F               106:   BHT.
 TCS .HRS            1100:   Time Circ. stopped
 TLAB.HRS            1330:   Time logger at bottom
 MRT .F               106:   Maximum recorded temp.
 LUN .               8151:   Logging unit number
 LUL .                GLT:   Logging unit location
 ENGI.            NEUFFER:   Recorded By
 WITN.           JENNINGS:   Witnessed by
 ORIG.           5" PRINT:   Origin of data
 UWI .     49025108970000:   Unique Well ID
 DICO. A2D TECHNOLOGIES, INC.:   Digitizing Company
~OTHER INFORMATION
~A    DEPT     SPR        ILD       SFLU       TENR        ILM        GRD       CALD       RHOB       CORR       TEND       NPHI   
# ...
  640.5000  -999.2500  -999.2500  -999.2500  -999.2500  -999.2500    67.8610  -999.2500  -999.2500  -999.2500  -999.2500     0.4340
  641.0000  -999.2500  -999.2500  -999.2500  -999.2500  -999.2500    66.9940  -999.2500  -999.2500  -999.2500  -999.2500     0.4330
  641.5000  -999.2500  -999.2500  -999.2500  -999.2500  -999.2500    65.4930  -999.2500  -999.2500  -999.2500  -999.2500     0.4280
  642.0000  -999.2500  -999.2500  -999.2500  -999.2500  -999.2500    65.2170  -999.2500  -999.2500  -999.2500  -999.2500     0.4220
  642.5000  -999.2500  -999.2500  -999.2500  -999.2500  -999.2500    65.6960  -999.2500  -999.2500  -999.2500  -999.2500     0.4200
  643.0000  -999.2500  -999.2500  -999.2500  -999.2500  -999.2500    65.8840  -999.2500  -999.2500  -999.2500  -999.2500     0.4320
  643.5000  -999.2500  -999.2500  -999.2500  -999.2500  -999.2500    64.7280  -999.2500  -999.2500  -999.2500  -999.2500     0.4410
  644.0000  -999.2500  -999.2500  -999.2500  -999.2500  -999.2500    63.5910  -999.2500  -999.2500  -999.2500  -999.2500     0.4420
  644.5000  -999.2500  -999.2500  -999.2500  -999.2500  -999.2500    62.6050  -999.2500  -999.2500  -999.2500  -999.2500     0.4200
  645.0000  -999.2500  -999.2500  -999.2500  -999.2500  -999.2500    64.0560  -999.2500  -999.2500  -999.2500  -999.2500     0.4040
  645.5000  -999.2500  -999.2500  -999.2500  -999.2500  -999.2500    65.5620  -999.2500  -999.2500  -999.2500  -999.2500     0.3950
  646.0000  -999.2500  -999.2500  -999.2500  -999.2500  -999.2500    66.6420  -999.2500  -999.2500  -999.2500  -999.2500     0.4040
  646.5000  -999.2500  -999.2500  -999.2500  -999.2500  -999.2500    66.0790  -999.2500  -999.2500  -999.2500  -999.2500     0.4170
  647.0000  -999.2500  -999.2500  -999.2500  -999.2500  -999.2500    64.6570  -999.2500  -999.2500  -999.2500  -999.2500     0.4110
  647.5000  -999.2500  -999.2500  -999.2500  -999.2500  -999.2500    63.2590  -999.2500  -999.2500  -999.2500  -999.2500     0.4030
  648.0000  -999.2500  -999.2500  -999.2500  -999.2500  -999.2500    64.2930  -999.2500  -999.2500  -999.2500  -999.2500     0.3960
  648.5000  -999.2500  -999.2500  -999.2500  -999.2500  -999.2500    65.6890  -999.2500  -999.2500  -999.2500  -999.2500     0.4100
  649.0000  -999.2500  -999.2500  -999.2500  -999.2500  -999.2500    65.0450  -999.2500  -999.2500  -999.2500  -999.2500     0.4270
  649.5000  -999.2500  -999.2500  -999.2500  -999.2500  -999.2500    63.5750  -999.2500  -999.2500  -999.2500  -999.2500     0.4370
  650.0000   -30.9860  -999.2500   207.0210   859.1410  -999.2500    62.0650     8.8900  -999.2500    -0.1540   820.0000     0.4400
  650.5000   -30.9860   927.6060   207.0210   859.1410   927.6060    60.5190     8.8900  -999.2500    -0.1540   820.0000     0.4410
  651.0000   -30.9860   927.6060   207.0210   859.1410   927.6060    60.2730     8.9110  -999.2500    -0.1540   820.0000     0.4300
  651.5000   -30.9860   927.6060   208.7200   859.1410   927.6060    60.7740     8.9360  -999.2500    -0.1540   820.0000     0.4220
  652.0000   -30.9860   936.8700   207.0210   859.1410   936.8700    62.8280     8.9660  -999.2500    -0.1540   819.7430     0.4220
  652.5000   -30.9860   927.6060   207.0150   859.1410   927.6060    64.8760     8.9870  -999.2500    -0.1540   819.3730     0.4500
  653.0000   -30.9860   927.6060   206.9430   859.1410   927.6060    64.8490     8.9820  -999.2500    -0.1540   819.0030     0.4500
  653.5000   -30.9860   927.6060   208.4260   859.1410   927.6060    63.1770     8.9760  -999.2500    -0.1540   818.6330     0.4460
  654.0000   -30.9860   927.6060   207.0210   859.1410   927.6060    61.4740     8.9710  -999.2500    -0.1540   818.2630     0.4420
  654.5000   -30.9870   927.6060   146.0660  -999.2500   927.6060    60.4650     8.9710  -999.2500    -0.1540   817.8930     0.4460
  655.0000   -30.9790   927.6060    71.2370  -999.2500   927.6060    59.5860     8.9750  -999.2500  -999.2500   817.5230     0.4510
  655.5000   -30.9560  -999.2500     0.3930  -999.2500  -999.2500    58.0560     8.9790  -999.2500  -999.2500   817.1530     0.4400
  656.0000   -31.1450  -999.2500     0.2070   819.1810  -999.2500    56.6980     8.9850  -999.2500    -0.1520   816.7830     0.4250
  656.5000   -34.8660  -999.2500     0.2080   821.1000  -999.2500    59.4060     9.0360  -999.2500    -0.0750   816.4120     0.4100
  657.0000   -38.4920  -999.2500     0.3010   823.9540  -999.2500    67.4590     9.2700  -999.2500     0.0920   816.0420     0.4170
  657.5000   -42.0510  -999.2500     5.1410   826.8070  -999.2500    76.5590     9.5400  -999.2500     0.2080   815.6720     0.4280
  658.0000   -44.3220   927.6060     9.5620   829.6600   927.6060    85.7530     9.9940     2.5050     0.2390   815.3020     0.4370
  658.5000   -37.4760   927.6060    12.6560   832.5140   927.6060    87.5300    10.4400     2.4540     0.1990   814.9320     0.4080
  659.0000   -31.4460   363.1840    13.0970   835.3670   363.1840    84.1600    10.8560     2.4430     0.2130   814.5620     0.3970
  659.5000   -25.4270   125.6770    13.4650   838.2210     2.0420    80.1690    11.1770     2.4150     0.2260   814.1920     0.4240
  660.0000   -19.4540    57.6790    10.5620   841.0740     2.7800    77.8790    11.4980     2.3640     0.1750   813.8220     0.4470
  660.5000   -14.5480     2.5000     8.0680   843.9280     4.0710    77.8710    11.8040     2.3010     0.1140   813.4520     0.4850
  661.0000   -14.0840     2.3880     5.5740   846.7810     5.3610    77.9940    12.0550     2.2370     0.0840   813.0820     0.5440
  661.5000   -13.5000     2.3970     3.0800   849.6350     6.6520    77.1110    12.2580     2.1730     0.0710   812.7120     0.5920
  662.0000   -12.9070     2.4200     2.4320   852.4880     6.8780    76.0720    12.3250     2.1230     0.0590   812.3410     0.6310
  662.5000   -12.9790     2.4420     2.6180   855.3420     2.4540    73.7410    12.1130     2.0920     0.0460   811.9710     0.6100
  663.0000   -13.1770     2.6280     3.0370   858.1950     2.6350    71.7660    11.9420     2.1180     0.0230   811.6010     0.5750
  663.5000   -13.3780     3.2930     3.8890   861.0490     3.3310    72.9590    11.9450     2.1970    -0.0020   811.2310     0.5070
  664.0000   -13.5830     3.9580     4.9560   863.9020     4.0260    76.1470    11.9970     2.3140     0.0050   810.8610     0.4390
  664.5000   -13.5440     4.6230     6.0230   866.7560     4.7220    79.7970    12.0610     2.4260     0.0110   810.4910     0.3900
  665.0000   -13.3980     5.2880     6.9230   869.6090     5.4170    83.4810    12.1250     2.4620     0.0140   810.1210     0.3940
  665.5000   -13.2500     5.9530     7.4610   872.4630     6.1120    84.7730    12.1900     2.4560     0.0110   809.7510     0.3980
  666.0000   -13.1010     6.6450     7.9990   875.3160     6.8310    84.8110    12.2080     2.4470     0.0080   809.3810     0.4020
  666.5000   -12.9540     7.3080     8.3330   878.1700     7.5130    84.7690    12.2150     2.4420     0.0060   809.0110     0.3800
  667.0000   -12.8580     7.5530     8.1930   881.0230     7.7650    86.3340    12.2240     2.4520     0.0110   808.6400     0.3590
  667.5000   -12.9560     7.7700     8.3550   883.8770     7.9870    88.3100    12.0180     2.4600     0.0180   808.2700     0.3600
  668.0000   -13.0490     7.8630     8.5350   886.7300     8.0830    89.5690    12.0990     2.4650     0.0140   807.9000     0.3730
  668.5000   -13.1420     7.9560     8.7240   889.5840     8.1780    89.3930    12.1990     2.4690     0.0140   807.5300     0.3830
  669.0000   -13.2350     8.0490     8.9130   892.4370     8.2740    88.4660    12.1920     2.4720     0.0230   807.1600     0.3870
  669.5000   -13.3280     8.1420     9.0010   895.2910     8.3700    90.4330    12.1800     2.4540     0.0510   806.7900     0.3960
  670.0000   -13.4210     8.1930     9.0320   898.1440     8.4220    92.9940    12.0250     2.4200     0.0710   806.4200     0.4180
  670.5000   -13.5140     8.1930     9.0620   899.1010     8.4220    95.4990    11.2860     2.3870     0.0460   806.0500     0.4290
