~VERSION INFORMATION
 VERS.                2.0:   CWLS LOG ASCII STANDARD - VERSION 2.0
 WRAP.                 NO:   ONE LINE PER DEPTH STEP
~WELL INFORMATION
#MNEM.UNIT      DATA TYPE    INFORMATION
#----------   ------------   ------------------------------
 STRT.F          218.0000:   START DEPTH
 STOP.F         2860.0000:   STOP DEPTH
 STEP.F            0.5000:   STEP LENGTH
 NULL.          -999.2500:   NO VALUE
 COMP.    FENIX & SCISSON:   COMPANY
 WELL.  FENIX "AX" #76-20:   WELL
 FLD . TEAPOT DOME NPR -3:   FIELD
 LOC .      S20 T39N R78W:   LOCATION
 CNTY.            NATRONA:   COUNTY
 STAT.            WYOMING:   STATE
 CTRY. UNITED STATES OF AMERICA:   COUNTRY
 SRVC.           BIRDWELL:   SERVICE COMPANY
 DATE.        21-AUG-1978:   LOGDATE
 API .     49025106920000:   API NUMBER
~CURVE INFORMATION
#MNEM.UNIT       API CODE    CURVE DESCRIPTION
#----------   ------------   ------------------------------
 DEPT.F                  :   
 SPR .MV     05 010 01 00:   SPONTANEOUS POTENTIAL FROM RES.
 ILD .OHMM   05 120 46 00:   INDUCTION LOG DEEP
 SN  .OHMM   05 040 16 00:   SHORT NORMAL 16"
 RHOB.G/C3   45 350 01 00:   BULK DENSITY
 CALD.IN     45 280 60 00:   CALIPER FROM DENSITY LOG
 DCOR.G/C3   45 356 01 00:   DENSITY CORRECTION
 GRD .GAPI   45 310 01 00:   GAMMA RAY FROM DENSITY LOG
~PARAMETER INFORMATION
#MNEM.UNIT          VALUE    DESCRIPTION
#----------   ------------   ------------------------------
 EKB .F         5062.0000:   Kelly bushing
 EGL .F         5052.0000:   Ground level
 EDF .F            0.0000:   Drilling floor
 EPD .F            0.0000:   Permanent datum
 TD  .F         2854.0000:   Total depth
 DATE.        21-AUG-1978:   Date logged
 CLNT.            A2DTECH:   Client Code
 SL  . 1500' FNL & 1200' FEL:   Surface Location
 PD  .                 GL:   Permanent Datum
 DD  .F              2850:   Depth driller
 DL  .F              2854:   Depth logger
 BLI .F              2848:   Bottom log interval
 CS1 .IN            8.625:   Casing size
 CBD1.      8.625" @ 200':   Casing driller 1
 CBL1.F               235:   Casing logger 1
 BS1 .IN            7.875:   Bit size
 DFT .                KCL:   Type fluid in hole
 DFD .                9.2:   Density
 DFV .                 30:   Viscosity
 DFL .                8.4:   Fluid loss
 MSS .           FLOWLINE:   Source of sample
 RMS .OHMM            1.2:   Rm
 MST .F                86:   Rm Meas. temp.
 RMF .OHMM            0.8:   Rmf
 MFST.F                68:   Rmf Meas. temp.
 RMC .OHMM            1.6:   Rmc
 MCST.F                70:   Rmc Meas. temp.
 MFSS.              PRESS:   Source Rmf.
 BHT .F               102:   BHT.
 TCS .HRS               3:   Time Circ. stopped
 MRT .F               102:   Maximum recorded temp.
 LUN .               2968:   Logging unit number
 LUL .             CASPER:   Logging unit location
 ENGI.           REYNOLDS:   Recorded By
 ORIG.           5" PRINT:   Origin of data
 UWI .     49025106920000:   Unique Well ID
 DICO. A2D TECHNOLOGIES, INC.:   Digitizing Company
 DAPD.                 12:   Feet Above Permanent Datum
 BSD1.               2850:   Depth drilled with bit1
 MCSS.               MEAS:   Source Rmc.
 TLI .                230:   Top log interval
~OTHER INFORMATION
~A   DEPT      SPR        ILD         SN       RHOB       CALD       DCOR          GRD 
# ...
  900.5000   -81.3480     9.7720    10.4600     2.3900     9.7220     0.3280    73.7680
  901.0000   -81.2870     9.8670    10.5000     2.3630     9.6830     0.3860    73.9360
  901.5000   -81.2270     9.9610    10.5390     2.3350     9.6530     0.4400    72.3740
  902.0000   -81.1670    10.0550    10.5790     2.3110     9.6230     0.2680    68.0200
  902.5000   -81.1070    10.1500    10.6190     2.4560     9.5930     0.2780    63.7220
  903.0000   -81.0470    10.2280    10.6190     2.4460     9.5620     0.3080    61.1850
  903.5000   -80.9870    10.2280    10.7190     2.4340     9.6270     0.3160    62.3450
  904.0000   -80.9270    10.2280    10.7190     2.4590     9.7570     0.2530    61.4990
  904.5000   -80.8680    10.2150    10.7130     2.4850     9.8450     0.1970    60.6520
  905.0000   -80.8240    10.1880    10.6950     2.4550     9.6180     0.2050    63.3680
  905.5000   -80.8270    10.1620    10.6770     2.4370     9.7830     0.2140    64.6150
  906.0000   -80.7840    10.1360    10.6590     2.4760     9.6070     0.1910    62.1120
  906.5000   -80.6760    10.1100    10.6410     2.5030     9.4560     0.1770    59.6150
  907.0000   -80.9060    10.0840    10.6230     2.5010     9.3500     0.1770    60.9450
  907.5000   -81.1430    10.0580    10.6050     2.5040     9.2450     0.1690    62.4870
  908.0000   -81.3810    10.0320    10.5870     2.5190     9.1780     0.1570    56.8730
  908.5000   -81.6180    10.0060    10.5690     2.5320     9.1480     0.1460    53.7750
  909.0000   -81.8550     9.9800    10.5510     2.5300     9.1310     0.1460    55.0500
  909.5000   -82.0880     9.9540    10.5330     2.5160     9.1310     0.1510    65.9940
  910.0000   -82.1530     9.9280    10.5160     2.4990     9.1310     0.1590    67.3510
  910.5000   -81.7950     9.9020    10.5200     2.4810     9.1310     0.1810    66.6990
  911.0000   -81.4430     9.8760    10.3830     2.4590     9.1360     0.1970    68.4990
  911.5000   -81.0910     9.8500    10.3520     2.4660     9.1420     0.1820    71.1060
  912.0000   -80.7390     9.8240    10.3210     2.4870     9.1470     0.1510    69.3980
  912.5000   -80.4260     9.7980    10.2890     2.4410     9.1500     0.1560    69.5610
  913.0000   -80.4210     9.7710    10.2580     2.4530     9.1430     0.1710    71.9220
  913.5000   -80.4280     9.7450    10.2270     2.4720     9.1360     0.1700    74.2720
  914.0000   -80.4540     9.7190    10.1960     2.4910     9.1290     0.1570    76.5680
  914.5000   -80.4780     9.6930    10.1650     2.5110     9.1220     0.1440    76.0860
  915.0000   -80.5040     9.6680    10.1340     2.5180     9.1160     0.1310    75.4610
  915.5000   -80.5290     9.7590    10.1030     2.5170     9.1110     0.1240    75.1530
  916.0000   -80.5540     9.6250    10.0710     2.5060     9.1110     0.1180    75.1520
  916.5000   -80.5790     9.5830    10.0400     2.4950     9.1110     0.1140    75.2750
  917.0000   -80.6040     9.5400    10.0090     2.4840     9.1190     0.1160    75.4400
  917.5000   -80.6290     9.4980     9.9780     2.4740     9.1610     0.1180    74.1410
  918.0000   -80.6540     9.4550     9.9470     2.4770     9.2010     0.1220    71.9940
  918.5000   -80.6790     9.4130     9.9160     2.4830     9.2420     0.1250    70.1180
  919.0000   -80.7050     9.3700     9.8850     2.4830     9.2820     0.1280    68.6170
  919.5000   -80.7300     9.3280     9.8540     2.4800     9.3230     0.1320    67.9290
  920.0000   -80.7550     9.2850     9.8220     2.4890     9.3540     0.1350    71.1740
  920.5000   -80.7800     9.2430     9.7910     2.5020     9.3510     0.1360    74.2180
  921.0000   -80.8050     9.2250     9.7590     2.5020     9.3380     0.1350    76.0340
  921.5000   -80.8230     9.1750     9.8080     2.4800     9.3670     0.1340    67.9860
  922.0000   -80.8050     9.1230     9.8510     2.4620     9.5160     0.1390    70.7660
  922.5000   -80.7880     9.0710     9.8510     2.4470     9.6280     0.1760    75.6350
  923.0000   -80.7710     9.0190     9.8510     2.4500     9.6590     0.1870    79.9850
  923.5000   -80.7550     8.9670     9.9440     2.4540     9.6900     0.1890    80.1220
  924.0000   -80.7380     8.9150     9.9820     2.4490     9.9340     0.1920    70.0100
  924.5000   -80.7210     8.8860    10.0660     2.4260    10.3800     0.2330    61.1710
  925.0000   -80.7040     8.8030    10.1320     2.4040     9.4340     0.2820    59.8040
  925.5000   -80.6870     8.8030    10.0380     2.3760    10.3720     0.3070    62.9280
  926.0000   -80.6700     8.8030    10.0380     2.3810     9.3630     0.2830    66.2140
  926.5000   -80.6530     8.8020    10.0380     2.3830     9.6800     0.3400    69.4900
  927.0000   -80.6360     8.8290    10.0380     2.3550    10.2740     0.3090    72.7580
  927.5000   -80.6210     8.8660    10.0380     2.3330     9.9080     0.3030    76.0030
  928.0000   -80.6650     8.9030    10.0380     2.3480    10.3960     0.3020    78.0110
  928.5000   -80.7190     8.9400    10.0380     2.3350    10.2830     0.2540    76.4060
  929.0000   -80.7740     8.9770    10.0380     2.3540    10.1350     0.2480    73.1380
  929.5000   -80.8280     9.0140    10.0380     2.3360    10.0150     0.2540    69.3400
  930.0000   -80.8820     9.0510    10.0380     2.3020    10.1470     0.2790    74.8420
  930.5000   -80.9360     9.0880    10.0410     2.2700    10.2760     0.3030    76.0320
  931.0000   -80.9900     9.1250    10.0480     2.2720    10.2720     0.3120    77.7300
  931.5000   -80.9760     9.1620    10.0540     2.3080    10.1350     0.3200    79.4120
  932.0000   -80.8520     9.1990    10.0600     2.3220    10.1120     0.3200    80.3300
  932.5000   -80.7300     9.2250    10.0660     2.3390    10.3030     0.2990    70.3560
  933.0000   -80.6080     9.2250    10.0720     2.3590    10.3900     0.3000    68.0460
  933.5000   -80.4850     9.2250    10.0780     2.3680    10.0730     0.3040    68.7140
  934.0000   -80.3630     9.2260    10.0850     2.3750    10.1700     0.3030    69.4080
  934.5000   -80.2400     9.2270    10.0910     2.3820    10.3020     0.2490    75.5430
  935.0000   -80.1180     9.2210    10.0970     2.3830    10.1580     0.2790    83.1570
  935.5000   -79.9960     9.2340    10.1030     2.3600    10.0170     0.3050    80.0780
  936.0000   -79.8730     9.1390    10.1090     2.3900    10.1480     0.2720    77.2730
  936.5000   -79.7490     9.0440    10.1150     2.3880    10.2960     0.2390    75.1790
  937.0000   -79.6280     8.9090    10.1220     2.3570    10.4250     0.2780    76.5970
  937.5000   -79.8430     8.7750    10.1280     2.3160    10.4210     0.3170    78.9970
  938.0000   -80.0870     8.6410    10.2280     2.2760    10.4210     0.3540    69.3130
  938.5000   -80.2200     8.5060     9.8490     2.2430    10.4210     0.3200    58.6240
  939.0000   -80.2380     8.3720     9.4800     2.3080    10.4210     0.2810    55.0000
  939.5000   -80.3230     8.2370     9.1120     2.3650    10.4220     0.2650    53.6870
  940.0000   -80.4070     8.1030     8.7200     2.4280    10.4170     0.2780    52.8710
  940.5000   -80.4910     7.9680     8.7120     2.4110    10.2930     0.3090    56.8600
  941.0000   -80.5740     7.8340     8.7020     2.3850    10.1660     0.3390    61.5010
  941.5000   -80.6570     7.7920     8.6930     2.3580     9.9890     0.3810    66.1980
  942.0000   -80.7410     7.8660     8.6830     2.3250    10.1480     0.3640    70.8870
  942.5000   -80.8240     7.8400     8.6740     2.3470    10.3930     0.3530    75.1120
  943.0000   -80.9080     7.8150     8.6640     2.3770     9.8930     0.3680    75.5810
  943.5000   -80.9910     7.7900     8.6550     2.3850     9.8920     0.3480    75.9660
  944.0000   -80.9880     7.7660     8.6450     2.4310     9.8500     0.2680    76.3790
  944.5000   -80.6220     7.7410     8.6390     2.4720     9.5770     0.2220    76.8150
  945.0000   -80.2590     7.7190     8.6390     2.4510     9.4610     0.2160    73.0360
  945.5000   -80.0850     7.7190     8.6390     2.4680     9.4180     0.2090    70.9930
