~VERSION INFORMATION
 VERS.                2.0:   CWLS LOG ASCII STANDARD - VERSION 2.0
 WRAP.                 NO:   ONE LINE PER DEPTH STEP
~WELL INFORMATION
#MNEM.UNIT      DATA TYPE    INFORMATION
#----------   ------------   ------------------------------
 STRT.F          590.0000:   START DEPTH
 STOP.F         3123.0000:   STOP DEPTH
 STEP.F            0.5000:   STEP LENGTH
 NULL.          -999.2500:   NO VALUE
 COMP.         U. S. NAVY:   COMPANY
 WELL. U.S. NPR 3 "A" #402-33:   WELL
 FLD .             TEAPOT:   FIELD
 LOC .      S33 T39N R78W:   LOCATION
 CNTY.            NATRONA:   COUNTY
 STAT.            WYOMING:   STATE
 CTRY. UNITED STATES OF AMERICA:   COUNTRY
 SRVC.         MCCULLOUGH:   SERVICE COMPANY
 DATE.        23-OCT-1967:   LOGDATE
 API .     49025104460000:   API NUMBER
~CURVE INFORMATION
#MNEM.UNIT       API CODE    CURVE DESCRIPTION
#----------   ------------   ------------------------------
 DEPT.F                  :   
 GRN .GAPI   35 310 01 00:   GAMMA RAY FROM NEUTRON
 NEUT.NAPI   35 330 01 00:   NEUTRON
~PARAMETER INFORMATION
#MNEM.UNIT          VALUE    DESCRIPTION
#----------   ------------   ------------------------------
 EKB .F            0.0000:   Kelly bushing
 EGL .F         5160.5000:   Ground level
 EDF .F         5162.0000:   Drilling floor
 TD  .F         3123.5000:   Total depth
 CLNT.            A2DTECH:   Client Code
 PD  .                 GL:   Permanent Datum
 EPD .F            5160.5:   Elevation Permanent Datum
 LMF .                 DF:   Log Measured From
 DMF .                 DF:   Drilling Measured From
 DAPD.F               1.5:   Feet Above Permanent Datum
 DATE.        23-OCT-1967:   Date Logged [DD-MMM-YYYY]
 DL  .F            3123.5:   Depth logger
 BLI .F              3122:   Bottom log interval
 TLI .F               600:   Top log interval
 CS1 .IN           5.1875:   Casing size
 DFT .              WATER:   Type fluid in hole
 TCS .HRS             4.5:   Time Circ. stopped
 ENGI.         COWLTHORPE:   Recorded By
 WITN.           THOMASON:   Witnessed by
 ORIG.         2.5" PRINT:   Origin of data
 UWI .     49025104460000:   Unique Well ID
 DICO. A2D TECHNOLOGIES, INC.:   Digitizing Company
 LUN .               1498:   Logging unit number
~OTHER INFORMATION
~A   DEPT       GRN      NEUT   
# ...
 2169.5000    40.6328   377.8814
 2170.0000    39.4034   405.6639
 2170.5000    42.0919   413.0369
 2171.0000    43.7594   374.4776
 2171.5000    39.3822   382.0955
 2172.0000    34.3796   435.1676
 2172.5000    36.0472   430.2294
 2173.0000    37.9231   442.5323
 2173.5000    37.0894   412.9640
 2174.0000    38.7569   439.8649
 2174.5000    38.7787   452.3479
 2175.0000    37.0894   418.8791
 2175.5000    36.0472   448.4083
 2176.0000    37.9231   458.7110
 2176.5000    37.7147   418.2034
 2177.0000    37.0863   403.1040
 2177.5000    35.0050   410.1933
 2178.0000    35.2134   431.7366
 2178.5000    32.4469   421.7894
 2179.0000    30.8172   415.2871
 2179.5000    32.2495   420.2010
 2180.0000    33.3374   432.5039
 2180.5000    32.0545   471.9000
 2181.0000    32.6878   481.7416
 2181.5000    34.0041   469.4127
 2182.0000    33.4082   471.8635
 2182.5000    32.0868   466.9253
 2183.0000    34.5005   449.6721
 2183.5000    35.4218   432.4187
 2184.0000    34.7654   464.4258
 2184.5000    32.8522   446.6372
 2185.0000    31.6699   457.0124
 2185.5000    34.2140   457.1442
 2186.0000    35.6303   476.6922
 2186.5000    32.0868   471.6956
 2187.0000    34.1428   466.4020
 2187.5000    36.1601   434.6819
 2188.0000    35.7386   417.5312
 2188.5000    35.2128   430.0599
 2189.0000    33.5169   437.7852
 2189.5000    35.0599   436.1528
 2190.0000    39.7018   357.1144
 2190.5000    38.4011   390.8730
 2191.0000    35.8387   452.4303
 2191.5000    36.0472   432.1666
 2192.0000    35.6303   456.8381
 2192.5000    34.3796   444.5108
 2193.0000    32.9206   423.9343
 2193.5000    33.5459   442.0235
 2194.0000    31.8783   400.1400
 2194.5000    30.4193   412.4430
 2195.0000    30.2835   387.8006
 2195.5000    33.5459   414.8817
 2196.0000    36.0472   432.1106
 2196.5000    33.5459   451.8026
 2197.0000    34.7965   449.3274
 2197.5000    35.0050   431.4610
 2198.0000    35.2134   449.3031
 2198.5000    34.5881   451.7544
 2199.0000    31.2530   441.8897
 2199.5000    27.5011   407.3953
 2200.0000    31.2530   382.7530
 2200.5000    36.2646   392.8363
 2201.0000    37.1255   415.2445
 2201.5000    39.5906   439.9136
 2202.0000    37.2799   443.2133
 2202.5000    37.0894   414.7722
 2203.0000    39.2641   399.9941
 2203.5000    42.7172   392.6050
 2204.0000    38.3400   422.1613
 2204.5000    39.1738   421.6716
 2205.0000    36.0585   432.0133
 2205.5000    37.5097   460.1310
 2206.0000    43.7594   439.4024
 2206.5000    42.6911   444.3284
 2207.0000    39.3111   375.3639
 2207.5000    37.1054   404.9201
 2208.0000    35.2134   432.0133
 2208.5000    37.2978   404.9201
 2209.0000    37.5416   395.0681
 2209.5000    39.1001   392.6050
 2210.0000    40.7857   404.9201
 2210.5000    41.9971   422.1613
 2211.0000    40.8610   395.0681
 2211.5000    37.9256   419.8437
 2212.0000    36.3640   447.1837
 2212.5000    36.9937   473.8846
 2213.0000    37.4153   453.7635
 2213.5000    37.5062   421.9094
 2214.0000    36.2556   395.7074
 2214.5000    30.0024   415.2037
 2215.0000    29.3771   436.4501
 2215.5000    29.5855   458.5829
 2216.0000    31.2530   425.6133
 2216.5000    34.5881   441.8654
 2217.0000    35.4218   439.4024
 2217.5000    37.0894   450.7947
 2218.0000    39.5906   447.8813
 2218.5000    42.0919   424.8958
 2219.0000    46.2607   453.0944
 2219.5000    47.9283   423.1455
 2220.0000    47.7198   363.0488
 2220.5000    44.8017   375.3639
 2221.0000    42.3004   395.0681
 2221.5000    40.4244   439.4024
 2222.0000    40.3857   399.9941
 2222.5000    41.8835   382.7530
 2223.0000    42.0919   397.5311
 2223.5000    42.0919   390.1420
 2224.0000    39.3575   432.0133
 2224.5000    38.7569   409.8462
 2225.0000    39.1738   419.6982
 2225.5000    38.4394   432.0133
 2226.0000    35.2636   451.7175
 2226.5000    33.4217   462.0738
 2227.0000    31.9806   449.2544
 2227.5000    30.4193   436.9394
 2228.0000    33.6041   427.0873
 2228.5000    35.6303   471.4216
 2229.0000    28.6927   432.0133
 2229.5000    29.2976   412.3092
 2230.0000    34.1088   434.4763
 2230.5000    37.1563   422.1613
 2231.0000    38.3528   451.7175
 2231.5000    39.1738   441.8654
 2232.0000    38.5958   404.9201
 2232.5000    36.3898   392.6050
 2233.0000    32.6517   407.3831
 2233.5000    32.5574   419.9285
 2234.0000    37.0457   461.5695
 2234.5000    38.7569   429.2957
 2235.0000    38.1246   371.9118
 2235.5000    36.9611   358.1228
 2236.0000    36.4889   371.4197
 2236.5000    39.1550   400.4639
 2237.0000    40.4244   404.9201
 2237.5000    38.7569   402.4571
 2238.0000    39.7991   463.6475
 2238.5000    37.2978   483.7367
 2239.0000    37.1686   452.8690
 2239.5000    37.9231   392.1497
 2240.0000    37.5062   375.3639
 2240.5000    37.7147   399.3111
 2241.0000    39.7991   412.3092
 2241.5000    38.9653   399.9941
 2242.0000    36.2556   416.6976
 2242.5000    39.7991   426.6534
 2243.0000    37.2978   439.0848
 2243.5000    30.8361   451.7175
 2244.0000    30.4193   427.1867
 2244.5000    31.0446   445.1720
 2245.0000    35.6303   418.4813
 2245.5000    35.4218   397.5311
 2246.0000    35.4218   406.7928
 2246.5000    36.2649   417.6885
 2247.0000    36.4640   431.0024
 2247.5000    33.7300   396.1880
 2248.0000    35.2967   363.0488
 2248.5000    35.4218   372.4645
 2249.0000    32.5578   404.3189
 2249.5000    30.9538   406.2607
 2250.0000    33.1619   397.5311
 2250.5000    35.4218   437.3757
 2251.0000    34.1502   442.8714
 2251.5000    31.5253   434.2581
 2252.0000    28.4314   393.6887
 2252.5000    26.6673   422.2266
 2253.0000    27.8949   453.0411
 2253.5000    28.8182   432.0133
 2254.0000    29.4478   444.3284
 2254.5000    29.3771   451.7175
 2255.0000    30.2423   459.1065
 2255.5000    31.2530   449.2544
 2256.0000    31.2225   428.8618
 2256.5000    32.2736   481.2737
 2257.0000    32.0139   466.4956
 2257.5000    31.3450   441.8654
 2258.0000    34.0809   429.5503
 2258.5000    35.4218   451.7175
 2259.0000    34.8652   456.6435
 2259.5000    33.9300   451.7175
 2260.0000    33.4625   422.1613
 2260.5000    35.4218   412.3092
 2261.0000    38.1316   419.6982
 2261.5000    39.1738   429.5503
 2262.0000    36.2556   441.8654
 2262.5000    34.3535   451.7175
 2263.0000    33.6979   461.5695
 2263.5000    31.0446   471.4216
 2264.0000    30.0024   461.5695
 2264.5000    31.8783   441.8654
 2265.0000    35.4218   407.3831
 2265.5000    36.4640   451.7175
 2266.0000    38.1316   469.0071
 2266.5000    41.0497   451.7175
 2267.0000    42.1323   422.0885
 2267.5000    40.2160   409.8462
 2268.0000    40.4244   442.6598
 2268.5000    40.4310   471.9641
 2269.0000    40.2160   491.6421
 2269.5000    40.0075   512.2893
 2270.0000    40.6678   495.7830
 2270.5000    42.7748   401.3225
 2271.0000    44.0160   392.6050
 2271.5000    45.3626   428.8691
 2272.0000    48.4945   425.5082
 2272.5000    49.5958   419.6982
 2273.0000    47.4127   479.1549
 2273.5000    45.4270   496.0518
 2274.0000    44.0834   456.3940
 2274.5000    42.9257   456.6435
 2275.0000    49.2826   444.9442
 2275.5000    46.1475   381.9554
 2276.0000    46.3830   384.1334
 2276.5000    45.6043   392.6050
 2277.0000    42.0919   366.0282
 2277.5000    42.2413   382.4378
 2278.0000    43.7887   422.1613
 2278.5000    41.5041   379.9702
 2279.0000    37.1850   349.5507
 2279.5000    37.2754   333.4926
 2280.0000    38.8541   340.8768
 2280.5000    40.2018   339.8586
 2281.0000    39.5619   353.5677
 2281.5000    36.9785   372.3579
 2282.0000    36.2107   388.4201
 2282.5000    34.8276   408.3058
 2283.0000    35.8387   401.5892
 2283.5000    35.4218   395.1165
 2284.0000    33.7543   394.9711
 2284.5000    30.8361   386.1857
 2285.0000    27.9180   371.3025
 2285.5000    26.2505   348.7022
 2286.0000    29.5855   341.9158
 2286.5000    32.0868   342.3459
 2287.0000    34.1712   353.1967
 2287.5000    35.6303   380.2899
 2288.0000    32.5037   363.0488
 2288.5000    29.5855   392.6050
 2289.0000    29.7939   395.8600
 2289.5000    31.8783   365.5118
 2290.0000    32.7121   343.3447
 2290.5000    32.2952   375.3639
