~VERSION INFORMATION
 VERS.                2.0:   CWLS LOG ASCII STANDARD - VERSION 2.0
 WRAP.                 NO:   ONE LINE PER DEPTH STEP
~WELL INFORMATION
#MNEM.UNIT      DATA TYPE    INFORMATION
#----------   ------------   ------------------------------
 STRT.F          590.0000:   START DEPTH
 STOP.F         3123.0000:   STOP DEPTH
 STEP.F            0.5000:   STEP LENGTH
 NULL.          -999.2500:   NO VALUE
 COMP.         U. S. NAVY:   COMPANY
 WELL. U.S. NPR 3 "A" #402-33:   WELL
 FLD .             TEAPOT:   FIELD
 LOC .      S33 T39N R78W:   LOCATION
 CNTY.            NATRONA:   COUNTY
 STAT.            WYOMING:   STATE
 CTRY. UNITED STATES OF AMERICA:   COUNTRY
 SRVC.         MCCULLOUGH:   SERVICE COMPANY
 DATE.        23-OCT-1967:   LOGDATE
 API .     49025104460000:   API NUMBER
~CURVE INFORMATION
#MNEM.UNIT       API CODE    CURVE DESCRIPTION
#----------   ------------   ------------------------------
 DEPT.F                  :   
 GRN .GAPI   35 310 01 00:   GAMMA RAY FROM NEUTRON
 NEUT.NAPI   35 330 01 00:   NEUTRON
~PARAMETER INFORMATION
#MNEM.UNIT          VALUE    DESCRIPTION
#----------   ------------   ------------------------------
 EKB .F            0.0000:   Kelly bushing
 EGL .F         5160.5000:   Ground level
 EDF .F         5162.0000:   Drilling floor
 TD  .F         3123.5000:   Total depth
 CLNT.            A2DTECH:   Client Code
 PD  .                 GL:   Permanent Datum
 EPD .F            5160.5:   Elevation Permanent Datum
 LMF .                 DF:   Log Measured From
 DMF .                 DF:   Drilling Measured From
 DAPD.F               1.5:   Feet Above Permanent Datum
 DATE.        23-OCT-1967:   Date Logged [DD-MMM-YYYY]
 DL  .F            3123.5:   Depth logger
 BLI .F              3122:   Bottom log interval
 TLI .F               600:   Top log interval
 CS1 .IN           5.1875:   Casing size
 DFT .              WATER:   Type fluid in hole
 TCS .HRS             4.5:   Time Circ. stopped
 ENGI.         COWLTHORPE:   Recorded By
 WITN.           THOMASON:   Witnessed by
 ORIG.         2.5" PRINT:   Origin of data
 UWI .     49025104460000:   Unique Well ID
 DICO. A2D TECHNOLOGIES, INC.:   Digitizing Company
 LUN .               1498:   Logging unit number
~OTHER INFORMATION
~A   DEPT       GRN      NEUT   
# ...
 1926.5000    41.6750   356.6287
 1927.0000    45.2185   347.8301
 1927.5000    42.9257   357.4780
 1928.0000    40.4244   386.3121
 1928.5000    39.0536   373.9727
 1929.0000    42.9257   376.4553
 1929.5000    43.1353   401.1708
 1930.0000    41.0497   354.2469
 1930.5000    37.7147   329.5558
 1931.0000    39.3822   336.9791
 1931.5000    47.9283   356.7539
 1932.0000    45.4270   386.4101
 1932.5000    44.1482   406.1849
 1933.0000    48.5536   396.3159
 1933.5000    52.0971   381.5062
 1934.0000    55.2237   416.1030
 1934.5000    57.9334   423.8561
 1935.0000    54.8068   376.6013
 1935.5000    50.0127   336.7577
 1936.0000    47.9283   342.5340
 1936.5000    49.4007   354.1584
 1937.0000    54.6659   344.8647
 1937.5000    57.7336   365.7527
 1938.0000    58.8548   369.2668
 1938.5000    61.0600   393.9824
 1939.0000    54.8008   408.8166
 1939.5000    48.7381   389.0662
 1940.0000    48.5536   411.3114
 1940.5000    58.9068   403.9127
 1941.0000    62.9402   391.5733
 1941.5000    63.7697   366.8823
 1942.0000    64.7329   396.5385
 1942.5000    65.4372   376.7881
 1943.0000    62.9360   372.5990
 1943.5000    62.7275   401.5158
 1944.0000    62.5191   423.7610
 1944.5000    55.0370   433.6546
 1945.0000    54.8068   416.3745
 1945.5000    53.8299   416.3868
 1946.0000    48.6884   406.5177
 1946.5000    47.4390   438.6442
 1947.0000    42.4841   473.2410
 1947.5000    39.9608   411.4951
 1948.0000    40.0657   411.5074
 1948.5000    42.6252   409.0493
 1949.0000    45.3811   433.7648
 1949.5000    45.4501   446.1287
 1950.0000    40.5294   396.7344
 1950.5000    36.6573   376.9840
 1951.0000    35.7269   384.8208
 1951.5000    37.5521   396.7712
 1952.0000    37.6842   376.2002
 1952.5000    36.8427   320.2155
 1953.0000    35.8387   342.2143
 1953.5000    36.6725   377.0576
 1954.0000    38.7569   339.6872
 1954.5000    40.8413   344.3524
 1955.0000    40.8413   347.4504
 1955.5000    37.0894   359.1549
 1956.0000    36.6725   349.4480
 1956.5000    36.2556   335.1355
 1957.0000    35.4218   359.6882
 1957.5000    34.1712   373.4522
 1958.0000    32.9206   377.1678
 1958.5000    33.7543   369.0711
 1959.0000    33.5459   371.2646
 1959.5000    32.9206   378.7707
 1960.0000    32.0868   388.7470
 1960.5000    34.5881   398.7234
 1961.0000    36.6725   404.4149
 1961.5000    37.9231   372.5184
 1962.0000    37.7147   345.1564
 1962.5000    36.6552   334.2553
 1963.0000    37.7147   336.3678
 1963.5000    38.5484   337.7801
 1964.0000    39.1765   341.4152
 1964.5000    39.3888   344.0219
 1965.0000    38.4343   336.5814
 1965.5000    36.6725   357.9181
 1966.0000    37.0894   339.8162
 1966.5000    35.7512   340.5714
 1967.0000    34.5881   350.5478
 1967.5000    34.3502   349.8192
 1968.0000    34.1379   357.6563
 1968.5000    33.7543   350.2576
 1969.0000    33.5049   360.1511
 1969.5000    33.0842   337.9305
 1970.0000    32.4065   328.0593
 1970.5000    31.0956   340.4253
 1971.0000    29.1351   350.3188
 1971.5000    26.4589   352.8014
 1972.0000    29.2629   355.2840
 1972.5000    30.6277   328.1226
 1973.0000    30.8424   305.3240
 1973.5000    34.4329   328.1471
 1974.0000    37.5646   340.5110
 1974.5000    38.7569   343.8994
 1975.0000    35.0916   326.9495
 1975.5000    32.6484   352.8994
 1976.0000    31.8589   360.3226
 1976.5000    34.5526   370.2162
 1977.0000    35.3238   387.5207
 1977.5000    32.7013   345.5374
 1978.0000    33.8327   357.9013
 1978.5000    37.3166   328.2696
 1979.0000    40.4394   318.4006
 1979.5000    39.5751   330.7645
 1980.0000    35.6303   367.8316
 1980.5000    33.7543   357.5493
 1981.0000    37.9231   335.7419
 1981.5000    37.7147   350.5760
 1982.0000    37.0894   335.7664
 1982.5000    37.9231   358.2177
 1983.0000    39.5906   354.8134
 1983.5000    36.6725   338.2734
 1984.0000    32.9206   341.7457
 1984.5000    34.1712   369.1718
 1985.0000    37.0894   403.3640
 1985.5000    41.2582   391.7164
 1986.0000    41.2582   358.0973
 1986.5000    39.1738   390.9659
 1987.0000    38.9653   385.4622
 1987.5000    39.5906   353.8092
 1988.0000    40.8857   327.8456
 1988.5000    38.1316   330.6171
 1989.0000    40.8413   361.1370
 1989.5000    42.0919   382.6401
 1990.0000    41.0497   376.3130
 1990.5000    40.4213   368.0888
 1991.0000    41.8943   377.9824
 1991.5000    46.4873   332.5848
 1992.0000    48.1700   324.6493
 1992.5000    46.9967   336.8512
 1993.0000    43.6633   359.3418
 1993.5000    41.1392   350.0080
 1994.0000    38.7527   327.9918
 1994.5000    33.8960   328.5831
 1995.0000    33.5459   337.3225
 1995.5000    36.6725   362.2454
 1996.0000    37.0756   380.0859
 1996.5000    40.4299   348.4766
 1997.0000    41.0497   339.3484
 1997.5000    39.2383   319.4741
 1998.0000    38.1316   350.9864
 1998.5000    38.3400   378.1722
 1999.0000    35.8071   395.4768
 1999.5000    33.3374   388.0781
 2000.0000    36.9504   365.8574
 2000.5000    36.5766   380.6916
 2001.0000    35.4218   363.3850
 2001.5000    34.9361   391.1154
 2002.0000    31.0766   384.6313
 2002.5000    29.8512   375.7366
 2003.0000    32.5037   399.8205
 2003.5000    29.7623   420.2025
 2004.0000    30.3915   385.6180
 2004.5000    33.0372   413.3471
 2005.0000    37.4055   411.5558
 2005.5000    37.9231   392.9715
 2006.0000    36.7725   360.9147
 2006.5000    36.2556   388.7635
 2007.0000    39.6672   412.0503
 2007.5000    44.8643   417.7322
 2008.0000    45.8439   411.8036
 2008.5000    42.7831   411.3707
 2009.0000    40.3431   415.0140
 2009.5000    40.3018   428.6637
 2010.0000    43.6206   438.7281
 2010.5000    46.7725   443.6089
 2011.0000    45.4560   414.0346
 2011.5000    43.9686   382.0376
 2012.0000    41.4083   393.0289
 2012.5000    37.5842   417.7322
 2013.0000    35.2631   424.4028
 2013.5000    35.3196   393.0289
 2014.0000    37.9231   373.2663
 2014.5000    39.1738   371.9060
 2015.0000    41.2582   400.4399
 2015.5000    40.6328   427.6135
 2016.0000    38.9653   405.3806
 2016.5000    37.0894   338.6818
 2017.0000    36.4640   360.9147
 2017.5000    35.4218   390.5586
 2018.0000    34.5881   405.3806
 2018.5000    34.5881   402.9102
 2019.0000    33.7543   373.2663
 2019.5000    32.0868   360.9147
 2020.0000    34.5881   380.6773
 2020.5000    34.1712   412.9161
 2021.0000    33.1290   417.7322
 2021.5000    32.9206   412.2347
 2022.0000    34.5881   375.7281
 2022.5000    36.6725   340.8430
 2023.0000    36.6754   351.1616
 2023.5000    34.5805   388.2129
 2024.0000    33.7460   393.0289
 2024.5000    33.3374   395.8083
 2025.0000    34.6572   420.8204
 2025.5000    35.6741   422.6729
 2026.0000    35.5246   413.7794
 2026.5000    33.7543   401.3033
 2027.0000    35.9842   384.6301
 2027.5000    37.9231   375.7366
 2028.0000    38.1009   402.9102
 2028.5000    40.7798   384.9378
 2029.0000    41.0497   373.2663
 2029.5000    41.4322   373.1430
 2030.0000    40.4245   395.5017
 2030.5000    36.1214   387.8416
 2031.0000    38.3524   400.5681
 2031.5000    39.8187   420.0829
 2032.0000    40.4244   397.9696
 2032.5000    38.2461   390.5586
 2033.0000    36.9101   417.7322
 2033.5000    36.4842   432.5542
 2034.0000    34.1392   417.7322
 2034.5000    32.3984   408.2844
 2035.0000    33.1430   439.9651
 2035.5000    35.2613   432.5542
 2036.0000    37.5812   449.8464
 2036.5000    40.3181   439.9651
 2037.0000    43.7594   417.7322
 2037.5000    42.9257   427.6135
 2038.0000    42.2143   378.2070
 2038.5000    42.7864   430.0838
 2039.0000    40.8413   459.7278
 2039.5000    38.3400   491.8420
 2040.0000    35.2134   442.4355
 2040.5000    32.9206   422.3674
 2041.0000    33.3374   402.9102
 2041.5000    34.3796   413.5340
 2042.0000    34.5881   438.4815
 2042.5000    34.1712   452.6257
 2043.0000    33.5459   451.2062
 2043.5000    33.7543   421.5616
 2044.0000    35.6303   360.9147
 2044.5000    38.5484   385.3701
 2045.0000    39.7104   404.1417
 2045.5000    37.5062   449.9038
 2046.0000    35.0050   474.5497
 2046.5000    34.5881   456.5186
 2047.0000    36.8265   444.0412
 2047.5000    37.1750   436.5688
