~VERSION INFORMATION
 VERS.                2.0:   CWLS LOG ASCII STANDARD - VERSION 2.0
 WRAP.                 NO:   ONE LINE PER DEPTH STEP
~WELL INFORMATION
#MNEM.UNIT      DATA TYPE    INFORMATION
#----------   ------------   ------------------------------
 STRT.F          200.5000:   START DEPTH
 STOP.F         3012.5000:   STOP DEPTH
 STEP.F            0.5000:   STEP LENGTH
 NULL.          -999.2500:   NO VALUE
 COMP.    FENIX & SCISSON:   COMPANY
 WELL.  FENIX "AX" #75-29:   WELL
 FLD .              NPR-3:   FIELD
 LOC .      S29 T39N R78W:   LOCATION
 CNTY.            NATRONA:   COUNTY
 STAT.            WYOMING:   STATE
 CTRY. UNITED STATES OF AMERICA:   COUNTRY
 SRVC.           BIRDWELL:   SERVICE COMPANY
 DATE.        15-FEB-1978:   LOGDATE
 API .     49025105830000:   API NUMBER
~CURVE INFORMATION
#MNEM.UNIT       API CODE    CURVE DESCRIPTION
#----------   ------------   ------------------------------
 DEPT.F                  :   
 GRD .GAPI   45 310 01 00:   GAMMA RAY FROM DENSITY LOG
 CALD.IN     45 280 60 00:   CALIPER FROM DENSITY LOG
 DEN .G/C3   45 350 01 00:   BULK DENSITY
 DCOR.G/C3   45 356 01 00:   DENSITY CORRECTION
 SPR .MV     05 010 01 00:   SPONTANEOUS POTENTIAL
 SN  .OHMM   05 040 16 00:   SHORT NORMAL 16"
 RILD.OHMM   05 120 46 00:   DEEP INDUCTION RESISTIVITY
~PARAMETER INFORMATION
#MNEM.UNIT          VALUE    DESCRIPTION
#----------   ------------   ------------------------------
 EKB .F         5042.0000:   Kelly bushing
 EGL .F         5032.0000:   Ground level
 EDF .F            0.0000:   Drilling floor
 TD  .F         3010.0000:   Total depth
 DATE.        15-FEB-1978:   Date logged
 CLNT.            A2DTECH:   Client Code
 SL  . 2550' FSL & 950' FEL:   Surface Location
 PD  .                 GL:   Permanent Datum
 EPD .F              5032:   Elevation Permanent Datum
 LMF .                 KB:   Log Measured From
 DMF .                 KB:   Drilling Measured From
 DAPD.F                10:   Feet Above Permanent Datum
 DD  .F              3010:   Depth driller
 DL  .F              3010:   Depth logger
 BLI .F              3002:   Bottom log interval
 TLI .F               200:   Top log interval
 CS1 .IN            8.625:   Casing size
 CBD1.      8.625" @ 222':   Casing driller 1
 CBL1.F               222:   Casing logger 1
 BS1 .IN            7.875:   Bit size
 BSD1.F              3010:   Depth drilled with bit1
 DFT .         LIGNO/SULF:   Type fluid in hole
 DFD .                9.1:   Density
 DFV .                 33:   Viscosity
 DFPH.                 10:   pH
 DFL .                4.9:   Fluid loss
 MSS .           FLOWLINE:   Source of sample
 RMS .OHMM              2:   Rm
 MST .F                66:   Rm Meas. temp.
 RMF .OHMM            2.2:   Rmf
 MFST.F                58:   Rmf Meas. temp.
 RMC .OHMM            1.8:   Rmc
 MCST.F                60:   Rmc Meas. temp.
 MFSS.               MEAS:   Source Rmf.
 RMB .OHMM            1.7:   Rm. at BHT
 BHT .F               118:   BHT.
 TCS .HRS               5:   Time Circ. stopped
 MRT .F               118:   Maximum recorded temp.
 LUN .               2958:   Logging unit number
 LUL .               CASP:   Logging unit location
 ENGI.            POINTER:   Recorded By
 WITN.           MCGINLEY:   Witnessed by
 ORIG.           5" PRINT:   Origin of data
 UWI .     49025105830000:   Unique Well ID
 DICO. A2D TECHNOLOGIES, INC.:   Digitizing Company
~OTHER INFORMATION
~A   DEPT       GRD      CALD        DEN       DCOR        SPR         SN       RILD   
# ...
 1702.0000    94.6090     8.5940     2.5260     0.0830   -53.1670     8.6820     7.5270
 1702.5000    95.7760     8.5940     2.5350     0.0830   -54.1210     8.7380     7.5270
 1703.0000    94.2580     8.5940     2.5360     0.0850   -53.7150     8.8040     7.5270
 1703.5000    91.3130     8.5940     2.5370     0.0960   -54.4160     8.6920     7.5280
 1704.0000    90.5760     8.5940     2.5500     0.0970   -54.3290     8.5120     7.4810
 1704.5000    91.1490     8.5940     2.5560     0.0990   -52.9490     8.3300     7.4350
 1705.0000    91.2380     8.5940     2.5610     0.0980   -53.7020     8.3360     7.3890
 1705.5000    90.8600     8.5940     2.5650     0.0940   -53.7200     8.3440     7.3130
 1706.0000    92.0060     8.5940     2.5520     0.0910   -53.7580     8.3510     7.3020
 1706.5000    96.8270     8.5940     2.5380     0.0890   -53.7970     8.3590     7.2910
 1707.0000    95.8720     8.5940     2.5340     0.0900   -53.8350     8.3670     7.2800
 1707.5000    94.9370     8.5940     2.5390     0.0970   -53.8680     8.3740     7.2690
 1708.0000    94.8550     8.5940     2.5540     0.1040   -54.2250     8.3820     7.2580
 1708.5000    92.1360     8.5940     2.5640     0.1080   -54.6730     8.3900     7.2470
 1709.0000    90.9710     8.5940     2.5600     0.1090   -54.6830     8.3970     7.2360
 1709.5000    92.1000     8.5940     2.5500     0.1110   -54.6810     8.4070     7.2250
 1710.0000    98.4120     8.5940     2.5580     0.1100   -54.6810     8.3230     7.2140
 1710.5000    98.0610     8.5940     2.5630     0.1030   -54.6820     8.1970     7.2030
 1711.0000    93.6460     8.5920     2.5570     0.0930   -54.6800     8.1440     7.1920
 1711.5000    90.0560     8.5900     2.5430     0.0920   -54.6130     8.0040     7.1300
 1712.0000    88.0290     8.5880     2.5150     0.1020   -54.2370     7.8640     6.9970
 1712.5000    87.4070     8.5860     2.5250     0.1140   -53.9850     7.8090     6.8640
 1713.0000    87.4830     8.5830     2.5320     0.1320   -52.7660     7.8090     6.7920
 1713.5000    88.1580     8.5810     2.5280     0.1400   -53.4600     7.5570     6.6720
 1714.0000    89.7810     8.5790     2.5360     0.1410   -53.8800     7.1880     6.5510
 1714.5000    91.8390     8.5770     2.5340     0.1410   -54.4050     7.2010     6.3760
 1715.0000    97.0930     8.5750     2.5340     0.1390   -54.4560     7.2240     6.4100
 1715.5000   102.5730     8.5720     2.5360     0.1150   -54.3570     7.2480     6.4720
 1716.0000   103.8240     8.5700     2.5000     0.0870   -54.2830     7.4580     6.5340
 1716.5000   100.0180     8.5680     2.4720     0.0740   -54.3340     7.5960     6.5970
 1717.0000    93.2750     8.5660     2.4750     0.0950   -54.3840     7.5960     6.6350
 1717.5000    89.3240     8.5640     2.5240     0.1010   -54.4330     7.7110     6.6620
 1718.0000    87.0910     8.5610     2.5210     0.1010   -54.4800     8.3300     6.7890
 1718.5000    86.8360     8.5590     2.5170     0.1030   -54.4500     8.3150     7.0270
 1719.0000    88.1950     8.5570     2.5120     0.1020   -54.4170     8.2820     7.2540
 1719.5000    89.4350     8.5550     2.5170     0.1040   -54.3840     8.2500     7.1760
 1720.0000    89.5960     8.5570     2.5140     0.1120   -54.3510     8.2170     7.1000
 1720.5000    89.4390     8.5610     2.5090     0.1150   -54.3170     8.1780     7.0560
 1721.0000    88.7180     8.5650     2.5070     0.1170   -54.2900     8.1960     6.9960
 1721.5000    85.6320     8.5700     2.5170     0.1090   -54.7270     8.2180     7.0680
 1722.0000    81.5360     8.5740     2.5110     0.0920   -55.2180     8.2400     7.2640
 1722.5000    77.3860     8.5780     2.5000     0.0810   -55.7370     8.3350     7.3820
 1723.0000    75.1420     8.5820     2.4840     0.0800   -55.4300     8.5580     7.2980
 1723.5000    75.4000     8.5860     2.4910     0.0820   -54.7820     8.7810     7.2540
 1724.0000    78.6580     8.5900     2.5060     0.0820   -54.6810     8.8850     7.2780
 1724.5000    85.8170     8.5930     2.5110     0.0890   -54.3240     8.8850     7.2990
 1725.0000    92.7670     8.5860     2.5140     0.0880   -53.7080     8.7230     7.3210
 1725.5000    98.7940     8.5780     2.5110     0.0850   -53.9220     8.4780     7.3210
 1726.0000    97.6290     8.5710     2.5080     0.0880   -53.8120     8.2770     7.2560
 1726.5000    97.2850     8.5630     2.5160     0.0920   -53.0460     8.1030     7.1600
 1727.0000    96.5480     8.5560     2.5250     0.0960   -53.1800     8.1080     7.0640
 1727.5000    93.1440     8.5480     2.5300     0.0950   -53.5500     8.1200     6.9920
 1728.0000    90.9430     8.5410     2.5250     0.0950   -53.8930     8.1310     6.9920
 1728.5000    90.8030     8.5330     2.5200     0.0950   -53.9910     8.1430     6.9920
 1729.0000    91.7050     8.5250     2.5180     0.0850   -54.1010     8.1540     6.9920
 1729.5000    93.4790     8.5180     2.5150     0.0780   -54.5550     8.1660     6.9920
 1730.0000    95.2980     8.5100     2.5060     0.0760   -54.5740     8.1780     6.9920
 1730.5000    95.1270     8.5030     2.4970     0.0740   -54.4280     8.1440     6.9920
 1731.0000    92.9170     8.4950     2.4870     0.0760   -54.2900     8.1010     6.9920
 1731.5000    93.0310     8.4960     2.4810     0.0790   -54.3880     8.0570     6.9920
 1732.0000    92.6280     8.4980     2.4850     0.0840   -54.4930     8.0280     6.9920
 1732.5000    89.6190     8.4990     2.4880     0.0960   -54.5950     8.0830     6.9920
 1733.0000    89.9870     8.5000     2.5060     0.1020   -54.6570     8.0660     6.9920
 1733.5000    93.6870     8.5020     2.5030     0.1040   -54.4990     8.0480     6.9920
 1734.0000    98.7020     8.5030     2.5050     0.1050   -54.3430     8.0310     6.9920
 1734.5000    99.6000     8.5040     2.5130     0.1070   -54.1890     7.9740     6.9920
 1735.0000    96.4780     8.5050     2.5140     0.1080   -54.0820     7.8930     6.9960
 1735.5000    90.6890     8.5070     2.5160     0.1070   -54.0840     7.8820     7.0140
 1736.0000    90.1290     8.5080     2.5250     0.1010   -54.0840     7.8820     7.0320
 1736.5000    94.1450     8.5090     2.5170     0.1020   -54.0840     7.7760     7.0540
 1737.0000    92.8650     8.5110     2.5070     0.1100   -54.0770     7.6270     6.8690
 1737.5000    90.7290     8.5120     2.5060     0.1130   -53.9180     7.4480     6.5660
 1738.0000    88.6750     8.5130     2.4970     0.1350   -53.6610     7.2690     6.2590
 1738.5000    87.2500     8.5140     2.4890     0.1680   -53.4010     7.0650     5.8000
 1739.0000    86.3830     8.5180     2.4890     0.2110   -53.1350     6.7380     5.5900
 1739.5000    84.9890     8.5220     2.4940     0.1620   -53.1460     6.3510     5.3800
 1740.0000    84.0740     8.5270     2.4710     0.0780   -53.2150     5.9480     5.1580
 1740.5000    85.2590     8.5310     2.4070     0.0320   -53.2810     5.7240     5.0150
 1741.0000    91.6940     8.5350     2.3450     0.1120   -53.1520     5.6550     4.8850
 1741.5000    91.8210     8.5390     2.5140     0.1410   -53.0120     5.5520     4.7550
 1742.0000    87.7290     8.5440     2.5030     0.1490   -52.9340     5.6820     4.6260
 1742.5000    84.2150     8.5480     2.4810     0.1150   -53.2770     5.9220     4.5330
 1743.0000    84.4070     8.5520     2.4610     0.0700   -53.6250     5.7800     5.0070
 1743.5000    88.0230     8.5580     2.4480     0.0400   -53.9850     5.6560     5.2050
 1744.0000    92.7480     8.5650     2.4060     0.0770   -54.0050     6.1450     5.2050
 1744.5000    97.7890     8.5720     2.4740     0.0990   -53.9010     6.0450     5.1580
 1745.0000    98.5390     8.5800     2.5070     0.0950   -53.7930     5.9770     5.2760
 1745.5000    99.1980     8.5870     2.5200     0.0940   -53.6780     6.4130     5.3740
 1746.0000   104.4660     8.5940     2.5180     0.0950   -53.3900     6.5650     5.4610
 1746.5000   105.3370     8.6010     2.5100     0.0970   -53.1030     6.5830     5.5490
 1747.0000   103.1490     8.6090     2.5040     0.1040   -52.8130     6.6010     5.6100
