~VERSION INFORMATION
 VERS.                2.0:   CWLS LOG ASCII STANDARD - VERSION 2.0
 WRAP.                 NO:   ONE LINE PER DEPTH STEP
~WELL INFORMATION
#MNEM.UNIT      DATA TYPE    INFORMATION
#----------   ------------   ------------------------------
 STRT.F         2185.0000:   START DEPTH
 STOP.F         5688.0000:   STOP DEPTH
 STEP.F            0.5000:   STEP LENGTH
 NULL.          -999.2500:   NO VALUE
 COMP.       FLUOR DANIEL:   COMPANY
 WELL.   FLUOR "X" #53-10:   WELL
 FLD .           N.P.R #3:   FIELD
 LOC .      S10 T38N R78W:   LOCATION
 CNTY.            NATRONA:   COUNTY
 STAT.            WYOMING:   STATE
 CTRY. UNITED STATES OF AMERICA:   COUNTRY
 SRVC.      WESTERN ATLAS:   SERVICE COMPANY
 DATE.        23-MAR-1997:   LOGDATE
 API .     49025228470000:   API NUMBER
~CURVE INFORMATION
#MNEM.UNIT       API CODE    CURVE DESCRIPTION
#----------   ------------   ------------------------------
 DEPT.F                  :   
 CNC .DEC    42 890 03 00:   NEUTRON POROSITY SANDSTONE
 TEND.LBS    45 635 01 00:   TENSION FORM DENSITY LOG
 GRD .GAPI   45 310 01 00:   GAMMA RAY FROM DENSITY LOG
 CALD.IN     45 280 60 00:   CALIPER FROM DENSITY LOG
 ZDEN.G/C3   45 350 01 00:   BULK DENSITY
 ZCOR.G/C3   45 356 01 00:   DENSITY CORRECTION
 PE  .B/E    45 358 01 00:   PHOTOELECTRIC FACTOR
 R4SL.OHMM   07 000 00 00:   RESISTIVITY DEL 4
 R2SL.OHMM   07 000 00 00:   RESISTIVITY DEL 2
~PARAMETER INFORMATION
#MNEM.UNIT          VALUE    DESCRIPTION
#----------   ------------   ------------------------------
 EKB .F         5182.0000:   Kelly bushing
 EGL .F         5172.0000:   Ground level
 EDF .F         5181.0000:   Drilling floor
 EPD .F         5172.0000:   Permanent datum
 TD  .F         5690.0000:   Total depth
 CLNT.            A2DTECH:   Client Code
 SL  . 1183' FNL & 2118' FEL:   Surface Location
 PD  .                 GL:   Permanent Datum
 LMF .                 KB:   Log Measured From
 DMF .                 KB:   Drilling Measured From
 DAPD.F                10:   Feet Above Permanent Datum
 DATE.        23-MAR-1997:   Date Logged [DD-MMM-YYYY]
 DD  .F              5690:   Depth driller
 DL  .F              5688:   Depth logger
 BLI .F              5648:   Bottom log interval
 TLI .F              2200:   Top log interval
 CS1 .IN            9.625:   Casing size
 CBD1.      9.625" @ 446':   Casing driller 1
 CBL1.F               452:   Casing logger 1
 BS1 .IN             8.75:   Bit size
 BSD1.F              5690:   Depth drilled with bit1
 DFT .           GEL CHEM:   Type fluid in hole
 DFD .                9.8:   Density
 DFV .                 66:   Viscosity
 DFPH.                8.5:   pH
 DFL .                8.4:   Fluid loss
 MSS .              CIRC.:   Source of sample
 RMS .OHMM            1.1:   Rm
 MST .F                73:   Rm Meas. temp.
 RMF .OHMM           0.87:   Rmf
 MFST.F                73:   Rmf Meas. temp.
 MFSS.               CALC:   Source Rmf.
 RMC .OHMM           1.35:   Rmc
 MCST.F                73:   Rmc Meas. temp.
 MCSS.               CALC:   Source Rmc.
 RMB .OHMM           0.46:   Rm. at BHT
 BHT .F               174:   BHT.
 TCS .HRS               5:   Time Circ. stopped
 MRT .F               174:   Maximum recorded temp.
 LUN .            HL 6530:   Logging unit number
 LUL .          CASPER WY:   Logging unit location
 ENGI.           BROWNLOW:   Recorded By
 WITN.              HARDY:   Witnessed by
 ORIG.     2.5", 5" PRINT:   Origin of data
 UWI .     49025228470000:   Unique Well ID
 DICO. A2D TECHNOLOGIES, INC.:   Digitizing Company
~OTHER INFORMATION
~A  DEPTH      CNC       TEND        GRD       CALD       ZDEN       ZCOR         PE       R4SL       R2SL
# ...
 2659.5000     0.1839   -31.1817    94.0337     9.1271     2.5684     0.0244     3.0463  -999.2500  -999.2500
 2660.0000     0.1880   -16.1157    92.5306     9.1423     2.5654     0.0182     2.9865  -999.2500  -999.2500
 2660.5000     0.1883    -1.0495    92.2316     9.1424     2.5699     0.0214     2.9417  -999.2500  -999.2500
 2661.0000     0.1862    -0.9745    93.7413     9.1426     2.5773     0.0394     2.9268  -999.2500  -999.2500
 2661.5000     0.1826    -8.3990    93.1419     9.1577     2.5833     0.0514     2.9420  -999.2500  -999.2500
 2662.0000     0.1905    -0.8109    92.8429     9.1730     2.5683     0.0484     2.9721  -999.2500  -999.2500
 2662.5000     0.2121    -0.7374    94.3526     9.1731     2.5466     0.0424     3.0023  -999.2500  -999.2500
 2663.0000     0.2205    -8.1601    99.1748     9.1732     2.5188     0.0573     3.0474  -999.2500  -999.2500
 2663.5000     0.2229    -8.0866   105.8043     9.1675     2.5142     0.0723     3.1225  -999.2500  -999.2500
 2664.0000     0.2122   -15.5278   108.2169     9.1584     2.5378     0.0708     3.1976  -999.2500  -999.2500
 2664.5000     0.1995   -15.4359   105.0566     9.1585     2.5702     0.0543     3.2727  -999.2500  -999.2500
 2665.0000     0.1989   -15.3673   100.2404     9.1332     2.5823     0.0422     3.3628  -999.2500  -999.2500
 2665.5000     0.2019   -15.2889    97.0811     9.1135     2.5892     0.0333     3.4379  -999.2500  -999.2500
 2666.0000     0.2109   -15.2154    99.4945     9.1136     2.5892     0.0482     3.3931  -999.2500  -999.2500
 2666.5000     0.2112   -15.1419   101.3047     9.0987     2.5870     0.0527     3.1534  -999.2500  -999.2500
 2667.0000     0.2109   -15.0675   100.7052     9.0988     2.5810     0.0482     2.9286  -999.2500  -999.2500
 2667.5000     0.2110   -14.9925   100.1057     9.0989     2.5779     0.0422     2.8836  -999.2500  -999.2500
 2668.0000     0.2109   -14.9031   101.0123     9.0991     2.5802     0.0377     2.8690  -999.2500  -999.2500
 2668.5000     0.2086   -14.8296   102.5213     9.0992     2.5817     0.0332     2.9916  -999.2500  -999.2500
 2669.0000     0.2056   -14.7561   102.5242     9.1144     2.5817     0.0302     3.0342  -999.2500  -999.2500
 2669.5000     0.2053   -14.6927   101.3224     9.1145     2.5809     0.0301     3.0194  -999.2500  -999.2500
 2670.0000     0.2062   -14.6091   100.1205     9.1297     2.5801     0.0301     3.0195  -999.2500  -999.2500
 2670.5000     0.2068   -14.5356   100.1487     9.1298     2.5756     0.0331     3.0347  -999.2500  -999.2500
 2671.0000     0.2062   -21.9584   100.7288     9.1300     2.5710     0.0333     3.0348  -999.2500  -999.2500
 2671.5000     0.2050   -29.3995    98.6241     9.1287     2.5704     0.0361     3.0499  -999.2500  -999.2500
 2672.0000     0.2062   -44.3028    99.2294     9.1151     2.5808     0.0406     3.0951  -999.2500  -999.2500
 2672.5000     0.2078   -36.7304   100.4372     9.1153     2.5831     0.0421     3.1102  -999.2500  -999.2500
 2673.0000     0.2098   -14.1679   101.6450     9.1154     2.5748     0.0405     3.1196  -999.2500  -999.2500
 2673.5000     0.2104    -5.8949   102.5515     9.1155     2.5621     0.0345     3.1555  -999.2500  -999.2500
 2674.0000     0.2107    -6.5249   100.1448     9.1157     2.5553     0.0330     3.1706  -999.2500  -999.2500
 2674.5000     0.2098    -6.4330   100.1478     9.1007     2.5643     0.0405     3.1858  -999.2500  -999.2500
 2675.0000     0.2074   -21.3704   100.7531     9.1008     2.5815     0.0495     3.2184  -999.2500  -999.2500
 2675.5000     0.1993   -43.7857   102.5633     9.1009     2.5958     0.0570     3.2461  -999.2500  -999.2500
 2676.0000     0.2071   -66.2010   101.9639     9.1129     2.5975     0.0644     3.2312  -999.2500  -999.2500
 2676.5000     0.2084   -43.6203   100.4356     9.1163     2.5897     0.0659     3.1713  -999.2500  -999.2500
 2677.0000     0.2077   -21.0581    99.2589     9.1188     2.5829     0.0599     3.1266  -999.2500  -999.2500
 2677.5000     0.2051   -13.4884    98.9607     9.1316     2.5815     0.0539     3.1117  -999.2500  -999.2500
 2678.0000     0.2024   -20.9111   100.1692     9.1317     2.5800     0.0494     3.0968  -999.2500  -999.2500
 2678.5000     0.2012   -28.3358   101.3769     9.1364     2.5807     0.0464     3.0970  -999.2500  -999.2500
 2679.0000     0.2012   -43.2529   102.5847     9.1471     2.5874     0.0419     3.0972  -999.2500  -999.2500
 2679.5000     0.1997   -50.6756   102.5877     9.1472     2.5889     0.0403     3.1123  -999.2500  -999.2500
 2680.0000     0.1967   -50.5997   101.9882     9.1473     2.5814     0.0388     3.1124  -999.2500  -999.2500
 2680.5000     0.1943   -49.7258   100.4851     9.1474     2.5717     0.0388     3.1427  -999.2500  -999.2500
 2681.0000     0.1943   -42.9405    97.1748     9.1476     2.5529     0.0403     3.1727  -999.2500  -999.2500
 2681.5000     0.1946   -42.8671    96.2488     9.1477     2.5469     0.0463     3.1729  -999.2500  -999.2500
 2682.0000     0.1946   -42.7936    96.5783     9.1629     2.5499     0.0585     3.1880  -999.2500  -999.2500
 2682.5000     0.1943   -42.7201    96.2801     9.1932     2.5589     0.0747     3.1882  -999.2500  -999.2500
 2683.0000     0.1931   -42.6466    95.0279     9.2386     2.5686     0.0537     3.1883  -999.2500  -999.2500
 2683.5000     0.1847   -42.5731    92.3710     9.2538     2.5816     0.0357     3.1885  -999.2500  -999.2500
 2684.0000     0.1661   -42.4996    89.3619     9.2539     2.5851     0.0282     3.1736  -999.2500  -999.2500
 2684.5000     0.1631   -42.4261    87.5577     9.2540     2.5798     0.0267     3.1587  -999.2500  -999.2500
 2685.0000     0.1628   -42.3526    84.5486     9.2541     2.5678     0.0252     3.1589  -999.2500  -999.2500
 2685.5000     0.1656   -42.2789    81.2383     9.2543     2.5633     0.0267     3.1591  -999.2500  -999.2500
 2686.0000     0.1728   -42.2039    80.6381     9.2544     2.5610     0.0267     3.3241  -999.2500  -999.2500
 2686.5000     0.1757   -41.4794    85.7622     9.2545     2.5700     0.0281     3.5342  -999.2500  -999.2500
 2687.0000     0.1799   -27.0478    90.5845     9.2547     2.5745     0.0281     3.5943  -999.2500  -999.2500
 2687.5000     0.1932   -19.4780    93.9007     9.2548     2.5752     0.0282     3.5932  -999.2500  -999.2500
 2688.0000     0.1980   -26.9191    93.6024     9.2549     2.5767     0.0326     3.5125  -999.2500  -999.2500
 2688.5000     0.1983   -41.8381    93.6054     9.2550     2.5872     0.0386     3.3849  -999.2500  -999.2500
 2689.0000     0.1938   -56.7388    93.3071     9.2552     2.5917     0.0431     3.3550  -999.2500  -999.2500
 2689.5000     0.1842   -56.6653    93.6120     9.2553     2.5879     0.0460     3.3702  -999.2500  -999.2500
 2690.0000     0.1797   -56.5918    92.1089     9.2554     2.5664     0.0400     3.4003  -999.2500  -999.2500
 2690.5000     0.1902   -56.5183    91.5087     9.2555     2.5526     0.0355     3.4155  -999.2500  -999.2500
 2691.0000     0.1998   -56.4448    93.0184     9.2557     2.5542     0.0385     3.4156  -999.2500  -999.2500
 2691.5000     0.2064   -56.3713    95.4310     9.2558     2.5632     0.0430     3.4607  -999.2500  -999.2500
 2692.0000     0.2070   -56.2969    97.8436     9.2559     2.5646     0.0475     3.4309  -999.2500  -999.2500
 2692.5000     0.2052   -56.2219    97.8466     9.2561     2.5601     0.0400     3.1762  -999.2500  -999.2500
 2693.0000     0.2077   -56.1325    96.6447     9.2562     2.5511     0.0278     2.9814  -999.2500  -999.2500
 2693.5000     0.2210   -41.0665    96.6476     9.2714     2.5226     0.0199     2.8766  -999.2500  -999.2500
 2694.0000     0.2386   -40.9930    99.0602     9.3017     2.4761     0.0099     2.8318  -999.2500  -999.2500
 2694.5000     0.2624   -40.9195   106.0204     9.3320     2.4349     0.0219     2.8643  -999.2500  -999.2500
 2695.0000     0.2882   -40.8460   120.9628     9.3623     2.4536     0.0489     2.9221  -999.2500  -999.2500
 2695.5000     0.2894   -40.7725   133.9190     9.3624     2.4701     0.0698     2.9822  -999.2500  -999.2500
