~VERSION INFORMATION
 VERS.                2.0:   CWLS LOG ASCII STANDARD - VERSION 2.0
 WRAP.                 NO:   ONE LINE PER DEPTH STEP
~WELL INFORMATION
#MNEM.UNIT      DATA TYPE    INFORMATION
#----------   ------------   ------------------------------
 STRT.F          906.0000:   START DEPTH
 STOP.F         3426.0000:   STOP DEPTH
 STEP.F            0.5000:   STEP LENGTH
 NULL.          -999.2500:   NO VALUE
 COMP.    FENIX & SCISSON:   COMPANY
 WELL. FENIX NPR 3 "AX" #46-11:   WELL
 FLD .                NPR:   FIELD
 LOC .      S11 T38N R78W:   LOCATION
 CNTY.            NATRONA:   COUNTY
 STAT.            WYOMING:   STATE
 CTRY. UNITED STATES OF AMERICA:   COUNTRY
 SRVC.       SCHLUMBERGER:   SERVICE COMPANY
 DATE.        16-MAY-1981:   LOGDATE
 API .     49025108720000:   API NUMBER
~CURVE INFORMATION
#MNEM.UNIT       API CODE    CURVE DESCRIPTION
#----------   ------------   ------------------------------
 DEPT.F                  :   
 SPR .MV     07 010 01 00:   SPONTANEOUS POTENTIAL
 ILD .OHMM   07 120 46 00:   INDUCTION LOG DEEP RESISTIVITY
 SFL .OHMM   07 220 01 00:   SHALLOW FOCUSED LOG RESISTIVITY
 TENR.LBS    07 635 01 00:   TENSION
 ILM .OHMM   07 120 44 00:   INDUCTION LOG MEDIUM RESISTIVITY
 CALD.IN     45 280 60 00:   CALIPER FROM DENSITY LOG
 GRD .GAPI   45 310 01 00:   GAMMA RAY FROM DENSITY LOG
 RHOB.G/C3   45 350 01 00:   BULK DENSITY
 TEND.LBS    45 635 01 00:   TENSION FROM DENSITY LOG
 CORR.G/C3   45 356 01 00:   DENSITY CORRECTION
~PARAMETER INFORMATION
#MNEM.UNIT          VALUE    DESCRIPTION
#----------   ------------   ------------------------------
 EKB .F         5199.0000:   Kelly bushing
 EGL .F         5189.0000:   Ground level
 EDF .F            0.0000:   Drilling floor
 TD  .F         3422.0000:   Total depth
 DATE.        16-MAY-1981:   Date logged
 CLNT.            A2DTECH:   Client Code
 SL  . 1867' FSL & 2100' FWL:   Surface Location
 PD  .                 GL:   Permanent Datum
 EPD .F              5189:   Elevation Permanent Datum
 LMF .                 KB:   Log Measured From
 DMF .                 KB:   Drilling Measured From
 DAPD.F                10:   Feet Above Permanent Datum
 DD  .F              3421:   Depth driller
 DL  .F              3422:   Depth logger
 BLI .F              3416:   Bottom log interval
 TLI .F               926:   Top log interval
 CS1 .IN            8.625:   Casing size
 CBD1.      8.625" @ 925':   Casing driller 1
 CBL1.F               926:   Casing logger 1
 BS1 .IN            7.875:   Bit size
 BSD1.F              3421:   Depth drilled with bit1
 DFT .                FGM:   Type fluid in hole
 DFD .                8.5:   Density
 DFV .                 60:   Viscosity
 DFPH.                  9:   pH
 DFL .                 12:   Fluid loss
 MSS .               PITS:   Source of sample
 RMS .OHMM           1.17:   Rm
 MST .F                73:   Rm Meas. temp.
 RMF .OHMM           1.03:   Rmf
 MFST.F                73:   Rmf Meas. temp.
 MFSS.               MEAS:   Source Rmf.
 RMB .OHMM            .71:   Rm. at BHT
 BHT .F               120:   BHT.
 TCS .HRS            1200:   Time Circ. stopped
 TLAB.HRS            1745:   Time logger at bottom
 MRT .F               120:   Maximum recorded temp.
 LUN .               8133:   Logging unit number
 LUL .               CSPR:   Logging unit location
 ENGI.             TAYLOR:   Recorded By
 WITN.              RIVAS:   Witnessed by
 ORIG.           5" PRINT:   Origin of data
 UWI .     49025108720000:   Unique Well ID
 DICO. A2D TECHNOLOGIES, INC.:   Digitizing Company
~OTHER INFORMATION
~A   DEPT      SPR        ILD        SFL       TENR        ILM       CALD         GRD        RHOB     TEND        CORR  
# ...
 2882.5000    15.5350    27.6170    27.8080   986.8380    26.0620     7.9900    75.8100     2.4030   986.4810     0.0170
 2883.0000    15.2320    27.3810    27.8080   986.6230    25.9470     7.9890    72.0120     2.4060   986.2850     0.0200
 2883.5000    15.3630    27.3040    27.8080   986.4080    25.8440     7.9880    71.1850     2.4100   986.0900     0.0160
 2884.0000    15.4100    27.3040    28.9180   986.1930    25.8440     7.9880    72.9560     2.4130   985.8950     0.0130
 2884.5000    15.4880    27.4140    29.9210   985.9780    26.6010     7.9870    75.0570     2.4170   985.7000     0.0170
 2885.0000    15.5620    27.9080    29.7860   985.7630    27.0430     7.9860    74.0620     2.4260   985.5040     0.0280
 2885.5000    15.6310    28.4010    29.4530   985.5480    27.4840     7.9850    71.2280     2.4450   985.3090     0.0390
 2886.0000    15.7050    28.8940    30.9810   985.3330    27.9260     7.9840    68.4180     2.4630   985.1140     0.0520
 2886.5000    15.7750    29.3880    33.0470   985.1180    28.3680     7.9830    67.5390     2.4680   984.9180     0.0540
 2887.0000    15.8490    29.9210    35.2820   984.9030    28.8450     7.9820    68.8220     2.4410   984.7230     0.0460
 2887.5000    15.9180    29.4120    35.2820   984.6880    28.3250     7.9820    69.5370     2.4200   984.5280     0.0310
 2888.0000    15.9900    28.8570    34.6420   984.4730    27.7590     7.9810    69.2120     2.3970   984.3330     0.0160
 2888.5000    15.9620    28.3020    31.4860   984.2580    27.1920     7.9800    70.9140     2.3990   984.1370     0.0100
 2889.0000    15.8990    27.7470    27.3040   985.0630    26.6260     7.9790    72.8160     2.4090   983.9420     0.0230
 2889.5000    15.8380    27.1920    27.3040   989.0120    26.0590     7.9780    73.1670     2.4170   983.7470     0.0270
 2890.0000    15.7780    26.6370    27.3040   992.9610    25.4930     7.9770    71.3390     2.4120   983.5520     0.0170
 2890.5000    15.7170    26.0820    27.2260   996.9100    24.9150     7.9760    69.4930     2.4020   983.3560     0.0080
 2891.0000    15.6570    25.3750    27.0250  1000.8600    24.4630     7.9750    67.6040     2.4020   983.1610     0.0100
 2891.5000    15.5960    25.3750    26.8250  1004.8090    24.4630     7.9750    67.2070     2.4050   982.9660     0.0120
 2892.0000    15.5350    25.3750    26.6240  1008.7580    24.4630     7.9740    68.8350     2.4080   982.7700     0.0130
 2892.5000    15.4750    25.3750    26.3220  1012.7080    24.6400     7.9730    70.6270     2.4120   982.5750     0.0120
 2893.0000    15.4150    25.3750    26.9450  1016.6570    24.8780     7.9720    72.4570     2.4430   982.3800     0.0120
 2893.5000    15.3510    24.9550    28.2160  1020.6060    24.6790     7.9710    74.8540     2.4780   982.1850     0.0220
 2894.0000    15.2980    24.5660    30.1240  1024.5551    23.7890     7.9700    79.0970     2.4990   981.9890     0.0390
 2894.5000    15.2360    24.1780    29.8130  1028.5050    22.7350     7.9690    83.3260     2.4870   991.9440     0.0290
 2895.0000    15.4870    23.7890    26.8670  1032.4540    22.7350     7.9690    84.4660     2.4600  1003.8860     0.0170
 2895.5000    15.8430    23.4010    24.4630  1036.4030    22.7350     7.9680    84.7380     2.4420  1023.4140     0.0170
 2896.0000    16.1930    23.0120    24.4630  1040.3521    22.9790     7.9670    84.3830     2.4290  1042.2960     0.0230
 2896.5000    16.5800    23.6320    24.4630  1043.7380    23.6450     7.9660    81.4910     2.4160  1042.9430     0.0270
 2897.0000    16.7960    24.1290    25.3750  1035.7690    24.3100     7.9650    76.8210     2.4030  1028.1340     0.0160
 2897.5000    16.6860    24.6270    26.3220  1028.7970    24.9750     7.9640    72.1590     2.3990  1013.3260     0.0070
 2898.0000    16.6170    25.1240    28.1790  1021.8250    25.6410     7.9630    67.4710     2.4100   998.5170     0.0110
 2898.5000    16.5370    25.6210    29.9210  1014.8520    26.3060     7.9630    64.7900     2.4230   983.7090     0.0200
 2899.0000    16.4560    26.1180    29.6400  1007.8800    26.7320     7.9620    64.7400     2.4230   982.1330     0.0240
 2899.5000    16.3790    26.6150    29.2100  1000.9080    26.4220     7.9610    65.2660     2.4170   982.5160     0.0240
 2900.0000    16.2990    26.8080    28.7790   993.9350    26.1110     7.9600    68.1360     2.4090   982.8990     0.0210
 2900.5000    16.2200    26.5630    28.3490   986.9630    25.8010     7.9590    72.0420     2.4030   983.2820     0.0160
 2901.0000    16.1410    26.2550    27.9180   984.0950    25.4900     7.9580    76.1530     2.4070   983.6650     0.0120
 2901.5000    16.0620    25.9470    27.4880   984.0950    25.1800     7.9570    76.4920     2.4110   984.0480     0.0080
 2902.0000    15.9830    25.6400    27.3040   984.0950    24.8690     7.9570    74.9340     2.4140   984.4310     0.0130
 2902.5000    15.9030    25.3320    27.3040   984.0950    24.5590     7.9560    73.4230     2.4180   984.8140     0.0160
 2903.0000    15.8240    25.0240    27.3040   984.0950    24.2480     7.9550    72.8720     2.4220   985.1970     0.0190
 2903.5000    15.7460    24.7170    26.9000   984.0950    23.9380     7.9540    74.7650     2.4330   985.5800     0.0230
 2904.0000    15.6590    24.4090    26.3610   984.0950    23.6280     7.9530    79.2120     2.4440   985.9630     0.0260
 2904.5000    15.6160    24.1020    25.8230   984.0950    23.3170     7.9520    83.5260     2.4530   986.3460     0.0290
 2905.0000    15.6460    23.7940    24.9150   984.0950    23.0070     7.9510    85.9930     2.4430   986.7300     0.0250
 2905.5000    15.6670    23.5070    25.0720   984.0950    22.6960     7.9510    83.4570     2.4240   987.1130     0.0220
 2906.0000    15.6900    23.2670    25.5700   984.0950    22.3860     7.9500    78.6350     2.4040   987.4960     0.0190
 2906.5000    15.7140    23.0270    26.3220   984.0950    22.0750     7.9490    75.3910     2.4090   987.8790     0.0170
 2907.0000    15.7370    22.7860    26.1500   984.0950    21.9180     7.9490    76.2750     2.4190   988.2620     0.0160
 2907.5000    15.7610    22.5460    25.8010   984.0950    21.9180     7.9490    78.3650     2.4290   988.6450     0.0190
 2908.0000    15.7840    22.3230    25.4520   984.0950    21.9180     7.9490    76.5110     2.4330   989.0280     0.0220
 2908.5000    15.8070    22.9110    24.9150   984.0950    21.9180     7.9490    73.9650     2.4130   989.4110     0.0250
 2909.0000    15.8300    23.1740    25.0930   984.0950    21.9640     7.9490    71.3480     2.3920   989.7940     0.0250
 2909.5000    15.8540    23.4370    25.4810   984.0950    22.0650     7.9490    71.0320     2.3760   990.1770     0.0190
 2910.0000    15.8770    23.5830    25.8680   984.0950    22.1650     7.9490    73.2460     2.3810   990.5600     0.0140
 2910.5000    15.9000    23.6390    26.3220   984.0950    22.2660     7.9490    75.5710     2.3890   990.9430     0.0140
 2911.0000    15.9240    23.6930    26.2120   984.0950    22.3670     7.9490    75.8990     2.3980   991.3260     0.0150
 2911.5000    15.9470    23.7470    26.0810   984.0950    22.4680     7.9490    75.3260     2.4070   991.7090     0.0160
 2912.0000    15.9700    23.8010    25.9490   984.0950    22.5680     7.9490    74.8290     2.4150   992.0920     0.0140
 2912.5000    15.9940    23.8550    25.8440   984.0950    22.6690     7.9490    74.8570     2.4150   992.4760     0.0130
 2913.0000    16.0170    23.9090    26.0830   984.0950    22.7700     7.9490    75.9770     2.4130   992.8590     0.0120
 2913.5000    16.0400    23.9640    26.3820   984.0950    22.8710     7.9490    77.1420     2.4100   993.2420     0.0110
 2914.0000    16.0640    24.0190    26.8080   984.0950    22.9710     7.9490    78.2650     2.4090   993.6250     0.0110
 2914.5000    16.0870    24.0190    26.5390   984.0950    23.0720     7.9490    77.9610     2.4120   994.0080     0.0160
 2915.0000    16.1100    24.0870    26.0700   984.0950    23.1730     7.9490    77.5460     2.4110   994.3910     0.0180
 2915.5000    16.1340    24.1450    25.6000   984.0950    23.2730     7.9500    77.4120     2.4050   994.7740     0.0130
