~VERSION INFORMATION
 VERS.                2.0:   CWLS LOG ASCII STANDARD - VERSION 2.0
 WRAP.                 NO:   ONE LINE PER DEPTH STEP
~WELL INFORMATION
#MNEM.UNIT      DATA TYPE    INFORMATION
#----------   ------------   ------------------------------
 STRT.F          417.0000:   START DEPTH
 STOP.F         4133.0000:   STOP DEPTH
 STEP.F            0.5000:   STEP LENGTH
 NULL.          -999.2500:   NO VALUE
 COMP.    FENIX & SCISSON:   COMPANY
 WELL. FENIX  "LX" #18-11:   WELL
 FLD .              NPR 3:   FIELD
 LOC .      S11 T38N R78W:   LOCATION
 CNTY.            NATRONA:   COUNTY
 STAT.            WYOMING:   STATE
 CTRY. UNITED STATES OF AMERICA:   COUNTRY
 SRVC.       SCHLUMBERGER:   SERVICE COMPANY
 DATE.        14-JAN-1978:   LOGDATE
 API .     49025105590000:   API NUMBER
~CURVE INFORMATION
#MNEM.UNIT       API CODE    CURVE DESCRIPTION
#----------   ------------   ------------------------------
 DEPT.F                  :   
 SPR .MV     07 010 01 00:   SPONTANEOUS POTENTIAL
 SFL .OHMM   07 220 01 00:   SHALLOW FOCUSED LOG RESISTIVITY
 ILD .OHMM   07 120 46 00:   DEEP INDUCTION RESISTIVITY
 ILM .OHMM   07 120 44 00:   INDUCTION LOG MEDIUM RESISTIVITY
 CALD.IN     45 280 60 00:   CALIPER FROM DENSITY LOG
 GRD .GAPI   45 310 01 00:   GAMMA RAY FROM DENSITY LOG
 RHOB.G/C3   45 350 01 00:   BULK DENSITY
 CORR.G/C3   45 356 01 00:   DENSITY CORRECTION
 NPHI.DEC    42 890 03 00:   NEUTRON POROSITY SANDSTONE
~PARAMETER INFORMATION
#MNEM.UNIT          VALUE    DESCRIPTION
#----------   ------------   ------------------------------
 EKB .F         5220.0000:   Kelly bushing
 EGL .F         5210.0000:   Ground level
 EDF .F            0.0000:   Drilling floor
 TD  .F         4125.0000:   Total depth
 DATE.        14-JAN-1978:   Date logged
 CLNT.            A2DTECH:   Client Code
 SL  . 330' FSL & 530' FWL:   Surface Location
 PD  .                 GL:   Permanent Datum
 EPD .F              5210:   Elevation Permanent Datum
 LMF .                 KB:   Log Measured From
 DMF .                 KB:   Drilling Measured From
 DAPD.F                10:   Feet Above Permanent Datum
 DD  .F              4125:   Depth driller
 DL  .F              4121:   Depth logger
 BLI .F              4116:   Bottom log interval
 TLI .F               427:   Top log interval
 CS1 .IN            8.625:   Casing size
 CBD1.      8.625" @ 513':   Casing driller 1
 CBL1.F               427:   Casing logger 1
 BS1 .IN            7.875:   Bit size
 BSD1.F              4125:   Depth drilled with bit1
 DFT .                KCL:   Type fluid in hole
 DFD .                8.8:   Density
 DFV .                 40:   Viscosity
 DFPH.                 12:   pH
 DFL .                7.4:   Fluid loss
 MSS .           MUD TANK:   Source of sample
 RMS .OHMM           .418:   Rm
 MST .F                60:   Rm Meas. temp.
 RMF .OHMM           .343:   Rmf
 MFST.F                60:   Rmf Meas. temp.
 MFSS.               MEAS:   Source Rmf.
 RMB .OHMM            .20:   Rm. at BHT
 BHT .F               123:   BHT.
 TCS .HRS            0600:   Time Circ. stopped
 TLAB.HRS            0845:   Time logger at bottom
 MRT .F               123:   Maximum recorded temp.
 LUN .               8035:   Logging unit number
 LUL .               CSPR:   Logging unit location
 ENGI.             MARTIN:   Recorded By
 WITN.         HARRINGTON:   Witnessed by
 ORIG.      2.5" 5" PRINT:   Origin of data
 UWI .     49025105590000:   Unique Well ID
 DICO. A2D TECHNOLOGIES, INC.:   Digitizing Company
~OTHER INFORMATION
~A   DEPT      SPR        SFL        ILD        ILM       CALD         GRD      RHOB       CORR       NPHI   
# ...
 1877.0000    15.5920  -999.2500   276.2970  2000.0000     8.4120   113.1030     2.5380    -0.2090     0.3760
 1877.5000    15.0190  -999.2500   362.6630  2000.0000     8.4120   112.4440     2.5430    -0.1940     0.3840
 1878.0000    14.7050  -999.2500   470.4530  2000.0000     8.4120   110.6150     2.5510    -0.1800     0.3920
 1878.5000    14.5010  -999.2500   391.0160  2000.0000     8.4120   108.9830     2.5080    -0.1770     0.3990
 1879.0000    14.0990  -999.2500   746.0340  2000.0000     8.4120   107.1580     2.4120    -0.1800     0.4070
 1879.5000    13.4700  -999.2500  1341.5470  1670.8820     8.4120   107.2810     2.2950    -0.1830     0.4190
 1880.0000    12.8270  -999.2500  1790.1160  1301.0170     8.4120   107.4690     2.2440    -0.1880     0.4150
 1880.5000    12.1840  -999.2500  1876.2209    30.1130     8.4120   107.6580     2.1830    -0.2000     0.4080
 1881.0000    11.5420  -999.2500  1962.3260    10.9850     8.4120   108.7220     2.2420    -0.2120     0.4000
 1881.5000    10.8980  -999.2500  2000.0000    10.8130     8.4120   111.2940     2.3150    -0.2230     0.4010
 1882.0000    10.2600  -999.2500  1786.4620    10.8130     8.4120   113.5820     2.4180    -0.2350     0.4020
 1882.5000     9.8790  -999.2500  1379.1740    11.2620     8.4120   116.2430     2.4580    -0.2410     0.4030
 1883.0000    10.0310  -999.2500   979.0430    11.5730     8.4120   116.5990     2.4760    -0.2460     0.4040
 1883.5000    10.3660  -999.2500   578.9120    11.8840     8.4120   114.9100     2.4820    -0.2470     0.4050
 1884.0000    10.7000  -999.2500   340.3720    12.1940     8.4120   111.8980     2.4920    -0.2460     0.4060
 1884.5000    11.0340  -999.2500   387.4170    12.3080     8.4120   109.0570     2.5050    -0.2460     0.4070
 1885.0000    11.3650  -999.2500   589.9920    12.1400     8.4120   107.8440     2.5170    -0.2460     0.4080
 1885.5000    11.7240  -999.2500   781.5180    12.0240     8.4120   108.9860     2.5200    -0.2450     0.4090
 1886.0000    11.7600  -999.2500   973.0440    11.9080     8.4120   109.3010     2.5110    -0.2450     0.4100
 1886.5000    11.6070  -999.2500  1032.4790    11.8610     8.4120   107.5250     2.5010    -0.2450     0.4060
 1887.0000    11.4740  -999.2500   759.0920    12.1380     8.4120   106.2040     2.5070    -0.2450     0.3890
 1887.5000    11.4770  -999.2500   533.4390    12.4720     8.4120   107.7410     2.5160    -0.2450     0.3720
 1888.0000    11.4770  -999.2500   359.7910    12.8070     8.4120   111.9080     2.5240    -0.2450     0.3580
 1888.5000    11.4770  -999.2500   370.9630    12.8900     8.4120   115.7190     2.5310    -0.2450     0.3650
 1889.0000    11.4800  -999.2500   390.9950    12.5150     8.4120   120.1470     2.5410    -0.2450     0.3740
 1889.5000    11.4650  -999.2500   399.5180    12.1330     8.4120   121.4010     2.5360    -0.2440     0.3840
 1890.0000    11.0750  -999.2500   402.0160    11.8610     8.4120   119.6470     2.5210    -0.2410     0.3790
 1890.5000    10.6750  -999.2500   306.6910    12.1480     8.4120   116.4550     2.5060    -0.2390     0.3740
 1891.0000    10.2770  -999.2500   242.3160    12.3710     8.4120   115.3640     2.5050    -0.2370     0.3660
 1891.5000     9.8800  -999.2500   226.5930    12.5940     8.4120   117.5790     2.5090    -0.2340     0.3690
 1892.0000     9.4830  -999.2500   233.5580    12.8180     8.4120   119.4730     2.5140    -0.2320     0.3760
 1892.5000     9.0770  -999.2500   261.4180    12.8900     8.4120   121.6610     2.5200    -0.2290     0.3840
 1893.0000     8.4220  -999.2500   287.6550    12.7570     8.4120   122.1690     2.5160    -0.2270     0.3910
 1893.5000     7.4880  -999.2500   303.4610    12.5700     8.4120   119.9630     2.4880    -0.2270     0.3990
 1894.0000     6.1340  -999.2500   319.2660    12.4220     8.4120   118.0080     2.4440    -0.2340     0.4060
 1894.5000     4.4500  -999.2500   405.7500    13.5580     8.4120   116.3190     2.4180    -0.2390     0.4130
 1895.0000     2.9110  -999.2500   445.0610    14.4950     8.4120   115.4230     2.3980    -0.2320     0.4210
 1895.5000     0.0140  -999.2500   650.7530    14.9460     8.4120   114.5390     2.3910    -0.2240     0.4250
 1896.0000    -1.6720  -999.2500   878.3260    14.6640     8.4120   114.1540     2.4100    -0.2240     0.4300
 1896.5000    -6.4480  -999.2500  1122.0861    13.8920     8.4120   115.8160     2.4380    -0.2270     0.4340
 1897.0000   -11.1440  -999.2500  1005.3920    13.1200     8.4120   116.3360     2.4540    -0.2290     0.4380
 1897.5000   -15.8290  -999.2500   821.5120    12.4220     8.4120   115.8440     2.4740    -0.2150     0.4400
 1898.0000   -21.7220  -999.2500   662.3850    12.2210     8.4120   115.6100     2.4950    -0.2100     0.4330
 1898.5000   -30.2840  -999.2500   656.2880    12.0380     8.4120   116.6310     2.5170    -0.2030     0.4260
 1899.0000   -38.5510  -999.2500   986.7160    11.8540     8.4120   119.5220     2.5210    -0.2060     0.4190
 1899.5000   -41.9570  -999.2500  1228.7190    11.7520     8.4120   122.4570     2.5120    -0.2170     0.4120
 1900.0000   -41.3370  -999.2500  1453.7030    11.7520     8.4120   122.9580     2.5040    -0.2180     0.4040
 1900.5000   -40.9070  -999.2500  1221.5260    11.7520     8.4120   121.7700     2.4950    -0.2190     0.3970
 1901.0000   -40.8370  -999.2500   785.6840    11.7520     8.4120   119.3980     2.4870    -0.2190     0.3920
 1901.5000   -37.7250  -999.2500   394.6490    11.7520     8.4120   118.7600     2.4800    -0.2150     0.3920
 1902.0000   -36.1000  -999.2500   340.3720    11.7530     8.4120   121.4820     2.4870    -0.2090     0.3930
 1902.5000   -35.7200  -999.2500   337.2390    11.7560     8.4120   125.2050     2.4950    -0.2010     0.3940
 1903.0000   -34.8870  -999.2500   432.2440    11.6350     8.4120   129.0510     2.4890    -0.2090     0.3950
 1903.5000   -33.0550  -999.2500   509.2560    11.6500     8.4120   130.1900     2.4810    -0.2180     0.3960
 1904.0000   -33.3460  -999.2500   581.9500    11.6440     8.4120   127.4710     2.4800    -0.2190     0.3970
 1904.5000   -34.1260  -999.2500   477.4120    11.9310     8.4120   125.2850     2.4940    -0.2040     0.3980
 1905.0000   -34.0620  -999.2500   298.5090    12.3520     8.4120   127.4160     2.5060    -0.1880     0.3990
 1905.5000   -32.5450  -999.2500   130.1020    12.7740     8.4120   131.2810     2.5020    -0.1830     0.4000
 1906.0000   -31.1310  -999.2500   180.5900    13.3760     8.4120   132.5050     2.4970    -0.1950     0.4000
 1906.5000   -32.9180  -999.2500   499.9690    13.1630     8.4120   130.0510     2.4680    -0.2090     0.4000
 1907.0000   -34.9880  -999.2500   819.3470    12.7890     8.4120   126.0920     2.4420    -0.2250     0.4000
 1907.5000   -34.7750  -999.2500  1153.6500    12.4220     8.4120   122.1650     2.4140    -0.2370     0.4000
 1908.0000   -30.5990  -999.2500   592.8130    12.4220     8.4120   118.0890     2.3980    -0.2460     0.3970
 1908.5000   -28.5120  -999.2500   644.2610    13.0450     8.4120   113.9770     2.3920    -0.2430     0.3930
 1909.0000   -28.9910  -999.2500  1465.4260    13.4910     8.4120   111.2470     2.3990    -0.2350     0.3900
 1909.5000   -29.9960  -999.2500  1990.7740    13.9380     8.4120   111.9690     2.4150    -0.2210     0.3880
 1910.0000   -31.0160  -999.2500  1990.7740    14.0090     8.4110   115.3730     2.4310    -0.2090     0.3910
 1910.5000   -32.4620  -999.2500  1922.0590    13.5570     8.4110   119.1100     2.4360    -0.2140     0.3960
 1911.0000   -36.0430  -999.2500  1489.5601    13.3760     8.4110   121.2860     2.4410    -0.2220     0.4020
 1911.5000   -41.5700  1620.3270  1143.5610    13.6260     8.4110   119.9520     2.4340    -0.2290     0.4070
 1912.0000   -47.0030   894.5130  1594.0450    14.4590     8.4110   114.4780     2.4260    -0.2360     0.4130
 1912.5000   -49.5320     0.2180  1954.2939    15.3680     8.4070   109.6920     2.3970    -0.2410     0.4190
 1913.0000   -49.0170     0.2030  1972.4500    16.2770     8.4420   104.5290     2.3730    -0.2390     0.4150
