~VERSION INFORMATION
 VERS.                2.0:   CWLS LOG ASCII STANDARD - VERSION 2.0
 WRAP.                 NO:   ONE LINE PER DEPTH STEP
~WELL INFORMATION
#MNEM.UNIT      DATA TYPE    INFORMATION
#----------   ------------   ------------------------------
 STRT.F            7.0000:   START DEPTH
 STOP.F         3304.0000:   STOP DEPTH
 STEP.F            0.5000:   STEP LENGTH
 NULL.          -999.2500:   NO VALUE
 COMP. LAWRENCE ALLISON ASSOC. WEST:   COMPANY
 WELL. LAWRENCE NPR  "X" #18-2:   WELL
 FLD .              N P R:   FIELD
 LOC .       S2 T38N R78W:   LOCATION
 CNTY.            NATRONA:   COUNTY
 STAT.            WYOMING:   STATE
 CTRY. UNITED STATES OF AMERICA:   COUNTRY
 SRVC.      DRESSER ATLAS:   SERVICE COMPANY
 DATE.        28-APR-1986:   LOGDATE
 API .     49025110710000:   API NUMBER
~CURVE INFORMATION
#MNEM.UNIT       API CODE    CURVE DESCRIPTION
#----------   ------------   ------------------------------
 DEPT.F                  :   
 TEND.LBS    45 635 01 00:   TENSION FROM DENSITY LOG
 DEN .G/C3   45 635 01 00:   DENSITY
 CORR.G/C3   45 356 01 00:   DENSITY CORRECTION
 CNC .DEC    42 890 03 00:   NEUTRON PORISITY SANDSTONE
 TENR.LBS    07 635 01 00:   TENSION FROM RESISTIVITY
 CALR.IN     07 280 01 00:   CALIPER FROM RESISTIVITY
 SPR .MV     07 010 01 00:   SPONTANEOUS POTENTIAL
 GRR .GAPI   07 310 01 00:   GAMMA RAY FROM RESISTIVITY
 RFOC.OHMM   07 220 04 00:   RESISTIVITY FOCUSED LOG RES.
 RILD.OHMM   07 120 46 00:   DEEP INDUCTION RESISTIVITY
 RILM.OHMM   07 120 44 00:   INDUCTION LOG MEDIUM RESISTIVITY
 TENS.LBS    60 635 01 00:   TENSION
 AC  .US/F   60 250 00 00:   ACCOUSTIC
~PARAMETER INFORMATION
#MNEM.UNIT          VALUE    DESCRIPTION
#----------   ------------   ------------------------------
 EKB .F         5142.0000:   Kelly bushing
 EGL .F         5130.0000:   Ground level
 EDF .F            0.0000:   Drilling floor
 EPD .F         5130.0000:   Permanent datum
 TD  .F         3296.0000:   Total depth
 DATE.        28-APR-1986:   Date logged
 CLNT.            A2DTECH:   Client Code
 SL  . 210' FSL & 204' FWL:   Surface Location
 PD  .                 GL:   Permanent Datum
 DD  .F              3295:   Depth driller
 DL  .F              3290:   Depth logger
 BLI .F              3296:   Bottom log interval
 CS1 .IN            8.625:   Casing size
 CBD1.      8.625" @ 563':   Casing driller 1
 CBL1.F               560:   Casing logger 1
 BS1 .IN            7.875:   Bit size
 BSD1.F              3295:   Depth drilled with bit1
 DFT .        POLYMER KCL:   Type fluid in hole
 DFD .                8.9:   Density
 DFV .                 38:   Viscosity
 DFPH.                8.5:   pH
 DFL .                9.2:   Fluid loss
 MSS .           FLOWLINE:   Source of sample
 RMS .OHMM           .435:   Rm
 MST .F                74:   Rm Meas. temp.
 RMF .OHMM            .33:   Rmf
 MFST.F                74:   Rmf Meas. temp.
 RMC .OHMM            .54:   Rmc
 MCST.F                74:   Rmc Meas. temp.
 MFSS.               CALC:   Source Rmf.
 MCSS.               CALC:   Source Rmc.
 RMB .OHMM            .77:   Rm. at BHT
 BHT .F               119:   BHT.
 TCS .HRS               4:   Time Circ. stopped
 MRT .F               119:   Maximum recorded temp.
 LUN .            HL 6264:   Logging unit number
 LUL .           GILLETTE:   Logging unit location
 ENGI.      P.M. FAHLSING:   Recorded By
 WITN.             STRONG:   Witnessed by
 ORIG.         2.5" PRINT:   Origin of data
 UWI .     49025110710000:   Unique Well ID
 DICO. A2D TECHNOLOGIES, INC.:   Digitizing Company
 DAPD.                 12:   Feet Above Permanent Datum
~OTHER INFORMATION
~A    DEPT    TEND        DEN       CORR        CNC       TENR       CALR        SPR         GRR      RFOC       RILD       RILM       TENS         AC   
# ...
 3283.0000   192.0430     2.5260     0.0760     0.2400   437.5530  -999.2500   -29.5050  -999.2500     6.6990     5.3670     6.2510   425.3710  -999.2500
 3283.5000   201.7940     2.5290     0.0730     0.2360   444.8000  -999.2500   -30.1910  -999.2500     7.4320     5.5490     6.6580   434.3720  -999.2500
 3284.0000   211.0350     2.5320     0.0790     0.2310   452.0460  -999.2500   -30.9840  -999.2500     8.1650     5.7320     7.0800   443.3740  -999.2500
 3284.5000   220.2760     2.5270     0.0910     0.2270   459.2920  -999.2500   -31.7250  -999.2500     8.4820     5.9140     7.1730   452.3750  -999.2500
 3285.0000   229.5170     2.5190     0.1000  -999.2500   466.5390  -999.2500   -32.4710  -999.2500     8.1680     6.0960     7.2700   461.3770  -999.2500
 3285.5000   238.7580     2.5130     0.0940  -999.2500   473.7850  -999.2500   -33.2480  -999.2500     7.7490     6.2390     7.3660   470.3790  -999.2500
 3286.0000   247.9990     2.5060     0.0910  -999.2500   481.0320  -999.2500   -33.9660  -999.2500     7.8280     6.2350     7.4630   479.3800  -999.2500
 3286.5000   257.2400     2.5030     0.1010  -999.2500   488.2780  -999.2500   -34.7840  -999.2500     8.0120     6.2310     7.5600   488.3820  -999.2500
 3287.0000   266.4810     2.5110     0.1110  -999.2500   495.5240  -999.2500   -34.8390  -999.2500     8.1810     6.2280     7.6750   497.3830  -999.2500
 3287.5000   275.7220     2.5250     0.1220  -999.2500   502.7710  -999.2500   -34.8420  -999.2500     8.1810     6.2240     7.8130   506.3850  -999.2500
 3288.0000   284.9630     2.5380     0.1070  -999.2500   510.0170  -999.2500   -34.9810  -999.2500     8.1810     6.2210     7.9510   515.3870  -999.2500
 3288.5000   309.9210     2.5510     0.0830  -999.2500   517.2630  -999.2500   -35.3170  -999.2500     8.7040     6.2170     8.0880   526.0310  -999.2500
 3289.0000   292.7640     2.5660     0.0910  -999.2500   524.5100  -999.2500   -35.6170  -999.2500     9.4250     6.2130     8.2260   530.0790  -999.2500
 3289.5000   276.1300     2.5660     0.1060  -999.2500   531.7560  -999.2500   -35.9260  -999.2500    10.1600     6.2100     8.3640   535.0290  -999.2500
 3290.0000   270.6290     2.5660     0.1170  -999.2500   539.0030  -999.2500   -36.2550  -999.2500    10.1600     6.2060     8.5010   539.9800  -999.2500
 3290.5000   281.6310     2.5650     0.1170  -999.2500   546.2490  -999.2500   -36.4080  -999.2500    10.1600     6.2020     8.6360   544.9310  -999.2500
 3291.0000   294.1060     2.5650     0.1160  -999.2500   553.4950  -999.2500   -36.0720  -999.2500    10.6800     6.1990     8.6240   549.8820  -999.2500
 3291.5000   306.5820     2.5710     0.1150  -999.2500   560.7420  -999.2500   -35.7560  -999.2500    11.5080     6.1950     8.6110   554.8330  -999.2500
 3292.0000   319.0570     2.5780     0.1120  -999.2500   567.9880  -999.2500   -35.3530  -999.2500    12.3360     6.1920     8.5990   559.7840  -999.2500
 3292.5000   329.5680     2.5780     0.1240  -999.2500   575.2340  -999.2500   -35.6120  -999.2500    13.0830     6.1880     8.5870   565.3240  -999.2500
 3293.0000   311.1000     2.5680     0.1470  -999.2500   582.4810  -999.2500   -36.0700  -999.2500    12.3530     6.1840     8.5740   575.0160  -999.2500
 3293.5000   270.6290     2.5540     0.1640  -999.2500   589.7270  -999.2500   -36.0330  -999.2500    11.6510     6.1810     8.5620   586.0180  -999.2500
 3294.0000   159.8760     2.5410     0.1550  -999.2500   596.9740  -999.2500   -36.2810  -999.2500    10.9220     6.1770     8.5500   597.0200  -999.2500
 3294.5000    66.7260     2.5330     0.1310  -999.2500   602.9410  -999.2500   -36.4960  -999.2500    10.9220     6.1730     8.5370   604.6170  -999.2500
 3295.0000   -26.4240     2.5310     0.1100  -999.2500   579.4120  -999.2500   -36.7250  -999.2500    12.4530     6.1700     8.5250   593.3200  -999.2500
 3295.5000  -119.5740     2.5280     0.1100  -999.2500   539.2810  -999.2500   -36.8330  -999.2500    14.1510     6.1660     8.5130   546.3060  -999.2500
 3296.0000  -212.7240     2.5280     0.1090  -999.2500   425.9480  -999.2500   -36.7660  -999.2500    15.1170     6.1630     8.5010   427.4850  -999.2500
 3296.5000  -999.2500  -999.2500     0.1390  -999.2500   312.6140  -999.2500   -37.1470  -999.2500    15.1170     6.1590     8.4880   308.6640  -999.2500
 3297.0000  -999.2500  -999.2500     0.1830  -999.2500   199.2810  -999.2500   -37.1640  -999.2500  -999.2500     6.1550  -999.2500   189.8430  -999.2500
 3297.5000  -999.2500  -999.2500     0.2230  -999.2500    85.9480  -999.2500   -37.5330  -999.2500  -999.2500     6.1520  -999.2500    71.0220  -999.2500
 3298.0000  -999.2500  -999.2500     0.2300  -999.2500   -27.3860  -999.2500   -37.5910  -999.2500  -999.2500     6.1480  -999.2500   -47.8000  -999.2500
 3298.5000  -999.2500  -999.2500     0.1920  -999.2500  -116.8300  -999.2500   -37.6110  -999.2500  -999.2500     6.1440  -999.2500  -132.5810  -999.2500
 3299.0000  -999.2500  -999.2500     0.1290  -999.2500  -158.4970  -999.2500   -37.5910  -999.2500  -999.2500     6.1410  -999.2500  -160.1470  -999.2500
 3299.5000  -999.2500  -999.2500     0.1160  -999.2500  -200.9800  -999.2500  -999.2500  -999.2500  -999.2500     6.1370  -999.2500  -187.7140  -999.2500
 3300.0000  -999.2500  -999.2500     0.1170  -999.2500  -220.5880  -999.2500  -999.2500  -999.2500  -999.2500     6.1340  -999.2500  -220.5300  -999.2500
 3300.5000  -999.2500  -999.2500     0.1170  -999.2500  -220.5880  -999.2500  -999.2500  -999.2500  -999.2500     6.1300  -999.2500  -225.1690  -999.2500
 3301.0000  -999.2500  -999.2500     0.1170  -999.2500  -220.5880  -999.2500  -999.2500  -999.2500  -999.2500     6.1280  -999.2500  -230.8990  -999.2500
 3301.5000  -999.2500  -999.2500     0.1170  -999.2500  -223.7390  -999.2500  -999.2500  -999.2500  -999.2500     6.1280  -999.2500  -236.6300  -999.2500
 3302.0000  -999.2500  -999.2500     0.1170  -999.2500  -231.7930  -999.2500  -999.2500  -999.2500  -999.2500     6.1280  -999.2500  -242.3600  -999.2500
 3302.5000  -999.2500  -999.2500  -999.2500  -999.2500  -239.8460  -999.2500  -999.2500  -999.2500  -999.2500     6.1280  -999.2500  -248.0900  -999.2500
 3303.0000  -999.2500  -999.2500  -999.2500  -999.2500  -247.8990  -999.2500  -999.2500  -999.2500  -999.2500     6.1280  -999.2500  -999.2500  -999.2500
 3303.5000  -999.2500  -999.2500  -999.2500  -999.2500  -999.2500  -999.2500  -999.2500  -999.2500  -999.2500     6.1280  -999.2500  -999.2500  -999.2500
 3304.0000  -999.2500  -999.2500  -999.2500  -999.2500  -999.2500  -999.2500  -999.2500  -999.2500  -999.2500     6.1280  -999.2500  -999.2500  -999.2500
