~VERSION INFORMATION
 VERS.                2.0:   CWLS LOG ASCII STANDARD - VERSION 2.0
 WRAP.                 NO:   ONE LINE PER DEPTH STEP
~WELL INFORMATION
#MNEM.UNIT      DATA TYPE    INFORMATION
#----------   ------------   ------------------------------
 STRT.F          417.0000:   START DEPTH
 STOP.F         4133.0000:   STOP DEPTH
 STEP.F            0.5000:   STEP LENGTH
 NULL.          -999.2500:   NO VALUE
 COMP.    FENIX & SCISSON:   COMPANY
 WELL. FENIX  "LX" #18-11:   WELL
 FLD .              NPR 3:   FIELD
 LOC .      S11 T38N R78W:   LOCATION
 CNTY.            NATRONA:   COUNTY
 STAT.            WYOMING:   STATE
 CTRY. UNITED STATES OF AMERICA:   COUNTRY
 SRVC.       SCHLUMBERGER:   SERVICE COMPANY
 DATE.        14-JAN-1978:   LOGDATE
 API .     49025105590000:   API NUMBER
~CURVE INFORMATION
#MNEM.UNIT       API CODE    CURVE DESCRIPTION
#----------   ------------   ------------------------------
 DEPT.F                  :   
 SPR .MV     07 010 01 00:   SPONTANEOUS POTENTIAL
 SFL .OHMM   07 220 01 00:   SHALLOW FOCUSED LOG RESISTIVITY
 ILD .OHMM   07 120 46 00:   DEEP INDUCTION RESISTIVITY
 ILM .OHMM   07 120 44 00:   INDUCTION LOG MEDIUM RESISTIVITY
 CALD.IN     45 280 60 00:   CALIPER FROM DENSITY LOG
 GRD .GAPI   45 310 01 00:   GAMMA RAY FROM DENSITY LOG
 RHOB.G/C3   45 350 01 00:   BULK DENSITY
 CORR.G/C3   45 356 01 00:   DENSITY CORRECTION
 NPHI.DEC    42 890 03 00:   NEUTRON POROSITY SANDSTONE
~PARAMETER INFORMATION
#MNEM.UNIT          VALUE    DESCRIPTION
#----------   ------------   ------------------------------
 EKB .F         5220.0000:   Kelly bushing
 EGL .F         5210.0000:   Ground level
 EDF .F            0.0000:   Drilling floor
 TD  .F         4125.0000:   Total depth
 DATE.        14-JAN-1978:   Date logged
 CLNT.            A2DTECH:   Client Code
 SL  . 330' FSL & 530' FWL:   Surface Location
 PD  .                 GL:   Permanent Datum
 EPD .F              5210:   Elevation Permanent Datum
 LMF .                 KB:   Log Measured From
 DMF .                 KB:   Drilling Measured From
 DAPD.F                10:   Feet Above Permanent Datum
 DD  .F              4125:   Depth driller
 DL  .F              4121:   Depth logger
 BLI .F              4116:   Bottom log interval
 TLI .F               427:   Top log interval
 CS1 .IN            8.625:   Casing size
 CBD1.      8.625" @ 513':   Casing driller 1
 CBL1.F               427:   Casing logger 1
 BS1 .IN            7.875:   Bit size
 BSD1.F              4125:   Depth drilled with bit1
 DFT .                KCL:   Type fluid in hole
 DFD .                8.8:   Density
 DFV .                 40:   Viscosity
 DFPH.                 12:   pH
 DFL .                7.4:   Fluid loss
 MSS .           MUD TANK:   Source of sample
 RMS .OHMM           .418:   Rm
 MST .F                60:   Rm Meas. temp.
 RMF .OHMM           .343:   Rmf
 MFST.F                60:   Rmf Meas. temp.
 MFSS.               MEAS:   Source Rmf.
 RMB .OHMM            .20:   Rm. at BHT
 BHT .F               123:   BHT.
 TCS .HRS            0600:   Time Circ. stopped
 TLAB.HRS            0845:   Time logger at bottom
 MRT .F               123:   Maximum recorded temp.
 LUN .               8035:   Logging unit number
 LUL .               CSPR:   Logging unit location
 ENGI.             MARTIN:   Recorded By
 WITN.         HARRINGTON:   Witnessed by
 ORIG.      2.5" 5" PRINT:   Origin of data
 UWI .     49025105590000:   Unique Well ID
 DICO. A2D TECHNOLOGIES, INC.:   Digitizing Company
~OTHER INFORMATION
~A   DEPT      SPR        SFL        ILD        ILM       CALD         GRD      RHOB       CORR       NPHI   
  417.0000  -999.2500  -999.2500  -999.2500  -999.2500  -999.2500    82.7450  -999.2500  -999.2500  -999.2500
  417.5000  -999.2500  -999.2500  -999.2500  -999.2500  -999.2500    82.7450  -999.2500  -999.2500  -999.2500
  418.0000  -999.2500  -999.2500  -999.2500  -999.2500  -999.2500    85.8820  -999.2500  -999.2500  -999.2500
  418.5000  -999.2500  -999.2500  -999.2500  -999.2500  -999.2500    84.6230  -999.2500  -999.2500  -999.2500
  419.0000  -999.2500  -999.2500  -999.2500  -999.2500  -999.2500    83.2920  -999.2500  -999.2500  -999.2500
  419.5000  -999.2500  -999.2500  -999.2500  -999.2500  -999.2500    83.7250  -999.2500  -999.2500  -999.2500
  420.0000    84.7310  -999.2500  -999.2500  1883.3260  -999.2500    85.3890  -999.2500  -999.2500  -999.2500
  420.5000    84.7310  -999.2500  -999.2500  1883.3260  -999.2500    86.3020  -999.2500  -999.2500  -999.2500
  421.0000    84.7310  -999.2500  -999.2500  1883.3260  -999.2500    84.8040  -999.2500  -999.2500  -999.2500
  421.5000    84.7310  -999.2500  -999.2500  1904.8199  -999.2500    82.0720  -999.2500  -999.2500  -999.2500
  422.0000    84.7310  -999.2500  -999.2500  1883.3260  -999.2500    79.3560  -999.2500  -999.2500  -999.2500
  422.5000    84.7310  -999.2500  -999.2500  1883.3260  -999.2500    76.7260  -999.2500  -999.2500  -999.2500
  423.0000    84.7410  -999.2500  -999.2500  1883.7469  -999.2500    74.2480  -999.2500  -999.2500  -999.2500
  423.5000    84.7750  -999.2500  -999.2500  1883.3260  -999.2500    73.4500  -999.2500  -999.2500  -999.2500
  424.0000    84.5640  -999.2500  -999.2500  1883.3260  -999.2500    75.4710  -999.2500  -999.2500  -999.2500
  424.5000    77.6400  -999.2500  -999.2500  1386.9460  -999.2500    78.0360  -999.2500  -999.2500  -999.2500
  425.0000    65.7710  -999.2500  -999.2500   933.7300  -999.2500    80.3260  -999.2500  -999.2500  -999.2500
  425.5000    53.8980  -999.2500  -999.2500   662.3850  -999.2500    80.6640  -999.2500  -999.2500  -999.2500
  426.0000    42.1270  -999.2500  -999.2500  1056.3390  -999.2500    81.0600  -999.2500  -999.2500  -999.2500
  426.5000    30.0800  -999.2500  -999.2500  1494.2130  -999.2500    80.6990  -999.2500  -999.2500  -999.2500
  427.0000    17.5850  -999.2500  -999.2500  1765.2780  -999.2500    79.1270  -999.2500  -999.2500  -999.2500
  427.5000     7.0860  -999.2500  -999.2500  1565.3240  -999.2500    77.6770  -999.2500  -999.2500  -999.2500
  428.0000    -0.9030     0.6320  -999.2500   482.0380     8.5690    76.5060  -999.2500    -0.1780  -999.2500
  428.5000    -7.8300     2.0730  -999.2500    35.9790     8.6080    78.0640  -999.2500    -0.1370     0.4210
  429.0000   -11.8920     3.0370    48.4830   520.1050     8.8040    80.0380     2.0580    -0.0910     0.4280
  429.5000   -15.1860     3.5340     2.0090  1004.2300     9.6930    82.0180     2.0840    -0.0460     0.4340
  430.0000   -18.2040     4.1560     6.1440   976.7540    11.1570    84.9140     2.2490    -0.0010     0.4400
  430.5000   -21.3230     4.7770     9.4830     2.8030    12.3330    90.2260     2.3030     0.0360     0.4460
  431.0000   -24.5080     5.3990    12.8220     3.1320    12.4230    95.4250     2.3120     0.0340     0.4520
  431.5000   -27.7010     6.0200    19.5430     3.3870    12.4650    99.9230     2.3190     0.0330     0.4490
  432.0000   -30.1600     6.9370    11.7380     3.5320    12.4630   100.8740     2.3230     0.0230     0.4460
  432.5000   -32.0110     6.6900     7.0710     4.9970    12.4990   101.7500     2.3520     0.0140     0.4390
  433.0000   -33.6710     6.2180     6.4860     6.2090    12.5150   102.5050     2.3840     0.0040     0.4320
  433.5000   -34.7060     6.0390     6.0950     5.9960    12.5390   103.1040     2.3990     0.0020     0.4260
  434.0000   -35.4610     6.1730     6.0950     5.8170    12.5620   102.6570     2.4140     0.0050     0.4190
  434.5000   -35.9270     6.6450     6.5610     5.7660    12.5830   102.2790     2.4300     0.0080     0.4170
  435.0000   -36.3930     7.1160     7.0670     5.6600    12.6060   101.8690     2.4450     0.0100     0.4170
  435.5000   -36.8600     7.5880     7.0210    10.7140    12.6290   101.4700     2.4470     0.0080     0.4140
  436.0000   -37.3290     8.1940     6.9640     9.5960    12.6520   101.0360     2.4400     0.0070     0.4110
  436.5000   -37.8060     8.0280     6.9370     7.9200    12.6760   100.8890     2.4380     0.0060     0.4080
  437.0000   -38.0040     7.7960     6.9370     6.5630    12.6850   101.4420     2.4390     0.0050     0.4050
  437.5000   -38.1910     7.5650     6.9810     6.5520    12.6780   100.5300     2.4430     0.0040     0.4120
  438.0000   -38.3800     7.3330     7.0820     6.5380    12.6730    99.0450     2.4460     0.0070     0.4060
  438.5000   -38.5690     7.1010     7.1840     6.5240    12.6670    97.6110     2.4490     0.0130     0.3970
  439.0000   -38.7580     7.0020     7.2850     6.5100    12.6620    96.0890     2.4490     0.0160     0.4020
  439.5000   -38.9480     7.0020     7.3870     6.5030    12.6570    95.1140     2.4420     0.0120     0.4080
  440.0000   -39.1370     7.0020     7.4010     6.5020    12.6510    96.5630     2.4340     0.0070     0.4180
  440.5000   -39.3260     7.0020     7.4010     6.4580    12.6460    98.9300     2.4340     0.0030     0.4080
  441.0000   -39.5150     7.0020     7.4220     6.3720    12.6400   101.3640     2.4340     0.0080     0.3860
  441.5000   -39.7050     6.8940     7.4500     6.2860    12.6350   101.6620     2.4340     0.0140     0.3650
  442.0000   -39.9210     6.6440     7.4780     6.2010    12.6290    99.6730     2.4330     0.0200     0.3670
  442.5000   -40.1790     6.3930     7.5060     6.1150    12.6240    97.9700     2.4280     0.0250     0.3770
  443.0000   -40.4410     6.0950     7.5340     6.0950    12.6180    96.2250     2.4230     0.0210     0.3880
  443.5000   -40.9400     6.4010     7.8590     6.0950    12.6130    95.8490     2.4230     0.0180     0.3990
  444.0000   -41.4230     6.7790     8.2530     6.2680    12.6090    95.2690     2.4220     0.0140     0.4090
  444.5000   -41.9050     7.1580     8.6480     6.4690    12.6180    94.7880     2.4210     0.0110     0.4140
  445.0000   -42.3860     7.5360     8.7420     6.7470    12.6270    94.7360     2.4200     0.0090     0.3950
  445.5000   -42.8600     7.8960     7.7510     6.7290    12.6370    94.6820     2.4210     0.0060     0.3770
  446.0000   -43.1440     7.9700     7.9700     6.6990    12.6470    92.3180     2.4260     0.0040     0.3580
  446.5000   -43.4410     7.4590     6.7710     6.2520    12.6580    93.6230     2.4340     0.0010     0.3400
  447.0000   -43.7380     6.7550     5.8380     5.4230    12.6660    94.8300     2.4440     0.0000     0.3210
  447.5000   -44.0360     5.4580     5.2570     4.5950    12.6780    95.5360     2.4600     0.0030     0.3180
  448.0000   -44.3480     4.1610     5.2970     3.7670    12.6920    95.9230     2.4780     0.0120     0.3210
  448.5000   -44.2120     2.8030     5.4390     3.3720    12.7550    95.8110     2.5000     0.0220     0.3440
  449.0000   -43.9440     4.4040     5.5810     4.1110    12.8220    94.9120     2.4800     0.0330     0.3700
  449.5000   -43.6730     6.0850     5.8940     4.8200    12.8920    94.1680     2.4300     0.0670     0.4040
  450.0000   -43.4030     7.7650     6.2470     5.5290    13.1070    92.6110     2.2310     0.1250     0.3970
  450.5000   -43.1340     8.6520     6.6240     6.0950    13.4020    90.5380     2.0290     0.1000     0.3880
  451.0000   -42.8640     8.7420     7.9260     6.4570    13.2960    88.3520     2.0500     0.0360     0.3790
  451.5000   -42.5940     8.5140     9.3220     6.8460    12.9970    86.8710     2.1530    -0.0250     0.3710
  452.0000   -42.3250     8.3450    10.4210     7.2350    12.8270    85.0590     2.2930    -0.0150     0.3620
  452.5000   -42.0600     8.1760    10.4210     7.6230    12.8890    84.4450     2.4330     0.0080     0.3470
  453.0000   -41.7970     8.0070     9.7970     7.8230    12.9230    87.1820     2.4950     0.0140     0.3510
