~VERSION INFORMATION
 VERS.                2.0:   CWLS LOG ASCII STANDARD - VERSION 2.0
 WRAP.                 NO:   ONE LINE PER DEPTH STEP
~WELL INFORMATION
#MNEM.UNIT      DATA TYPE    INFORMATION
#----------   ------------   ------------------------------
 STRT.F           15.0000:   START DEPTH
 STOP.F         3245.5000:   STOP DEPTH
 STEP.F            0.5000:   STEP LENGTH
 NULL.          -999.2500:   NO VALUE
 COMP. LAWRENCE ALLISON AND ASSOCIATES:   COMPANY
 WELL. LAWRENCE ALLISON 11 X34 #3-3:   WELL
 FLD .             NPR #3:   FIELD
 LOC .       S3 T38N R78W:   LOCATION
 CNTY.            NATRONA:   COUNTY
 STAT.            WYOMING:   STATE
 CTRY. UNITED STATES OF AMERICA:   COUNTRY
 SRVC.      DRESSER ATLAS:   SERVICE COMPANY
 DATE.        23-MAY-1985:   LOGDATE
 API .     49025110530000:   API NUMBER
~CURVE INFORMATION
#MNEM.UNIT       API CODE    CURVE DESCRIPTION
#----------   ------------   ------------------------------
 DEPT.F                  :   
 SPR .MV     07 010 01 00:   SPONTANEOUS POTENTIAL
 GRR .GAPI   07 310 01 00:   GAMMA RAY FROM RESISTIVITY
 SFL .OHMM   07 220 01 00:   SHALLOW FOCUSED LOG RES.
 ILD .OHMM   07 120 46 00:   INDUCTION LOG DEEP RESISTIVITY
 ILM .OHMM   07 120 44 00:   INDUCTION LOG MEDIUM RESISTIVITY
 TENR.LBS    07 635 01 00:   TENSION
 CALR.IN     07 280 01 00:   CALIPER FROM RESISTIVITY
 RHOB.G/C3   45 350 01 00:   BULK DENSITY
 CORR.G/C3   45 356 01 00:   DENSITY CORRECTION
 CNC .DEC    42 890 03 00:   NEUTRON POROSITY SANDSTONE
~PARAMETER INFORMATION
#MNEM.UNIT          VALUE    DESCRIPTION
#----------   ------------   ------------------------------
 EKB .F         5099.0000:   Kelly bushing
 EGL .F         5087.0000:   Ground level
 EDF .F            0.0000:   Drilling floor
 EPD .F         5087.0000:   Permanent datum
 TD  .F         3240.0000:   Total depth
 DATE.         2-MAY-1985:   Date logged
 CLNT.            A2DTECH:   Client Code
 PD  .                 GL:   Permanent Datum
 DD  .F              3239:   Depth driller
 DL  .F              3242:   Depth logger
 BLI .F              3240:   Bottom log interval
 TLI .F                15:   Top log interval
 CS1 .IN            8.625:   Casing size
 CBD1.      8.625" @ 487':   Casing driller 1
 CBL1.F               487:   Casing logger 1
 BSD1.F              3239:   Depth drilled with bit1
 DFT .            KCL GEL:   Type fluid in hole
 ENGI.      MACK. EDWARDS:   Recorded By
 WITN.         MR. STRONG:   Witnessed by
 ORIG.           5" PRINT:   Origin of data
 UWI .     49025110530000:   Unique Well ID
 DICO. A2D TECHNOLOGIES, INC.:   Digitizing Company
 DAPD.IN               12:   Feet Above Permanent Datum
 BS1 .              7.875:   Bit size
 DFD .                9.1:   Density
 DFV .                 35:   Viscosity
 DFPH.                  8:   pH
 DFL .                9.8:   Fluid loss
 MSS .           FLOWLINE:   Source of sample
 RMS .OHMM            .27:   Rm
 MST .F                68:   Rm Meas. temp.
 RMF .OHMM             .2:   Rmf
 MFST.F                68:   Rmf Meas. temp.
 MFSS.               MEAS:   Source Rmf.
 RMC .OHMM            .34:   Rmc
 MCST.F                68:   Rmc Meas. temp.
 MCSS.               CALC:   Source Rmc.
 RMB .OHMM            .15:   Rm. at BHT
 BHT .F               126:   BHT.
 TCS .HRS               3:   Time Circ. stopped
 MRT .F               126:   Maximum recorded temp.
 LUN .               6274:   Logging unit number
 LUL .               GLTE:   Logging unit location
~OTHER INFORMATION
~A   DEPT      SPR        GRR        SFL        ILD        ILM       TENR       CALR       RHOB       CORR        CNC   
# ...
 1757.0000   -65.7730    87.6200     6.9708     6.8438     5.9083   -50.4192  -999.2500  -999.2500  -999.2500  -999.2500
 1757.5000   -65.5746    87.0248     6.9708     6.8438     5.9083   -50.4192  -999.2500  -999.2500  -999.2500  -999.2500
 1758.0000   -65.5746    85.8343     6.9708     6.8438     5.9083   -50.4192  -999.2500  -999.2500  -999.2500  -999.2500
 1758.5000   -65.3762    84.0486     6.9708     6.8438     5.9083   -50.4192  -999.2500  -999.2500  -999.2500  -999.2500
 1759.0000   -64.9794    84.3462     6.9708     6.8438     5.9083   -50.4192  -999.2500  -999.2500  -999.2500  -999.2500
 1759.5000   -64.5040    84.9414     6.9708     6.8438     5.9083   -50.4192  -999.2500  -999.2500  -999.2500  -999.2500
 1760.0000   -64.1857    84.6438     6.9708     6.8438     5.9083   -60.3992  -999.2500  -999.2500  -999.2500  -999.2500
 1760.5000   -64.3841    84.9414     7.2317     6.8438     5.9083   -50.4192  -999.2500  -999.2500  -999.2500  -999.2500
 1761.0000   -64.5825    85.5367     7.1000     6.9708     5.9083   -50.4192  -999.2500  -999.2500  -999.2500  -999.2500
 1761.5000   -64.9794    84.3462     6.9708     6.9708     5.9083   -60.3992  -999.2500  -999.2500  -999.2500  -999.2500
 1762.0000   -65.3762    81.6676     6.9708     6.7192     5.9083   -70.3792  -999.2500  -999.2500  -999.2500  -999.2500
 1762.5000   -65.1778    81.6676     6.9708     6.7192     5.9083   -70.3792  -999.2500  -999.2500  -999.2500  -999.2500
 1763.0000   -65.1778    83.4533     6.9708     6.8438     5.9083   -60.3992  -999.2500  -999.2500  -999.2500  -999.2500
 1763.5000   -65.1778    85.2390     6.9708     6.9708     5.9083   -60.3992  -999.2500  -999.2500  -999.2500  -999.2500
 1764.0000   -65.3762    85.2390     7.1000     6.9708     5.9083   -70.3792  -999.2500  -999.2500  -999.2500  -999.2500
 1764.5000   -65.3762    84.9414     7.1000     6.9708     5.9083   -60.3992  -999.2500  -999.2500  -999.2500  -999.2500
 1765.0000   -65.7730    85.2390     7.1000     6.9708     5.9083   -60.3992  -999.2500  -999.2500  -999.2500  -999.2500
 1765.5000   -65.9714    86.7271     7.1000     6.8438     5.9083   -60.3992  -999.2500  -999.2500  -999.2500  -999.2500
 1766.0000   -65.9714    87.6200     6.9708     6.7192     5.8007   -60.3992  -999.2500  -999.2500  -999.2500  -999.2500
 1766.5000   -66.1698    84.9414     6.7192     6.4768     5.5914   -50.4192  -999.2500  -999.2500  -999.2500  -999.2500
 1767.0000   -65.9714    82.2629     6.4768     6.0179     5.2916   -50.4192  -999.2500  -999.2500  -999.2500  -999.2500
 1767.5000   -65.7730    81.6676     6.4768     5.3897     4.8271   -60.3992  -999.2500  -999.2500  -999.2500  -999.2500
 1768.0000   -65.1778    81.9652     6.4768     5.1721     4.3232   -70.3792  -999.2500  -999.2500  -999.2500  -999.2500
 1768.5000   -64.9794    81.3700     6.2431     4.9633     3.8015   -60.3992  -999.2500  -999.2500  -999.2500  -999.2500
 1769.0000   -64.7810    81.0724     4.9166     4.7629     3.9437   -60.3992  -999.2500  -999.2500  -999.2500  -999.2500
 1769.5000   -64.5825    80.4771     4.6529     4.5707     3.9437   -70.3792  -999.2500  -999.2500  -999.2500  -999.2500
 1770.0000   -64.7810    79.2867     4.3232     4.3861     4.0914   -90.3393  -999.2500  -999.2500  -999.2500  -999.2500
 1770.5000   -64.3841    79.5843     4.8271     4.2445     4.1672   -70.3792  -999.2500  -999.2500  -999.2500  -999.2500
 1771.0000   -64.1857    82.2629     5.5914     4.2445     3.8719   -60.3992  -999.2500  -999.2500  -999.2500  -999.2500
 1771.5000   -64.1857    85.2390     5.9083     4.3232     3.8719   -60.3992  -999.2500  -999.2500  -999.2500  -999.2500
 1772.0000   -64.7810    86.4295     5.4896     4.4034     4.0169   -60.3992  -999.2500  -999.2500  -999.2500  -999.2500
 1772.5000   -64.9794    85.8343     5.1006     4.5682     4.1672   -60.3992  -999.2500  -999.2500  -999.2500  -999.2500
 1773.0000   -65.3762    85.5367     4.7392     4.6529     4.5682   -60.3992  -999.2500  -999.2500  -999.2500  -999.2500
 1773.5000   -65.9714    85.5367     4.9166     4.8271     5.0078   -60.3992  -999.2500  -999.2500  -999.2500  -999.2500
 1774.0000   -65.9714    84.9414     5.9083     4.9166     4.8271   -50.4192  -999.2500  -999.2500  -999.2500  -999.2500
 1774.5000   -66.1698    83.1557     6.2431     5.0078     4.6529   -60.3992  -999.2500  -999.2500  -999.2500  -999.2500
 1775.0000   -66.1698    82.5605     6.1295     5.1952     4.6529   -50.4192  -999.2500  -999.2500  -999.2500  -999.2500
 1775.5000   -65.9714    85.2390     5.6951     5.3897     4.7392   -50.4192  -999.2500  -999.2500  -999.2500  -999.2500
 1776.0000   -65.7730    90.0010     5.5914     5.3897     4.8271   -60.3992  -999.2500  -999.2500  -999.2500  -999.2500
 1776.5000   -65.9714    95.9533     5.5914     5.4896     4.8271   -50.4192  -999.2500  -999.2500  -999.2500  -999.2500
 1777.0000   -66.3683   101.3105     5.6951     5.4896     4.9166   -50.4192  -999.2500  -999.2500  -999.2500  -999.2500
 1777.5000   -66.3683    98.6319     5.8007     5.4896     5.0078   -60.3992  -999.2500  -999.2500  -999.2500  -999.2500
 1778.0000   -66.3683    91.1914     6.0179     5.4896     4.9166   -50.4192  -999.2500  -999.2500  -999.2500  -999.2500
 1778.5000   -66.5667    89.4057     6.0179     5.4896     4.8271   -50.4192  -999.2500  -999.2500  -999.2500  -999.2500
 1779.0000   -66.7651    89.4057     6.0179     5.3897     4.6529   -50.4192  -999.2500  -999.2500  -999.2500  -999.2500
 1779.5000   -66.7651    88.5129     6.0179     5.3897     4.5682   -60.3992  -999.2500  -999.2500  -999.2500  -999.2500
 1780.0000   -67.3603    87.6200     5.5914     5.1952     4.4850   -60.3992  -999.2500  -999.2500  -999.2500  -999.2500
 1780.5000   -66.6136    87.0248     5.1952     5.1006     4.4034   -50.4192  -999.2500  -999.2500  -999.2500  -999.2500
 1781.0000   -66.3683    87.3224     5.1952     4.8271     4.1672   -50.4192  -999.2500  -999.2500  -999.2500  -999.2500
 1781.5000   -66.1698    87.0248     5.1952     4.4850     3.8719   -60.3992  -999.2500  -999.2500  -999.2500  -999.2500
 1782.0000   -65.7730    86.4295     5.1952     4.3232     3.5976   -50.4192  -999.2500  -999.2500  -999.2500  -999.2500
 1782.5000   -65.3762    82.8581     5.0078     4.0169     3.2818   -40.4391  -999.2500  -999.2500  -999.2500  -999.2500
 1783.0000   -64.9794    82.5605     4.4850     4.0169     3.2220   -40.4391  -999.2500  -999.2500  -999.2500  -999.2500
 1783.5000   -64.3841    82.8581     3.8365     3.8719     3.3427   -50.4192  -999.2500  -999.2500  -999.2500  -999.2500
 1784.0000   -64.3841    82.2629     3.5647     3.8719     3.4046   -60.3992  -999.2500  -999.2500  -999.2500  -999.2500
 1784.5000   -64.3841    79.8819     3.7322     3.7322     3.5976   -40.4391  -999.2500  -999.2500  -999.2500  -999.2500
 1785.0000   -64.5825    80.1795     4.9166     3.6643     3.5321   -40.4391  -999.2500  -999.2500  -999.2500  -999.2500
 1785.5000   -64.5825    81.6676     5.0078     3.5976     3.3427   -50.4192  -999.2500  -999.2500  -999.2500  -999.2500
 1786.0000   -64.3841    79.2867     4.9166     3.5321     3.1634   -50.4192  -999.2500  -999.2500  -999.2500  -999.2500
 1786.5000   -64.3841    78.6914     4.6529     3.7322     3.0492   -50.4192  -999.2500  -999.2500  -999.2500  -999.2500
 1787.0000   -64.3841    78.6914     4.1672     3.8719     3.2220   -50.4192  -999.2500  -999.2500  -999.2500  -999.2500
 1787.5000   -64.1857    77.5010     3.9437     3.8719     3.8075   -40.4391  -999.2500  -999.2500  -999.2500  -999.2500
 1788.0000   -64.3841    76.3105     3.6643     3.8015     3.7380   -40.4391  -999.2500  -999.2500  -999.2500  -999.2500
 1788.5000   -64.5825    75.4176     4.0169     3.5976     3.5370   -50.4192  -999.2500  -999.2500  -999.2500  -999.2500
 1789.0000   -65.7391    77.7986     4.9166     3.5321     3.4724   -50.4192  -999.2500  -999.2500  -999.2500  -999.2500
 1789.5000   -65.9714    78.6914     5.1952     3.2818     3.2818   -50.4192  -999.2500  -999.2500  -999.2500  -999.2500
 1790.0000   -66.1698    78.3938     5.3897     3.0492     3.3427   -70.3792  -999.2500  -999.2500  -999.2500  -999.2500
