~VERSION INFORMATION
 VERS.                2.0:   CWLS LOG ASCII STANDARD - VERSION 2.0
 WRAP.                 NO:   ONE LINE PER DEPTH STEP
~WELL INFORMATION
#MNEM.UNIT      DATA TYPE    INFORMATION
#----------   ------------   ------------------------------
 STRT.F          212.0000:   START DEPTH
 STOP.F         3042.0000:   STOP DEPTH
 STEP.F            0.5000:   STEP LENGTH
 NULL.          -999.2500:   NO VALUE
 COMP.    FENIX & SCISSON:   COMPANY
 WELL.   FENIX "A" #74-28:   WELL
 FLD .             NPR #3:   FIELD
 LOC .      S28 T39N R78W:   LOCATION
 CNTY.            NATRONA:   COUNTY
 STAT.            WYOMING:   STATE
 CTRY. UNITED STATES OF AMERICA:   COUNTRY
 SRVC.              WELEX:   SERVICE COMPANY
 DATE.        03-AUG-1977:   LOGDATE
 API .     49025104080000:   API NUMBER
~CURVE INFORMATION
#MNEM.UNIT       API CODE    CURVE DESCRIPTION
#----------   ------------   ------------------------------
 DEPT.F                  :   
 SPR .MV     07 010 01 00:   SPONTANEOUS POTENTIAL
 ILD .OHMM   07 120 46 00:   INDUCTION LOG DEEP RESISTIVITY
 ILM .OHMM   07 120 44 00:   INDUCTION LOG MEDIUM RESISTIVITY
 SFLU.OHMM   07 220 01 00:   SPHERICALLY FOCUSED LOG UNAVERAGED RESISTIVITY
 CALD.IN     45 280 60 00:   CALIPER FROM DENSITY LOG
 GRD .GAPI   45 310 01 00:   GAMMA RAY FROM DENSITY LOG
 CORR.G/C3   45 356 01 00:   DENSITY CORRECTION
 RHOB.G/C3   45 350 01 00:   BULK DENSITY
~PARAMETER INFORMATION
#MNEM.UNIT          VALUE    DESCRIPTION
#----------   ------------   ------------------------------
 EKB .F         5050.0000:   Kelly bushing
 EGL .F         5040.0000:   Ground level
 EDF .F            0.0000:   Drilling floor
 TD  .F         3044.0000:   Total depth
 DATE.        03-AUG-1977:   Date logged
 CLNT.            A2DTECH:   Client Code
 SL  . 2310' FNL & 930' FEL:   Surface Location
 PD  .                 GL:   Permanent Datum
 EPD .F              5040:   Elevation Permanent Datum
 LMF .                 KB:   Log Measured From
 DMF .                 KB:   Drilling Measured From
 DAPD.F                10:   Feet Above Permanent Datum
 DD  .F              3044:   Depth driller
 DL  .F              3044:   Depth logger
 BLI .F              3042:   Bottom log interval
 TLI .F               238:   Top log interval
 CS1 .IN            8.625:   Casing size
 CBD1.      8.625" @ 220':   Casing driller 1
 CBL1.F               238:   Casing logger 1
 BS1 .IN            7.875:   Bit size
 BSD1.F              3044:   Depth drilled with bit1
 DFT .            KCL MUD:   Type fluid in hole
 DFV .                 35:   Viscosity
 DFPH.               10.5:   pH
 DFL .                7.2:   Fluid loss
 MSS .           FLOWLINE:   Source of sample
 RMS .OHMM           1.13:   Rm
 MST .F                84:   Rm Meas. temp.
 RMF .OHMM           0.77:   Rmf
 MFST.F                70:   Rmf Meas. temp.
 MFSS.           FANN KIT:   Source Rmf.
 MCSS.           FANN KIT:   Source Rmc.
 RMB .OHMM            .82:   Rm. at BHT
 BHT .F               118:   BHT.
 TCS .HRS               7:   Time Circ. stopped
 MRT .F               116:   Maximum recorded temp.
 LUN .               8611:   Logging unit number
 LUL .             CASPER:   Logging unit location
 ENGI.            C. DOAK:   Recorded By
 WITN.      W. PETTINGILL:   Witnessed by
 ORIG.         2.5" PRINT:   Origin of data
 UWI .     49025104080000:   Unique Well ID
 DICO. A2D TECHNOLOGIES, INC.:   Digitizing Company
~OTHER INFORMATION
~A   DEPT      SPR        ILD        ILM       SFLU         CALD       GRD       CORR        RHOB 
# ...
  779.0000   -49.4000     6.9760     8.2110    11.4740     8.8940   120.0880     0.0290     2.4810
  779.5000   -49.4000     6.9710     8.2320    11.4070     8.8990   120.0000     0.0270     2.4760
  780.0000   -49.4000     6.9590     8.2490    11.3260     8.9040   119.8380     0.0250     2.4710
  780.5000   -49.4000     6.9470     8.1990    11.4490     8.9060   120.4050     0.0230     2.4670
  781.0000   -49.4000     6.9360     8.1360    11.6020     8.9320   121.7270     0.0220     2.4690
  781.5000   -49.4000     6.9240     8.0730    11.7560     8.9540   123.0990     0.0220     2.4660
  782.0000   -49.4000     6.9130     8.0110    11.4900     8.9450   122.2020     0.0210     2.4610
  782.5000   -49.4000     6.9010     7.9480    11.2230     8.9400   120.5370     0.0210     2.4560
  783.0000   -49.4000     6.8900     7.9420    11.1030     8.9340   118.8910     0.0200     2.4580
  783.5000   -49.4000     6.8780     7.9310    11.0810     8.9280   117.3040     0.0200     2.4610
  784.0000   -49.4000     6.8670     7.9210    11.0580     8.9220   116.8270     0.0200     2.4650
  784.5000   -49.4000     6.8550     7.9110    11.0360     8.9160   119.3930     0.0190     2.4670
  785.0000   -49.4000     6.8460     7.9000    11.0140     8.9100   121.4940     0.0190     2.4650
  785.5000   -49.4000     6.8450     7.8900    10.9920     8.9050   123.7470     0.0180     2.4630
  786.0000   -49.4000     6.8540     7.8800    10.9690     8.8990   125.5390     0.0180     2.4670
  786.5000   -49.4000     6.8700     7.8700    10.9470     8.8930   124.7180     0.0230     2.4790
  787.0000   -49.4000     6.8840     7.8600    10.9110     8.8870   122.5800     0.0280     2.4910
  787.5000   -49.4000     6.8990     7.8490    10.9170     8.8810   121.4820     0.0340     2.4980
  788.0000   -49.4000     6.9130     7.8390    10.9320     8.8750   123.1840     0.0390     2.5010
  788.5000   -49.4000     6.9280     7.8290    10.9450     8.8690   124.8550     0.0420     2.4970
  789.0000   -49.4000     6.9430     7.8190    10.9600     8.8630   125.5450     0.0390     2.4870
  789.5000   -49.4000     6.9570     7.8090    10.9740     8.8570   125.3980     0.0360     2.4790
  790.0000   -49.4000     6.9750     7.8000    10.9880     8.8510   123.3510     0.0340     2.4740
  790.5000   -49.4000     6.9620     7.8000    11.0020     8.8450   122.4560     0.0310     2.4700
  791.0000   -49.4000     6.9280     7.7830    11.0170     8.8400   123.4290     0.0280     2.4670
  791.5000   -49.4000     6.8950     7.7660    11.0310     8.8340   122.1430     0.0260     2.4670
  792.0000   -49.4000     6.8610     7.7490    11.0460     8.8310   121.4670     0.0230     2.4670
  792.5000   -49.4000     6.8270     7.7320    11.0580     8.8310   122.8370     0.0200     2.4530
  793.0000   -49.4000     6.7940     7.7150    11.0730     8.8320   123.4600     0.0170     2.4380
  793.5000   -49.4000     6.7610     7.6980    11.0940     8.8370   122.2350     0.0150     2.4240
  794.0000   -49.4000     6.7220     7.6810    11.1320     8.8410   121.7680     0.0110     2.4220
  794.5000   -49.4000     6.7150     7.6630    11.0840     8.8450   121.5670     0.0110     2.4340
  795.0000   -49.4000     6.7070     7.6540    10.8900     8.8500   121.3610     0.0140     2.4590
  795.5000   -49.4000     6.7000     7.6500    10.9180     8.8540   121.1820     0.0170     2.4650
  796.0000   -49.4000     6.6940     7.6460    10.9050     8.8580   120.9330     0.0200     2.4650
  796.5000   -49.4000     6.6870     7.6420    10.9090     8.8630   120.8080     0.0220     2.4650
  797.0000   -49.4000     6.6800     7.6380    10.9110     8.8670   120.4630     0.0250     2.4690
  797.5000   -49.4000     6.6730     7.6340    10.9120     8.8710   121.6560     0.0280     2.4760
  798.0000   -49.4000     6.6660     7.6300    10.9110     8.8760   122.6910     0.0300     2.4810
  798.5000   -49.4000     6.6590     7.6260    10.9110     8.8800   123.8950     0.0300     2.4780
  799.0000   -49.4000     6.6520     7.6220    10.9110     8.8840   124.3240     0.0290     2.4790
  799.5000   -49.4000     6.6450     7.6180    10.9110     8.8880   124.2870     0.0280     2.4820
  800.0000   -49.4000     6.6390     7.6140    10.9110     8.8930   124.3130     0.0280     2.4870
  800.5000   -49.4000     6.6320     7.6100    10.9110     8.8970   124.2530     0.0270     2.4840
  801.0000   -49.4000     6.6250     7.6060    10.9110     8.9010   124.8080     0.0270     2.4800
  801.5000   -49.4000     6.6180     7.6020    10.9110     8.9060   125.8700     0.0260     2.4760
  802.0000   -49.4000     6.6110     7.5980    10.9110     8.9100   126.8500     0.0260     2.4770
  802.5000   -49.4000     6.6040     7.5940    10.9110     8.9140   127.7980     0.0260     2.4770
  803.0000   -49.4000     6.5970     7.5900    10.9110     8.9190   129.0610     0.0260     2.4770
  803.5000   -49.4000     6.5950     7.5860    10.9110     8.9230   130.5330     0.0260     2.4770
  804.0000   -49.4000     6.5960     7.5820    10.9110     8.9270   131.9320     0.0260     2.4710
  804.5000   -49.4000     6.5960     7.5780    10.9110     8.9320   131.1640     0.0260     2.4650
  805.0000   -49.4000     6.5950     7.5740    10.9110     8.9360   129.9030     0.0260     2.4580
  805.5000   -49.4000     6.5960     7.5700    10.9110     8.9400   128.5300     0.0260     2.4520
  806.0000   -49.4000     6.5960     7.5660    10.9110     8.9450   127.7390     0.0260     2.4500
  806.5000   -49.4000     6.5960     7.5620    10.9110     8.9490   125.9210     0.0280     2.4650
  807.0000   -49.4000     6.5960     7.5580    10.9100     8.9520   123.9490     0.0320     2.4810
  807.5000   -49.4000     6.5960     7.5540    10.8850     8.9500   121.9700     0.0360     2.4850
  808.0000   -49.4000     6.5960     7.5500    10.8610     8.9470   119.9740     0.0400     2.4770
  808.5000   -49.3990     6.5960     7.5460    10.8360     8.9450   118.7870     0.0410     2.4680
  809.0000   -49.4020     6.5960     7.5420    10.8110     8.9430   117.6050     0.0380     2.4640
  809.5000   -49.3830     6.5960     7.5390    10.7860     8.9410   116.4570     0.0360     2.4710
  810.0000   -49.3510     6.5950     7.5350    10.7610     8.9380   115.2310     0.0340     2.4770
  810.5000   -49.3220     6.5960     7.5300    10.7360     8.9360   114.6730     0.0370     2.4820
  811.0000   -49.2940     6.5960     7.5270    10.7100     8.9340   115.9130     0.0400     2.4890
  811.5000   -49.2640     6.5950     7.5220    10.6730     8.9320   116.8790     0.0430     2.4910
  812.0000   -49.2350     6.5960     7.5140    10.6030     8.9290   118.1490     0.0460     2.4930
  812.5000   -49.2060     6.5900     7.5180    10.5120     8.9270   116.5260     0.0450     2.4860
  813.0000   -49.1770     6.5770     7.5540    10.5740     8.9250   114.5040     0.0450     2.4840
  813.5000   -49.1480     6.5650     7.5880    10.7870     8.9230   112.4940     0.0440     2.4870
  814.0000   -49.1180     6.5530     7.6220    11.1170     8.9200   116.2100     0.0430     2.4900
  814.5000   -49.0900     6.5410     7.6550    10.9460     8.9180   117.8450     0.0420     2.4930
  815.0000   -49.0590     6.5290     7.5740    10.5120     8.9160   116.0560     0.0410     2.4900
  815.5000   -49.0330     6.5160     7.4970    10.5050     8.9140   114.4040     0.0400     2.4840
  816.0000   -49.0070     6.5040     7.4200    10.4880     8.9120   114.7910     0.0400     2.4790
  816.5000   -49.1110     6.4920     7.3750    10.4720     8.9090   115.3300     0.0390     2.4760
  817.0000   -49.2250     6.4800     7.3910    10.4550     8.9020   115.7540     0.0380     2.4750
  817.5000   -49.3450     6.4680     7.4180    10.4390     8.8940   116.9780     0.0370     2.4740
  818.0000   -49.4590     6.4550     7.4450    10.4220     8.8860   119.1650     0.0360     2.4720
  818.5000   -49.5780     6.4430     7.4720    10.4050     8.8780   120.1290     0.0350     2.4710
  819.0000   -49.6950     6.4310     7.5150    10.3890     8.8700   120.7520     0.0340     2.4650
