~VERSION INFORMATION
 VERS.                2.0:   CWLS LOG ASCII STANDARD - VERSION 2.0
 WRAP.                 NO:   ONE LINE PER DEPTH STEP
~WELL INFORMATION
#MNEM.UNIT      DATA TYPE    INFORMATION
#----------   ------------   ------------------------------
 STRT.F          210.5000:   START DEPTH
 STOP.F         3234.0000:   STOP DEPTH
 STEP.F            0.5000:   STEP LENGTH
 NULL.          -999.2500:   NO VALUE
 COMP.    FENIX & SCISSON:   COMPANY
 WELL.   FENIX "A" #21-10:   WELL
 FLD .              NPR-3:   FIELD
 LOC .      S10 T38N R78W:   LOCATION
 CNTY.            NATRONA:   COUNTY
 STAT.            WYOMING:   STATE
 CTRY. UNITED STATES OF AMERICA:   COUNTRY
 SRVC.      DRESSER ATLAS:   SERVICE COMPANY
 DATE.        31-AUG-1977:   LOGDATE
 API .     49025104260000:   API NUMBER
~CURVE INFORMATION
#MNEM.UNIT       API CODE    CURVE DESCRIPTION
#----------   ------------   ------------------------------
 DEPT.F                  :   
 GRD .GAPI   45 310 01 00:   GAMMA RAY FROM DENSITY LOG
 CALD.IN     45 280 60 00:   CALIPER FROM DENSITY LOG
 RHOB.G/C3   45 350 01 00:   BULK DENSITY
 CORR.G/C3   45 356 01 00:   DENSITY CORRECTION
 SPR .MV     11 010 01 00:   SPONTANEOUS POTENTIAL
 LLS .OHMM   11 220 09 00:   LATEROLOG SHALLOW
 LLD .OHMM   11 220 10 00:   LATEROLOG DEEP
 TEND.LBS    45 635 01 00:   TENSION FROM DENSITY LOG
 TENR.LBS    07 635 01 00:   TENSION
~PARAMETER INFORMATION
#MNEM.UNIT          VALUE    DESCRIPTION
#----------   ------------   ------------------------------
 EKB .F         5258.0000:   Kelly bushing
 EGL .F         5248.0000:   Ground level
 EDF .F            0.0000:   Drilling floor
 TD  .F         3222.0000:   Total depth
 DATE.        31-AUG-1977:   Date logged
 CLNT.            A2DTECH:   Client Code
 SL  . 330' FNL & 990' FWL:   Surface Location
 PD  .                 GL:   Permanent Datum
 EPD .F              5248:   Elevation Permanent Datum
 LMF .                 KB:   Log Measured From
 DMF .                 KB:   Drilling Measured From
 DAPD.F                10:   Feet Above Permanent Datum
 DD  .F              3222:   Depth driller
 DL  .F              3219:   Depth logger
 BLI .F              3218:   Bottom log interval
 TLI .F               221:   Top log interval
 CS1 .IN             8.75:   Casing size
 CBD1.       8.75" @ 219':   Casing driller 1
 CBL1.F               221:   Casing logger 1
 BS1 .IN            7.875:   Bit size
 BSD1.F              3222:   Depth drilled with bit1
 DFT .                KCL:   Type fluid in hole
 DFD .                9.1:   Density
 DFV .                 36:   Viscosity
 DFPH.                 11:   pH
 DFL .                  8:   Fluid loss
 MSS .           FLOWLINE:   Source of sample
 RMS .OHMM           0.14:   Rm
 MST .F                72:   Rm Meas. temp.
 RMF .OHMM           0.08:   Rmf
 MFST.F                72:   Rmf Meas. temp.
 RMC .OHMM           0.20:   Rmc
 MCST.F                72:   Rmc Meas. temp.
 MFSS.               CALC:   Source Rmf.
 MCSS.               CALC:   Source Rmc.
 RMB .OHMM           0.08:   Rm. at BHT
 BHT .F               125:   BHT.
 TCS .HRS               3:   Time Circ. stopped
 MRT .F               125:   Maximum recorded temp.
 LUN .               6080:   Logging unit number
 LUL .              WLSTN:   Logging unit location
 ENGI.               RALL:   Recorded By
 WITN.         PETTINGILL:   Witnessed by
 ORIG.           5" PRINT:   Origin of data
 UWI .     49025104260000:   Unique Well ID
 DICO. A2D TECHNOLOGIES, INC.:   Digitizing Company
~OTHER INFORMATION
~A   DEPT      GRD       CALD       RHOB       CORR        SPR        LLS        LLD       TEND        TENR  
# ...
  393.0000    92.0610    10.5720     2.4810     0.0260   -64.1120     6.2750     7.1940   425.7430   546.1770
  393.5000    93.1090    10.5720     2.4800     0.0260   -64.1290     6.2000     7.1070   425.7430   546.1770
  394.0000    95.8800    10.5720     2.4770     0.0260   -64.8180     6.1250     6.9860   425.7430   546.1770
  394.5000    98.6130    10.5720     2.4730     0.0260   -65.5630     6.0500     6.8880   425.7430   546.1770
  395.0000    97.8010    10.5720     2.4700     0.0260   -66.3240     5.9750     6.7850   425.7430   546.1770
  395.5000    96.4160    10.5720     2.4670     0.0260   -66.5020     5.8730     6.6820   425.7430   546.1770
  396.0000    96.2060    10.5720     2.4640     0.0260   -66.3070     5.7180     6.5530   425.7430   546.1770
  396.5000    96.1650    10.5720     2.4650     0.0260   -66.0440     5.5620     6.4550   425.7430   546.1770
  397.0000    95.4790    10.5720     2.4670     0.0260   -65.7730     5.4470     6.3830   425.7430   546.1770
  397.5000    94.2880    10.5720     2.4660     0.0270   -65.7090     5.3660     6.3110   425.7430   546.1770
  398.0000    95.1270    10.5720     2.4640     0.0270   -65.8350     5.2840     6.2390   425.7430   546.1770
  398.5000    95.8160    10.5720     2.4620     0.0280   -66.0820     5.2130     6.1670   425.7430   546.1770
  399.0000    95.4690    10.5720     2.4610     0.0280   -66.3300     5.0030     5.9400   425.7430   546.1770
  399.5000    94.9860    10.5720     2.4650     0.0290   -66.5780     4.6510     5.3590   425.7430   546.1770
  400.0000    95.0130    10.5720     2.4700     0.0290   -66.8260     4.2490     4.8650   425.7430   546.1770
  400.5000    96.5730    10.5720     2.4740     0.0290   -67.0830     3.8480     4.3700   425.7430   546.1770
  401.0000    95.7160    10.5720     2.4790     0.0300   -66.7770     3.6160     4.1480   425.7430   546.1770
  401.5000    94.4400    10.5720     2.4840     0.0300   -66.1460     3.6820     4.1760   425.7430   546.1770
  402.0000    93.1550    10.5700     2.4840     0.0270   -65.6640     3.8750     4.3160   425.7430   546.1770
  402.5000    91.8850    10.5570     2.4820     0.0240   -65.5530     4.3770     4.8010   425.7430   546.1770
  403.0000    92.1750    10.5450     2.4810     0.0220   -65.4360     4.8790     5.5070   425.7430   546.1770
  403.5000    92.5480    10.5320     2.4800     0.0200   -65.3080     5.3820     6.4250   425.7430   546.1770
  404.0000    92.5380    10.5200     2.4820     0.0220   -64.8940     5.8360     6.8480   425.7430   546.1770
  404.5000    95.6160    10.5120     2.4840     0.0230   -64.4420     5.9800     7.0880   425.7430   546.1770
  405.0000    99.3590    10.5130     2.4870     0.0240   -63.9890     5.9800     7.2460   425.7430   546.1770
  405.5000   103.1070    10.5140     2.4890     0.0250   -63.5360     5.9800     7.0500   425.7430   546.1770
  406.0000   105.0470    10.5150     2.4910     0.0260   -63.0830     5.9800     7.0500   425.7430   546.1770
  406.5000   103.4830    10.5160     2.4930     0.0270   -62.6330     5.9800     7.0500   425.7430   546.1770
  407.0000   101.9380    10.5180     2.4950     0.0280   -62.3190     6.0710     7.1150   425.7430   546.1770
  407.5000   101.9220    10.5190     2.4960     0.0280   -62.3870     6.1660     7.2050   425.7430   546.1770
  408.0000   102.9550    10.5200     2.4950     0.0280   -62.4700     6.2620     7.3250   425.7430   546.1770
  408.5000   102.4740    10.5220     2.4940     0.0270   -62.5520     6.3570     7.4480   425.7430   546.1770
  409.0000   102.4820    10.5230     2.4930     0.0270   -62.6360     6.4520     7.5160   425.7430   546.1770
  409.5000   102.9140    10.5240     2.4920     0.0270   -62.7200     6.4930     7.4680   425.7430   546.1770
  410.0000   101.2950    10.5250     2.4910     0.0260   -62.7310     6.4700     7.4170   425.7430   546.1770
  410.5000    99.8670    10.5270     2.4900     0.0260   -62.4760     6.4500     7.3670   425.7430   546.1770
  411.0000   100.7110    10.5280     2.4890     0.0250   -62.1460     6.4310     7.3170   425.7430   546.1770
  411.5000   102.4290    10.5290     2.4880     0.0250   -61.8140     6.4110     7.2670   425.7430   546.1770
  412.0000   104.0340    10.5300     2.4880     0.0250   -61.4810     6.3910     7.2460   425.7430   546.1770
  412.5000   102.7850    10.5310     2.4840     0.0230   -61.1530     6.3170     7.1800   425.7430   546.1770
  413.0000   100.9040    10.5420     2.4810     0.0200   -60.9950     6.2600     7.1840   425.7430   546.1770
  413.5000    99.0410    10.5550     2.4770     0.0170   -61.2140     6.2680     7.1930   425.7430   546.1770
  414.0000    97.9620    10.5680     2.4740     0.0160   -61.4210     6.2740     7.2020   425.7430   546.1770
  414.5000    96.9080    10.5810     2.4710     0.0170   -61.6270     6.2800     7.2110   425.7430   546.1770
  415.0000    95.8490    10.5950     2.4700     0.0170   -61.8340     6.2870     7.2200   425.7430   546.1770
  415.5000    96.7050    10.6080     2.4690     0.0170   -62.0410     6.2930     7.2290   425.7430   546.1770
  416.0000    99.9210    10.6210     2.4670     0.0170   -62.2470     6.2990     7.2370   425.7430   546.1770
  416.5000   103.1220    10.6340     2.4660     0.0170   -62.4540     6.3060     7.2450   425.7430   546.1770
  417.0000   106.0980    10.6470     2.4650     0.0170   -62.6610     6.3130     7.1890   425.7430   546.1770
  417.5000   105.6800    10.6610     2.4650     0.0170   -62.8680     6.3170     7.1350   425.7430   546.1770
  418.0000   105.7890    10.6740     2.4650     0.0180   -63.0780     6.1410     7.0800   425.7430   546.1770
  418.5000   106.7210    10.6870     2.4660     0.0180   -63.1200     6.0590     7.0500   425.7430   546.1770
  419.0000   106.6770    10.6940     2.4610     0.0180   -63.1190     5.9900     6.8920   425.7430   546.1770
  419.5000   106.2650    10.7010     2.4570     0.0180   -62.8840     5.4020     6.2610   425.7430   546.1770
  420.0000   105.8360    10.7070     2.4560     0.0180   -62.2320     4.7230     5.6310   425.7430   546.1770
  420.5000   105.4070    10.7130     2.4560     0.0180   -61.5810     4.5690     5.0720   425.7430   546.1770
  421.0000   105.9720    10.7190     2.4580     0.0180   -60.9700     4.5040     5.1660   425.7430   546.1770
  421.5000   106.4670    10.7260     2.4610     0.0180   -61.5660     4.9410     5.5820   425.7430   546.1770
  422.0000   104.0020    10.7320     2.4600     0.0180   -62.2220     5.4450     6.0560   425.7430   546.1770
  422.5000   100.8820    10.7380     2.4560     0.0150   -62.8730     5.7130     6.4930   425.7430   546.1770
  423.0000    99.4390    10.7440     2.4520     0.0110   -63.5180     5.5390     6.5470   425.7430   546.1770
  423.5000    98.4880    10.7510     2.4480     0.0060   -63.9190     5.4080     5.9580   425.7430   546.1770
  424.0000   100.5420    10.7750     2.4410     0.0040   -63.7020     4.6850     5.2860   425.7430   546.1770
  424.5000   100.2130    10.8010     2.4400     0.0040   -63.3570     4.0210     4.5710   425.7430   546.1770
  425.0000    98.6210    10.8260     2.4420     0.0040   -63.0090     3.6490     4.1100   425.7430   546.1770
  425.5000   100.5450    10.8510     2.4480     0.0040   -62.6590     4.0000     4.5330   425.7430   546.1770
  426.0000    98.4160    10.8720     2.4510     0.0040   -62.3080     4.5010     5.1190   425.7430   546.1770
  426.5000    96.2580    10.8930     2.4540     0.0040   -61.9570     5.0860     6.0330   425.7430   546.1770
  427.0000    94.3790    10.9150     2.4530     0.0040   -61.6110     5.9260     6.9220   425.7430   546.1770
  427.5000    95.0150    10.9360     2.4520     0.0040   -61.3770     5.8570     6.9860   425.7430   546.1770
  428.0000    96.8870    10.9580     2.4510     0.0040   -61.6630     5.7620     6.8010   425.7430   546.1770
  428.5000    98.1470    10.9790     2.4500     0.0020   -61.9380     5.6610     6.7350   425.7430   546.1770
  429.0000    95.6590    11.0040     2.4490     0.0020   -62.2110     5.6750     6.7810   425.7430   546.1770
