~VERSION INFORMATION
 VERS.                2.0:   CWLS LOG ASCII STANDARD - VERSION 2.0
 WRAP.                 NO:   ONE LINE PER DEPTH STEP
~WELL INFORMATION
#MNEM.UNIT      DATA TYPE    INFORMATION
#----------   ------------   ------------------------------
 STRT.F          210.5000:   START DEPTH
 STOP.F         3234.0000:   STOP DEPTH
 STEP.F            0.5000:   STEP LENGTH
 NULL.          -999.2500:   NO VALUE
 COMP.    FENIX & SCISSON:   COMPANY
 WELL.   FENIX "A" #21-10:   WELL
 FLD .              NPR-3:   FIELD
 LOC .      S10 T38N R78W:   LOCATION
 CNTY.            NATRONA:   COUNTY
 STAT.            WYOMING:   STATE
 CTRY. UNITED STATES OF AMERICA:   COUNTRY
 SRVC.      DRESSER ATLAS:   SERVICE COMPANY
 DATE.        31-AUG-1977:   LOGDATE
 API .     49025104260000:   API NUMBER
~CURVE INFORMATION
#MNEM.UNIT       API CODE    CURVE DESCRIPTION
#----------   ------------   ------------------------------
 DEPT.F                  :   
 GRD .GAPI   45 310 01 00:   GAMMA RAY FROM DENSITY LOG
 CALD.IN     45 280 60 00:   CALIPER FROM DENSITY LOG
 RHOB.G/C3   45 350 01 00:   BULK DENSITY
 CORR.G/C3   45 356 01 00:   DENSITY CORRECTION
 SPR .MV     11 010 01 00:   SPONTANEOUS POTENTIAL
 LLS .OHMM   11 220 09 00:   LATEROLOG SHALLOW
 LLD .OHMM   11 220 10 00:   LATEROLOG DEEP
 TEND.LBS    45 635 01 00:   TENSION FROM DENSITY LOG
 TENR.LBS    07 635 01 00:   TENSION
~PARAMETER INFORMATION
#MNEM.UNIT          VALUE    DESCRIPTION
#----------   ------------   ------------------------------
 EKB .F         5258.0000:   Kelly bushing
 EGL .F         5248.0000:   Ground level
 EDF .F            0.0000:   Drilling floor
 TD  .F         3222.0000:   Total depth
 DATE.        31-AUG-1977:   Date logged
 CLNT.            A2DTECH:   Client Code
 SL  . 330' FNL & 990' FWL:   Surface Location
 PD  .                 GL:   Permanent Datum
 EPD .F              5248:   Elevation Permanent Datum
 LMF .                 KB:   Log Measured From
 DMF .                 KB:   Drilling Measured From
 DAPD.F                10:   Feet Above Permanent Datum
 DD  .F              3222:   Depth driller
 DL  .F              3219:   Depth logger
 BLI .F              3218:   Bottom log interval
 TLI .F               221:   Top log interval
 CS1 .IN             8.75:   Casing size
 CBD1.       8.75" @ 219':   Casing driller 1
 CBL1.F               221:   Casing logger 1
 BS1 .IN            7.875:   Bit size
 BSD1.F              3222:   Depth drilled with bit1
 DFT .                KCL:   Type fluid in hole
 DFD .                9.1:   Density
 DFV .                 36:   Viscosity
 DFPH.                 11:   pH
 DFL .                  8:   Fluid loss
 MSS .           FLOWLINE:   Source of sample
 RMS .OHMM           0.14:   Rm
 MST .F                72:   Rm Meas. temp.
 RMF .OHMM           0.08:   Rmf
 MFST.F                72:   Rmf Meas. temp.
 RMC .OHMM           0.20:   Rmc
 MCST.F                72:   Rmc Meas. temp.
 MFSS.               CALC:   Source Rmf.
 MCSS.               CALC:   Source Rmc.
 RMB .OHMM           0.08:   Rm. at BHT
 BHT .F               125:   BHT.
 TCS .HRS               3:   Time Circ. stopped
 MRT .F               125:   Maximum recorded temp.
 LUN .               6080:   Logging unit number
 LUL .              WLSTN:   Logging unit location
 ENGI.               RALL:   Recorded By
 WITN.         PETTINGILL:   Witnessed by
 ORIG.           5" PRINT:   Origin of data
 UWI .     49025104260000:   Unique Well ID
 DICO. A2D TECHNOLOGIES, INC.:   Digitizing Company
~OTHER INFORMATION
~A   DEPT      GRD       CALD       RHOB       CORR        SPR        LLS        LLD       TEND        TENR  
# ...
 3021.0000   119.3880     8.4200     2.5110     0.0970   -84.8070     6.8630     7.3020   349.2930   585.8990
 3021.5000   120.7000     8.4200     2.5150     0.0920   -84.6310     7.0970     7.4960   347.4850   585.8990
 3022.0000   121.0710     8.4200     2.5180     0.0860   -84.4690     7.1800     7.6910   346.5350   585.8990
 3022.5000   120.5730     8.4200     2.5190     0.0810   -84.3020     7.1800     7.7960   343.4030   585.8990
 3023.0000   120.5240     8.4200     2.5210     0.0760   -84.1350     7.0120     7.5400   338.7800   585.8990
 3023.5000   121.0280     8.4200     2.5210     0.0700   -83.9860     6.7890     7.2420   334.1560   585.8990
 3024.0000   122.2490     8.4200     2.5170     0.0650   -84.0230     6.4820     6.9440   329.5330   585.8990
 3024.5000   124.1500     8.4200     2.5140     0.0590   -84.5380     6.2320     6.6130   324.9090   585.8990
 3025.0000   126.0450     8.4200     2.5130     0.0540   -84.9900     5.9820     6.3680   320.2860   585.8990
 3025.5000   127.9370     8.4200     2.5150     0.0490   -85.4370     5.7310     6.1440   315.6620   585.8990
 3026.0000   129.4760     8.4270     2.5180     0.0430   -85.8160     5.5580     6.0350   311.0380   585.8990
 3026.5000   129.4480     8.4350     2.5230     0.0380   -85.5510     5.7220     6.1280   306.9310   585.8990
 3027.0000   127.8520     8.4430     2.5280     0.0320   -85.4700     5.9010     6.2300   326.7330   585.8990
 3027.5000   126.3090     8.4510     2.5330     0.0310   -85.3890     6.0800     6.3530   326.7330   585.8990
 3028.0000   125.6490     8.4580     2.5390     0.0290   -85.3870     6.2600     6.6080   326.7330   585.8990
 3028.5000   122.2550     8.4660     2.5430     0.0280   -85.3880     6.4680     6.8640   326.7330   585.8990
 3029.0000   121.0350     8.4740     2.5430     0.0270   -85.3870     6.7290     7.1200   326.7330   585.8990
 3029.5000   121.0230     8.4820     2.5400     0.0250   -85.3890     6.9900     7.3750   326.7330   585.8990
 3030.0000   121.9660     8.4890     2.5340     0.0230   -85.4210     7.2520     7.6310   326.7330   585.8990
 3030.5000   122.8160     8.4970     2.5290     0.0200   -85.5510     7.5160     7.9400   326.7330   585.8990
 3031.0000   120.4270     8.5050     2.5230     0.0160   -85.6760     7.4460     7.8360   326.7330   585.8990
 3031.5000   117.4620     8.5130     2.5200     0.0160   -85.8010     7.3740     7.7530   326.7330   585.8990
 3032.0000   115.1400     8.5210     2.5220     0.0160   -85.9270     7.3020     7.6700   326.7330   585.8990
 3032.5000   117.7890     8.5280     2.5240     0.0160   -86.0530     7.1800     7.6550   326.7330   585.8990
 3033.0000   118.7390     8.5360     2.5270     0.0160   -86.1790     7.4970     7.8650   326.7330   585.8990
 3033.5000   117.3550     8.5440     2.5290     0.0160   -86.1840     7.8680     8.1200   326.7330   585.8990
 3034.0000   117.3980     8.5520     2.5290     0.0150   -86.1640     7.8680     8.1610   326.7330   585.8990
 3034.5000   118.0410     8.5590     2.5280     0.0150   -86.0520     7.6370     7.9970   326.7330   585.8990
 3035.0000   115.9630     8.5670     2.5240     0.0150   -85.9400     7.2820     7.6380   326.7330   585.8990
 3035.5000   114.6270     8.5750     2.5190     0.0150   -85.8270     6.9270     7.2780   326.7330   585.8990
 3036.0000   117.7670     8.5800     2.5150     0.0150   -85.7870     6.5720     6.9190   326.7330   585.8990
 3036.5000   120.8380     8.5820     2.5110     0.0150   -85.8320     6.2170     6.5590   326.7330   585.8990
 3037.0000   124.1260     8.5840     2.5060     0.0140   -86.0590     5.9800     6.2540   326.7330   585.8990
 3037.5000   128.0850     8.5860     2.5020     0.0130   -86.2800     5.2970     5.8370   326.7330   585.8990
 3038.0000   132.0930     8.5880     2.4980     0.0120   -86.5090     4.6720     5.1150   326.7330   585.8990
 3038.5000   136.0550     8.5900     2.4980     0.0110   -86.6170     4.0460     4.2640   326.7330   585.8990
 3039.0000   143.3740     8.5920     2.5000     0.0100   -86.7700     3.4210     3.4230   326.7330   585.8990
 3039.5000   152.6440     8.5940     2.5020     0.0090   -86.7790     2.8250     3.2110   326.7330   585.8990
 3040.0000   161.7220     8.5960     2.5050     0.0090   -86.6540     3.2650     3.2110   326.7330   585.8990
 3040.5000   168.7080     8.5980     2.5100     0.0080   -86.4030     4.0860     3.9780   326.7330   585.8990
 3041.0000   160.5420     8.6000     2.5160     0.0070   -86.1850     4.9070     4.6870   326.7330   585.8990
 3041.5000   148.0180     8.6020     2.5210     0.0060   -86.1830     5.7280     6.1360   346.5350   585.8990
 3042.0000   135.4630     8.6040     2.5170     0.0050   -86.1700     6.5490     7.0790   388.5150   585.8990
 3042.5000   122.9820     8.6060     2.5140     0.0040   -86.0230     6.7700     7.2490   425.7430   585.8990
 3043.0000   115.4790     8.6080     2.5110     0.0030   -85.7620     6.9640     7.4200   405.9410   585.8990
 3043.5000   112.2870     8.6100     2.5080     0.0020   -85.8710     7.1580     7.5900   401.9500   585.8990
 3044.0000   110.7420     8.6120     2.5050     0.0010   -86.1300     7.3130     7.7250   398.1260   585.8990
 3044.5000   111.7070     8.6140     2.5020     0.0000   -86.3790     7.3130     7.5240   394.3030   586.2010
 3045.0000   111.1310     8.6160     2.5020     0.0010   -86.6300     7.1690     7.3080   390.4800   586.5760
 3045.5000   110.5250     8.6180     2.5020     0.0020   -86.8810     6.9360     7.0910   386.6570   586.9510
 3046.0000   113.2100     8.6190     2.5020     0.0040   -87.1330     6.7030     6.8750   386.1390   587.3270
 3046.5000   119.7040     8.6180     2.5020     0.0050   -87.3820     6.4700     6.6130   386.1390   587.7020
 3047.0000   123.6250     8.6170     2.5020     0.0070   -87.5790     6.3170     6.6130   386.1390   588.0770
 3047.5000   126.8480     8.6160     2.5060     0.0080   -87.4820     6.4460     6.6130   389.4840   588.4520
 3048.0000   125.9290     8.6140     2.5100     0.0100   -87.2720     6.5680     6.8480   393.3010   588.8270
 3048.5000   123.5600     8.6130     2.5140     0.0110   -87.0620     6.6900     7.1100   397.1170   589.2030
 3049.0000   119.9010     8.6110     2.5180     0.0120   -86.8520     6.8120     7.2460   400.9340   589.5780
 3049.5000   118.1460     8.6100     2.5210     0.0140   -86.6510     6.9220     7.2460   404.7510   589.9530
 3050.0000   117.7550     8.6090     2.5200     0.0150   -86.4970     6.9220     6.9650   408.5670   590.3280
 3050.5000   120.2280     8.6070     2.5190     0.0160   -86.9850     6.1510     6.6500   412.3840   590.7030
 3051.0000   125.1780     8.6060     2.5160     0.0140   -87.4550     5.6090     6.1170   416.2010   591.0780
 3051.5000   130.2950     8.6050     2.5140     0.0130   -87.9090     5.1040     5.4880   420.0180   591.4540
 3052.0000   137.8690     8.6030     2.5120     0.0110   -87.5680     4.6400     4.8590   423.8340   591.8290
 3052.5000   152.1760     8.6020     2.5090     0.0100   -87.3080     4.1760     4.2300   425.7430   592.2040
 3053.0000   165.0730     8.6000     2.5070     0.0080   -87.1430     3.7120     3.9110   403.4650   592.5790
 3053.5000   176.5020     8.5990     2.5050     0.0070   -86.9860     3.2480     3.6830   378.7130   592.9540
 3054.0000   181.0930     8.5980     2.5090     0.0050   -86.8300     3.1240     3.5830   353.9600   593.3300
 3054.5000   183.0550     8.5960     2.5140     0.0040   -86.6740     3.8940     4.5170   346.5350   593.7050
 3055.0000   177.4920     8.5950     2.5190     0.0020   -86.5860     4.8000     5.6140   346.5350   594.0800
 3055.5000   158.4170     8.5940     2.5250     0.0030   -86.4170     5.6870     6.6740   346.5350   594.4550
 3056.0000   139.2490     8.5920     2.5290     0.0040   -86.4070     6.5520     6.9340   346.5350   594.8300
 3056.5000   121.7450     8.5910     2.5330     0.0050   -86.4660     7.0960     7.3460   344.6240   595.2060
 3057.0000   116.0000     8.5890     2.5350     0.0060   -86.5250     7.2390     7.6100   342.8870   595.5810
