~VERSION INFORMATION
 VERS.                2.0:   CWLS LOG ASCII STANDARD - VERSION 2.0
 WRAP.                 NO:   ONE LINE PER DEPTH STEP
~WELL INFORMATION
#MNEM.UNIT      DATA TYPE    INFORMATION
#----------   ------------   ------------------------------
 STRT.F           63.5000:   START DEPTH
 STOP.F         4112.0000:   STOP DEPTH
 STEP.F            0.5000:   STEP LENGTH
 NULL.          -999.2500:   NO VALUE
 COMP. LAWRENCE-ALLISON & ASSOC:   COMPANY
 WELL. LAWRENCE "X" #34-34:   WELL
 FLD .           N.P.R.#3:   FIELD
 LOC .      S34 T39N R78W:   LOCATION
 CNTY.            NATRONA:   COUNTY
 STAT.            WYOMING:   STATE
 CTRY. UNITED STATES OF AMERICA:   COUNTRY
 SRVC.      DRESSER ATLAS:   SERVICE COMPANY
 DATE.        19-OCT-1983:   LOGDATE
 API .     49025109440000:   API NUMBER
~CURVE INFORMATION
#MNEM.UNIT       API CODE    CURVE DESCRIPTION
#----------   ------------   ------------------------------
 DEPT.F                  :   
 AC  .US/F   60 250 00 00:   ACCOUSTIC
 TENS.LBS    60 635 01 00:   TENSION FROM SONIC
 ILD .OHMM   07 120 46 00:   DEEP INDUCTION RESISTIVITY
 ILM .OHMM   07 120 44 00:   INDUCTION LOG MEDIUM RESISTIVITY
 RFOC.OHMM   07 220 04 00:   RESISTIVITY FOCUSED LOG RES.
 TENR.LBS    07 635 01 00:   TENSION FROM RESISTIVITY
 SPR .MV     07 010 01 00:   SPONTANEOUS POTENTIAL
 GRR .GAPI   07 310 01 00:   GAMMA RAY FROM RESISTIVITY
 CALD.IN     45 280 60 00:   CALIPER FROM DENSITY LOG
 RHOB.G/C3   45 350 01 00:   BULK DENSITY
 CORR.G/C3   45 356 01 00:   DENSITY CORRECTION
 TEND.LBS    45 635 01 00:   TENSION FROM DENSITY LOG
 NPHI.DEC    42 890 03 00:   NEUTRON POROSITY SANDSTONE
~PARAMETER INFORMATION
#MNEM.UNIT          VALUE    DESCRIPTION
#----------   ------------   ------------------------------
 EKB .F         5100.0000:   Kelly bushing
 EGL .F         5090.0000:   Ground level
 TD  .F         4107.0000:   Total depth
 DATE.        19-OCT-1983:   Date logged
 CLNT.            A2DTECH:   Client Code
 SL  . 1997' FNL & 1661' FWL:   Surface Location
 PD  .                 GL:   Permanent Datum
 EPD .F              5090:   Elevation Permanent Datum
 LMF .                 KB:   Log Measured From
 DMF .                 KB:   Drilling Measured From
 DAPD.F                10:   Feet Above Permanent Datum
 DD  .F              4107:   Depth driller
 DL  .F              4102:   Depth logger
 BLI .F              4100:   Bottom log interval
 CS1 .IN            9.625:   Casing size
 CBD1.      9.625" @ 695':   Casing driller 1
 CBL1.F               696:   Casing logger 1
 BS1 .IN            7.875:   Bit size
 BSD1.F              4107:   Depth drilled with bit1
 DFT .            GEL-KCL:   Type fluid in hole
 DFD .                  9:   Density
 DFV .                 43:   Viscosity
 DFPH.                  9:   pH
 DFL .                 11:   Fluid loss
 MSS .           FLOWLINE:   Source of sample
 RMS .OHMM          0.313:   Rm
 MST .F                72:   Rm Meas. temp.
 RMF .OHMM          0.265:   Rmf
 MFST.F                68:   Rmf Meas. temp.
 RMC .OHMM          0.598:   Rmc
 MCST.F                68:   Rmc Meas. temp.
 MFSS.               MEAS:   Source Rmf.
 MCSS.               MEAS:   Source Rmc.
 RMB .OHMM          0.173:   Rm. at BHT
 BHT .F               130:   BHT.
 TCS .HRS               4:   Time Circ. stopped
 MRT .F               130:   Maximum recorded temp.
 LUN .               6774:   Logging unit number
 LUL .               GLTE:   Logging unit location
 ENGI.           FAHLEING:   Recorded By
 WITN.           JENNINGS:   Witnessed by
 ORIG.           5" PRINT:   Origin of data
 UWI .     49025109440000:   Unique Well ID
 DICO. A2D TECHNOLOGIES, INC.:   Digitizing Company
~OTHER INFORMATION
~A   DEPT       AC       TENS        ILD        ILM       RFOC       TENR        SPR         GRR      CALD       RHOB       CORR       TEND       NPHI   
# ...
 2949.5000    81.0380   -61.3730    12.5320    10.4660    10.3860   -23.3300   -64.1440    71.2090     7.7750     2.2660    -0.0100   -32.9650     0.2360
 2950.0000    82.0790   -61.8810    11.9380     9.5990     8.9640   -20.2330   -63.8610    71.8500     7.7790     2.2740     0.0020   -32.1680     0.2340
 2950.5000    83.0690   -61.8810    11.3430     8.7310     8.4760   -17.1360   -63.5790    70.4100     7.7820     2.2790    -0.0070   -36.1840     0.2340
 2951.0000    82.4320   -61.8810    10.7480     8.3650     8.4760   -14.0390   -63.2990    69.0150     7.7860     2.2770    -0.0230   -39.8390     0.2340
 2951.5000    81.8240   -61.8810    10.1530     8.0970     8.4760   -12.2860   -63.0170    67.5920     7.7880     2.2740    -0.0310   -43.4940     0.2370
 2952.0000    81.6830   -61.8810     9.5590     7.7830     8.4760   -13.5110   -63.0410    66.2110     7.7900     2.2780    -0.0200   -47.1480     0.2370
 2952.5000    81.9370   -61.8810     8.9640     7.5080     8.3610   -14.7370   -63.3490    69.7750     7.7920     2.2910     0.0020   -50.8030     0.2310
 2953.0000    82.3420   -61.8810     8.6220     7.5080     8.1400   -15.9620   -63.6580    72.1360     7.7940     2.2990     0.0350   -54.4580     0.2240
 2953.5000    82.7470   -61.8810     8.4680     7.5080     7.9200   -17.1880   -63.9720    72.0410     7.7950     2.3060     0.0240   -58.1130     0.2270
 2954.0000    83.0280   -61.8810     8.3460     7.4800     7.6990   -18.4130   -64.2880    70.3560     7.7970     2.3130     0.0100   -61.7670     0.2310
 2954.5000    82.8280   -61.8810     8.2150     7.2700     7.5210   -19.6390   -64.3020    66.7940     7.7990     2.3210     0.0100   -53.1470     0.2340
 2955.0000    82.6280   -61.8810     8.0150     7.0600     7.6490   -20.8650   -64.3030    65.6280     7.8000     2.3300     0.0180   -41.1080     0.2350
 2955.5000    82.4270   -61.8810     7.8150     6.8500     7.5430   -22.0900   -64.3030    68.3700     7.8020     2.3410     0.0320   -29.0690     0.2360
 2956.0000    82.2270   -61.8810     7.6150     6.6770     7.4000   -23.3160   -64.7090    72.1030     7.8040     2.3520     0.0510   -24.6960     0.2380
 2956.5000    82.1360   -61.8810     7.4160     6.5750     7.2570   -24.5410   -65.4410    73.4670     7.8050     2.3570     0.0490   -31.0920     0.2420
 2957.0000    82.3530   -61.8810     7.2160     6.4730     7.1360   -25.7670   -66.1810    73.4510     7.8070     2.3560     0.0490   -37.4870     0.2420
 2957.5000    82.5700   -61.8810     7.0160     6.3710     6.9030   -26.9920   -66.9110    74.3270     7.8090     2.3540     0.0450   -43.8830     0.2410
 2958.0000    82.7870   -61.8810     6.8160     6.2730     6.7880   -28.2180   -67.1530    75.2650     7.8110     2.3520     0.0410   -50.2790     0.2400
 2958.5000    83.0040   -61.8810     6.6260     6.1770     6.7230   -29.4440   -67.4150    75.6370     7.8120     2.3500     0.0530   -56.6740     0.2380
 2959.0000    83.1980   -61.8810     6.4860     6.0810     6.8910   -30.6690   -67.6820    74.9370     7.8140     2.3410     0.0530   -63.0700     0.2350
 2959.5000    83.3820   -61.8810     6.3450     6.0010     6.8340   -31.8950   -67.9460    74.7460     7.8160     2.3270     0.0400   -69.4660     0.2310
 2960.0000    83.5660   -61.8810     6.2290     6.0410     6.6520   -31.4230   -67.6160    74.9030     7.8170     2.3190     0.0270   -75.8610     0.2270
 2960.5000    83.7490   -61.8810     6.2290     6.0760     6.4660   -30.4630   -67.0350    75.0290     7.8190     2.3180     0.0130   -82.2570     0.2200
 2961.0000    83.9330   -61.8810     6.2290     6.1100     6.3700   -29.5030   -66.4360    74.2730     7.8210     2.3230     0.0220   -88.6520     0.2190
 2961.5000    84.1170   -61.8810     6.2290     6.1440     6.2720   -28.5440   -66.6960    74.1970     7.8230     2.3350     0.0320   -95.0480     0.2210
 2962.0000    84.1960   -61.8810     6.2290     6.1720     6.1750   -27.5840   -67.1290    75.3300     7.8240     2.3470     0.0400  -101.4440     0.2240
 2962.5000    83.7500   -61.8810     6.2290     6.0720     6.0570   -26.6240   -67.0470    75.2930     7.8260     2.3590     0.0300   -96.1250     0.2240
 2963.0000    83.0690   -61.8810     6.1640     5.9880     6.4410   -25.6650   -66.7890    72.6440     7.8270     2.3710     0.0170   -83.3330     0.2230
 2963.5000    82.0200   -61.8810     6.0560     5.9040     7.3950   -24.7050   -66.5330    69.9180     7.8510     2.3840     0.0060   -70.5420     0.2330
 2964.0000    80.9210   -61.8810     5.9480     5.8210     8.0140   -23.7450   -66.2140    72.5220     7.8870     2.3950    -0.0010   -57.7510     0.2440
 2964.5000    79.8210   -61.8810     5.8390     5.7370     7.6530   -22.7860   -65.6460    78.0800     7.9240     2.3950    -0.0070   -44.9590     0.2360
 2965.0000    79.5840   -63.7290     5.7310     5.6530     6.6630   -23.2750   -65.0790    81.1080     7.9270     2.3910    -0.0090   -37.2340     0.2210
 2965.5000    80.1050   -67.2010     5.6230     5.4950     6.2740   -28.9260   -64.5130    81.4380     7.9250     2.3830    -0.0020   -26.8490     0.2100
 2966.0000    80.6260   -70.6730     5.5180     5.2920     6.2510   -34.5770   -63.9440    82.7600     7.9220     2.3750     0.0180   -57.6420     0.2130
 2966.5000    81.1470   -74.1450     5.2780     5.1030     6.2290   -40.2290   -63.3750    85.6020     7.9190     2.3730     0.0450   -68.3050     0.2270
 2967.0000    81.6670   -77.6170     5.0440     4.9210     5.9910   -45.8800   -63.2520    88.1220     7.9170     2.3730     0.0590   -34.1950     0.2430
 2967.5000    82.2770   -81.0890     4.8100     4.7400     5.7600   -51.5310   -63.1750    90.8940     7.9140     2.3690     0.0350    -0.0840     0.2420
 2968.0000    83.3800   -84.5610     4.5770     4.5580     5.5290   -57.1820   -63.1000    96.2730     7.9120     2.3650     0.0300    10.7230     0.2330
 2968.5000    84.7110   -88.0330     4.4630     4.4710     5.2980   -62.5630   -63.0250   101.5360     7.9090     2.3710     0.0260    -6.3320     0.2230
 2969.0000    86.0420   -91.5050     4.3940     4.4430     5.0460   -63.4820   -62.9510   105.5140     7.9070     2.3830     0.0220   -22.0360     0.2130
 2969.5000    86.8850   -94.9770     4.3290     4.4220     4.7970   -64.3590   -62.8820   103.1690     7.9040     2.3980     0.0180   -22.6300     0.2070
 2970.0000    87.0300   -98.4490     4.2900     4.4060     4.9030   -65.2360   -62.1650    98.7740     7.9020     2.4140     0.0140   -23.1800     0.2060
 2970.5000    86.1070  -101.4850     4.2540     4.3870     5.1570   -66.1130   -61.2950    95.9860     7.8990     2.4300     0.0100   -23.7310     0.2120
 2971.0000    85.0650   -99.1410     4.2000     4.3700     5.5080   -66.9900   -61.2830    97.7020     7.8960     2.4370     0.0090   -24.2810     0.2190
 2971.5000    84.1410   -97.0570     4.1260     4.2660     5.3980   -67.8670   -61.6120   101.3050     7.8940     2.4380     0.0090   -24.8310     0.2210
 2972.0000    83.6200   -94.9740     4.0520     4.1680     5.1510   -68.7440   -61.9660   108.9280     7.8910     2.4400     0.0090   -25.3810     0.2240
 2972.5000    83.2250   -92.8910     3.9780     4.0710     5.0290   -69.6210   -62.0630   116.3940     7.8890     2.4470     0.0150   -25.9310     0.2280
 2973.0000    83.0950   -90.8080     3.9040     3.9740     4.9330   -70.4980   -62.0670   123.7910     7.8910     2.4610     0.0410   -26.4810     0.2340
 2973.5000    83.2780   -88.7250     3.8300     3.9020     4.6680   -71.3740   -62.0660   128.2050     7.8930     2.4750     0.0560   -27.0320     0.2390
 2974.0000    83.5390   -86.6420     3.7560     3.8420     4.4850   -72.2510   -62.0650   128.5580     7.8950     2.4820     0.0600   -27.5820     0.2390
 2974.5000    83.7990   -84.5580     3.6600     3.7640     4.4550   -71.4230   -62.0660   123.8310     7.8970     2.4880     0.0640   -28.1320     0.2210
 2975.0000    83.7480   -82.4750     3.6660     3.8010     4.5360   -68.8480   -62.0660   119.9280     7.9000     2.4950     0.0690   -28.6820     0.2090
