~VERSION INFORMATION
 VERS.                2.0:   CWLS LOG ASCII STANDARD - VERSION 2.0
 WRAP.                 NO:   ONE LINE PER DEPTH STEP
~WELL INFORMATION
#MNEM.UNIT      DATA TYPE    INFORMATION
#----------   ------------   ------------------------------
 STRT.F            0.5000:   START DEPTH
 STOP.F         4256.0000:   STOP DEPTH
 STEP.F            0.5000:   STEP LENGTH
 NULL.          -999.2500:   NO VALUE
 COMP. LAWRENCE-ALLISON & ASSOC:   COMPANY
 WELL. LAWRENCE "X" #64-15:   WELL
 FLD .        N.P.R. NO.3:   FIELD
 LOC .      S15 T38N R78W:   LOCATION
 CNTY.            NATRONA:   COUNTY
 STAT.            WYOMING:   STATE
 CTRY. UNITED STATES OF AMERICA:   COUNTRY
 SRVC.      DRESSER ATLAS:   SERVICE COMPANY
 DATE.        13-SEP-1984:   LOGDATE
 API .     49025111610000:   API NUMBER
~CURVE INFORMATION
#MNEM.UNIT       API CODE    CURVE DESCRIPTION
#----------   ------------   ------------------------------
 DEPT.F                  :   
 TENR.LBS    07 635 01 00:   TENSION FROM RESISTIVITY
 GRR .GAPI   07 310 01 00:   GAMMA RAY FROM RESISTIVITY
 RFOC.OHMM   07 220 04 00:   RESISTIVITY FOCUSED LOG RES.
 RILD.OHMM   07 120 46 00:   DEEP INDUCTION RESISTIVITY
 RILM.OHMM   07 120 44 00:   INDUCTION LOG MEDIUM RESISTIVITY
 SPR .MV     07 010 01 00:   SPONTANEOUS POTENTIAL
 DT  .US/F   60 520 00 00:   DELTA TIME
 TENS.LBS    60 635 01 00:   TENSION FROM SONIC
 CALD.IN     45 280 60 00:   CALIPER FROM DENSITY LOG
 TEND.LBS    45 635 01 00:   TENSION FORM DENSITY LOG
 CORR.G/C3   45 356 01 00:   DENSITY CORRECTION
 DEN .G/C3   45 350 01 00:   BULK DENSITY
 CNC .DEC    42 890 03 00:   NEUTRON POROSITY SANDSTONE
~PARAMETER INFORMATION
#MNEM.UNIT          VALUE    DESCRIPTION
#----------   ------------   ------------------------------
 EKB .F         5294.0000:   Kelly bushing
 EGL .F         5282.0000:   Ground level
 TD  .F         4256.0000:   Total depth
 CLNT.            A2DTECH:   Client Code
 SL  . 2299' FNL & 1785' FEL:   Surface Location
 PD  .                 GL:   Permanent Datum
 EPD .F              5282:   Elevation Permanent Datum
 LMF .                 KB:   Log Measured From
 DMF .                 KB:   Drilling Measured From
 DAPD.F                12:   Feet Above Permanent Datum
 DATE.        13-SEP-1984:   Date Logged [DD-MMM-YYYY]
 DD  .F              4256:   Depth driller
 DL  .F              4248:   Depth logger
 BLI .F              4246:   Bottom log interval
 TLI .F                 0:   Top log interval
 CS1 .IN            8.625:   Casing size
 CBD1.      8.625" @ 817':   Casing driller 1
 CBL1.F               814:   Casing logger 1
 BS1 .IN            7.875:   Bit size
 BSD1.F              4256:   Depth drilled with bit1
 DFT .            KCL-GEL:   Type fluid in hole
 DFD .                  9:   Density
 DFV .                 40:   Viscosity
 DFPH.                8.6:   pH
 DFL .               11.8:   Fluid loss
 MSS .            MUDTANK:   Source of sample
 RMS .OHMM           0.38:   Rm
 MST .F                74:   Rm Meas. temp.
 RMF .OHMM           0.31:   Rmf
 MFST.F                72:   Rmf Meas. temp.
 MFSS.               MEAS:   Source Rmf.
 RMC .OHMM           0.48:   Rmc
 MCST.F                74:   Rmc Meas. temp.
 MCSS.               CALC:   Source Rmc.
 RMB .OHMM           0.22:   Rm. at BHT
 BHT .F               134:   BHT.
 TCS .HRS               4:   Time Circ. stopped
 MRT .F               134:   Maximum recorded temp.
 LUN .            HL-6274:   Logging unit number
 LUL .           GILLETTE:   Logging unit location
 ENGI.             RAUTIO:   Recorded By
 WITN.            JOHNSON:   Witnessed by
 ORIG.        2" 5" PRINT:   Origin of data
 UWI .     49025111610000:   Unique Well ID
 DICO. A2D TECHNOLOGIES, INC.:   Digitizing Company
~OTHER INFORMATION
~A    DEPT    TENR         GRR      RFOC       RILD       RILM        SPR         DT       TENS       CALD       TEND       CORR        DEN        CNC   
# ...
 2860.5000   -59.2341    89.3397    14.7096    16.0452    14.4832   -21.9464    59.5496   -55.7769     8.8480   -17.4031     0.0187     2.4669     0.1824
 2861.0000   -59.5076    84.8430    15.3367    15.8196    14.3830   -22.0907    60.0450   -55.7769     8.8431    -5.9761     0.0278     2.4752     0.1802
 2861.5000   -52.1529    81.8501    15.7707    15.7121    14.2835   -22.0834    65.2252   -55.7769     8.8382    -5.9761     0.0338     2.4790     0.1808
 2862.0000   -52.4265    82.4663    15.9939    15.3871    14.0866   -22.0776    69.9674   -59.4622     8.8333   -32.6029     0.0369     2.4752     0.1862
 2862.5000   -53.5307    86.1645    15.9971    15.2794    13.8924   -22.2233    72.6059   -65.7371     8.8284   -15.9363     0.0369     2.4730     0.1901
 2863.0000   -55.1043    89.4165    15.7802    14.9637    13.6062   -22.6667    72.7594   -55.7769     8.8235   -25.8964     0.0399     2.4761     0.1910
 2863.5000   -56.6779    90.3334    15.4462    14.7564    13.2660   -23.2612    73.3647   -55.7769     8.8186   -25.8964     0.0370     2.4791     0.1879
 2864.0000   -58.2515    89.4458    15.0221    14.4515    12.8713   -23.2553    75.0243   -65.7371     8.8137   -29.4157     0.0355     2.4791     0.1832
 2864.5000   -59.8251    87.3551    14.4312    13.9583    12.5188   -23.2481    75.2531   -65.7371     8.8089   -45.8167     0.0355     2.4701     0.1802
 2865.0000   -61.3129    85.5653    14.0397    13.5756    12.3462   -23.0921    75.1030   -65.7371     8.8040   -65.7371     0.0401     2.4700     0.1742
 2865.5000   -61.5317    82.8731    13.6589    12.9260    12.1696   -23.0862    74.5577   -65.7371     8.7991   -75.6972     0.0461     2.4769     0.1760
 2866.0000   -69.2693    81.3840    13.4738    12.3184    11.8427   -23.0804    74.4335   -65.7371     8.7942   -63.8446     0.0492     2.4785     0.1832
 2866.5000   -69.4881    81.6994    13.0179    11.9807    11.7607   -23.0745    74.6631   -65.7371     8.7893   -55.7769     0.0462     2.4619     0.1904
 2867.0000   -69.7069    88.3977    12.4906    11.8147    11.5986   -23.2203    74.7413   -55.7769     8.7844   -55.7769     0.0479     2.4581     0.1922
 2867.5000   -69.9257    91.6571    11.9846    11.4114    11.3596   -23.2130    74.5929   -35.8566     8.7796   -55.7769     0.0553     2.4604     0.1910
 2868.0000   -62.6258    92.2733    12.1748    10.7953    10.8963   -23.6576    73.8435   -38.4794     8.7747   -75.6972     0.0583     2.4748     0.1907
 2868.5000   -62.8993    92.8894    12.8498     9.7293    10.2364   -24.1126    72.8675   -45.8167     8.7698   -40.9031     0.0583     2.4906     0.1910
 2869.0000   -70.6369    93.8063    13.2134     9.0774     9.2885   -24.9958    73.2500   -55.7769     8.7649   -25.8964     0.0569     2.4929     0.1937
 2869.5000   -93.4121    95.9262    13.3079     9.0138     8.3701   -25.7407    74.6592   -55.7769     8.7600   -15.9363     0.0539     2.4922     0.1976
 2870.0000   -78.5933   102.2566    12.4200     9.2085     7.9695   -26.3355    78.5999   -64.1719     8.7551   -15.9363     0.0494     2.4945     0.1994
 2870.5000   -63.7198   108.2863     9.2874     9.5251     7.9830   -26.1795    78.3770   -45.8167     8.7502   -15.9363     0.0432     2.4975     0.1980
 2871.0000   -63.9934   109.8047     7.9766     9.9282     8.3701   -24.9724    77.7775   -45.8167     8.7500   -25.8964     0.0344     2.4976     0.1838
 2871.5000   -64.2122   104.5757     8.0895    10.5656     8.9717   -23.6152    76.4250   -45.8167     8.7529   -25.8964     0.0284     2.4946     0.1739
 2872.0000   -71.9549    93.6761     9.6873    11.4008    10.5246   -22.1079    74.9219   -51.0956     8.7559   -10.6684     0.0224     2.4901     0.1715
 2872.5000   -79.7421    85.4913    11.9861    12.5602    12.0918   -20.9008    73.2682   -45.8167     8.7590     0.4427     0.0164     2.4825     0.1778
 2873.0000   -94.9985    83.3970    13.9894    13.7303    13.7963   -19.6846    71.0079   -55.7769     8.7620     3.9841     0.0134     2.4703     0.1802
 2873.5000   -87.6438    85.2199    14.5859    15.6726    14.7879   -18.7612    67.0168   -45.8167     8.7651     3.9841     0.0135     2.4569     0.1835
 2874.0000   -72.8250    85.5316    14.9986    16.6788    15.2042   -17.7287    62.2837   -51.5936     8.7681   -15.9363     0.0135     2.4449     0.1865
 2874.5000   -65.5251    83.7454    15.4230    17.5055    15.2042   -16.8219    63.1902   -45.8167     8.7712   -34.1301     0.0165     2.4419     0.1850
 2875.0000   -65.7986    82.8577    15.6412    17.8712    15.2042   -15.4647    70.4221   -55.7769     8.7742   -45.8167     0.0256     2.4396     0.1850
 2875.5000   -66.0174    84.0754    15.9728    17.9940    15.2042   -14.1075    72.8346   -65.7371     8.7773   -55.7769     0.0512     2.4389     0.1871
 2876.0000   -73.7594    85.5940    15.8658    18.2427    15.3101   -12.6002    73.8165   -82.2377     8.7803   -75.6972     0.0588     2.4374     0.1964
 2876.5000   -81.5474    85.9092    15.5414    19.0147    15.3101   -11.2430    74.1959   -75.6972     8.7834   -75.6972     0.0573     2.4375     0.1994
 2877.0000   -89.2850    80.8147    15.1086    19.9756    15.4168    -9.8858    74.0482   -65.7371     8.7865   -75.6972     0.0483     2.4397     0.1944
 2877.5000   -74.4662    73.9120    14.7117    21.7321    15.6323    -8.6636    72.2578   -65.7371     8.7895   -75.6972     0.0285     2.4435     0.1802
 2878.0000   -67.1115    71.5206    14.6131    24.9023    16.6399    -7.4474    64.2656   -68.4595     8.7933   -66.4770     0.0092     2.4511     0.1682
 2878.5000   -67.3850    69.7308    14.8199    27.8174    18.8542    -6.5635    60.9553   -55.7769     8.7984   -35.8566     0.0077     2.4941     0.1526
 2879.0000   -67.6038    64.6326    15.6673    31.5071    21.8649    -6.1072    61.9371   -55.7769     8.8036   -15.9363     0.0123     2.5500     0.1381
 2879.5000   -60.3039    52.3164    20.1072    34.9524    27.1684    -5.6509    62.6931   -55.7769     8.8087     3.9841     0.0168     2.5908     0.1279
 2880.0000   -60.5263    44.5115    38.5609    37.9772    31.9519    -5.3448    62.6207   -71.0017     8.8139    -2.3436     0.0274     2.6127     0.1279
 2880.5000   -60.7962    42.7216    60.9170    41.2638    33.7762    -5.3389    62.4729   -65.7371     8.8191   -14.1083     0.0621     2.5569     0.1424
 2881.0000   -61.0150    46.2287    66.6690    42.7133    33.0802    -5.1829    64.4337   -55.7769     8.8242   -25.8730     0.0802     2.5101     0.1721
 2881.5000   -61.2338    51.1756    49.5095    42.3685    31.2935    -5.1771    69.6579   -55.7769     8.8294   -35.8566     0.0758     2.4777     0.1844
 2882.0000   -61.4526    55.4008    27.2979    38.2247    27.2375    -5.3274    72.1210   -44.4223     8.8345   -33.2669     0.0321     2.4573     0.1862
 2882.5000   -61.6715    59.3252    20.6829    34.9303    24.3746    -5.6158    72.3499   -35.8566     8.8397   -15.9363     0.0170     2.4619     0.1841
 2883.0000   -61.8903    64.4526    19.5663    31.2636    21.2154    -6.2091    72.5787   -25.8964     8.8449   -35.8566     0.0201     2.4649     0.1826
 2883.5000   -62.1091    72.5876    18.4071    26.1096    18.3109    -6.8053    73.0334   -25.8964     8.8500   -35.8566     0.0261     2.4664     0.1857
 2884.0000   -62.3309    76.5120    17.2984    22.8883    16.1193    -7.6989    73.1870   -43.1275     8.8552   -57.2045     0.0322     2.4529     0.1904
 2884.5000   -62.6014    72.0153    16.3694    21.6525    14.9946    -8.1435    73.0393   -25.8964     8.8603   -65.7371     0.0382     2.4302     0.1922
 2885.0000   -70.3391    65.3623    15.2773    21.2052    14.6856    -8.5896    72.7410   -25.4752     8.8655   -75.6972     0.0413     2.4257     0.1928
 2885.5000   -70.5579    60.3153    14.6585    20.7671    14.5841    -8.8841    72.8465   -15.7131     8.8701   -85.6574     0.0383     2.4212     0.1940
 2886.0000   -70.7767    64.5441    14.4597    20.6216    14.4832    -9.0270    74.1783   -21.7869     8.8700   -68.4974     0.0383     2.4182     0.1964
