~VERSION INFORMATION
 VERS.                2.0:   CWLS LOG ASCII STANDARD - VERSION 2.0
 WRAP.                 NO:   ONE LINE PER DEPTH STEP
~WELL INFORMATION
#MNEM.UNIT      DATA TYPE    INFORMATION
#----------   ------------   ------------------------------
 STRT.F          209.5000:   START DEPTH
 STOP.F         3130.0000:   STOP DEPTH
 STEP.F            0.5000:   STEP LENGTH
 NULL.          -999.2500:   NO VALUE
 COMP. FENIX & SCISSON-U.S. NAVY:   COMPANY
 WELL.   FENIX "A" #66-29:   WELL
 FLD .              NPR 3:   FIELD
 LOC .      S29 T39N R78W:   LOCATION
 CNTY.            NATRONA:   COUNTY
 STAT.            WYOMING:   STATE
 CTRY. UNITED STATES OF AMERICA:   COUNTRY
 SRVC.       SCHLUMBERGER:   SERVICE COMPANY
 DATE.        12-JUN-1977:   LOGDATE
 API .     49025103850000:   API NUMBER
~CURVE INFORMATION
#MNEM.UNIT       API CODE    CURVE DESCRIPTION
#----------   ------------   ------------------------------
 DEPT.F                  :   
 CALD.IN     45 280 60 00:   CALIPER FROM DENSITY LOG
 GRD .GAPI   45 310 01 00:   GAMMA RAY FROM DENSITY LOG
 RHOB.G/C3   45 350 01 00:   BULK DENSITY
 CORR.G/C3   45 356 01 00:   DENSITY CORRECTION
 LL8 .OHMM   07 220 08 00:   LATEROLOG-8 RES.
 ILD .OHMM   07 120 46 00:   DEEP INDUCTION RESISTIVITY
 ILM .OHMM   07 120 44 00:   INDUCTION LOG MEDIUM RESISTIVITY
 SPR .MV     07 010 01 00:   SPONTANEOUS POTENTIAL
~PARAMETER INFORMATION
#MNEM.UNIT          VALUE    DESCRIPTION
#----------   ------------   ------------------------------
 EKB .F         5058.0000:   Kelly bushing
 EGL .F         5048.0000:   Ground level
 EDF .F            0.0000:   Drilling floor
 TD  .F         3120.0000:   Total depth
 DATE.        12-JUN-1977:   Date logged
 CLNT.            A2DTECH:   Client Code
 SL  . 1650' FSL & 1650' FEL:   Surface Location
 PD  .                 GL:   Permanent Datum
 EPD .F              5048:   Elevation Permanent Datum
 LMF .                 KB:   Log Measured From
 DMF .                 KB:   Drilling Measured From
 DAPD.F                10:   Feet Above Permanent Datum
 DD  .F              3120:   Depth driller
 DL  .F              3120:   Depth logger
 BLI .F              3120:   Bottom log interval
 TLI .F               219:   Top log interval
 CS1 .IN            8.625:   Casing size
 CBD1.      8.625" @ 225':   Casing driller 1
 CBL1.F               219:   Casing logger 1
 BS1 .IN            7.875:   Bit size
 BSD1.F              3120:   Depth drilled with bit1
 DFT .            KCL MUD:   Type fluid in hole
 DFD .                8.8:   Density
 DFV .                 32:   Viscosity
 DFPH.                7.5:   pH
 DFL .                  8:   Fluid loss
 MSS .              CIRC.:   Source of sample
 RMS .OHMM           2.01:   Rm
 MST .F                72:   Rm Meas. temp.
 RMF .OHMM            1.9:   Rmf
 MFST.F                72:   Rmf Meas. temp.
 RMC .OHMM           3.02:   Rmc
 MCST.F                72:   Rmc Meas. temp.
 MFSS.               MEAS:   Source Rmf.
 MCSS.               CALC:   Source Rmc.
 RMB .OHMM           1.21:   Rm. at BHT
 BHT .F               120:   BHT.
 TCS .HRS            1400:   Time Circ. stopped
 TLAB.HRS            1730:   Time logger at bottom
 MRT .F               120:   Maximum recorded temp.
 LUN .               7711:   Logging unit number
 LUL .               CSPR:   Logging unit location
 ENGI.             SAYLER:   Recorded By
 WITN.             RHODES:   Witnessed by
 ORIG.           5" PRINT:   Origin of data
 UWI .     49025103850000:   Unique Well ID
 DICO. A2D TECHNOLOGIES, INC.:   Digitizing Company
~OTHER INFORMATION
~A   DEPT     CALD         GRD      RHOB       CORR        LL8        ILD        ILM        SPR   
# ...
 2113.0000     8.1700   113.2986     2.4969     0.0037    10.6239     8.7871     9.4558   -38.7762
 2113.5000     8.1898   113.1027     2.5009     0.0027    10.2394     8.7847     9.3670   -38.9777
 2114.0000     8.1898   110.1437     2.4999     0.0027    10.0511     8.7823     9.2786   -39.3767
 2114.5000     8.1899   107.7765     2.4969     0.0007     9.9568     8.7799     9.1914   -39.5781
 2115.0000     8.1899   106.7909     2.4879    -0.0003    10.0456     8.6975     9.1051   -39.5821
 2115.5000     8.1702   108.9630     2.4959     0.0057    10.0434     8.6158     9.0196   -39.3885
 2116.0000     8.1703   112.9115     2.4969     0.0136     9.6789     8.5349     8.7723   -39.1950
 2116.5000     8.1703   119.0310     2.5008     0.0066     9.8549     8.5326     8.7704   -39.0014
 2117.0000     8.1703   121.9930     2.5038     0.0047    10.0341     8.5303     8.8486   -38.6104
 2117.5000     8.1506   122.7839     2.5078     0.0037    10.0313     8.6064     8.9276   -38.0210
 2118.0000     8.1902   120.4167     2.5177     0.0046     9.7572     8.6041     9.1739   -37.6299
 2118.5000     8.1902   116.6677     2.5148     0.0116    10.0259     8.6031     9.4269   -37.4364
 2119.0000     8.1902   113.7085     2.5118     0.0096    10.5886     8.6785     9.6869   -37.2428
 2119.5000     8.1903   112.3279     2.5108     0.0036    10.6830     8.7560     9.7734   -36.8518
 2120.0000     8.1903   112.5265     2.5078     0.0036    10.6801     8.9990     9.8606   -36.6582
 2120.5000     8.1904   113.3174     2.5068     0.0036    10.6772     9.0778     9.8579   -36.6622
 2121.0000     8.2102   113.9111     2.5028     0.0016    10.6743     9.0753     9.9459   -36.8637
 2121.5000     8.2102   114.1095     2.4998     0.0036    10.5742     9.1568     9.9432   -37.0651
 2122.0000     8.2102   113.7159     2.4958     0.0086    10.4750     9.1538     9.9405   -37.2666
 2122.5000     8.2103   112.3352     2.4998     0.0126    10.4722     9.3206     9.9378   -37.4681
 2123.0000     8.1906   111.3493     2.5008     0.0126    10.6626     9.4038     9.9351   -37.8670
 2123.5000     8.1906   111.7454     2.5117     0.0166    11.1586     9.4012     9.9324   -38.4635
 2124.0000     8.1709   112.7337     2.5127     0.0225    11.4665     9.3986     9.9296   -38.6650
 2124.5000     8.1710   116.8811     2.5037     0.0225    11.0509     9.3104     9.9269   -39.0640
 2125.0000     8.1710   118.2645     2.4998     0.0156    10.9473     9.2230     9.9242   -39.2654
 2125.5000     8.1711   116.2914     2.4998     0.0116    10.8447     9.1364     9.8310   -39.4669
 2126.0000     8.1711   114.1213     2.5047     0.0056    10.6452     9.1339     9.7387   -39.4709
 2126.5000     8.1711   116.2939     2.5127     0.0116    10.5454     9.1314     9.6473   -39.4748
 2127.0000     8.1712   120.8367     2.5137     0.0146    10.6394     9.1304     9.4696   -39.2813
 2127.5000     8.1712   123.6022     2.4928     0.0036    10.6365     9.1274     9.4670   -39.0877
 2128.0000     8.1713   125.3808     2.5057     0.0165    10.7313     9.2079     9.5515   -38.4991
 2128.5000     8.1911   122.6181     2.5037     0.0106    10.7284     9.3755     9.6368   -38.1081
 2129.0000     8.1911   120.0523     2.4918     0.0076    10.8240     9.4592     9.7228   -37.5187
 2129.5000     8.1912   118.8689     2.4967     0.0036    11.2243     9.5442     9.8096   -37.3082
 2130.0000     8.1912   117.8829     2.4967     0.0116    11.9632     9.6289     9.9882   -37.0977
 2130.5000     8.1912   112.9474     2.4897     0.0056    12.0699     9.6262    10.1701   -36.8872
 2131.0000     8.1913   110.1839     2.4897     0.0125    11.8479     9.7122    10.2609   -36.6767
 2131.5000     8.1913   110.1850     2.4877     0.0066    11.8446     9.7989    10.3525   -36.4662
 2132.0000     8.1914   110.5812     2.4877     0.0056    12.1708     9.8863    10.4449   -35.7657
 2132.5000     8.1914   111.7673     2.5136     0.0086    12.2793     9.8836    10.4421   -36.5597
 2133.0000     8.2112   109.2011     2.5103     0.0185    12.1642     9.8804    10.3440   -36.7611
 2133.5000     8.1915   109.2022     2.5066     0.0195    12.0502     9.7876    10.2469   -36.9626
 2134.0000     8.1915   109.5984     2.5056     0.0076    11.6141     9.6073     9.9659   -37.1641
 2134.5000     8.2113   111.3769     2.4977     0.0056    11.5052     9.3443     9.6931   -37.7606
 2135.0000     8.2113   109.2057     2.4947     0.0006    10.9878     9.0886     9.3418   -38.5546
 2135.5000     8.2114   107.2319     2.5117     0.0102    10.3029     8.7592     9.0861   -38.9535
 2136.0000     8.2115   105.8503     2.5257     0.0245     9.9301     8.2885     8.7568   -38.3650
 2136.5000     8.2115   105.0613     2.5425     0.0314     9.7474     8.1358     8.5171   -39.1590
 2137.0000     8.2115   105.4575     2.5425     0.0265     9.2243     8.0594     8.3602   -39.5579
 2137.5000     8.2116   106.6437     2.5307     0.0185     8.5711     7.9837     8.2817   -39.5619
 2138.0000     8.2116   109.0153     2.5096     0.0095     8.5687     7.9815     8.2794   -39.5659
 2138.5000     8.2117   110.5968     2.5066     0.0055     9.9160     8.0528     8.5078   -39.1748
 2139.0000     8.2117   106.4495     2.5066     0.0035    10.0049     8.2749     8.7424   -38.9812
 2139.5000     8.2118   103.4874     2.5165     0.0025    10.0941     8.5031     8.9017   -38.5902
 2140.0000     8.2118   100.3277     2.5374     0.0055    10.1841     8.6580     9.0638   -38.3966
 2140.5000     8.2119    99.9336     2.5305     0.0095    10.0886     8.6556     9.1447   -37.6106
 2141.0000     8.2119    99.7371     2.5255     0.0105    10.0859     8.6533     9.0588   -37.4170
 2141.5000     8.2119    99.1453     2.5335     0.0105    10.0831     8.6509     8.9738   -37.2234
 2142.0000     8.2120    97.9609     2.5444     0.0105     9.9886     8.4915     8.7281   -37.0299
 2142.5000     8.2120    98.1594     2.5464     0.0065     9.8048     8.3351     8.5673   -36.6388
 2143.0000     8.2121    99.3458     2.5544     0.0065     9.3639     8.2568     8.4869   -36.6428
 2143.5000     8.1924   100.5322     2.5464     0.0065     8.8610     8.2541     8.4846   -37.0418
 2144.0000     8.1924   101.7185     2.5524     0.0095     8.9404     8.2519     8.5603   -37.2432
 2144.5000     8.2122   100.5342     2.5583     0.0155     9.7941     8.2496     8.7162   -37.4447
 2145.0000     8.2122   100.3382     2.5494     0.0145    10.8279     8.3233     8.8750   -37.4487
 2145.5000     8.1925   102.2709     2.5454     0.0125    11.2284     8.4749     9.1197   -37.8476
 2146.0000     8.1926   104.0940     2.5384     0.0075    11.3285     8.7086     9.2858   -38.0491
 2146.5000     8.2124   102.3947     2.5454     0.0105    10.7206     9.0316     9.4549   -38.4481
 2147.0000     8.2124    99.9469     2.5394     0.0145    10.2385     9.4523     9.7157   -38.6496
 2147.5000     8.1927   101.1329     2.5324     0.0055    10.1425     9.5367     9.8926   -38.8510
 2148.0000     8.2125   101.9244     2.5204     0.0055    11.3161     9.6219    10.0728   -38.8550
 2148.5000     8.2125   104.2969     2.5145     0.0005    12.0611     9.6192    10.0701   -39.0564
 2149.0000     8.2126   106.4721     2.5065     0.0035    12.2804     9.6161    10.0673   -38.8629
 2149.5000     8.2126   106.6703     2.5095     0.0075    12.0545     9.6135     9.9728   -38.4718
 2150.0000     8.2127   104.6953     2.5244     0.0115    11.5125     9.6108     9.9695   -38.8708
 2150.5000     8.2127   102.1003     2.5082     0.0077    10.9106     9.6081     9.9668   -37.8526
 2151.0000     8.2124   102.1245     2.5035     0.0025    10.6016     9.6102     9.9690   -37.2986
 2151.5000     8.2122   102.9141     2.4955     0.0005    10.8962     9.6099    10.0604   -36.7100
 2152.0000     8.2121   103.1108     2.4925     0.0005    11.0970     9.6981    10.1527   -36.3190
 2152.5000     8.2119   101.9240     2.5084     0.0005    10.8955     9.7871    10.3401   -36.5204
 2153.0000     8.2118   100.7372     2.5005     0.0054    10.7960     9.8768    10.5309   -36.3268
