~VERSION INFORMATION
 VERS.                2.0:   CWLS LOG ASCII STANDARD - VERSION 2.0
 WRAP.                 NO:   ONE LINE PER DEPTH STEP
~WELL INFORMATION
#MNEM.UNIT      DATA TYPE    INFORMATION
#----------   ------------   ------------------------------
 STRT.F          298.0000:   START DEPTH
 STOP.F         3084.0000:   STOP DEPTH
 STEP.F            0.5000:   STEP LENGTH
 NULL.          -999.2500:   NO VALUE
 COMP. LAWERNCE ALLISON AND ASSOCIATED:   COMPANY
 WELL. LAWERNCE "TX" #77-20:   WELL
 FLD .        TEAPOT DOME:   FIELD
 LOC .      S20 T39N R78W:   LOCATION
 CNTY.            NATRONA:   COUNTY
 STAT.            WYOMING:   STATE
 CTRY. UNITED STATES OF AMERICA:   COUNTRY
 SRVC.       SCHLUMBERGER:   SERVICE COMPANY
 DATE.        22-JAN-1982:   LOGDATE
 API .     49025108840000:   API NUMBER
~CURVE INFORMATION
#MNEM.UNIT       API CODE    CURVE DESCRIPTION
#----------   ------------   ------------------------------
 DEPT.F                  :   
 CALD.IN     45 280 60 00:   CALIPER FROM DENSITY LOG
 GRD .GAPI   45 310 01 00:   GAMMA RAY FROM DENSITY LOG
 TEND.LBS    45 635 01 00:   TENSION FROM DENSITY LOG
 RHOB.G/C3   45 350 01 00:   BULK DENSITY
 NPHI.DEC    42 890 03 00:   NEUTRON POROSITY SANDSTONE
 CORR.G/C3   45 356 01 00:   DENSITY CORRECTION
 SFLU.OHMM   07 220 01 00:   SPHERICALLY FOCUSED LOG UNAVERAGED RESISTIVITY
 ILD .OHMM   07 120 46 00:   INDUCTION LOG DEEP RESISTIVITY
 ILM .OHMM   07 120 44 00:   INDUCTION LOG MEDIUM RESISTIVITY
 TENR.LBS    07 635 01 00:   TENSION
 SPR .MV     07 010 01 00:   SPONTANEOUS POTENTIAL
~PARAMETER INFORMATION
#MNEM.UNIT          VALUE    DESCRIPTION
#----------   ------------   ------------------------------
 EKB .F         5022.0000:   Kelly bushing
 EGL .F         5012.0000:   Ground level
 EDF .F         5021.0000:   Drilling floor
 TD  .F         3079.0000:   Total depth
 DATE.        22-JAN-1982:   Date logged
 CLNT.            A2DTECH:   Client Code
 SL  . 986' FSL & 779' FEL:   Surface Location
 PD  .                 GL:   Permanent Datum
 EPD .F              5012:   Elevation Permanent Datum
 LMF .                 KB:   Log Measured From
 DMF .                 KB:   Drilling Measured From
 DAPD.F                10:   Feet Above Permanent Datum
 DD  .F              3079:   Depth driller
 DL  .F              3070:   Depth logger
 BLI .F              3064:   Bottom log interval
 TLI .F               328:   Top log interval
 CS1 .IN            9.625:   Casing size
 CBD1.      9.625" @ 300':   Casing driller 1
 CBL1.F               328:   Casing logger 1
 BS1 .IN            7.875:   Bit size
 BSD1.F              3079:   Depth drilled with bit1
 DFT .           CHEM/GEL:   Type fluid in hole
 DFD .                8.9:   Density
 DFV .                 50:   Viscosity
 DFPH.               10.5:   pH
 DFL .                  8:   Fluid loss
 MSS .           FLOWLINE:   Source of sample
 RMS .OHMM           2.53:   Rm
 MST .F                49:   Rm Meas. temp.
 RMF .OHMM           2.04:   Rmf
 MFST.F                49:   Rmf Meas. temp.
 RMC .OHMM           3.80:   Rmc
 MCST.F                49:   Rmc Meas. temp.
 MFSS.               MEAS:   Source Rmf.
 MCSS.               CALC:   Source Rmc.
 RMB .OHMM           1.04:   Rm. at BHT
 BHT .F               119:   BHT.
 TCS .HRS            0330:   Time Circ. stopped
 TLAB.HRS            0800:   Time logger at bottom
 MRT .F               119:   Maximum recorded temp.
 LUN .               8043:   Logging unit number
 LUL .               CSPR:   Logging unit location
 ENGI.            PERAKIS:   Recorded By
 WITN.              SCOTT:   Witnessed by
 ORIG.           5" PRINT:   Origin of data
 UWI .     49025108840000:   Unique Well ID
 DICO. A2D TECHNOLOGIES, INC.:   Digitizing Company
~OTHER INFORMATION
~A   DEPT       CALD       GRD      TEND         RHOB       NPHI     CORR       SFLU        ILD        ILM       TENR        SPR   
# ...
 2677.0000    11.2280    99.0270  1154.7720     2.5270     0.2390     0.0300     7.5000     6.5970     6.9280  1167.5129   -23.9700
 2677.5000    11.2370    98.6290  1148.4139     2.5340     0.2410     0.0310     7.3270     6.6830     7.0220  1167.5129   -24.2300
 2678.0000    11.2470    98.8710  1142.0560     2.5120     0.2390     0.0200     7.4950     6.7690     7.1150  1170.8970   -24.4930
 2678.5000    11.2570   100.7300  1135.6980     2.4950     0.2360     0.0090     7.7340     6.8630     7.2080  1177.6650   -24.7500
 2679.0000    11.2660   102.6110  1129.3400     2.4940     0.2320     0.0120     7.9740     6.9050     7.3020  1184.4330   -24.9360
 2679.5000    11.2760   102.6530  1126.9041     2.5050     0.2280     0.0190     8.2130     6.9510     7.3950  1191.2010   -25.1300
 2680.0000    11.2860   100.1430  1142.7600     2.5100     0.2230     0.0260     8.4290     6.9930     7.4890  1197.9700   -24.7970
 2680.5000    11.2950    96.7890  1162.1370     2.5100     0.2190     0.0250     8.4290     6.9760     7.5350  1204.7380   -24.3730
 2681.0000    11.3050    94.7150  1181.5129     2.5090     0.2140     0.0180     8.3510     6.9440     7.3560  1207.5360   -23.9510
 2681.5000    11.3150    95.2990  1200.8900     2.5040     0.2110     0.0110     8.0650     6.7530     7.1600  1205.5840   -23.5410
 2682.0000    11.3160    96.5010  1208.1219     2.4990     0.2110     0.0060     7.5690     6.3690     6.8320  1203.6310   -23.1260
 2682.5000    11.3170    98.9300  1208.1219     2.5010     0.2200     0.0210     6.9980     6.1490     6.5030  1201.6790   -23.0600
 2683.0000    11.3170   101.4820  1183.1071     2.5200     0.2290     0.0390     6.3690     5.9050     6.1740  1199.7271   -23.2460
 2683.5000    11.3180   104.0280  1162.7610     2.5360     0.2380     0.0570     6.2830     5.6610     5.8460  1197.7740   -23.4430
 2684.0000    11.3190   106.0910  1142.4160     2.5380     0.2460     0.0650     6.1930     5.2830     5.7090  1195.8220   -23.5440
 2684.5000    11.3200   107.2730  1122.0710     2.5280     0.2510     0.0540     6.1030     4.8460     5.6140  1193.8700   -23.4800
 2685.0000    11.3210   107.7710  1106.5990     2.5050     0.2520     0.0380     6.0220     4.4100     5.1480  1191.9170   -23.4160
 2685.5000    11.3220   107.8000  1143.9930     2.4910     0.2500     0.0300     5.7270     3.9740     4.6590  1189.9650   -23.3750
 2686.0000    11.3230   108.3640  1208.1219     2.4820     0.2470     0.0510     5.4850     3.4060     4.1700  1188.0120   -23.7710
 2686.5000    11.3230   113.7620  1187.8170     2.4720     0.2460     0.0800     4.3490     3.4210     3.6810  1186.0601   -24.1730
 2687.0000    11.3240   126.4890  1180.9510     2.4260     0.2590     0.1060     3.3170     3.4500     3.1920  1184.1080   -24.5730
 2687.5000    11.3250   140.3640  1153.2070     2.3630     0.3040     0.0660     2.3660     3.4870     3.0450  1182.1550   -24.9430
 2688.0000    11.3260   147.0540  1126.9041     2.3180     0.3460     0.0230     2.9130     3.5670     3.6880  1180.2030   -24.9530
 2688.5000    11.3270   147.3050  1126.9041     2.3850     0.4330     0.0150     4.6610     3.6580     4.2030  1178.2510   -24.9530
 2689.0000    11.3280   136.9180  1176.1420     2.4660     0.4330     0.0280     6.6360     3.7400     4.7570  1176.2980   -24.9370
 2689.5000    11.3290   121.1990  1239.7209     2.5110     0.3690     0.0390     8.9150     4.5410     5.3110  1174.3459   -24.5790
 2690.0000    11.3290   105.4210  1248.7310     2.5290     0.3210     0.0450     9.5170     5.2700     5.9100  1172.3940   -24.2170
 2690.5000    11.3300    90.1010  1215.6350     2.5330     0.2020     0.0480     9.2090     5.9980     6.4890  1170.4410   -23.7500
 2691.0000    11.3310    82.2410  1187.8910     2.5310     0.1840     0.0480     8.5920     6.7990     6.8850  1168.4890   -23.5600
 2691.5000    11.3320    82.1570  1167.5129     2.5200     0.1830     0.0480     7.9760     6.6930     6.9930  1170.8970   -23.6900
 2692.0000    11.3330    84.8920  1149.0630     2.5090     0.1950     0.0400     7.3590     6.4800     6.7820  1177.6650   -23.8890
 2692.5000    11.3340    87.5780  1155.9990     2.4970     0.2060     0.0290     6.8560     6.2680     6.6190  1184.4330   -24.0900
 2693.0000    11.3350    90.2380  1162.9351     2.4940     0.2170     0.0200     6.6400     6.0550     6.4570  1187.1310   -24.2990
 2693.5000    11.3350    92.9010  1169.8710     2.4990     0.2280     0.0180     6.4290     5.8430     6.2940  1185.7590   -24.3360
 2694.0000    11.3350    95.6820  1176.8070     2.5030     0.2300     0.0180     6.4290     5.6410     6.1320  1184.3870   -23.9440
 2694.5000    11.3350    96.0680  1183.7430     2.5040     0.2200     0.0180     6.3390     5.4380     5.9700  1183.0150   -23.5620
 2695.0000    11.3350    95.4950  1190.6780     2.5050     0.2190     0.0200     6.1990     5.2350     5.8070  1181.6429   -23.1450
 2695.5000    11.3350    94.8460  1197.6140     2.5050     0.2240     0.0240     6.0760     5.0030     5.6410  1180.2710   -23.2550
 2696.0000    11.3350    94.9940  1204.5500     2.4940     0.2340     0.0220     5.9660     4.6280     5.2350  1178.8990   -23.6410
 2696.5000    11.3350    98.8660  1208.1219     2.4770     0.2450     0.0190     5.5760     4.2350     4.9030  1177.5270   -24.0150
 2697.0000    11.3350   104.2280  1195.6870     2.4720     0.2450     0.0250     5.1860     3.8410     4.2830  1176.1550   -24.3470
 2697.5000    11.3350   109.9130  1181.6560     2.4730     0.2430     0.0310     4.5520     3.4480     3.7200  1174.7830   -24.4930
 2698.0000    11.3350   116.8590  1167.6250     2.4660     0.2410     0.0390     3.9180     3.0550     3.1980  1173.4110   -24.6950
 2698.5000    11.3350   123.8000  1153.5940     2.4560     0.2640     0.0490     3.0060     2.6220     2.7190  1172.0389   -24.5970
 2699.0000    11.3360   141.1230  1139.5620     2.4460     0.2960     0.0790     2.1760     2.6660     2.4790  1170.6670   -24.2930
 2699.5000    11.3330   151.5900  1126.9041     2.4210     0.3290     0.1360     1.9270     2.7290     2.5760  1169.2950   -23.9910
 2700.0000    11.4300   155.4260  1138.3060     2.3680     0.4020     0.1960     2.3010     2.8070     2.8400  1167.9230   -24.0510
 2700.5000    11.4970   143.3660  1176.3920     2.2230     0.4640     0.1450     3.8110     2.9170     3.3990  1171.3650   -24.2410
 2701.0000    11.3510   127.6050  1187.8170     2.0860     0.4810     0.0730     5.2040     3.0920     3.9580  1176.8640   -24.4310
 2701.5000    11.0500   110.4690  1180.2030     2.0470     0.3830    -0.0040     6.5490     3.8200     4.5180  1182.3621   -24.6200
 2702.0000    10.8830   100.9520  1171.7430     2.2170     0.2760    -0.0100     7.1240     4.5470     5.0770  1187.8610   -24.7510
 2702.5000    10.8680    97.7080  1187.8170     2.4030     0.2520     0.0140     7.1030     5.2740     5.6370  1193.3600   -24.4520
 2703.0000    10.8530    98.3660  1228.4260     2.4820     0.2290     0.0200     7.0620     5.7290     6.0010  1198.8590   -24.1200
 2703.5000    10.8370   100.2870  1230.9640     2.4980     0.2290     0.0150     7.0210     5.9660     6.1930  1204.3571   -23.7700
 2704.0000    10.8220   102.7620  1195.4310     2.4940     0.2320     0.0110     6.9320     5.9400     6.1790  1203.9160   -23.2320
 2704.5000    10.8070   105.2700  1159.8979     2.5040     0.2370     0.0250     6.7410     5.9170     6.1520  1167.5850   -23.1930
 2705.0000    10.7920   106.6930  1124.3650     2.5140     0.2420     0.0440     6.5500     5.8940     6.1240  1131.2550   -23.5260
 2705.5000    10.7760   108.0980  1106.5990     2.5240     0.2470     0.0500     6.5500     5.8710     6.0970  1110.4700   -23.8540
 2706.0000    10.7610   109.8150  1106.5990     2.5200     0.2490     0.0430     6.5500     5.8550     6.0780  1142.2590   -24.1490
 2706.5000    10.7460   111.7480  1167.5129     2.5020     0.2490     0.0320     6.5500     5.8760     6.1880  1174.0480   -23.8360
 2707.0000    10.7310   113.1910  1166.1410     2.4980     0.2530     0.0230     6.6940     5.8950     6.2710  1208.1219   -23.4950
