~VERSION INFORMATION
 VERS.                2.0:   CWLS LOG ASCII STANDARD - VERSION 2.0
 WRAP.                 NO:   ONE LINE PER DEPTH STEP
~WELL INFORMATION
#MNEM.UNIT      DATA TYPE    INFORMATION
#----------   ------------   ------------------------------
 STRT.F            0.0000:   START DEPTH
 STOP.F         4044.0000:   STOP DEPTH
 STEP.F            0.5000:   STEP LENGTH
 NULL.          -999.2500:   NO VALUE
 COMP. LAWRENCE-ALLISON & ASSOC.:   COMPANY
 WELL. LAWRENCE "X" #24-34:   WELL
 FLD .           N P R #3:   FIELD
 LOC .      S34 T39N R78W:   LOCATION
 CNTY.            NATRONA:   COUNTY
 STAT.            WYOMING:   STATE
 CTRY. UNITED STATES OF AMERICA:   COUNTRY
 SRVC.      DRESSER ATLAS:   SERVICE COMPANY
 DATE.        29-MAR-1984:   LOGDATE
 API .     49025109660000:   API NUMBER
~CURVE INFORMATION
#MNEM.UNIT       API CODE    CURVE DESCRIPTION
#----------   ------------   ------------------------------
 DEPT.F                  :   
 DT  .US/F   60 520 00 00:   DELTA TIME
 TENS.LBS    60 635 01 00:   TENSION FROM SONIC
 GRR .GAPI   07 310 01 00:   GAMMA RAY FROM RESISTIVITY
 SPR .MV     07 010 01 00:   SPONTANEOUS POTENTIAL
 CALR.IN     07 280 01 00:   CALIPER FROM RESISTIVITY
 TENR.LBS    07 635 01 00:   TENSION FROM RESISTIVITY
 RSFL.OHMM   07 221 01 00:   AMPPLIFIED SHALLOW FOCUSED LOG RESISTIVITY
 RILD.OHMM   07 120 46 00:   DEEP INDUCTION RESISTIVITY
 RILM.OHMM   07 120 44 00:   INDUCTION LOG MEDIUM RESISTIVITY
 RHOB.G/C3   45 350 01 00:   BULK DENSITY
 DRHO.G/C3   45 356 01 00:   DENSITY CORRECTION
 TEND.LBS    45 635 01 00:   TENSION FROM DENSITY LOG
 NPHI.DEC    42 890 03 00:   NEUTRON POROSITY SANDSTONE
~PARAMETER INFORMATION
#MNEM.UNIT          VALUE    DESCRIPTION
#----------   ------------   ------------------------------
 EKB .F         5101.0000:   Kelly bushing
 EGL .F         5089.0000:   Ground level
 EDF .F         5100.0000:   Drilling floor
 TD  .F         4050.0000:   Total depth
 DATE.        29-MAR-1984:   Date logged
 CLNT.            A2DTECH:   Client Code
 SL  . 2415' FNL & 839' FWL:   Surface Location
 PD  .                 GL:   Permanent Datum
 EPD .F              5089:   Elevation Permanent Datum
 LMF .                 KB:   Log Measured From
 DMF .                 KB:   Drilling Measured From
 DD  .F              4050:   Depth driller
 DL  .F              4043:   Depth logger
 BLI .F              4041:   Bottom log interval
 CS1 .IN            8.625:   Casing size
 CBD1.       8.625 @ 673':   Casing driller 1
 CBL1.F               671:   Casing logger 1
 BS1 .IN            7.875:   Bit size
 DFT .            GEL-KCL:   Type fluid in hole
 DFD .                8.9:   Density
 DFV .                 45:   Viscosity
 DFPH.                  8:   pH
 DFL .               12.8:   Fluid loss
 MSS .           MUD TANK:   Source of sample
 RMS .OHMM           0.46:   Rm
 MST .F                71:   Rm Meas. temp.
 RMF .OHMM           0.31:   Rmf
 MFST.F                71:   Rmf Meas. temp.
 RMC .OHMM           0.55:   Rmc
 MCST.F                71:   Rmc Meas. temp.
 MFSS.               MEAS:   Source Rmf.
 RMB .OHMM           0.25:   Rm. at BHT
 BHT .F               139:   BHT.
 TCS .HRS               4:   Time Circ. stopped
 MRT .F               139:   Maximum recorded temp.
 LUN .               6302:   Logging unit number
 LUL .               CODY:   Logging unit location
 ENGI.              GETTY:   Recorded By
 WITN.           JENNINGS:   Witnessed by
 ORIG.           5" PRINT:   Origin of data
 UWI .     49025109660000:   Unique Well ID
 DICO. A2D TECHNOLOGIES, INC.:   Digitizing Company
 DAPD.                 12:   Feet Above Permanent Datum
 BSD1.               4050:   Depth drilled with bit1
 MCSS.               MEAS:   Source Rmc.
~OTHER INFORMATION
~A  DEPTH       DT       TENS        GRR        SPR       CALR       TENR       RSFL       RILD       RILM       RHOB       DRHO       TEND       NPHI
# ...
 1560.0000  -999.2500  -999.2500    84.2750   -17.0030    10.4600  -194.2760     7.9060     7.8820     7.3000  -999.2500  -999.2500  -999.2500  -999.2500
 1560.5000  -999.2500  -999.2500    81.9320   -17.2450    10.4760  -194.2760     7.7910     7.8930     7.3000  -999.2500  -999.2500  -999.2500  -999.2500
 1561.0000  -999.2500  -999.2500    83.3670   -17.4870    10.4900  -194.2760     7.6760     7.9040     7.3000  -999.2500  -999.2500  -999.2500  -999.2500
 1561.5000  -999.2500  -999.2500    84.6080   -17.3520    10.4900  -194.2760     7.5610     7.9140     7.3000  -999.2500  -999.2500  -999.2500  -999.2500
 1562.0000  -999.2500  -999.2500    84.1690   -17.1870    10.4900  -194.2760     7.4460     7.9250     7.3000  -999.2500  -999.2500  -999.2500  -999.2500
 1562.5000  -999.2500  -999.2500    82.8720   -17.0230    10.4900  -194.2760     7.3300     7.9350     7.3000  -999.2500  -999.2500  -999.2500  -999.2500
 1563.0000  -999.2500  -999.2500    82.1260   -16.8600    10.4900  -194.2760     7.2150     7.9460     7.3000  -999.2500  -999.2500  -999.2500  -999.2500
 1563.5000  -999.2500  -999.2500    84.8980   -16.6970    10.4900  -194.2760     7.1650     7.9570     7.3080  -999.2500  -999.2500  -999.2500  -999.2500
 1564.0000  -999.2500  -999.2500    89.0940   -16.5340    10.4920  -194.2760     7.2350     7.9670     7.3170  -999.2500  -999.2500  -999.2500  -999.2500
 1564.5000  -999.2500  -999.2500    93.3480   -16.3700    10.5070  -194.2760     7.3260     7.9780     7.3270  -999.2500  -999.2500  -999.2500  -999.2500
 1565.0000  -999.2500  -999.2500    94.4820   -16.2070    10.5210  -194.2760     7.4160     7.9890     7.3360  -999.2500  -999.2500  -999.2500  -999.2500
 1565.5000  -999.2500  -999.2500    90.8070   -16.0440    10.5360  -194.2760     7.5070     7.9990     7.3460  -999.2500  -999.2500  -999.2500  -999.2500
 1566.0000  -999.2500  -999.2500    86.9730   -15.8810    10.5500  -194.2760     7.5970     8.0100     7.3560  -999.2500  -999.2500  -999.2500  -999.2500
 1566.5000  -999.2500  -999.2500    83.1660   -15.7170    10.5450  -193.9070     7.7210     8.0200     7.3650  -999.2500  -999.2500  -999.2500  -999.2500
 1567.0000  -999.2500  -999.2500    81.2220   -15.5540    10.5390  -193.4580     7.5980     8.0310     7.3690  -999.2500  -999.2500  -999.2500  -999.2500
 1567.5000  -999.2500  -999.2500    83.4650   -15.3910    10.5330  -193.0090     7.4050     8.0420     7.3690  -999.2500  -999.2500  -999.2500  -999.2500
 1568.0000  -999.2500  -999.2500    85.9080   -15.2280    10.5270  -192.5600     7.3000     8.0520     7.3700  -999.2500  -999.2500  -999.2500  -999.2500
 1568.5000  -999.2500  -999.2500    88.2440   -15.0640    10.5200  -192.1110     7.3440     8.0630     7.3540  -999.2500  -999.2500  -999.2500  -999.2500
 1569.0000  -999.2500  -999.2500    89.8610   -14.9010    10.5140  -191.6630     7.3840     8.0740     7.3230  -999.2500  -999.2500  -999.2500  -999.2500
 1569.5000  -999.2500  -999.2500    91.4140   -14.7380    10.5130  -191.2140     7.4380     8.0840     7.3000  -999.2500  -999.2500  -999.2500  -999.2500
 1570.0000  -999.2500  -999.2500    92.0590   -14.5750    10.5290  -190.7650     7.3890     8.0910     7.3000  -999.2500  -999.2500  -999.2500  -999.2500
 1570.5000  -999.2500  -999.2500    91.7680   -14.4130    10.5430  -190.3160     7.3690     8.0000     7.2130  -999.2500  -999.2500  -999.2500  -999.2500
 1571.0000  -999.2500  -999.2500    91.4810   -14.2330    10.5570  -189.8670     7.4760     7.9160     6.9280  -999.2500  -999.2500  -999.2500  -999.2500
 1571.5000  -999.2500  -999.2500    91.1930   -14.0200    10.5720  -189.4190     7.5780     7.7180     6.6440  -999.2500  -999.2500  -999.2500  -999.2500
 1572.0000  -999.2500  -999.2500    90.9120   -13.8070    10.6640  -188.9700     7.3560     7.5190     6.3590  -999.2500  -999.2500  -999.2500  -999.2500
 1572.5000  -999.2500  -999.2500    90.5790   -13.5950    10.7650  -188.5210     7.1590     7.3200     6.1720  -999.2500  -999.2500  -999.2500  -999.2500
 1573.0000  -999.2500  -999.2500    88.6830   -13.3820    10.8660  -188.0720     6.7970     7.1220     6.1720  -999.2500  -999.2500  -999.2500  -999.2500
 1573.5000  -999.2500  -999.2500    86.6340   -13.1690    10.9590  -187.6230     6.1140     6.8390     6.2170  -999.2500  -999.2500  -999.2500  -999.2500
 1574.0000  -999.2500  -999.2500    84.7510   -12.9560    10.9980  -187.1740     6.2410     6.9670     6.4900  -999.2500  -999.2500  -999.2500  -999.2500
 1574.5000  -999.2500  -999.2500    87.2940   -12.7330    11.0040  -186.7260     6.4270     7.1890     6.7630  -999.2500  -999.2500  -999.2500  -999.2500
 1575.0000  -999.2500  -999.2500    87.8860   -12.9600    10.8400  -186.2770     6.8530     7.4120     7.0360  -999.2500  -999.2500  -999.2500  -999.2500
 1575.5000  -999.2500  -999.2500    88.3610   -13.2870    10.6780  -185.8280     7.2790     7.6350     7.3090  -999.2500  -999.2500  -999.2500  -999.2500
 1576.0000  -999.2500  -999.2500    88.8460   -13.6160    10.6280  -185.3790     7.8660     7.8580     7.5820  -999.2500  -999.2500  -999.2500  -999.2500
 1576.5000  -999.2500  -999.2500    89.3720   -13.9450    10.6010  -184.9300     7.8370     8.0810     7.7930  -999.2500  -999.2500  -999.2500  -999.2500
 1577.0000  -999.2500  -999.2500    87.7230   -14.2730    10.5750  -184.4820     7.7930     8.3030     7.7210  -999.2500  -999.2500  -999.2500  -999.2500
 1577.5000  -999.2500  -999.2500    85.6940   -14.6020    10.5510  -186.0440     7.7930     8.5260     7.7210  -999.2500  -999.2500  -999.2500  -999.2500
 1578.0000  -999.2500  -999.2500    83.6310   -14.9320    10.5590  -193.7180     7.9440     8.7490     7.7930  -999.2500  -999.2500  -999.2500  -999.2500
 1578.5000  -999.2500  -999.2500    84.6950   -15.2660    10.5670  -201.3930     8.0480     8.9720     7.9080  -999.2500  -999.2500  -999.2500  -999.2500
 1579.0000  -999.2500  -999.2500    86.2130   -15.0730    10.5760  -209.0680     8.1530     9.1330     7.9700  -999.2500  -999.2500  -999.2500  -999.2500
 1579.5000  -999.2500  -999.2500    87.7470   -14.8110    10.5840  -213.4900     8.1930     9.1140     8.0330  -999.2500  -999.2500  -999.2500  -999.2500
 1580.0000  -999.2500  -999.2500    88.6240   -14.5470    10.5920  -209.8350     8.2340     9.0970     8.0890  -999.2500  -999.2500  -999.2500  -999.2500
 1580.5000  -999.2500  -999.2500    89.2570   -14.2850    10.6010  -206.1800     8.2750     9.0800     8.0890  -999.2500  -999.2500  -999.2500  -999.2500
 1581.0000  -999.2500  -999.2500    89.1560   -14.0230    10.6100  -202.5260     8.3190     9.0630     7.5080  -999.2500  -999.2500  -999.2500  -999.2500
 1581.5000  -999.2500  -999.2500    88.8350   -13.7600    10.6600  -198.8710     8.1830     9.0480     7.4380  -999.2500  -999.2500  -999.2500  -999.2500
 1582.0000  -999.2500  -999.2500    89.0240   -13.4980    10.7140  -195.2160     8.0360     9.0290     7.6100  -999.2500  -999.2500  -999.2500  -999.2500
 1582.5000  -999.2500  -999.2500    90.3260   -13.2360    10.7500  -191.5620     7.8880     9.0020     7.7940  -999.2500  -999.2500  -999.2500  -999.2500
 1583.0000  -999.2500  -999.2500    91.0800   -12.9740    10.7220  -187.9070     7.7930     8.9640     7.9790  -999.2500  -999.2500  -999.2500  -999.2500
 1583.5000  -999.2500  -999.2500    88.6730   -12.7120    10.6930  -184.1440     8.0590     9.0460     8.1630  -999.2500  -999.2500  -999.2500  -999.2500
 1584.0000  -999.2500  -999.2500    86.2170   -12.4490    10.6630  -188.2810     8.2890     9.1920     8.2660  -999.2500  -999.2500  -999.2500  -999.2500
 1584.5000  -999.2500  -999.2500    87.3840   -12.1870    10.6340  -192.5450     8.4760     9.3370     8.3190  -999.2500  -999.2500  -999.2500  -999.2500
 1585.0000  -999.2500  -999.2500    89.4370   -11.9250    10.6230  -192.2490     8.4320     9.4830     8.3190  -999.2500  -999.2500  -999.2500  -999.2500
 1585.5000  -999.2500  -999.2500    89.4750   -11.6630    10.7020  -188.8380     8.3970     9.5690     7.9090  -999.2500  -999.2500  -999.2500  -999.2500
