~VERSION INFORMATION
 VERS.                2.0:   CWLS LOG ASCII STANDARD - VERSION 2.0
 WRAP.                 NO:   ONE LINE PER DEPTH STEP
~WELL INFORMATION
#MNEM.UNIT      DATA TYPE    INFORMATION
#----------   ------------   ------------------------------
 STRT.F          216.0000:   START DEPTH
 STOP.F         3241.0000:   STOP DEPTH
 STEP.F            0.5000:   STEP LENGTH
 NULL.          -999.2500:   NO VALUE
 COMP.    FENIX & SCISSON:   COMPANY
 WELL.    FENIX "A" #72-4:   WELL
 FLD .             NPR #3:   FIELD
 LOC .       S4 T38N R78W:   LOCATION
 CNTY.            NATRONA:   COUNTY
 STAT.            WYOMING:   STATE
 CTRY. UNITED STATES OF AMERICA:   COUNTRY
 SRVC.              WELEX:   SERVICE COMPANY
 DATE.        09-JUL-1977:   LOGDATE
 API .     49025103900000:   API NUMBER
~CURVE INFORMATION
#MNEM.UNIT       API CODE    CURVE DESCRIPTION
#----------   ------------   ------------------------------
 DEPT.F                  :   
 CORR.G/C3   45 356 01 00:   DENSITY CORRECTION
 GRD .GAPI   45 310 01 00:   GAMMA RAY FROM DENSITY LOG
 RHOB.G/C3   45 350 01 00:   BULK DENSITY
 CALD.IN     45 280 60 00:   CALIPER FROM DENSITY LOG
 SPR .MV     07 010 01 00:   SPONTANEOUS POTENTIAL
 ILD .OHMM   07 120 46 00:   DEEP INDUCTION RESISTIVITY
 ILM .OHMM   07 120 44 00:   INDUCTION LOG MEDIUM RESISTIVITY
 SGRD.OHMM   07 220 05 00:   SHALLOW SHORT GUARD RESISTIVITY
~PARAMETER INFORMATION
#MNEM.UNIT          VALUE    DESCRIPTION
#----------   ------------   ------------------------------
 EKB .F         5192.0000:   Kelly bushing
 EGL .F         5182.0000:   Ground level
 TD  .F         3243.0000:   Total depth
 CLNT.            A2DTECH:   Client Code
 SL  . 990' FNL & 990' FEL:   Surface Location
 PD  .                 GL:   Permanent Datum
 EPD .F              5182:   Elevation Permanent Datum
 LMF .                 KB:   Log Measured From
 DMF .                 KB:   Drilling Measured From
 DAPD.F                10:   Feet Above Permanent Datum
 DATE.        09-JUL-1977:   Date Logged [DD-MMM-YYYY]
 DD  .F              3230:   Depth driller
 DL  .F              3243:   Depth logger
 BLI .F              3241:   Bottom log interval
 TLI .F               224:   Top log interval
 CS1 .IN            8.625:   Casing size
 CBD1.      8.625" @ 221':   Casing driller 1
 CBL1.F               224:   Casing logger 1
 BS1 .IN            7.875:   Bit size
 BSD1.F              3230:   Depth drilled with bit1
 DFT .                KCL:   Type fluid in hole
 DFD .                8.9:   Density
 DFV .                 44:   Viscosity
 DFPH.                7.5:   pH
 DFL .                5.8:   Fluid loss
 MSS .            MUD PIT:   Source of sample
 RMS .OHMM           0.24:   Rm
 MST .F                68:   Rm Meas. temp.
 RMF .OHMM           0.20:   Rmf
 MFST.F                68:   Rmf Meas. temp.
 MFSS.               MEAS:   Source Rmf.
 RMC .OHMM           0.31:   Rmc
 MCST.F                68:   Rmc Meas. temp.
 MCSS.               MEAS:   Source Rmc.
 RMB .OHMM           0.13:   Rm. at BHT
 BHT .F               117:   BHT.
 TCS .HRS               3:   Time Circ. stopped
 MRT .F               117:   Maximum recorded temp.
 LUN .               8766:   Logging unit number
 LUL .             CASPER:   Logging unit location
 ENGI.          T. JOYNER:   Recorded By
 WITN.         HARRINGTON:   Witnessed by
 ORIG.           5" PRINT:   Origin of data
 UWI .     49025103900000:   Unique Well ID
 DICO. A2D TECHNOLOGIES, INC.:   Digitizing Company
~OTHER INFORMATION
~A   DEPT     CORR         GRD        RHOB     CALD        SPR        ILD        ILM       SGRD   
# ...
 2403.0000     0.0039   126.8395     2.4428     8.5893   -67.3814    10.7108    22.2124    17.7808
 2403.5000     0.0047   127.1639     2.4451     8.6054   -67.4468    10.5696    21.7675    17.0717
 2404.0000     0.0055   128.3826     2.4317     8.6215   -67.5124    10.5029    21.3723    16.9561
 2404.5000     0.0070   129.6012     2.4228     8.6078   -67.5779    10.4380    18.7289    16.3818
 2405.0000     0.0078   130.8199     2.4311     8.5940   -67.6435    10.4446    17.9805    15.3940
 2405.5000     0.0086   132.9418     2.4334     8.5803   -67.7090    10.3754    19.0181    14.3655
 2406.0000     0.0101   132.3080     2.4335     8.5815   -67.7746    10.3131    19.0322    15.9407
 2406.5000     0.0116   130.5554     2.4374     8.5680   -67.8401    10.2480    18.5264    17.0860
 2407.0000     0.0124   132.4224     2.4457     8.5540   -67.9057    10.1834    18.0340    16.1633
 2407.5000     0.0139   130.9585     2.4504     8.5703   -67.9712    10.0506    17.3135    14.9562
 2408.0000     0.0141   128.6004     2.4579     8.5863   -68.0367    10.0568    16.7371    14.4756
 2408.5000     0.0162   128.3222     2.4624     8.5876   -68.1023    10.0629    16.1762    14.7819
 2409.0000     0.0170   130.1436     2.4640     8.5736   -68.1678     9.9714    15.5195    15.4111
 2409.5000     0.0170   124.2087     2.4641     8.5598   -68.2334     9.9361    15.1234    16.0671
 2410.0000     0.0156   123.0363     2.4627     8.5613   -68.2990     9.8053    14.9238    15.7389
 2410.5000     0.0141   125.4538     2.4620     8.5625   -68.3646     9.7434    14.2314    15.2053
 2411.0000     0.0134   127.2686     2.4643     8.5484   -68.4259     9.6819    13.7576    14.3877
 2411.5000     0.0134   127.5864     2.4659     8.5349   -68.4442     9.6208    13.2996    13.9966
 2412.0000     0.0142   125.5330     2.4660     8.5212   -68.4608     9.4954    13.5887    14.3921
 2412.5000     0.0157   124.6652     2.4646     8.5075   -68.4775     9.4340    14.1753    14.0008
 2413.0000     0.0172   124.0954     2.4662     8.5087   -68.4942     9.1827    13.5150    13.0658
 2413.5000     0.0180   122.9169     2.4655     8.5099   -68.5110     9.0616    12.7056    15.2181
 2414.0000     0.0188   122.6580     2.4648     8.5262   -68.5278     8.9408    12.5431    15.7558
 2414.5000     0.0196   123.5786     2.4672     8.5423   -68.5445     8.8241    12.0442    14.6026
 2415.0000     0.0189   118.2465     2.4664     8.5435   -68.5613     8.6477    10.9402    13.4400
 2415.5000     0.0181   116.4845     2.4618     8.5743   -68.5780     8.5279    10.4306    12.3610
 2416.0000     0.0174   115.0140     2.4682     8.5906   -68.5948     8.2489    10.2949    12.2014
 2416.5000     0.0175   116.8354     2.4757     8.6067   -68.6115     8.0279    10.2296    12.8986
 2417.0000     0.0197   115.0734     2.4841     8.6079   -68.6283     7.7052     9.9596    12.2899
 2417.5000     0.0198   112.7153     2.4909     8.5938   -68.6450     7.3954     9.6280    12.1221
 2418.0000     0.0198   112.4371     2.4865     8.5953   -68.6618     7.0002     8.6852    13.1747
 2418.5000     0.0206   113.9604     2.4843     8.5965   -68.6785     6.6723     7.9956    13.5461
 2419.0000     0.0209   114.5829     2.4866     8.6126   -68.6953     6.3597     7.4563    12.0437
 2419.5000     0.0221   114.6093     2.4882     8.5988   -68.7120     6.0618     7.0741    10.0663
 2420.0000     0.0229   111.3571     2.4853     8.5925   -68.7288     5.8994     6.8848     8.8828
 2420.5000     0.0237   111.0850     2.4824     8.5862   -68.7455     5.8217     6.9391     7.6286
 2421.0000     0.0238   109.3234     2.4795     8.5875   -68.7623     5.7849     7.7038     7.4728
 2421.5000     0.0252   106.9326     2.4766     8.5887   -68.7791     5.8297     8.2049     9.0990
 2422.0000     0.0238   107.9577     2.4790     8.5899   -68.7958     5.8738     8.2680    13.1895
 2422.5000     0.0223   110.0000     2.4821     8.5912   -68.8126     5.9596     8.5064    12.5671
 2423.0000     0.0221   108.8395     2.4798     8.5922   -68.8293     6.1738     8.7516    12.0572
 2423.5000     0.0207   107.0776     2.4784     8.6085   -68.8461     6.4851     9.0686    11.9756
 2424.0000     0.0194   106.2098     2.4800     8.6097   -68.8628     6.8596     9.3455    11.2535
 2424.5000     0.0179   106.5343     2.4838     8.6107   -68.8796     7.1556    10.6484    10.7135
 2425.0000     0.0180   107.1568     2.4876     8.5971   -68.8963     7.5164    11.4991    11.2566
 2425.5000     0.0195   106.8852     2.4922     8.5982   -68.9131     7.7867    11.8306    13.1331
 2426.0000     0.0203   106.0174     2.4998     8.5994   -68.9298     8.0119    11.9216    15.4840
 2426.5000     0.0210   105.4410     2.5044     8.6006   -68.9466     8.1288    12.0111    15.2731
 2427.0000     0.0211   105.4741     2.5022     8.6018   -68.9633     8.3049    11.8548    14.2531
 2427.5000     0.0219   105.7985     2.4985     8.6179   -68.9801     8.4262    11.5419    12.4113
 2428.0000     0.0211   105.5269     2.4949     8.6191   -68.9968     8.5492    11.3130    11.6630
 2428.5000     0.0210   106.1494     2.4957     8.6203   -69.0135     8.7344    11.4848    11.4120
 2429.0000     0.0197   107.3681     2.4973     8.6215   -69.0240     8.8618    12.3454    11.8288
 2429.5000     0.0197   107.4162     2.4965     8.6080   -69.0239     8.9912    13.3893    12.4180
 2430.0000     0.0228   108.0179     2.4930     8.6092   -69.0239     9.1224    13.7753    14.4640
 2430.5000     0.0250   109.2423     2.4915     8.6101   -69.0239     9.1281    13.4092    16.9637
 2431.0000     0.0273   110.4609     2.4901     8.6115   -69.0239     9.1349    13.0504    17.4419
 2431.5000     0.0288   111.6796     2.4887     8.6127   -69.0239     9.0773    12.7941    15.2941
 2432.0000     0.0304   114.0905     2.4888     8.6138   -69.0239     9.0186    12.8036    12.8646
 2432.5000     0.0304   115.9053     2.4881     8.6150   -69.0239     8.7784    12.8131    12.6013
 2433.0000     0.0304   117.7201     2.4852     8.6162   -69.0239     8.5432    11.3996    14.6776
 2433.5000     0.0275   119.8329     2.4755     8.6174   -69.0239     8.1430     9.3277    14.7816
 2434.0000     0.0245   121.3496     2.4681     8.6185   -69.0239     7.8156     9.0857    11.5688
 2434.5000     0.0222   123.1644     2.4637     8.6197   -69.0239     7.4495     9.6785     9.3614
 2435.0000     0.0208   125.5753     2.4608     8.6060   -69.0237     7.2500    10.1665    10.9796
 2435.5000     0.0201   128.5823     2.4571     8.6072   -69.0254     7.0461     9.9650    12.7883
 2436.0000     0.0201   130.3971     2.4572     8.6084   -69.0292     6.7731     9.6983    13.4253
 2436.5000     0.0202   132.2119     2.4595     8.6096   -68.9864     6.5917     9.1846    14.0940
 2437.0000     0.0217   134.0327     2.4620     8.6110   -68.8250     6.4141     8.4590    13.5222
 2437.5000     0.0247   136.1649     2.4642     8.6205   -68.7617     6.1572     7.8993     9.5000
 2438.0000     0.0270   137.9985     2.4658     8.6279   -68.7084     5.9923     7.3257     9.3059
 2438.5000     0.0293   140.0738     2.4659     8.6143   -68.6553     5.8317     6.9316     9.4373
 2439.0000     0.0300   142.4847     2.4660     8.6157   -68.6015     5.7548     6.6074     9.5041
 2439.5000     0.0293   144.8956     2.4436     8.6168   -68.5476     5.7584     6.5726     8.4497
 2440.0000     0.0234   147.3065     2.4122     8.6179   -68.4947     5.9241     8.3815     6.9130
 2440.5000     0.0189   148.2271     2.3972     8.6341   -68.4401     6.2750     9.6328     8.7498
 2441.0000     0.0152   148.5516     2.3928     8.6352   -68.5619     6.7684    10.3306    14.3083
 2441.5000     0.0130   148.5780     2.3914     8.6215   -68.8086     7.2091    10.7765    17.6146
 2442.0000     0.0130   148.6044     2.3952     8.6227   -69.0564     7.6254    10.9348    18.7705
 2442.5000     0.0138   148.9288     2.4118     8.6239   -69.3055     8.0657    11.0955    16.9028
 2443.0000     0.0146   149.2533     2.4156     8.6101   -69.5570     8.4138    10.8756    14.5162
