~VERSION INFORMATION
 VERS.                2.0:   CWLS LOG ASCII STANDARD - VERSION 2.0
 WRAP.                 NO:   ONE LINE PER DEPTH STEP
~WELL INFORMATION
#MNEM.UNIT      DATA TYPE    INFORMATION
#----------   ------------   ------------------------------
 STRT.F           41.0000:   START DEPTH
 STOP.F          925.0000:   STOP DEPTH
 STEP.F            0.5000:   STEP LENGTH
 NULL.          -999.2500:   NO VALUE
 COMP. LAWRENCE ALLISON & ASSOCIATION:   COMPANY
 WELL. LAWRENCE ALLISON #48-2:   WELL
 FLD .       N.P.R. NO. 3:   FIELD
 LOC .       S2 T38N R78W:   LOCATION
 CNTY.            NATRONA:   COUNTY
 STAT.            WYOMING:   STATE
 CTRY. UNITED STATES OF AMERICA:   COUNTRY
 SRVC.       SCHLUMBERGER:   SERVICE COMPANY
 DATE.        06-SEP-1982:   LOGDATE
 API .     49025109110000:   API NUMBER
~CURVE INFORMATION
#MNEM.UNIT       API CODE    CURVE DESCRIPTION
#----------   ------------   ------------------------------
 DEPT.F                  :   
 ILM .OHMM   07 120 44 00:   INDUCTION LOG MEDIUM RESISTIVITY
 ILD .OHMM   07 120 46 00:   DEEP INDUCTION RESISTIVITY
 CALD.IN     45 280 60 00:   CALIPER FROM DENSITY LOG
 GRD .GAPI   45 310 01 00:   GAMMA RAY FROM DENSITY LOG
 TEND.LBS    45 635 01 00:   TENSION FROM DENSITY LOG
 CORR.G/C3   45 356 01 00:   DENSITY CORRECTION
 RHOB.G/C3   45 350 01 00:   BULK DENSITY
 NPHI.DEC    42 890 03 00:   NEUTRON POROSITY SANDSTONE
~PARAMETER INFORMATION
#MNEM.UNIT          VALUE    DESCRIPTION
#----------   ------------   ------------------------------
 EKB .F         5192.0000:   Kelly bushing
 EGL .F         5182.0000:   Ground level
 TD  .F          920.0000:   Total depth
 CLNT.            A2DTECH:   Client Code
 DATE.         6-SEP-1982:   Date Logged [DD-MMM-YYYY]
 DD  .F               920:   Depth driller
 DL  .F               918:   Depth logger
 BLI .F               908:   Bottom log interval
 TLI .F                49:   Top log interval
 CBL1.IN               49:   Casing logger 1
 BSD1.F               920:   Depth drilled with bit1
 DFT .                AIR:   Type fluid in hole
 TCS .HRS            0730:   Time Circ. stopped
 TLAB.HRS            0900:   Time logger at bottom
 LUN .               8035:   Logging unit number
 LUL .               CSPR:   Logging unit location
 ENGI.              PENNY:   Recorded By
 WITN.           JENNINGS:   Witnessed by
 ORIG.           5" PRINT:   Origin of data
 UWI .     49025109110000:   Unique Well ID
 DICO. A2D TECHNOLOGIES, INC.:   Digitizing Company
 PD  .                 GL:   Permanent Datum
 EPD .               5180:   Elevation Permanent Datum
 LMF .                 KB:   Log Measured From
 DMF .                 KB:   Drilling Measured From
 DAPD.                 10:   Feet Above Permanent Datum
~OTHER INFORMATION
~A   DEPT      ILM        ILD       CALD         GRD      TEND       CORR       RHOB       NPHI   
# ...
  648.5000     5.7518     5.6694    13.0854   137.1218   709.1190     0.0208     2.3985  -999.2500
  649.0000     5.2198     5.2911    13.0860   135.9947   709.7374     0.0286     2.3993  -999.2500
  649.5000     4.5434     4.7693    13.0866   132.1195   725.9242     0.0302     2.3900  -999.2500
  650.0000     3.7929     4.0662    13.0871   127.3282   726.5308     0.0310     2.3682  -999.2500
  650.5000     3.3853     3.3174    13.0877   126.8881   727.1374     0.0342     2.3581  -999.2500
  651.0000     2.9841     2.9835    13.0709   132.3955   727.7440     0.0475     2.3472  -999.2500
  651.5000     2.6057     2.6645    13.0003   136.0731   728.3506     0.1071     2.3239  -999.2500
  652.0000     2.4648     2.4867    13.1782   132.6514   728.9572     0.1244     2.2667  -999.2500
  652.5000     2.3642     2.3860    13.3265   129.2297   729.5638     0.1103     2.2095  -999.2500
  653.0000     2.3155     2.3379    13.5042   128.9267   714.5629     0.0538     2.1646  -999.2500
  653.5000     2.3977     2.4561    13.3277   133.8368   715.3211     0.0184     2.1748  -999.2500
  654.0000     2.6066     2.6528    13.0919   138.0210   715.9277     0.0224     2.2746  -999.2500
  654.5000     2.8935     2.9257    13.0037   141.7489   716.5380     0.0271     2.3511  -999.2500
  655.0000     3.4674     3.3408    13.0192   145.1018   717.1562     0.0239     2.3878  -999.2500
  655.5000     4.1841     3.8414    13.0346   146.0279   717.7745     0.0161     2.4057  -999.2500
  656.0000     5.0140     4.5418    13.0351   143.7546   718.5059     0.0153     2.4237  -999.2500
  656.5000     5.4573     4.9484    13.0357   141.7070   719.1124     0.0279     2.4283  -999.2500
  657.0000     5.6902     5.3170    13.0364   140.5754   719.7191     0.0341     2.4315  -999.2500
  657.5000     5.8445     5.6836    13.0370   140.1275   735.7816     0.0341     2.4338  -999.2500
  658.0000     5.9681     5.8469    13.0376   144.7244   720.7806     0.0310     2.4369  -999.2500
  658.5000     6.0102     5.8908    13.0382   150.0062   721.5389     0.0294     2.4329  -999.2500
  659.0000     6.0526     5.9763    13.0535   149.3326   722.1455     0.0271     2.4283  -999.2500
  659.5000     6.1378     6.0211    13.0541   149.1136   722.7521     0.0271     2.4299  -999.2500
  660.0000     6.1811     6.0242    13.0547   149.5885   723.3588     0.0279     2.4339  -999.2500
  660.5000     6.1815     6.0273    13.0553   149.8309   723.9654     0.0294     2.4362  -999.2500
  661.0000     5.6868     5.8649    13.0558   156.0275   724.5750     0.0310     2.4386  -999.2500
  661.5000     5.0529     5.4356    13.0564   162.0908   725.1932     0.0378     2.4425  -999.2500
  662.0000     4.7797     5.1952    13.0547   167.2307   725.8115     0.0750     2.4448  -999.2500
  662.5000     4.5820     4.9062    13.0428   166.8346   710.9358     0.0930     2.4362  -999.2500
  663.0000     4.4902     4.7004    13.0286   162.0388   711.6941     0.1048     2.4089  -999.2500
  663.5000     4.3978     4.6012    13.0146   151.9760   696.6931     0.0907     2.3754  -999.2500
  664.0000     4.3676     4.5041    13.0151   149.4703   697.4513     0.0640     2.3645  -999.2500
  664.5000     4.3680     4.5051    13.0157   144.2166   698.0579     0.0663     2.3822  -999.2500
  665.0000     4.4295     4.5712    13.0014   141.7109   714.1205     0.0718     2.4031  -999.2500
  665.5000     4.5548     4.6385    13.0021   143.5564   714.7271     0.0608     2.3965  -999.2500
  666.0000     4.7163     4.7405    13.0027   145.6309   730.7897     0.0365     2.3832  -999.2500
  666.5000     4.9176     4.8796    13.0033   145.1863   731.3963     0.0263     2.3957  -999.2500
  667.0000     5.1276     5.0590    13.0038   144.4993   732.0029     0.0353     2.4184  -999.2500
  667.5000     5.4214     5.3208    13.0044   143.8392   748.0681     0.0443     2.4285  -999.2500
  668.0000     5.7721     5.5962    13.0051   144.7720   748.6863     0.0404     2.4262  -999.2500
  668.5000     6.0255     5.8438    13.0057   149.8225   749.3045     0.0326     2.4316  -999.2500
  669.0000     6.3267     6.0586    13.0063   150.2940   765.4929     0.0286     2.4348  -999.2500
  669.5000     6.5892     6.2814    13.0069   152.3685   766.0995     0.0271     2.4317  -999.2500
  670.0000     6.7286     6.4225    13.0074   154.6720   766.7061     0.0216     2.4184  -999.2500
  670.5000     6.8709     6.6155    13.0080   150.1064   751.8568     0.0177     2.4169  -999.2500
  671.0000     7.0163     6.8511    13.0086   146.2278   752.4634     0.0216     2.4297  -999.2500
  671.5000     7.0658     7.0018    13.0092   144.8638   737.6141     0.0303     2.4411  -999.2500
  672.0000     7.0663     7.1045    13.0098   149.9188   738.2207     0.0407     2.4504  -999.2500
  672.5000     7.0176     7.1572    13.0103   150.9056   738.8273     0.0467     2.4528  -999.2500
  673.0000     6.7313     6.9063    13.0109   155.0152   739.4340     0.0436     2.4465  -999.2500
  673.5000     6.5017     6.7122    13.0116   155.6866   755.4965     0.0263     2.4216  -999.2500
  674.0000     6.3237     6.5233    13.0122   154.5549   756.1050     0.0177     2.4005  -999.2500
  674.5000     5.9335     6.2499    13.0128   151.8203   756.7233     0.0122     2.3951  -999.2500
  675.0000     5.5998     5.9877    13.0134   152.2918   772.7975     0.0279     2.4200  -999.2500
  675.5000     5.2056     5.5667    13.0139   160.0914   773.5305     0.0585     2.4396  -999.2500
  676.0000     4.8225     5.2267    13.0145   165.6011   789.5931     0.0867     2.4505  -999.2500
  676.5000     4.5301     4.9007    13.0151   164.9275   805.6557     0.1001     2.4417  -999.2500
  677.0000     4.4369     4.6951    13.0157   161.0478   821.7183     0.0936     2.3958  -999.2500
  677.5000     4.5307     4.7299    13.0163   156.0231   806.8689     0.0629     2.3624  -999.2500
  678.0000     4.7904     4.8339    13.0168   151.6306   792.0195     0.0216     2.3569  -999.2500
  678.5000     5.1358     5.0477    13.0322   146.4339   777.0185     0.0192     2.4076  -999.2500
  679.0000     5.5446     5.3090    13.0329   145.0699   777.7767     0.0326     2.4303  -999.2500
  679.5000     5.9860     5.6645    13.0335   145.7737   778.3834     0.0381     2.4435  -999.2500
  680.0000     6.2851     5.9577    13.0341   146.7032   778.9900     0.0373     2.4396  -999.2500
  680.5000     6.5572     6.2685    13.0346   147.1746   764.1407     0.0404     2.4412  -999.2500
  681.0000     6.7545     6.5020    13.0352   147.8751   749.2914     0.0546     2.4537  -999.2500
  681.5000     6.9295     6.6874    13.0358   147.8885   749.9227     0.0640     2.4670  -999.2500
  682.0000     7.0271     6.7370    13.0364   147.6519   750.6562     0.0656     2.4685  -999.2500
  682.5000     7.0276     6.8851    13.0369   146.7737   751.2628     0.0487     2.4400  -999.2500
  683.0000     7.0280     6.9362    13.0375   145.6421   751.8694     0.0354     2.4303  -999.2500
  683.5000     7.0285     6.9376    13.0381   144.2815   752.4761     0.0334     2.4342  -999.2500
  684.0000     6.9802     6.9891    13.0387   144.7530   753.0827     0.0373     2.4467  -999.2500
  684.5000     6.9322     7.0409    13.0394   148.2015   753.6893     0.0428     2.4592  -999.2500
  685.0000     6.9328     7.0424    13.0400   150.5051   754.2959     0.0483     2.4725  -999.2500
  685.5000     6.9333     7.0439    13.0553   149.1444   754.9025     0.0538     2.4818  -999.2500
  686.0000     6.9338     7.0454    13.0707   147.3258   755.5092     0.0561     2.4686  -999.2500
  686.5000     6.9342     7.0395    13.0860   149.6293   756.1158     0.0271     2.4428  -999.2500
  687.0000     6.8866     6.9479    13.0866   150.3298   756.7224     0.0184     2.4288  -999.2500
  687.5000     6.8872     6.9497    13.0872   149.8841   741.8730     0.0169     2.4241  -999.2500
  688.0000     6.8877     6.9011    13.0878   150.1299   742.5038     0.0338     2.4343  -999.2500
  688.5000     6.8882     6.9029    13.1031   154.2655   727.7819     0.0514     2.4510  -999.2500
