~VERSION INFORMATION
 VERS.                2.0:   CWLS LOG ASCII STANDARD - VERSION 2.0
 WRAP.                 NO:   ONE LINE PER DEPTH STEP
~WELL INFORMATION
#MNEM.UNIT      DATA TYPE    INFORMATION
#----------   ------------   ------------------------------
 STRT.F          500.0000:   START DEPTH
 STOP.F         4646.0000:   STOP DEPTH
 STEP.F            0.5000:   STEP LENGTH
 NULL.          -999.2500:   NO VALUE
 COMP.    FENIX & SCISSON:   COMPANY
 WELL. LAWRENCE NPR 3 "X" #34-10:   WELL
 FLD .                NPR:   FIELD
 LOC .      S10 T38N R78W:   LOCATION
 CNTY.            NATRONA:   COUNTY
 STAT.            WYOMING:   STATE
 CTRY. UNITED STATES OF AMERICA:   COUNTRY
 SRVC.              WELEX:   SERVICE COMPANY
 DATE.        12-OCT-1979:   LOGDATE
 API .     49025109290000:   API NUMBER
~CURVE INFORMATION
#MNEM.UNIT       API CODE    CURVE DESCRIPTION
#----------   ------------   ------------------------------
 DEPT.F                  :   
 SPR .MV     07 010 01 00:   SPONTANEOUS POTENTIAL
 SGRD.OHMM   07 220 05 00:   SHALLOW GUARD LOG RESISTIVITY
 ILD .OHMM   07 120 46 00:   DEEP INDUCTION RESISTIVITY
 ILM .OHMM   07 120 44 00:   INDUCTION LOG MEDIUM RESISTIVITY
 TEND.LBS    45 635 01 00:   TENSION FROM DENSITY LOG
 CORR.G/C3   45 356 01 00:   DENSITY CORRECTION
 RHOB.G/C3   45 350 01 00:   BULK DENSITY
 NPHI.DEC    42 890 03 00:   NEUTRON POROSITY SANDSTONE
 GRD .GAPI   45 310 01 00:   GAMMA RAY FROM DENSITY LOG
 CALD.IN     45 280 60 00:   CALIPER FROM DENSITY LOG
~PARAMETER INFORMATION
#MNEM.UNIT          VALUE    DESCRIPTION
#----------   ------------   ------------------------------
 EKB .F         5234.0000:   Kelly bushing
 EGL .F         5224.0000:   Ground level
 EDF .F            0.0000:   Drilling floor
 TD  .F         4650.0000:   Total depth
 DATE.        12-OCT-1979:   Date logged
 CLNT.            A2DTECH:   Client Code
 SL  . 2055' FNL & 1509' FWL:   Surface Location
 PD  .                 GL:   Permanent Datum
 DD  .F              4650:   Depth driller
 DL  .F              4646:   Depth logger
 BLI .F              4644:   Bottom log interval
 CS1 .IN              500:   Casing size
 CBD1.      8.625" @ 500':   Casing driller 1
 CBL1.F               502:   Casing logger 1
 BS1 .IN            7.875:   Bit size
 DFT .           CHEM/GEL:   Type fluid in hole
 DFD .                8.8:   Density
 DFV .                 62:   Viscosity
 DFPH.               11.2:   pH
 DFL .                4.5:   Fluid loss
 MSS .            MUD/PIT:   Source of sample
 RMS .OHMM           1.18:   Rm
 MST .F                60:   Rm Meas. temp.
 RMF .OHMM            .94:   Rmf
 MFST.F                60:   Rmf Meas. temp.
 RMC .OHMM           1.41:   Rmc
 MCST.F                60:   Rmc Meas. temp.
 MFSS.               MEAS:   Source Rmf.
 RMB .OHMM            .81:   Rm. at BHT
 BHT .F                87:   BHT.
 TCS .HRS               2:   Time Circ. stopped
 MRT .F                87:   Maximum recorded temp.
 LUN .               1892:   Logging unit number
 LUL .             CASPER:   Logging unit location
 ENGI.               REIN:   Recorded By
 WITN.           DINSMORE:   Witnessed by
 ORIG.           5" PRINT:   Origin of data
 UWI .     49025109290000:   Unique Well ID
 DICO. A2D TECHNOLOGIES, INC.:   Digitizing Company
 DAPD.                 10:   Feet Above Permanent Datum
 BSD1.F              4650:   Depth drilled with bit1
 MCSS.               MEAS:   Source Rmc.
 EPD .F              5224:   Elevation Permanent Datum
 LMF .                 KB:   Log Measured From
 DMF .                 KB:   Drilling Measured From
 TLI .F               500:   Top log interval
~OTHER INFORMATION
~A   DEPT      SPR         SGRD      ILD         ILM      TEND         CORR       RHOB       NPHI       GRD        CALD 
# ...
 3783.0000   -23.8320     3.0780     1.8860     2.2670  2292.2920     0.2470     2.1590     0.2910   114.4700     8.9090
 3783.5000   -24.2180     3.1860     1.9130     2.3170  2292.2920     0.2480     2.1520     0.2950   112.9720     8.9080
 3784.0000   -24.5900     3.2950     1.9410     2.3660  2292.2920     0.2480     2.1460     0.2980   111.4690     8.8820
 3784.5000   -25.2110     3.4040     2.0650     2.5740  2292.2920     0.2390     2.1430     0.2980   112.2140     8.8550
 3785.0000   -25.8440     3.5120     2.1940     2.8310  2308.3081     0.2290     2.1460     0.2960   113.4150     8.8290
 3785.5000   -26.4840     3.6210     2.3130     3.0870  2349.5500     0.2180     2.1520     0.2940   112.3280     8.8020
 3786.0000   -27.3330     4.5700     2.6930     3.4570  2351.5520     0.2070     2.1610     0.2920   109.2720     8.7760
 3786.5000   -28.5020    10.4060     3.0510     4.6660  2269.0691     0.1960     2.1690     0.2860   105.8320     8.7480
 3787.0000   -29.6660    15.4330     3.4060     5.7280  2223.0229     0.1860     2.1860     0.2750   100.6670     8.7830
 3787.5000   -30.8330    20.2260     4.3790     7.3670  2315.8159     0.1790     2.2100     0.2620    95.0690     8.8320
 3788.0000   -32.0080    24.0410     5.3440     9.0050  2392.3921     0.1810     2.2340     0.2390    79.1910     8.8810
 3788.5000   -32.8130    25.8910     7.0640    10.6440  2337.2461     0.1820     2.3010     0.2140    63.2660     8.9100
 3789.0000   -33.5400    25.6600     9.5760    12.2830  2281.0081     0.1740     2.3310     0.1860    46.9030     8.7710
 3789.5000   -34.2700    25.4550    12.0450    13.8560  2320.1770     0.1650     2.3350     0.1920    39.7130     8.6310
 3790.0000   -34.9980    25.1840    14.7540    15.1820  2372.3721     0.1560     2.3160     0.2000    32.2620     8.4910
 3790.5000   -34.8790    25.6070    16.3280    16.6320  2291.5769     0.1490     2.2940     0.2090    24.8560     8.3500
 3791.0000   -34.4230    26.2350    16.9420    16.9170  2322.9900     0.1530     2.2970     0.2120    20.6350     8.3050
 3791.5000   -33.9880    26.8630    16.9420    17.2320  2392.3921     0.1570     2.3090     0.1990    20.9930     8.2800
 3792.0000   -33.0630    27.1120    16.7860    17.4170  2344.7451     0.1610     2.3200     0.1900    21.9330     8.2560
 3792.5000   -31.9100    25.3630    16.4800    16.6320  2296.6299     0.1630     2.3310     0.1830    25.1090     8.2310
 3793.0000   -30.9450    23.1160    15.5930    16.0340  2252.2520     0.1650     2.3420     0.1760    28.4670     8.2060
 3793.5000   -30.0070    19.3350    14.0510    15.4500  2320.5710     0.1660     2.3530     0.1720    34.6690     8.1880
 3794.0000   -29.0730    15.1670    11.1220    13.8680  2371.6721     0.1650     2.3610     0.1710    41.8220     8.2110
 3794.5000   -28.1370    12.0890     8.1930    12.2130  2366.5171     0.1640     2.3580     0.1730    48.9970     8.2330
 3795.0000   -27.2010     8.9990     7.5010    10.6850  2361.3611     0.1590     2.3550     0.1760    56.0940     8.2550
 3795.5000   -26.2420     8.5640     7.1220     9.6200  2356.2061     0.1540     2.3520     0.1820    63.1170     8.2770
 3796.0000   -25.9330     8.8060     6.9920     8.4070  2352.3521     0.1490     2.3340     0.1890    79.3340     8.2990
 3796.5000   -25.7820     9.3320     7.8820     9.7050  2352.3521     0.1470     2.3010     0.2100    95.0610     8.3210
 3797.0000   -25.6580     9.8340     7.8580    11.0860  2352.3521     0.1460     2.2860     0.2300    96.5310     8.3430
 3797.5000   -25.8250     9.9250     7.8290    10.0690  2352.3521     0.1430     2.2600     0.2510   104.6620     8.3650
 3798.0000   -25.9940     9.9740     7.8090     9.1350  2352.3521     0.1320     2.2310     0.2600   105.5310     8.4000
 3798.5000   -26.1620    10.0700     8.2230     9.2850  2352.3521     0.1210     2.2020     0.2680   103.2920     8.4350
 3799.0000   -26.3300    10.2030     8.5900     9.6810  2352.3521     0.1100     2.2010     0.2630   101.0220     8.4700
 3799.5000   -26.4990    10.2920     8.9580    10.0760  2352.3521     0.0980     2.2050     0.2480    98.7080     8.5060
 3800.0000   -26.6280    10.3790     9.2620    10.4710  2352.3521     0.0840     2.2320     0.2150    94.7690     8.5410
 3800.5000   -26.2740    10.4660    10.0170    10.5870  2352.3521     0.1010     2.3020     0.1700    88.9710     8.5650
 3801.0000   -25.9270    10.4890    10.1100     9.9550  2352.3521     0.1220     2.3700     0.1480    83.7230     8.5650
 3801.5000   -25.4170     9.6540     8.8630     9.3970  2352.3521     0.1340     2.4010     0.1510    81.4700     8.5650
 3802.0000   -24.8620     8.7250     6.9230     8.4860  2352.3521     0.1470     2.4000     0.1550    79.2700     8.5590
 3802.5000   -24.4000     7.7870     5.6580     7.5740  2352.3521     0.1590     2.3860     0.1610    77.6200     8.5440
 3803.0000   -24.2170     6.8490     5.3260     6.6620  2352.3521     0.1660     2.3790     0.1710    79.4740     8.5290
 3803.5000   -24.0330     6.2510     4.9930     5.8900  2352.3521     0.1700     2.3610     0.1840    84.9030     8.5140
 3804.0000   -23.8480     5.8140     4.4860     5.2600  2352.3521     0.1670     2.3360     0.1990   100.0800     8.4840
 3804.5000   -23.6640     4.3400     3.5340     4.6300  2352.3521     0.1670     2.3110     0.2230   115.3730     8.4950
 3805.0000   -23.4790     3.7380     3.3980     4.0000  2352.3521     0.1730     2.2860     0.2470   130.6000     8.5060
 3805.5000   -23.2940     3.4060     3.0220     3.3700  2359.8169     0.1790     2.2510     0.2710   136.1570     8.5160
 3806.0000   -23.1090     3.3160     2.7300     2.9900  2370.9280     0.1860     2.2090     0.2860   130.7450     8.5270
 3806.5000   -22.9240     3.2530     2.7810     2.9210  2382.0391     0.1950     2.1630  -999.2500   124.7570     8.5380
 3807.0000   -22.7390     3.1900     2.6800     2.8510  2393.1499     0.2050     2.1170  -999.2500   119.4370     8.5480
 3807.5000   -22.5540     3.1780     2.6010     2.7660  2404.2610     0.2140     2.0710  -999.2500   106.2820     8.5600
 3808.0000   -22.3690     3.1660     2.5130     2.6750  2384.7849     0.2240     2.0180  -999.2500    92.6150     8.6140
 3808.5000   -22.1850     3.1640     2.5130     2.6560  2281.0811     0.2420     1.9800  -999.2500    80.0230     8.7310
 3809.0000   -22.0530     3.2410     2.6410     2.9810  2320.3201     0.2360     1.9530  -999.2500    76.2860     8.8480
 3809.5000   -22.0560     3.3050     2.7330     3.2140  2414.5959     0.2270     1.9400  -999.2500    72.7840     9.0440
 3810.0000   -22.0560     3.7050     2.8240     3.4460  2423.0229     0.2240     1.9270  -999.2500    71.7950     9.3690
 3810.5000   -22.0560     4.1900     2.9160     3.6790  2350.4299     0.2580     1.9130  -999.2500    76.3100     9.1580
 3811.0000   -22.0560     5.1100     2.9940     3.8750  2322.6809     0.2590     1.9140  -999.2500    80.0060     8.9650
 3811.5000   -22.0560     4.7990     2.9940     3.7920  2344.5129     0.2570     1.9290  -999.2500    83.7120     9.0080
 3812.0000   -22.0560     3.8680     2.9330     3.2330  2366.3450     0.2400     1.9560  -999.2500    87.5500    10.0530
 3812.5000   -22.0560     3.3440     2.8710     3.0280  2388.1780     0.2230     1.9810  -999.2500    89.0230    10.4220
 3813.0000   -22.0560     3.4190     2.8100     2.9670  2336.6030     0.2220     1.9970  -999.2500    90.1530    10.4610
 3813.5000   -22.0560     3.5060     2.7480     2.9060  2306.7070     0.2290     1.9950  -999.2500    90.8770    10.2290
 3814.0000   -22.0560     3.5940     2.6870     2.8460  2298.0649     0.2370     1.9760  -999.2500    91.1430     9.2930
 3814.5000   -22.0560     3.6950     2.6250     2.7850  2292.2920     0.2470     1.9530  -999.2500    91.4170     8.7790
 3815.0000   -22.0560     3.8690     2.5640     2.7240  2292.2920     0.2570     1.9290  -999.2500    91.6820     8.7430
 3815.5000   -22.0560     4.0420     2.5020     2.6640  2290.9309     0.2650     1.8950  -999.2500    91.9740     8.8180
 3816.0000   -22.0560     4.1800     2.4440     2.6030  2289.2029     0.2470     1.8860  -999.2500    90.2680     9.0300
