~VERSION INFORMATION
 VERS.                2.0:   CWLS LOG ASCII STANDARD - VERSION 2.0
 WRAP.                 NO:   ONE LINE PER DEPTH STEP
~WELL INFORMATION
#MNEM.UNIT      DATA TYPE    INFORMATION
#----------   ------------   ------------------------------
 STRT.F          290.0000:   START DEPTH
 STOP.F         2884.0000:   STOP DEPTH
 STEP.F            0.5000:   STEP LENGTH
 NULL.          -999.2500:   NO VALUE
 COMP.   FENNIX & SCISSON:   COMPANY
 WELL. FENIX & SCISSON AX #22-28:   WELL
 FLD .             NPR #3:   FIELD
 LOC .      S28 T39N R78W:   LOCATION
 CNTY.            NATRONA:   COUNTY
 STAT.            WYOMING:   STATE
 CTRY. UNITED STATES OF AMERICA:   COUNTRY
 SRVC.              WELEX:   SERVICE COMPANY
 DATE.        29-DEC-1979:   LOGDATE
 API .     49025107930000:   API NUMBER
~CURVE INFORMATION
#MNEM.UNIT       API CODE    CURVE DESCRIPTION
#----------   ------------   ------------------------------
 DEPT.F                  :   
 GRD .GAPI   45 310 01 00:   GAMMA RAY FROM DENSITY LOG
 CALD.IN     45 280 60 00:   CALIPER FROM DENSITY LOG
 CORR.G/C3   45 356 01 00:   DENSITY CORRECTION
 RHOB.G/C3   45 350 01 00:   BULK DENSITY
 NPHI.DEC    42 890 03 00:   NEUTRON POROSITY SANDSTONE
 SPR .MV     07 010 01 00:   SPONTANEOUS POTENTIAL
 TENR.LBS    07 635 01 00:   TENSION FROM RESISTIVITY
 ILD .OHMM   07 120 46 00:   DEEP INDUCTION RESISTIVITY
 ILM .OHMM   07 120 44 00:   INDUCTION LOG MEDIUM RESISTIVITY
 SGRD.OHMM   07 220 08 00:   LATEROLOG-8 RES.
~PARAMETER INFORMATION
#MNEM.UNIT          VALUE    DESCRIPTION
#----------   ------------   ------------------------------
 EKB .F         4988.0000:   Kelly bushing
 EGL .F         4978.0000:   Ground level
 EPD .F         4978.0000:   Permanent datum
 TD  .F         2872.0000:   Total depth
 CLNT.            A2DTECH:   Client Code
 SL  . 803' FNL & 938' FWL:   Surface Location
 DATE.        29-DEC-1979:   Date Logged [DD-MMM-YYYY]
 DD  .F              2868:   Depth driller
 DL  .F              2872:   Depth logger
 BLI .F              2870:   Bottom log interval
 TLI .F               300:   Top log interval
 CS1 .              8.625:   Casing size
 CBD1.      8.625" @ 318':   Casing driller 1
 CBL1.IN              318:   Casing logger 1
 BS1 .IN            7.875:   Bit size
 BSD1.F              2868:   Depth drilled with bit1
 DFT .          GEL-BENEX:   Type fluid in hole
 DFD .                8.8:   Density
 TCS .HRS              10:   Time Circ. stopped
 MRT .F               109:   Maximum recorded temp.
 ENGI.               REIN:   Recorded By
 WITN.          MR. AMEND:   Witnessed by
 ORIG.      2.5" 5" PRINT:   Origin of data
 UWI .     49025107930000:   Unique Well ID
 DICO. A2D TECHNOLOGIES, INC.:   Digitizing Company
 PD  .                 GL:   Permanent Datum
 LMF .                 KB:   Log Measured From
 DMF .                 KB:   Drilling Measured From
~OTHER INFORMATION
~A   DEPT       GRD        CALD     CORR         RHOB       NPHI      SPR       TENR        ILD        ILM       SGRD   
# ...
 2333.5000   119.5517     9.6598     0.0127     2.5695     0.2509   -63.6839  1765.7738     6.4814     6.2940     7.7681
 2334.0000   122.5796     9.6743     0.0081     2.5587     0.2475   -63.6934  1765.4762     6.7560     6.7440     7.7681
 2334.5000   123.5086     9.6752     0.0004     2.5650     0.2425   -63.7029  1765.1786     6.9462     7.2119     7.6624
 2335.0000   121.1192     9.6761     0.0002     2.5666     0.2375   -63.7124  1764.8810     7.2404     7.5178     7.6346
 2335.5000   117.4711     9.6770    -0.0010     2.5589     0.2331   -63.7219  1764.5833     7.5471     7.9444     8.7879
 2336.0000   112.2099     9.6622    -0.0103     2.5504     0.2312   -63.7314  1764.2856     7.7771     8.4159    10.0788
 2336.5000   111.3397     9.6477    -0.0183     2.5458     0.2302   -63.7408  1763.9480     8.0884     8.9939    10.5019
 2337.0000   111.9689     9.6334    -0.0226     2.5482     0.2301   -63.7503  1793.4524     8.3370     9.6621    10.7938
 2337.5000   113.4975     9.6343    -0.0179     2.5514     0.2320   -63.7598  1793.1178     8.6684    10.3225    10.9427
 2338.0000   114.4265     9.6198    -0.0147     2.5522     0.2384   -63.7693  1792.8217     9.0355    10.6948    10.7938
 2338.5000   115.9552     9.6207    -0.0100     2.5508     0.2446   -63.7788  1792.5594     9.1901    10.8437    10.0788
 2339.0000   117.7837     9.6062    -0.0099     2.5493     0.2433   -63.7883  1792.2620     9.5518    10.8815     9.8063
 2339.5000   118.1130     9.5917    -0.0099     2.5532     0.2429   -63.7978  1791.9644     9.6871    11.3409     9.6728
 2340.0000   118.1424     9.5772    -0.0098     2.5595     0.2438   -63.8073  1791.6666     9.7929    11.6591     9.5412
 2340.5000   118.4717     9.5781    -0.0035     2.5666     0.2456   -63.8168  1791.3690     9.9304    11.9404     9.6728
 2341.0000   120.3002     9.5790     0.0043     2.5721     0.2475   -63.8263  1791.0714     9.9328    11.9420     9.6728
 2341.5000   121.2384     9.5801     0.0122     2.5721     0.2505   -63.8358  1790.7738     9.8999    11.6854     9.8063
 2342.0000   122.4910     9.5810     0.0153     2.5714     0.2539   -63.8456  1790.4762     9.8020    11.7754     9.9417
 2342.5000   123.6881     9.5665     0.0186     2.5746     0.2554   -63.8095  1790.1786     9.8046    12.3335     9.9417
 2343.0000   124.3233     9.5829     0.0217     2.5801     0.2525   -63.7720  1789.8810     9.8070    12.6209     9.9417
 2343.5000   121.6541     9.5838     0.0233     2.5879     0.2550   -63.7346  1789.5834     9.8094    12.6226     9.9417
 2344.0000   119.8844     9.5847     0.0234     2.5864     0.2521   -63.6971  1789.2856     9.8117    12.6868     9.8063
 2344.5000   118.1147     9.5856     0.0219     2.5842     0.2517   -63.6597  1788.9880     9.6801    12.8000     9.8063
 2345.0000   116.9447     9.5865     0.0219     2.5804     0.2548   -63.6222  1788.6904     9.6400    12.8018     9.8063
 2345.5000   115.7747     9.6028     0.0189     2.5758     0.2611   -63.5847  1788.3928     9.3803    12.6670     9.8063
 2346.0000   113.4053     9.6037     0.0143     2.5711     0.2676   -63.5473  1788.0952     9.0855    11.5713     9.6728
 2346.5000   112.5279     9.6047     0.0143     2.5673     0.2708   -63.5098  1787.7976     8.6418    11.4789     9.3621
 2347.0000   113.1643     9.6056     0.0160     2.5667     0.2735   -63.4724  1787.5000     8.3681    11.4804     8.9799
 2347.5000   113.7935     9.6065     0.0160     2.5683     0.2738   -63.4349  1787.2023     8.1826    11.4131     8.7879
 2348.0000   114.1229     9.6074     0.0207     2.5676     0.2705   -63.3974  1786.9047     7.9624    11.1047     8.7879
 2348.5000   113.8220     9.5929     0.0224     2.5661     0.2663   -63.3600  1786.6520     7.8963    10.8734     8.9092
 2349.0000   113.2820     9.5940     0.0240     2.5662     0.2625   -63.3225  1790.2065     7.8986    10.8748     8.9092
 2349.5000   117.5167     9.5949     0.0272     2.5670     0.2597   -63.2850  1793.2952     7.9005    10.8763     8.7504
 2350.0000   119.8671     9.5958     0.0257     2.5710     0.2575   -63.2476  1796.3838     7.9024    10.9528     8.8693
 2350.5000   121.4703     9.5811     0.0242     2.5703     0.2563   -63.2101  1799.4724     7.9042    11.4152     9.2015
 2351.0000   120.2975     9.5822     0.0242     2.5655     0.2543   -63.2110  1802.5610     8.0152    11.4930     9.4597
 2351.5000   118.5250     9.5675     0.0227     2.5642     0.2518   -63.2240  1805.6497     8.0171    11.4946     9.5412
 2352.0000   117.9453     9.5686     0.0228     2.5659     0.2490   -63.2371  1808.7383     8.1298    10.8601     9.2310
 2352.5000   115.2799     9.5850     0.0229     2.5675     0.2449   -63.2501  1811.8269     8.1837    10.9691     8.8566
 2353.0000   113.5074     9.5702     0.0260     2.5691     0.2418   -63.2632  1813.6904     8.2995    11.5896     8.6683
 2353.5000   115.3331     9.5713     0.0277     2.5746     0.2390   -63.2762  1813.3928     8.5333    12.0790     9.0066
 2354.0000   115.3597     9.5723     0.0355     2.5902     0.2393   -63.2893  1813.0952     8.7148    12.1497     9.0091
 2354.5000   114.1870     9.5577     0.0449     2.5988     0.2396   -63.3023  1812.7976     8.7769    11.5044     9.0116
 2355.0000   112.4145     9.5432     0.0431     2.6005     0.2373   -63.3154  1812.5000     8.9013    11.5059     9.0141
 2355.5000   110.0423     9.5287     0.0341     2.6013     0.2344   -63.3284  1812.2024     8.9634    11.9898     9.0166
 2356.0000   107.6619     9.5276     0.0326     2.6014     0.2320   -63.3415  1811.9047     8.9656    12.1567     9.1448
 2356.5000   105.5566     9.5151     0.0296     2.5960     0.2304   -63.3545  1811.6071     8.9677    12.1583     9.1473
 2357.0000   104.4249     9.5006     0.0234     2.5837     0.2320   -63.3675  1811.3094     8.9033    12.1600     9.1498
 2357.5000   105.4628     9.4860     0.0173     2.5745     0.2341   -63.3806  1811.0118     8.8499    11.9963     9.1522
 2358.0000   108.0830     9.4563     0.0204     2.5691     0.2356   -63.3936  1810.7142     8.8520    11.6740     9.0290
 2358.5000   108.4095     9.4416     0.0298     2.5661     0.2340   -63.4067  1810.4166     8.8541    11.2060     9.0318
 2359.0000   107.8364     9.4736     0.0361     2.5654     0.2331   -63.4197  1810.1190     8.8562    11.3619     9.0343
 2359.5000   107.5565     9.5671     0.0362     2.5622     0.2355   -63.4328  1809.8214     8.7378    11.5200     9.0368
 2360.0000   109.3888     9.6451     0.0207     2.5521     0.2383   -63.4474  1809.5237     8.6213    11.5638     9.0392
 2360.5000   112.7138     9.6769     0.0049     2.5439     0.2395   -63.4675  1809.2261     8.5060    11.2121     8.9177
 2361.0000   116.3386     9.7241     0.0123     2.5471     0.2317   -63.4875  1808.9285     8.2780    10.3365     8.7982
 2361.5000   120.5631     9.7713     0.0271     2.5534     0.2264   -63.5075  1808.6309     8.0561     9.6475     8.6801
 2362.0000   123.5882     9.8031     0.0334     2.5558     0.2242   -63.5276  1808.3333     7.7334     9.7819     8.4463
 2362.5000   123.0152     9.8503     0.0366     2.5574     0.2254   -63.5476  1808.0356     7.4236     9.9180     8.4486
 2363.0000   118.8439     9.8986     0.0366     2.5653     0.2291   -63.5676  1807.7380     7.1263    10.0560     8.4509
 2363.5000   119.7700     9.9447     0.0367     2.5653     0.2313   -63.5877  1807.4404     6.9353     9.9206     8.1107
 2364.0000   124.5942     9.9922     0.0367     2.5646     0.2300   -63.6077  1807.1428     6.7493     9.5131     7.6775
 2364.5000   128.8187    10.0239     0.0384     2.5732     0.2243   -63.6277  1806.8452     6.6588     8.7733     7.5735
 2365.0000   132.1439    10.0403     0.0384     2.5749     0.2191   -63.6478  1806.5475     6.5698     8.8955     7.4728
 2365.5000   131.1911    10.0721     0.0416     2.5711     0.2219   -63.6678  1806.2499     6.4819     8.7757     7.4749
 2366.0000   127.3563    10.1038     0.0432     2.5688     0.2203   -63.6878  1805.9523     6.4836     8.4010     7.4770
 2366.5000   128.3321    10.1510     0.0447     2.5666     0.2190   -63.6963  1805.6547     6.4852     7.8678     7.3765
