~VERSION INFORMATION
 VERS.                2.0:   CWLS LOG ASCII STANDARD - VERSION 2.0
 WRAP.                 NO:   ONE LINE PER DEPTH STEP
~WELL INFORMATION
#MNEM.UNIT      DATA TYPE    INFORMATION
#----------   ------------   ------------------------------
 STRT.F           90.0000:   START DEPTH
 STOP.F         3342.0000:   STOP DEPTH
 STEP.F            0.5000:   STEP LENGTH
 NULL.          -999.2500:   NO VALUE
 COMP. LAWRENCE ALLISON AND ASSOCIATES:   COMPANY
 WELL. LAWERNCE "X" #83-3:   WELL
 FLD .             NPR #3:   FIELD
 LOC .       S3 T38N R78W:   LOCATION
 CNTY.            NATRONA:   COUNTY
 STAT.            WYOMING:   STATE
 CTRY. UNITED STATES OF AMERICA:   COUNTRY
 SRVC.      DRESSER ATLAS:   SERVICE COMPANY
 DATE.        23-APR-1985:   LOGDATE
 API .     49025110210000:   API NUMBER
~CURVE INFORMATION
#MNEM.UNIT       API CODE    CURVE DESCRIPTION
#----------   ------------   ------------------------------
 DEPT.F                  :   
 TENR.LBS    07 635 01 00:   TENSION FROM RESISTIVITY
 CALR.IN     07 280 01 00:   CALIPER FROM RESISTIVITY
 SPR .MV     07 010 01 00:   SPONTANEOUS POTENTIAL
 GRR .GAPI   07 310 01 00:   GAMMA RAY FROM RESISTIVITY
 RFOC.OHMM   07 220 04 00:   RESISTIVITY FOCUSED LOG RES.
 RILD.OHMM   07 120 46 00:   DEEP INDUCTION RESISTIVITY
 RILM.OHMM   07 120 44 00:   INDUCTION LOG MEDIUM RESISTIVITY
 NPHI.DEC    42 890 03 00:   NEUTRON POROSITY SANDSTONE
 RHOB.G/C3   45 350 01 00:   BULK DENSITY
 TEND.LBS    45 635 01 00:   TENSION FROM DENSITY LOG
 CORR.G/C3   45 356 01 00:   DENSITY CORRECTION
~PARAMETER INFORMATION
#MNEM.UNIT          VALUE    DESCRIPTION
#----------   ------------   ------------------------------
 EKB .F         5125.0000:   Kelly bushing
 EGL .F         5112.0000:   Ground level
 EDF .F            0.0000:   Drilling floor
 TD  .F         3330.0000:   Total depth
 DATE.        23-APR-1985:   Date logged
 CLNT.            A2DTECH:   Client Code
 SL  . 1745' FNL & 612' FEL:   Surface Location
 PD  .                 GL:   Permanent Datum
 DD  .F              3330:   Depth driller
 DL  .F              3328:   Depth logger
 BLI .F              3326:   Bottom log interval
 CS1 .IN            8.625:   Casing size
 CBD1.      8.625" @ 526':   Casing driller 1
 CBL1.F               528:   Casing logger 1
 BS1 .IN            7.875:   Bit size
 DFT .            KCL-GEL:   Type fluid in hole
 DFD .                9.1:   Density
 DFV .                 43:   Viscosity
 DFPH.                  8:   pH
 DFL .                  8:   Fluid loss
 MSS .           FLOWLINE:   Source of sample
 RMS .OHMM          0.445:   Rm
 MST .F                72:   Rm Meas. temp.
 RMF .OHMM           0.36:   Rmf
 MFST.F                70:   Rmf Meas. temp.
 RMC .OHMM           0.55:   Rmc
 MCST.F                72:   Rmc Meas. temp.
 MFSS.               MEAS:   Source Rmf.
 RMB .OHMM          0.286:   Rm. at BHT
 BHT .F               116:   BHT.
 TCS .HRS               3:   Time Circ. stopped
 MRT .F               116:   Maximum recorded temp.
 LUN .               6274:   Logging unit number
 LUL .               GLTE:   Logging unit location
 ENGI.             RAUTIO:   Recorded By
 WITN.             STRONG:   Witnessed by
 ORIG.           5" PRINT:   Origin of data
 UWI .     49025110210000:   Unique Well ID
 DICO. A2D TECHNOLOGIES, INC.:   Digitizing Company
 DAPD.                 13:   Feet Above Permanent Datum
 BSD1.               3330:   Depth drilled with bit1
 MCSS.               CALC:   Source Rmc.
 EPD .               5112:   Elevation Permanent Datum
 LMF .                 KB:   Log Measured From
 DMF .                 KB:   Drilling Measured From
~OTHER INFORMATION
~A   DEPT     TENR       CALR        SPR         GRR      RFOC       RILD       RILM       NPHI       RHOB       TEND       CORR   
# ...
  730.5000   -49.0030    10.2980   -58.4620   100.8850     6.8080     7.4870     7.2270  -999.2500  -999.2500  -999.2500  -999.2500
  731.0000   -55.5830    10.2980   -58.6340    99.1510     6.8510     7.4870     7.2600  -999.2500  -999.2500  -999.2500  -999.2500
  731.5000   -56.8970    10.2980   -58.8050    98.3990     6.8940     7.4870     7.2920  -999.2500  -999.2500  -999.2500  -999.2500
  732.0000   -60.3830    10.2980   -58.8800    98.3720     6.9360     7.4870     7.3250  -999.2500  -999.2500  -999.2500  -999.2500
  732.5000   -63.8690    10.2980   -58.7030    99.7330     6.9790     7.4870     7.3510  -999.2500  -999.2500  -999.2500  -999.2500
  733.0000   -67.3550    10.2980   -58.5280   101.3760     7.0210     7.4870     7.3250  -999.2500  -999.2500  -999.2500  -999.2500
  733.5000   -70.8410    10.2980   -58.3540   101.6420     7.0210     7.4520     7.3040  -999.2500  -999.2500  -999.2500  -999.2500
  734.0000   -74.3270    10.2980   -58.1720   100.8980     7.0210     7.4190     7.2840  -999.2500  -999.2500  -999.2500  -999.2500
  734.5000   -75.5230    10.2980   -58.1150   101.9370     7.0210     7.2840     7.2100  -999.2500  -999.2500  -999.2500  -999.2500
  735.0000   -75.5230    10.2980   -58.3800   103.2750     6.9050     7.0840     7.1400  -999.2500  -999.2500  -999.2500  -999.2500
  735.5000   -75.5230    10.2980   -58.7640   104.6050     6.7170     6.8550     7.0700  -999.2500  -999.2500  -999.2500  -999.2500
  736.0000   -75.5230    10.2980   -59.1060   104.9950     6.5280     6.6250     6.9440  -999.2500  -999.2500  -999.2500  -999.2500
  736.5000   -72.4830    10.3010   -58.8930   105.2670     6.3400     6.3960     6.6920  -999.2500  -999.2500  -999.2500  -999.2500
  737.0000   -66.4350    10.3080   -58.5540   105.5310     6.1520     6.1660     6.4390  -999.2500  -999.2500  -999.2500  -999.2500
  737.5000   -69.0950    10.3160   -58.5340   105.1800     5.9640     5.9370     6.1740  -999.2500  -999.2500  -999.2500  -999.2500
  738.0000   -71.7560    10.3240   -58.6130   104.7320     5.8450     5.7900     6.0620  -999.2500  -999.2500  -999.2500  -999.2500
  738.5000   -74.4160    10.3310   -58.6890   102.4960     5.8740     5.7900     6.0740  -999.2500  -999.2500  -999.2500  -999.2500
  739.0000   -75.5230    10.3390   -58.7640    98.8550     5.8970     5.7820     6.0840  -999.2500  -999.2500  -999.2500  -999.2500
  739.5000   -75.5230    10.3460   -58.8390    95.3470     5.9200     5.7440     6.0950  -999.2500  -999.2500  -999.2500  -999.2500
  740.0000   -75.5230    10.3540   -58.9080    95.7650     5.9480     5.6840     6.1050  -999.2500  -999.2500  -999.2500  -999.2500
  740.5000   -75.5230    10.3620   -58.8620    98.4940     5.9120     5.7370     6.1170  -999.2500  -999.2500  -999.2500  -999.2500
  741.0000   -75.5230    10.3690   -58.6260   102.5320     5.8490     5.5270     5.9540  -999.2500  -999.2500  -999.2500  -999.2500
  741.5000   -75.5230    10.3770   -58.3850   108.4820     5.7900     5.3570     5.7090  -999.2500  -999.2500  -999.2500  -999.2500
  742.0000   -75.5230    10.3850   -58.3190   110.3680     5.5750     5.1870     5.4650  -999.2500  -999.2500  -999.2500  -999.2500
  742.5000   -75.5230    10.3920   -58.3640   107.6360     5.3730     5.0170     5.2200  -999.2500  -999.2500  -999.2500  -999.2500
  743.0000   -75.5230    10.4000   -58.4190   104.9250     5.1710     4.8470     4.9530  -999.2500  -999.2500  -999.2500  -999.2500
  743.5000   -75.5230    10.4070   -58.4740   104.6090     4.9530     4.6870     4.9530  -999.2500  -999.2500  -999.2500  -999.2500
  744.0000   -75.5230    10.4160   -58.5290   105.6620     4.9770     4.6870     4.9530  -999.2500  -999.2500  -999.2500  -999.2500
  744.5000   -75.5230    10.3980   -58.5840   103.2380     5.0310     4.8390     4.9940  -999.2500  -999.2500  -999.2500  -999.2500
  745.0000   -75.5230    10.3740   -58.6390   100.8880     5.1270     5.1210     5.0500  -999.2500  -999.2500  -999.2500  -999.2500
  745.5000   -75.5230    10.3480   -58.6930   101.5540     5.2240     5.4030     5.1060  -999.2500  -999.2500  -999.2500  -999.2500
  746.0000   -75.5230    10.3370   -58.7480   102.3230     5.3200     5.6350     5.1630  -999.2500  -999.2500  -999.2500  -999.2500
  746.5000   -75.5230    10.3350   -58.8040   101.3960     5.4160     5.6530     5.2520  -999.2500  -999.2500  -999.2500  -999.2500
  747.0000   -75.5230    10.3330   -58.8560   100.3830     5.5120     5.6700     5.3630  -999.2500  -999.2500  -999.2500  -999.2500
  747.5000   -75.5230    10.3310   -58.8890    99.7120     5.5430     5.6880     5.4740  -999.2500  -999.2500  -999.2500  -999.2500
  748.0000   -75.5230    10.3290   -59.1090   102.3930     5.5650     5.7050     5.5810  -999.2500  -999.2500  -999.2500  -999.2500
  748.5000   -75.5230    10.3270   -59.1070   106.7280     5.5870     5.7230     5.6030  -999.2500  -999.2500  -999.2500  -999.2500
  749.0000   -75.5230    10.3240   -59.1010   108.5690     5.6080     5.7400     5.6380  -999.2500  -999.2500  -999.2500  -999.2500
  749.5000   -75.5230    10.3220   -58.9080   107.3960     5.6300     5.7580     5.6730  -999.2500  -999.2500  -999.2500  -999.2500
  750.0000   -65.5530    10.3200   -58.7170   108.5300     5.6520     5.7750     5.7370  -999.2500  -999.2500  -999.2500  -999.2500
  750.5000   -65.5530    10.3180   -58.5280   109.9110     5.6740     5.7930     5.7290  -999.2500  -999.2500  -999.2500  -999.2500
  751.0000   -65.5530    10.3160   -58.3390   108.5380     5.6890     5.8100     5.7170  -999.2500  -999.2500  -999.2500  -999.2500
  751.5000   -64.8320    10.3140   -58.1500   107.5870     5.7050     5.8280     5.7060  -999.2500  -999.2500  -999.2500  -999.2500
  752.0000   -63.8270    10.3120   -57.9610   107.8910     5.7200     5.8970     5.6940  -999.2500  -999.2500  -999.2500  -999.2500
  752.5000   -62.8220    10.3100   -57.7720   108.1650     5.7360     5.9190     5.6850  -999.2500  -999.2500  -999.2500  -999.2500
  753.0000   -61.8170    10.3080   -57.5830   108.4470     5.7520     5.9480     5.8260  -999.2500  -999.2500  -999.2500  -999.2500
  753.5000   -60.8120    10.3060   -57.3920   108.6650     5.7670     5.9780     5.8740  -999.2500  -999.2500  -999.2500  -999.2500
  754.0000   -59.8070    10.3030   -57.1850   107.0990     5.7830     6.0080     5.9230  -999.2500  -999.2500  -999.2500  -999.2500
  754.5000   -58.8020    10.3010   -57.5470   105.4570     5.8250     6.0370     5.9710  -999.2500  -999.2500  -999.2500  -999.2500
  755.0000   -57.7970    10.2990   -58.0980   105.8990     5.8870     6.0620     6.0200  -999.2500  -999.2500  -999.2500  -999.2500
  755.5000   -56.7920    10.3080   -58.6490   109.6420     5.9500     6.1310     6.0690  -999.2500  -999.2500  -999.2500  -999.2500
  756.0000   -55.7870    10.3240   -59.1970   113.4010     6.0120     6.2020     6.1170  -999.2500  -999.2500  -999.2500  -999.2500
  756.5000   -54.7820    10.3400   -59.4860   114.2030     6.0620     6.2310     6.0220  -999.2500  -999.2500  -999.2500  -999.2500
  757.0000   -53.7770    10.3550   -59.4490   113.5530     5.9840     6.1350     5.9570  -999.2500  -999.2500  -999.2500  -999.2500
  757.5000   -52.7720    10.3710   -59.4140   112.7760     5.8890     6.0400     5.8910  -999.2500  -999.2500  -999.2500  -999.2500
  758.0000   -51.7670    10.3870   -59.3770   111.5850     5.7930     5.9450     5.8260  -999.2500  -999.2500  -999.2500  -999.2500
  758.5000   -50.7620    10.4020   -59.3400   109.5870     5.6970     5.8500     5.7600  -999.2500  -999.2500  -999.2500  -999.2500
  759.0000   -49.7570    10.4180   -59.3030   108.6450     5.6020     5.7550     5.6940  -999.2500  -999.2500  -999.2500  -999.2500
  759.5000   -48.7520    10.4340   -59.2660   107.7180     5.5300     5.6840     5.6320  -999.2500  -999.2500  -999.2500  -999.2500
  760.0000   -47.7470    10.4490   -59.2280   106.7520     5.4790     5.6840     5.7010  -999.2500  -999.2500  -999.2500  -999.2500
  760.5000   -46.7420    10.4650   -59.1910   105.7000     5.5350     5.6900     5.7370  -999.2500  -999.2500  -999.2500  -999.2500
