~VERSION INFORMATION
 VERS.                2.0:   CWLS LOG ASCII STANDARD - VERSION 2.0
 WRAP.                 NO:   ONE LINE PER DEPTH STEP
~WELL INFORMATION
#MNEM.UNIT      DATA TYPE    INFORMATION
#----------   ------------   ------------------------------
 STRT.F          200.5000:   START DEPTH
 STOP.F         3012.5000:   STOP DEPTH
 STEP.F            0.5000:   STEP LENGTH
 NULL.          -999.2500:   NO VALUE
 COMP.    FENIX & SCISSON:   COMPANY
 WELL.  FENIX "AX" #75-29:   WELL
 FLD .              NPR-3:   FIELD
 LOC .      S29 T39N R78W:   LOCATION
 CNTY.            NATRONA:   COUNTY
 STAT.            WYOMING:   STATE
 CTRY. UNITED STATES OF AMERICA:   COUNTRY
 SRVC.           BIRDWELL:   SERVICE COMPANY
 DATE.        15-FEB-1978:   LOGDATE
 API .     49025105830000:   API NUMBER
~CURVE INFORMATION
#MNEM.UNIT       API CODE    CURVE DESCRIPTION
#----------   ------------   ------------------------------
 DEPT.F                  :   
 GRD .GAPI   45 310 01 00:   GAMMA RAY FROM DENSITY LOG
 CALD.IN     45 280 60 00:   CALIPER FROM DENSITY LOG
 DEN .G/C3   45 350 01 00:   BULK DENSITY
 DCOR.G/C3   45 356 01 00:   DENSITY CORRECTION
 SPR .MV     05 010 01 00:   SPONTANEOUS POTENTIAL
 SN  .OHMM   05 040 16 00:   SHORT NORMAL 16"
 RILD.OHMM   05 120 46 00:   DEEP INDUCTION RESISTIVITY
~PARAMETER INFORMATION
#MNEM.UNIT          VALUE    DESCRIPTION
#----------   ------------   ------------------------------
 EKB .F         5042.0000:   Kelly bushing
 EGL .F         5032.0000:   Ground level
 EDF .F            0.0000:   Drilling floor
 TD  .F         3010.0000:   Total depth
 DATE.        15-FEB-1978:   Date logged
 CLNT.            A2DTECH:   Client Code
 SL  . 2550' FSL & 950' FEL:   Surface Location
 PD  .                 GL:   Permanent Datum
 EPD .F              5032:   Elevation Permanent Datum
 LMF .                 KB:   Log Measured From
 DMF .                 KB:   Drilling Measured From
 DAPD.F                10:   Feet Above Permanent Datum
 DD  .F              3010:   Depth driller
 DL  .F              3010:   Depth logger
 BLI .F              3002:   Bottom log interval
 TLI .F               200:   Top log interval
 CS1 .IN            8.625:   Casing size
 CBD1.      8.625" @ 222':   Casing driller 1
 CBL1.F               222:   Casing logger 1
 BS1 .IN            7.875:   Bit size
 BSD1.F              3010:   Depth drilled with bit1
 DFT .         LIGNO/SULF:   Type fluid in hole
 DFD .                9.1:   Density
 DFV .                 33:   Viscosity
 DFPH.                 10:   pH
 DFL .                4.9:   Fluid loss
 MSS .           FLOWLINE:   Source of sample
 RMS .OHMM              2:   Rm
 MST .F                66:   Rm Meas. temp.
 RMF .OHMM            2.2:   Rmf
 MFST.F                58:   Rmf Meas. temp.
 RMC .OHMM            1.8:   Rmc
 MCST.F                60:   Rmc Meas. temp.
 MFSS.               MEAS:   Source Rmf.
 RMB .OHMM            1.7:   Rm. at BHT
 BHT .F               118:   BHT.
 TCS .HRS               5:   Time Circ. stopped
 MRT .F               118:   Maximum recorded temp.
 LUN .               2958:   Logging unit number
 LUL .               CASP:   Logging unit location
 ENGI.            POINTER:   Recorded By
 WITN.           MCGINLEY:   Witnessed by
 ORIG.           5" PRINT:   Origin of data
 UWI .     49025105830000:   Unique Well ID
 DICO. A2D TECHNOLOGIES, INC.:   Digitizing Company
~OTHER INFORMATION
~A   DEPT       GRD      CALD        DEN       DCOR        SPR         SN       RILD   
# ...
 1292.5000    74.1820     9.7160     2.5520     0.1070   -56.0880     7.9640     7.3030
 1293.0000    74.0060     9.6450     2.5390     0.1060   -56.0750     8.1090     7.3670
 1293.5000    74.4850     9.5760     2.5350     0.1050   -56.0730     8.2540     7.4940
 1294.0000    75.0650     9.5410     2.5420     0.0990   -55.9090     8.4070     7.6200
 1294.5000    74.6840     9.5160     2.5430     0.0910   -55.6220     8.4070     7.7470
 1295.0000    73.2120     9.5070     2.5390     0.0900   -55.6900     8.4930     7.8820
 1295.5000    71.9830     9.5130     2.5370     0.0920   -56.3890     8.7230     7.9540
 1296.0000    72.1650     9.5190     2.5500     0.0930   -56.5610     8.7100     8.0310
 1296.5000    73.6010     9.5240     2.5520     0.1000   -56.3850     8.6850     8.1080
 1297.0000    75.4490     9.5300     2.5670     0.0960   -56.3020     8.6600     8.1850
 1297.5000    76.6230     9.5360     2.5560     0.0930   -56.2190     8.6430     8.2620
 1298.0000    76.9430     9.5420     2.5470     0.0970   -56.1320     8.6300     8.3300
 1298.5000    78.8210     9.5360     2.5580     0.1030   -56.0450     8.6150     8.3300
 1299.0000    79.8870     9.5200     2.5670     0.0940   -55.9590     8.6000     8.3260
 1299.5000    78.2120     9.5050     2.5740     0.0840   -55.8720     8.5860     8.2840
 1300.0000    76.5500     9.4890     2.5580     0.0770   -55.7850     8.5710     8.2420
 1300.5000    76.9930     9.4730     2.5380     0.0720   -55.6980     8.5560     8.2000
 1301.0000    78.1760     9.4570     2.5420     0.0720   -55.6120     8.5420     8.1580
 1301.5000    79.3930     9.4450     2.5390     0.0740   -55.5260     8.5270     8.1160
 1302.0000    80.3210     9.4350     2.5260     0.0800   -55.5640     8.5120     8.0780
 1302.5000    76.6080     9.4250     2.5290     0.0920   -55.7420     8.4980     8.0410
 1303.0000    75.1000     9.4100     2.5350     0.0960   -55.8790     8.4830     8.0280
 1303.5000    75.3840     9.3950     2.5400     0.0970   -55.8860     8.4680     8.0290
 1304.0000    76.3740     9.3870     2.5440     0.0970   -56.1500     8.4540     8.0280
 1304.5000    77.2470     9.3890     2.5600     0.0930   -56.4170     8.4390     8.0280
 1305.0000    75.6440     9.3910     2.5680     0.0880   -56.6600     8.4240     8.0280
 1305.5000    74.0140     9.3930     2.5510     0.0830   -56.4830     8.4100     8.0280
 1306.0000    73.7620     9.3940     2.5380     0.0850   -56.2940     8.4070     8.0290
 1306.5000    74.4220     9.3960     2.5300     0.0860   -56.1090     8.4070     8.0220
 1307.0000    78.5410     9.3980     2.5320     0.0880   -55.9200     8.4070     8.0130
 1307.5000    78.7560     9.4000     2.5380     0.0900   -56.2930     8.4070     8.0030
 1308.0000    77.9210     9.4020     2.5450     0.0940   -56.8070     8.4070     7.9940
 1308.5000    76.7250     9.4040     2.5520     0.0890   -56.5870     8.4070     7.9840
 1309.0000    76.7230     9.4060     2.5460     0.0890   -56.4650     8.4070     7.9740
 1309.5000    78.8340     9.4050     2.5400     0.0870   -56.3510     8.4070     7.9650
 1310.0000    81.3320     9.4040     2.5410     0.0900   -56.2350     8.4070     7.9550
 1310.5000    78.7610     9.4020     2.5260     0.0930   -56.1190     8.4070     7.9130
 1311.0000    74.9540     9.4010     2.5330     0.0990   -56.0000     8.4070     7.8710
 1311.5000    71.1080     9.4000     2.5440     0.1050   -55.8870     8.4070     7.8090
 1312.0000    69.8470     9.3980     2.5570     0.1030   -56.1800     8.4070     7.8700
 1312.5000    69.7880     9.3970     2.5700     0.1000   -56.4540     8.4070     7.9790
 1313.0000    71.3250     9.3960     2.5600     0.0980   -56.0730     8.4070     8.0960
 1313.5000    74.7920     9.3950     2.5500     0.0970   -55.8580     8.4070     8.1780
 1314.0000    78.0660     9.3930     2.5440     0.0960   -55.8160     8.4070     8.0140
 1314.5000    79.8260     9.3920     2.5500     0.0990   -55.7750     8.4070     7.8820
 1315.0000    79.7380     9.3910     2.5610     0.0980   -55.7330     8.4070     7.8640
 1315.5000    78.7280     9.3890     2.5620     0.0970   -55.6790     8.4070     7.8460
 1316.0000    76.9150     9.3880     2.5610     0.0970   -56.3350     8.4050     7.8270
 1316.5000    76.4460     9.3870     2.5670     0.0970   -56.5870     8.3890     7.8080
 1317.0000    76.9150     9.3850     2.5600     0.0970   -56.4790     8.3740     7.7890
 1317.5000    76.5520     9.3830     2.5550     0.0970   -56.5860     8.3580     7.7700
 1318.0000    75.3290     9.3800     2.5470     0.1000   -56.6970     8.3410     7.7510
 1318.5000    71.8280     9.3780     2.5460     0.1020   -56.8070     8.3320     7.7380
 1319.0000    70.0300     9.3750     2.5560     0.0990   -56.9160     8.5110     7.8510
 1319.5000    69.4470     9.3730     2.5610     0.0980   -57.0270     8.6430     7.9390
 1320.0000    69.1980     9.3700     2.5500     0.0990   -57.0910     8.5040     8.0280
 1320.5000    69.2060     9.3670     2.5460     0.1010   -57.1260     8.6950     8.1160
 1321.0000    69.1900     9.3600     2.5500     0.1020   -57.1600     8.8850     8.2540
 1321.5000    69.4810     9.3360     2.5630     0.1030   -57.1940     8.8100     8.1940
 1322.0000    70.5730     9.3120     2.5450     0.1050   -57.2280     8.9500     8.0590
 1322.5000    75.7090     9.2880     2.5440     0.1050   -57.2620     8.8820     7.9380
 1323.0000    75.2510     9.2650     2.5440     0.1030   -57.2960     8.7480     7.8820
 1323.5000    72.3700     9.2410     2.5480     0.1020   -57.3300     8.6430     7.9030
 1324.0000    69.2550     9.2170     2.5430     0.1000   -57.3640     8.7450     8.0000
 1324.5000    68.9360     9.2070     2.5680     0.0990   -57.3980     8.8040     8.0980
 1325.0000    71.0080     9.2030     2.5640     0.0970   -57.4330     8.7110     8.1950
 1325.5000    73.2600     9.1990     2.5580     0.0960   -57.4660     8.6200     8.2540
 1326.0000    75.4300     9.1950     2.5520     0.0960   -57.4130     8.5500     8.2540
 1326.5000    76.6030     9.1910     2.5440     0.0960   -57.3500     8.5150     8.2540
 1327.0000    78.6090     9.1880     2.5530     0.0970   -57.2860     8.4800     8.2540
 1327.5000    79.8620     9.1880     2.5630     0.0970   -57.2220     8.4440     8.2540
 1328.0000    77.9110     9.1940     2.5600     0.0970   -57.1580     8.4090     8.2530
 1328.5000    71.3820     9.2000     2.5510     0.0960   -57.0940     8.3740     8.2540
 1329.0000    71.2030     9.2060     2.5600     0.0950   -57.0470     8.3300     8.0450
 1329.5000    71.8790     9.2120     2.5640     0.0940   -56.9880     8.4200     7.8090
 1330.0000    72.3380     9.2180     2.5600     0.0940   -56.9310     8.5400     8.1350
 1330.5000    72.1310     9.2230     2.5540     0.0950   -56.8670     8.6600     8.4190
 1331.0000    71.9990     9.2280     2.5460     0.1010   -56.6380     8.7800     8.7230
 1331.5000    72.8300     9.2360     2.5510     0.1000   -56.4060     8.8970     8.7230
 1332.0000    76.0890     9.2440     2.5580     0.0900   -56.1720     8.9890     8.7230
 1332.5000    76.2120     9.2520     2.5440     0.0850   -56.1340     9.0810     8.7230
 1333.0000    74.8710     9.2600     2.5320     0.0860   -56.2330     9.1730     8.7230
 1333.5000    72.8980     9.2680     2.5350     0.0870   -56.1060     9.2190     8.6940
 1334.0000    71.9400     9.2760     2.5480     0.0870   -55.8110     9.2190     8.5960
 1334.5000    73.2070     9.2840     2.5510     0.0880   -56.0450     9.2190     8.4980
 1335.0000    74.8730     9.2850     2.5370     0.0930   -56.4330     9.1060     8.4010
 1335.5000    74.9360     9.2820     2.5430     0.0970   -56.0580     9.0470     8.3300
 1336.0000    74.0050     9.2790     2.5530     0.1010   -55.7010     9.0390     8.3440
 1336.5000    75.0180     9.2760     2.5640     0.0980   -56.3010     9.0310     8.3560
 1337.0000    78.4430     9.2730     2.5670     0.0960   -56.4180     9.0230     8.3670
 1337.5000    78.5610     9.2700     2.5560     0.0960   -56.3580     9.0150     8.3780
