~VERSION INFORMATION
 VERS.                2.0:   CWLS LOG ASCII STANDARD - VERSION 2.0
 WRAP.                 NO:   ONE LINE PER DEPTH STEP
~WELL INFORMATION
#MNEM.UNIT      DATA TYPE    INFORMATION
#----------   ------------   ------------------------------
 STRT.F           11.0000:   START DEPTH
 STOP.F         3368.0000:   STOP DEPTH
 STEP.F            0.5000:   STEP LENGTH
 NULL.          -999.2500:   NO VALUE
 COMP. LAWRENCE ALLISON AND ASSOC.:   COMPANY
 WELL. LAWRENCE NPR "AX" #3-11:   WELL
 FLD .                NPR:   FIELD
 LOC .      S11 T38N R78W:   LOCATION
 CNTY.            NATRONA:   COUNTY
 STAT.            WYOMING:   STATE
 CTRY. UNITED STATES OF AMERICA:   COUNTRY
 SRVC.      DRESSER ATLAS:   SERVICE COMPANY
 DATE.        17-JAN-1986:   LOGDATE
 API .     49025110540000:   API NUMBER
~CURVE INFORMATION
#MNEM.UNIT       API CODE    CURVE DESCRIPTION
#----------   ------------   ------------------------------
 DEPT.F                  :   
 TEND.LBS    45 635 01 00:   TENSION FROM DENSITY LOG
 DEN .G/C3   45 350 01 00:   BULK DENSITY
 CORR.G/C3   45 356 01 00:   DENSITY CORRECTION
 CNC .DEC    42 890 03 00:   NEUTRON PORISITY SANDSTONE
 TENR.LBS    07 635 01 00:   TENSION FROM RESISTIVITY
 CALR.IN     07 280 01 00:   CALIPER FROM RESISTIVITY
 SPR .MV     07 010 01 00:   SPONTANEOUS POTENTIAL
 GRR .GAPI   07 310 01 00:   GAMMA RAY FROM RESISTIVITY
 RFOC.OHMM   07 220 04 00:   RESISTIVITY FOCUSED LOG RES.
 RILD.OHMM   07 120 46 00:   INDUCTION LOG DEEP RESISTIVITY
 RILM.OHMM   07 120 44 00:   INDUCTION LOG MEDIUM RESISTIVITY
 TENS.LBS    60 635 01 00:   TENSION FROM SONIC
 AC  .US/F   60 250 00 00:   ACCOUSTIC
~PARAMETER INFORMATION
#MNEM.UNIT          VALUE    DESCRIPTION
#----------   ------------   ------------------------------
 EKB .F         5195.5000:   Kelly bushing
 EGL .F         5183.2000:   Ground level
 EDF .F         5194.5000:   Drilling floor
 TD  .F         3360.0000:   Total depth
 DATE.        17-JAN-1986:   Date logged
 CLNT.            A2DTECH:   Client Code
 SL  . 2389' FSL & 461'FWL:   Surface Location
 PD  .                 GL:   Permanent Datum
 EPD .F            5183.2:   Elevation Permanent Datum
 LMF .                 KB:   Log Measured From
 DMF .                 KB:   Drilling Measured From
 DAPD.F              12.3:   Feet Above Permanent Datum
 DD  .F              3360:   Depth driller
 DL  .F              3358:   Depth logger
 BLI .F              3356:   Bottom log interval
 TLI .F               575:   Top log interval
 CS1 .IN            8.625:   Casing size
 CBD1.      8.625" @ 575':   Casing driller 1
 CBL1.F               575:   Casing logger 1
 BS1 .IN            7.875:   Bit size
 BSD1.F              3360:   Depth drilled with bit1
 DFT .        POLYMER-KCL:   Type fluid in hole
 DFD .                  9:   Density
 DFV .                 36:   Viscosity
 DFPH.                  9:   pH
 DFL .                9.5:   Fluid loss
 MSS .           FLOWLINE:   Source of sample
 RMS .OHMM           .633:   Rm
 MST .F                68:   Rm Meas. temp.
 RMF .OHMM           .475:   Rmf
 MFST.F                68:   Rmf Meas. temp.
 RMC .OHMM           .791:   Rmc
 MCST.F                68:   Rmc Meas. temp.
 RMB .OHMM            .44:   Rm. at BHT
 BHT .F                98:   BHT.
 TCS .HRS               4:   Time Circ. stopped
 MRT .F                98:   Maximum recorded temp.
 LUN .               6264:   Logging unit number
 LUL .               GLTE:   Logging unit location
 ENGI.             MILLER:   Recorded By
 WITN.             STRONG:   Witnessed by
 ORIG.        2" 5" PRINT:   Origin of data
 UWI .     49025110540000:   Unique Well ID
 DICO. A2D TECHNOLOGIES, INC.:   Digitizing Company
~OTHER INFORMATION
~A   DEPT     TEND        DEN       CORR        CNC       TENR       CALR        SPR         GRR      RFOC       RILD       RILM       TENS         AC   
# ...
 2975.0000   -74.2970     2.3590     0.0420     0.2620   -23.2420     7.8930   -43.2510   152.4720     6.3500     3.7470     4.3760     4.9140    81.2240
 2975.5000   -74.2970     2.4570    -0.0420     0.2310   -21.1210     7.8370   -43.8890   119.5790     6.9520     4.3340     4.8350     4.4250    80.1710
 2976.0000   -74.2970     2.5120    -0.0430     0.2090   -18.9990     7.8370   -44.5260   109.2040     6.8710     4.9200     5.2180     3.2290    80.9900
 2976.5000   -74.2970     2.5270    -0.0110     0.2040   -16.8770     7.8390   -45.1680   100.8490     6.7650     5.5070     5.5790     2.0330    81.7750
 2977.0000   -74.2970     2.5360     0.0230     0.2060   -14.7560     7.8410   -45.8170    99.5220     6.6590     5.7150     5.9410     0.8360    80.9650
 2977.5000   -74.2970     2.5430     0.0640     0.2090   -13.3820     7.8430   -46.4770   100.0570     6.5530     5.7730     6.1090    -0.3600    79.0750
 2978.0000   -74.2970     2.5520     0.0840     0.2160   -12.0980     7.8450   -47.1350   100.5290     6.3310     5.6680     5.9510    -1.5560    76.7600
 2978.5000   -74.2970     2.5410     0.0700     0.2200   -10.8140     7.8470   -47.7920    99.6040     6.0500     5.5390     5.8270    -2.7530    77.0610
 2979.0000   -74.2970     2.5240     0.0400     0.2220    -9.5300     7.8490   -48.4680   100.0300     5.9420     5.4090     5.6750    -3.9490    78.1640
 2979.5000   -74.2970     2.5080     0.0110     0.2240    -8.2450     7.8510   -47.9400   102.9830     5.8500     5.2800     5.5320    -1.3230    78.6160
 2980.0000   -74.2970     2.4960    -0.0190     0.2260    -6.9610     7.8520   -46.7210   105.9210     5.7580     5.1200     5.3880     9.1880    79.2300
 2980.5000   -74.2970     2.4930    -0.0220     0.2270    -5.6770     7.8540   -46.0000   108.7780     5.6660     4.9350     5.1820    19.6980    79.8140
 2981.0000   -74.2970     2.4920    -0.0150     0.2280    -4.3930     7.8620   -46.2400   107.3750     5.5740     4.7510     4.9220    23.9960    80.3230
 2981.5000   -74.2970     2.4900    -0.0070     0.2290    -3.1090     7.8730   -46.4870   105.7830     5.4820     4.5660     4.6610    21.2710    80.8310
 2982.0000   -74.2970     2.4850     0.0030     0.2310    -1.8250     7.8840   -45.7080   105.9630     5.2840     4.2630     4.3760    18.5460    81.3400
 2982.5000   -74.2970     2.4810     0.0130     0.2380    -0.5410     7.8960   -44.5820   111.4340     5.0690     3.8140     4.0100    15.2650    81.8480
 2983.0000   -74.2970     2.4840     0.0230     0.2470     0.7440     7.9270   -43.7360   116.7280     4.8510     3.3650     3.6450    15.2650    82.3560
 2983.5000   -74.2970     2.4890     0.0230     0.2510     2.0280     7.9580   -43.7510   121.9960     4.6690     2.9160     3.2800    15.2650    83.3180
 2984.0000   -74.2970     2.4930     0.0230     0.2570     3.3120     7.9880   -43.7610   128.4050     4.3610     2.5750     2.9140    15.2650    85.0610
 2984.5000   -74.2970     2.4920     0.0350     0.2740     4.5960     8.0050   -44.0530   135.2890     3.8150     2.3240     2.5490    15.2650    86.5900
 2985.0000   -74.2970     2.4860     0.0370     0.2960     5.7240     8.0190   -44.3570   148.8080     3.2690     2.0940     2.2140    15.2650    91.3220
 2985.5000   -74.2970     2.4720     0.0390     0.3170     6.4630     8.0330   -44.6610   168.7340     2.7240     2.0110     2.1030    15.2650    95.5390
 2986.0000   -74.2970     2.4440     0.0290     0.3390     7.2020     8.0470   -44.9640   199.1690     2.1930     2.0000     2.2110    15.2650    99.7550
 2986.5000   -74.2970     2.4120     0.0230     0.3290     7.9420     8.0560   -45.2680   207.9620     2.4430     2.2300     2.3910    15.2650   103.8420
 2987.0000   -74.2970     2.3800     0.0280     0.3250     8.6810     8.0610   -45.5710   199.8690     3.2070     2.4210     2.8230    15.2650   104.1420
 2987.5000   -74.2970     2.3710     0.0270     0.3050     9.4200     8.0670   -45.9900   169.6670     4.3310     2.6310     3.3200    16.1430   103.7410
 2988.0000   -74.2970     2.3960     0.0060     0.2880    10.1600     8.0720   -46.5500   141.2210     5.4080     2.8880     3.8170    17.0040   101.3880
 2988.5000   -74.2970     2.4520    -0.0050     0.2510    10.8990     8.0770   -47.1090   122.6790     6.3390     3.4720     4.3140    17.8640    95.6930
 2989.0000   -74.2970     2.5070     0.0240     0.2360    11.6380     8.0820   -47.6670   113.9350     6.3180     4.0550     4.8100    18.7250    88.4550
 2989.5000   -74.2970     2.5370     0.0610     0.2400    12.3780     8.0880   -48.2250   112.3720     6.2990     4.6390     5.1690    19.5850    82.5540
 2990.0000   -74.2970     2.5360     0.0580     0.2440    13.1170     8.0940   -48.7840   113.3310     6.2810     4.9990     5.3640    20.4460    80.0200
 2990.5000   -74.2970     2.5310     0.0550     0.2480    13.8570     8.1210   -49.3560   114.7660     6.2400     5.2330     5.5260    21.3060    79.2680
 2991.0000   -74.2970     2.5290     0.0490     0.2500    14.5960     8.1500   -49.5600   116.0870     6.2010     5.5710     5.5600    22.1670    79.7460
 2991.5000   -74.2970     2.5290     0.0360     0.2510    15.3350     8.1790   -49.6520   116.7290     6.1610     5.5020     5.5930    23.0270    80.1240
 2992.0000   -74.2970     2.5280     0.0230     0.2510    18.0930     8.2080   -49.5460   117.3300     6.1090     5.3690     5.6280    23.8880    80.5720
 2992.5000   -74.2970     2.5230     0.0180     0.2510    21.5790     8.2150   -49.2100   118.5760     6.1830     5.4540     5.6700    24.7480    80.4380
 2993.0000   -74.2970     2.5170     0.0200     0.2460    25.0640     8.2190   -48.8750   120.6710     6.2860     5.5480     5.7130    25.2750    80.6040
 2993.5000   -74.2970     2.5140     0.0200     0.2450    25.5510     8.2230   -48.5390   122.7190     6.3900     5.6420     5.7850    25.2750    80.9970
 2994.0000   -74.2970     2.5140     0.0060     0.2420    25.5510     8.2270   -48.2050   125.4960     6.4940     5.7350     5.8740    25.2750    81.3900
 2994.5000   -74.2970     2.5130    -0.0200     0.2380    25.5510     8.2300   -47.9310   128.4080     6.5860     5.8290     5.9630    26.0970    81.5110
 2995.0000   -74.2970     2.5100    -0.0470     0.2360    25.5510     8.2340   -48.0270   131.4810     6.6320     5.8860     6.0510    28.6120    81.3140
 2995.5000   -74.2970     2.5090    -0.0420     0.2400    25.5510     8.2380   -48.1260   131.5280     6.6780     5.8600     6.1090    31.1270    81.1850
 2996.0000   -74.2970     2.5140    -0.0100     0.2490    25.5510     8.2420   -48.2220   129.9130     6.7920     5.8400     6.0780    33.6430    81.2260
 2996.5000   -74.2970     2.5190     0.0220     0.2520    25.5510     8.2450   -48.3010   127.7390     7.0820     5.7780     6.0440    36.1580    81.2740
 2997.0000   -74.2970     2.5180     0.0200     0.2490    25.5510     8.2490   -48.6140   130.4810     7.4160     5.6980     6.0100    38.6730    81.1740
 2997.5000   -74.2970     2.5150     0.0060     0.2480    25.5510     8.2530   -48.9590   132.7840     7.3690     5.6170     5.9400    41.1890    80.6720
 2998.0000   -74.2970     2.5110    -0.0050     0.2470    25.5510     8.2570   -49.3080   131.9960     7.0470     5.5370     5.8520    43.7040    80.2810
 2998.5000   -74.2970     2.5080     0.0090     0.2430    25.5510     8.2600   -49.6580   130.2700     6.5620     5.4570     5.7340    44.0080    79.6690
 2999.0000   -74.2970     2.5120     0.0230     0.2400    25.5510     8.2640   -50.0150   130.1900     6.0530     5.3770     5.6090    40.5050    79.9340
 2999.5000   -74.2970     2.5170     0.0310     0.2410    25.5510     8.2680   -50.0960   130.0660     5.9340     5.2970     5.4830    37.0010    80.2710
 3000.0000   -74.2970     2.5210     0.0180     0.2510    25.5510     8.2720   -50.0990   130.1320     5.8880     5.2170     5.3200    33.4980    81.3430
 3000.5000   -74.2970     2.5180     0.0040     0.2610    25.5510     8.2680   -50.0990   130.7990     6.0660     5.1270     5.4350    29.9940    82.5100
