~VERSION INFORMATION
 VERS.                2.0:   CWLS LOG ASCII STANDARD - VERSION 2.0
 WRAP.                 NO:   ONE LINE PER DEPTH STEP
~WELL INFORMATION
#MNEM.UNIT      DATA TYPE    INFORMATION
#----------   ------------   ------------------------------
 STRT.F           70.0000:   START DEPTH
 STOP.F         2751.5000:   STOP DEPTH
 STEP.F            0.5000:   STEP LENGTH
 NULL.          -999.2500:   NO VALUE
 COMP.          INTEX OIL:   COMPANY
 WELL. INTEX N.P.R. "AX" #75-20:   WELL
 FLD .             TEAPOT:   FIELD
 LOC .      S20 T39N R78W:   LOCATION
 CNTY.            NATRONA:   COUNTY
 STAT.            WYOMING:   STATE
 CTRY. UNITED STATES OF AMERICA:   COUNTRY
 SRVC.       SCHLUMBERGER:   SERVICE COMPANY
 DATE.        06-MAY-1966:   LOGDATE
 API .     49025095120000:   API NUMBER
~CURVE INFORMATION
#MNEM.UNIT       API CODE    CURVE DESCRIPTION
#----------   ------------   ------------------------------
 DEPT.F                  :   
 CALD.IN     45 280 60 00:   CALIPER FROM DENSITY LOG
 GRD .GAPI   45 310 01 00:   GAMMA RAY FROM DENSITY LOG
 RHOB.G/C3   45 350 01 00:   BULK DENSITY
 CORR.G/C3   45 356 01 00:   DENSITY CORRECTION
 SPR .MV     05 010 01 00:   SPONTANEOUS POTENTIAL
 ILD .OHMM   05 120 46 00:   DEEP INDUCTION RESISTIVITY
 ASN .OHMM   05 041 16 00:   AMPLIFIED SHORT NORMAL 16"
~PARAMETER INFORMATION
#MNEM.UNIT          VALUE    DESCRIPTION
#----------   ------------   ------------------------------
 EKB .F         5016.3000:   Kelly bushing
 EGL .F         5006.0000:   Ground level
 EDF .F            0.0000:   Drilling floor
 TD  .F         2750.0000:   Total depth
 DATE.        06-MAY-1966:   Date logged
 CLNT.            A2DTECH:   Client Code
 PD  .                 GL:   Permanent Datum
 DD  .F              2750:   Depth driller
 DL  .F              2746:   Depth logger
 BLI .F              2745:   Bottom log interval
 CS1 .IN            10.75:   Casing size
 CBD1.       10.75" @ 30':   Casing driller 1
 BS1 .IN            7.875:   Bit size
 DFT .           OIL/EMUL:   Type fluid in hole
 DFD .                9.8:   Density
 DFV .                 43:   Viscosity
 DFPH.                  8:   pH
 DFL .               11.8:   Fluid loss
 MSS .         CIRCULATED:   Source of sample
 RMS .OHMM           1.84:   Rm
 MST .F                73:   Rm Meas. temp.
 RMF .OHMM           1.21:   Rmf
 MFST.F                74:   Rmf Meas. temp.
 MFSS.                 FP:   Source Rmf.
 RMB .OHMM           1.27:   Rm. at BHT
 BHT .F               106:   BHT.
 TCS .HRS             1.5:   Time Circ. stopped
 MRT .F               106:   Maximum recorded temp.
 LUN .               3527:   Logging unit number
 LUL .               CSPR:   Logging unit location
 ENGI.               HAUG:   Recorded By
 WITN.      TUTTLE/HUDSON:   Witnessed by
 ORIG.           5" PRINT:   Origin of data
 UWI .     49025095120000:   Unique Well ID
 DICO. A2D TECHNOLOGIES, INC.:   Digitizing Company
 DAPD.F              10.3:   Feet Above Permanent Datum
 BSD1.F              2750:   Depth drilled with bit1
 MCSS.                 FP:   Source Rmc.
 EPD .F              5006:   Elevation Permanent Datum
 LMF .                 KB:   Log Measured From
 DMF .                 KB:   Drilling Measured From
 TLI .F                88:   Top log interval
~OTHER INFORMATION
~A   DEPT     CALD        GRD       RHOB       CORR        SPR        ILD          ASN 
# ...
 1981.0000     8.6850   133.4300     2.3910     0.0040   -52.0330     8.5430    14.6470
 1981.5000     8.6840   135.1400     2.4040     0.0030   -51.7830     8.4790    14.5710
 1982.0000     8.6840   137.2540     2.4140     0.0040   -51.6700     8.4150    14.4940
 1982.5000     8.6840   138.3960     2.4210     0.0050   -51.5600     8.3500    14.4180
 1983.0000     8.6830   138.9680     2.4090     0.0010   -51.4500     8.2860    14.3410
 1983.5000     8.6830   140.7720     2.3970    -0.0030   -51.3400     8.2220    14.2640
 1984.0000     8.6820   141.8400     2.3930    -0.0070   -51.2300     8.1580    14.1870
 1984.5000     8.6820   142.5840     2.3920    -0.0090   -51.1200     8.0940    14.1100
 1985.0000     8.6820   141.4490     2.3960    -0.0080   -51.0100     8.0300    14.0330
 1985.5000     8.6810   139.5830     2.4020    -0.0040   -50.9000     7.9650    13.9560
 1986.0000     8.6810   138.0430     2.4040    -0.0070   -50.7940     7.9010    13.8780
 1986.5000     8.6800   134.0120     2.4070    -0.0090   -50.8290     7.8370    13.7800
 1987.0000     8.6800   129.1370     2.4120    -0.0060   -50.8700     7.7730    13.6140
 1987.5000     8.6790   128.9580     2.4290     0.0010   -50.9110     7.7090    13.4510
 1988.0000     8.6790   130.1430     2.4470     0.0080   -50.9510     7.6450    13.2890
 1988.5000     8.6790   130.0730     2.4600     0.0100   -50.9920     7.5800    13.1260
 1989.0000     8.6780   129.0970     2.4370     0.0040   -51.0330     7.5160    12.9630
 1989.5000     8.6780   130.0540     2.4280    -0.0010   -51.0730     7.4520    12.8000
 1990.0000     8.6770   131.8220     2.4190    -0.0070   -51.1140     7.3880    12.6380
 1990.5000     8.6770   132.0270     2.4090    -0.0090   -51.1550     7.3240    12.4750
 1991.0000     8.6770   128.7230     2.4080    -0.0090   -51.1950     7.2600    12.3120
 1991.5000     8.6760   122.9240     2.4070    -0.0090   -51.2360     7.1950    12.1500
 1992.0000     8.6760   119.9160     2.4180    -0.0090   -51.2770     7.1310    11.9870
 1992.5000     8.6750   118.4440     2.4390    -0.0050   -51.3170     7.0780    11.8250
 1993.0000     8.6750   119.4850     2.4500    -0.0010   -51.3570     7.0520    11.6620
 1993.5000     8.6750   119.3690     2.4530     0.0010   -51.3620     7.0260    11.4550
 1994.0000     8.6740   118.0900     2.4630    -0.0040   -51.3190     7.0000    11.2860
 1994.5000     8.6740   116.6140     2.4730    -0.0030   -51.2780     6.9740    11.4120
 1995.0000     8.6730   115.6630     2.4750     0.0030   -51.2360     6.9470    11.5330
 1995.5000     8.6730   115.8370     2.4670     0.0040   -51.1940     6.9200    11.6530
 1996.0000     8.6730   115.2090     2.4530     0.0000   -51.1520     6.8930    11.6990
 1996.5000     8.6720   113.1040     2.4440    -0.0030   -51.1100     6.7420    11.5240
 1997.0000     8.6720   109.9660     2.4410    -0.0070   -51.0680     6.4530    11.2620
 1997.5000     8.6710   106.9960     2.4370    -0.0100   -51.0260     6.1650    11.0050
 1998.0000     8.6710   106.5620     2.4340    -0.0110   -50.9830     5.8760    10.7470
 1998.5000     8.6710   106.6850     2.4390    -0.0090   -50.9410     5.5790    10.4890
 1999.0000     8.6700   108.5880     2.4480    -0.0060   -50.8990     5.4840    10.2380
 1999.5000     8.6700   110.4980     2.4530    -0.0020   -50.8570     5.4390     9.9710
 2000.0000     8.6690   110.4740     2.4560     0.0010   -50.8150     5.3980     9.1840
 2000.5000     8.6690   108.1120     2.4610     0.0050   -50.7730     5.3570     8.6240
 2001.0000     8.6690   105.4640     2.4530     0.0050   -50.7310     5.3160     8.6400
 2001.5000     8.6680   102.3790     2.4340     0.0040   -50.6890     5.3530     9.1170
 2002.0000     8.6680   101.2590     2.4210     0.0020   -50.6470     5.5470     9.6300
 2002.5000     8.6670   101.5610     2.4260     0.0000   -50.6050     5.7370    10.0320
 2003.0000     8.6670   103.2750     2.4410    -0.0010   -50.5630     5.9250    10.1180
 2003.5000     8.6670   104.2190     2.4480    -0.0010   -50.5210     6.1140    10.2120
 2004.0000     8.6660   105.0310     2.4500    -0.0020   -50.4790     6.3030    10.3300
 2004.5000     8.6660   104.1170     2.4580    -0.0030   -50.4370     6.4920    10.6170
 2005.0000     8.6650   103.7690     2.4650    -0.0030   -50.3950     6.6390    10.8980
 2005.5000     8.6650   104.0120     2.4720     0.0010   -50.3530     6.7400    11.1780
 2006.0000     8.6640   102.2250     2.4760     0.0120   -50.3110     6.8410    11.4580
 2006.5000     8.6640    99.2200     2.4640     0.0190   -50.2690     6.9420    11.7360
 2007.0000     8.6640    95.9420     2.4500     0.0130   -50.2260     7.0430    11.9400
 2007.5000     8.6630    96.5030     2.4410     0.0070   -50.1820     7.1440    11.7910
 2008.0000     8.6630    98.1900     2.4380     0.0000   -50.1280     7.2450    11.6500
 2008.5000     8.6620    98.1380     2.4370    -0.0050   -50.0750     7.3450    11.5480
 2009.0000     8.6620    98.6990     2.4450    -0.0040   -50.0210     7.4460    11.4630
 2009.5000     8.6620    99.2620     2.4560     0.0000   -49.9680     7.5470    11.6230
 2010.0000     8.6610   100.5210     2.4560     0.0040   -49.9150     7.4950    12.0110
 2010.5000     8.6610    98.3010     2.4450     0.0090   -49.8610     7.3290    12.3960
 2011.0000     8.6600    95.9640     2.4360     0.0110   -49.8090     7.1830    12.8130
 2011.5000     8.6600    97.2110     2.4300     0.0060   -50.0750     7.0390    12.5800
 2012.0000     8.6600   100.1440     2.4330    -0.0040   -50.3720     6.8940    12.2960
 2012.5000     8.6590   103.8310     2.4430    -0.0100   -50.4960     6.7490    12.0060
 2013.0000     8.6590   107.3050     2.4530    -0.0040   -50.1110     6.6040    11.7170
 2013.5000     8.6580   110.5640     2.4610     0.0010   -49.7410     6.4590    11.4270
 2014.0000     8.6580   113.4150     2.4510    -0.0060   -49.4180     6.3140    11.1500
 2014.5000     8.6580   115.7770     2.4300    -0.0130   -49.5160     6.1690    10.9820
 2015.0000     8.6570   118.6830     2.4190    -0.0170   -49.6160     6.0240    10.8210
 2015.5000     8.6570   120.0010     2.4250    -0.0140   -49.7140     5.8800    10.6590
 2016.0000     8.6560   121.9430     2.4200    -0.0090   -49.7960     5.7120    10.4980
 2016.5000     8.6560   126.0350     2.4190    -0.0050   -49.6910     5.5140    10.3370
 2017.0000     8.6560   135.5710     2.4250     0.0000   -49.5870     5.3180    10.1770
 2017.5000     8.6550   140.6160     2.4250     0.0040   -49.4840     5.1200    10.0030
 2018.0000     8.6550   142.8190     2.4160     0.0050   -49.3820     4.9890     9.4920
 2018.5000     8.6540   143.7520     2.4000     0.0060   -49.2790     4.8080     8.9810
 2019.0000     8.6540   144.6330     2.3880     0.0070   -49.1760     5.0270     8.5540
 2019.5000     8.6540   144.9900     2.3920     0.0080   -49.0740     5.5530     8.8440
 2020.0000     8.6530   141.4170     2.3960     0.0090   -48.9720     6.0740     9.5850
 2020.5000     8.6530   137.6120     2.3980     0.0070   -48.8690     6.5950    10.4270
 2021.0000     8.6520   134.8980     2.4010     0.0050   -48.8840     7.1160    11.6550
 2021.5000     8.6520   136.6060     2.3880     0.0040   -49.0150     7.6380    12.8750
 2022.0000     8.6520   142.4720     2.3810     0.0020   -49.1460     8.1580    14.0970
 2022.5000     8.6510   147.0210     2.3730     0.0010   -49.2760     8.6590    14.9160
 2023.0000     8.6510   151.5480     2.3750    -0.0010   -49.4070     8.5030    15.0150
 2023.5000     8.6500   156.6160     2.3750    -0.0030   -49.5380     8.0830    14.6220
 2024.0000     8.6500   162.1990     2.3750    -0.0050   -49.5280     7.6750    13.9590
 2024.5000     8.6500   164.1130     2.3760    -0.0050   -49.3760     7.2140    13.2590
 2025.0000     8.6490   164.5450     2.3760    -0.0050   -49.2260     6.7950    12.5570
 2025.5000     8.6490   163.3340     2.3740    -0.0050   -49.0750     6.3730    11.8590
 2026.0000     8.6490   164.4120     2.3640    -0.0050   -48.9260     5.9510    11.1590
