~VERSION INFORMATION
 VERS.                2.0:   CWLS LOG ASCII STANDARD - VERSION 2.0
 WRAP.                 NO:   ONE LINE PER DEPTH STEP
~WELL INFORMATION
#MNEM.UNIT      DATA TYPE    INFORMATION
#----------   ------------   ------------------------------
 STRT.F           50.0000:   START DEPTH
 STOP.F         3270.0000:   STOP DEPTH
 STEP.F            0.5000:   STEP LENGTH
 NULL.          -999.2500:   NO VALUE
 COMP.   LAWRENCE ALLISON:   COMPANY
 WELL. LAWRENCE NPR 3 "AX" #12-11:   WELL
 FLD .                NPR:   FIELD
 LOC .      S11 T38N R78W:   LOCATION
 CNTY.            NATRONA:   COUNTY
 STAT.            WYOMING:   STATE
 CTRY. UNITED STATES OF AMERICA:   COUNTRY
 SRVC.      DRESSER ATLAS:   SERVICE COMPANY
 DATE.        18-JUL-1985:   LOGDATE
 API .     49025110460000:   API NUMBER
~CURVE INFORMATION
#MNEM.UNIT       API CODE    CURVE DESCRIPTION
#----------   ------------   ------------------------------
 DEPT.F                  :   
 TEND.LBS    45 635 01 00:   TENSION FROM DENSITY LOG
 RHOB.G/C3   45 350 01 00:   BULK DENSITY
 CORR.G/C3   45 356 01 00:   DENSITY CORRECTION
 NPHI.DEC    42 890 03 00:   NEUTRON POROSITY SANDSTONE
 TENR.LBS    07 635 01 00:   TENSION
 GRR .GAPI   07 310 01 00:   GAMMA RAY FROM RESISTIVITY
 RFOC.OHMM   07 220 01 00:   RESISTIVITY FOCUSED LOG RES.
 RILD.OHMM   07 120 46 00:   INDUCTION LOG DEEP RESISTIVITY
 RILM.OHMM   07 120 44 00:   INDUCTION LOG MEDIUM RESISTIVITY
 SN  .OHMM   01 040 00 00:   SHORT NORMAL
 ILD .OHMM   07 120 46 00:   INDUCTION LOG DEEP RESISTIVITY
 TENS.LBS    60 635 01 00:   TENSION FROM SONIC LOG
 DT  .US/F   60 520 00 00:   DELTA TIME
 SPR .MV     07 010 01 00:   SPONTANEOUS POTENTIAL
~PARAMETER INFORMATION
#MNEM.UNIT          VALUE    DESCRIPTION
#----------   ------------   ------------------------------
 EKB .F         5152.0000:   Kelly bushing
 EGL .F         5140.0000:   Ground level
 EDF .F            0.0000:   Drilling floor
 TD  .F         3271.0000:   Total depth
 DATE.        18-JUL-1985:   Date logged
 CLNT.            A2DTECH:   Client Code
 SL  . 1050' FNL & 150' FWL:   Surface Location
 PD  .                 GL:   Permanent Datum
 EPD .F              5140:   Elevation Permanent Datum
 LMF .                 KB:   Log Measured From
 DMF .                 KB:   Drilling Measured From
 DAPD.F                12:   Feet Above Permanent Datum
 DD  .F              3271:   Depth driller
 DL  .F              3262:   Depth logger
 BLI .F              3259:   Bottom log interval
 CS1 .IN            8.625:   Casing size
 CBD1.      8.625" @ 560':   Casing driller 1
 CBL1.F               560:   Casing logger 1
 BS1 .IN            7.875:   Bit size
 BSD1.F              3271:   Depth drilled with bit1
 DFT .            GEL/KCL:   Type fluid in hole
 DFD .                8.8:   Density
 DFV .                 40:   Viscosity
 DFPH.                  8:   pH
 DFL .                  8:   Fluid loss
 MSS .           MUD/TANK:   Source of sample
 RMS .OHMM            .31:   Rm
 MST .F                82:   Rm Meas. temp.
 RMF .OHMM            .25:   Rmf
 MFST.F                82:   Rmf Meas. temp.
 RMC .OHMM            .39:   Rmc
 MCST.F                82:   Rmc Meas. temp.
 MFSS.               MEAS:   Source Rmf.
 MCSS.               CALC:   Source Rmc.
 RMB .OHMM           .198:   Rm. at BHT
 BHT .F               128:   BHT.
 TCS .HRS               3:   Time Circ. stopped
 MRT .F               128:   Maximum recorded temp.
 LUN .            HL-6274:   Logging unit number
 LUL .           GILLETTE:   Logging unit location
 ENGI.             RAUTIO:   Recorded By
 WITN.             STRONG:   Witnessed by
 ORIG.           5" PRINT:   Origin of data
 UWI .     49025110460000:   Unique Well ID
 DICO. A2D TECHNOLOGIES, INC.:   Digitizing Company
~OTHER INFORMATION
~A   DEPT     TEND       RHOB       CORR       NPHI       TENR        GRR       RFOC       RILD       RILM           SN        ILD     TENS         DT         SPR  
# ...
 2549.0000   -39.0550     2.4100     0.0240     0.2260   -52.6090    65.7560    14.6140    24.0320    18.7970  -999.2500  -999.2500   -95.6180    76.4930    56.3210
 2549.5000   -61.7590     2.4200     0.0180     0.2260   -52.8340    67.6470    16.0440    23.8120    20.8090  -999.2500  -999.2500   -95.6180    76.6310    54.7740
 2550.0000   -84.4640     2.4180     0.0240     0.2150   -53.0590    69.5350    16.7600    26.9010    22.8920  -999.2500  -999.2500   -95.6180    76.7690    53.0210
 2550.5000   -92.4030     2.4160     0.0300     0.2090   -53.2840    71.5320    16.9880    29.1430    25.1610  -999.2500  -999.2500   -95.6180    76.9070    51.2630
 2551.0000   -85.6930     2.4240     0.0300     0.2090   -53.5090    74.9380    17.1090    30.2340    25.0630  -999.2500  -999.2500   -95.6180    76.8100    49.5050
 2551.5000   -78.9830     2.4340     0.0290     0.2050   -53.7340    82.7710    16.7980    30.1810    24.9550  -999.2500  -999.2500   -95.6180    76.1910    47.7490
 2552.0000   -72.2740     2.4400     0.0280     0.2010   -53.9590    87.1680    19.2180    30.0820    24.8470  -999.2500  -999.2500   -95.6180    75.5720    45.9810
 2552.5000   -65.5640     2.4180     0.0260     0.2050   -54.1840    86.9780    21.1330    29.9570    24.7390  -999.2500  -999.2500   -95.6180    74.9100    44.1590
 2553.0000   -58.8540     2.3960     0.0260     0.2070   -54.4090    79.2920    20.3810    30.2590    24.6310  -999.2500  -999.2500   -95.6180    75.0140    44.3090
 2553.5000   -52.1450     2.3780     0.0190     0.2010   -54.6330    71.0380    19.3740    30.5130    24.5230  -999.2500  -999.2500   -95.6180    75.1930    44.6050
 2554.0000   -45.4350     2.3850     0.0180     0.1960   -54.8580    66.8830    18.3680    30.0530    24.0340  -999.2500  -999.2500   -95.6180    75.7850    47.5210
 2554.5000   -38.7250     2.3950     0.0220     0.1920   -55.0830    65.2720    17.7490    29.4570    23.2610  -999.2500  -999.2500   -95.6180    76.4040    50.5920
 2555.0000   -32.0150     2.3920     0.0240     0.1920   -55.3080    63.4740    17.9780    28.8620    22.4880  -999.2500  -999.2500   -95.6180    76.3310    53.3730
 2555.5000   -25.3060     2.3860     0.0240     0.1850   -55.5330    60.0180    18.2450    28.2660    21.7230  -999.2500  -999.2500   -95.6180    76.2540    54.4790
 2556.0000   -18.5960     2.3820     0.0190     0.1820   -55.7580    56.5990    18.0400    27.6710    22.4050  -999.2500  -999.2500   -95.6180    76.1770    55.6850
 2556.5000   -11.8860     2.3870     0.0140     0.1890   -55.9830    58.5230    17.5460    27.3290    23.0800  -999.2500  -999.2500   -95.6180    76.1000    54.4560
 2557.0000    -8.8060     2.3960     0.0130     0.1960   -56.2080    61.1010    17.1090    30.6640    23.9030  -999.2500  -999.2500   -95.6180    76.0230    52.5710
 2557.5000   -25.4560     2.4160     0.0250     0.1880   -56.4330    67.2450    17.1090    33.9020    25.2010  -999.2500  -999.2500   -95.6180    75.2750    50.6640
 2558.0000   -42.1060     2.4450     0.0280     0.1720   -56.6580    72.2720    17.5870    37.1410    33.7050  -999.2500  -999.2500   -95.6180    73.5280    48.7070
 2558.5000   -58.7560     2.4740     0.0190     0.1520   -56.8830    74.1860    20.5720    40.3790    43.4660  -999.2500  -999.2500   -95.6180    70.5220    46.8840
 2559.0000   -60.5000     2.4980     0.0120     0.1410   -57.1080    69.1650    23.1650    46.0490    52.4530  -999.2500  -999.2500   -95.6180    67.5160    45.0050
 2559.5000   -50.9860     2.4900     0.0120     0.1380   -57.3330    63.0100    38.2460    57.5590    58.9650  -999.2500  -999.2500   -95.6180    64.6510    43.1400
 2560.0000   -41.4710     2.4700     0.0310     0.1360   -57.5580    58.5600    60.7550    69.0690    66.5980  -999.2500  -999.2500   -95.6180    63.8530    41.2800
 2560.5000   -31.9570     2.4630     0.0210     0.1400   -57.7830    54.9160    52.5530    80.5780    68.6890  -999.2500  -999.2500   -95.6180    63.6120    39.8410
 2561.0000   -27.5960     2.4860     0.0070     0.1400   -58.0080    55.4030    40.8860    92.0880    70.5920  -999.2500  -999.2500   -95.6180    63.8630    39.4580
 2561.5000   -35.4830     2.5050     0.0040     0.1450   -58.2330    58.0280    35.0190    98.8440    73.6770  -999.2500  -999.2500   -95.6180    63.6890    39.1820
 2562.0000   -43.3700     2.4960     0.0120     0.1540   -58.4580    61.4860    45.5110    91.3910    68.6760  -999.2500  -999.2500   -95.6180    63.3240    39.1950
 2562.5000   -51.2570     2.4710     0.0210     0.1660   -58.6820    64.5540    53.4260    77.4510    59.3230  -999.2500  -999.2500   -95.6180    63.5310    39.3310
 2563.0000   -55.4340     2.4460     0.0230     0.1810   -58.9070    64.1500    49.7570    63.5120    49.9700  -999.2500  -999.2500   -95.6180    64.9340    39.9590
 2563.5000   -54.1020     2.4230     0.0250     0.1840   -59.1320    64.3260    44.0210    54.2390    40.6170  -999.2500  -999.2500   -95.6180    67.2240    40.7020
 2564.0000   -52.7700     2.4100     0.0270     0.1910   -59.3570    67.5540    38.2850    44.4620    31.0780  -999.2500  -999.2500   -95.6180    69.6460    41.4530
 2564.5000   -51.4380     2.3990     0.0290     0.1970   -59.5820    67.2310    32.5480    42.0150    29.0440  -999.2500  -999.2500   -95.6180    71.6560    42.2070
 2565.0000   -50.1060     2.3960     0.0310     0.1980   -59.8070    64.9540    26.8120    39.5190    26.8320  -999.2500  -999.2500   -95.6180    73.2040    42.9530
 2565.5000   -48.7740     2.4070     0.0320     0.1950   -60.0320    63.9260    21.1330    37.4090    26.2660  -999.2500  -999.2500   -95.6180    74.2130    43.5810
 2566.0000   -47.4420     2.4200     0.0360     0.1930   -60.2570    63.8010    20.9400    35.8650    25.7000  -999.2500  -999.2500   -95.6180    73.6410    43.6160
 2566.5000   -46.1100     2.4290     0.0220     0.1920   -60.4820    64.3870    22.3410    34.3210    25.1350  -999.2500  -999.2500   -95.6180    72.6700    43.6650
 2567.0000   -44.7780     2.4090     0.0150     0.1910   -60.7070    64.9620    24.4770    33.2510    24.7030  -999.2500  -999.2500   -95.6180    72.1690    43.7140
 2567.5000   -43.4460     2.3940     0.0150     0.1920   -60.9320    65.9330    23.8320    32.8390    24.5070  -999.2500  -999.2500   -95.6180    72.4460    43.1730
 2568.0000   -42.1140     2.3890     0.0250     0.1940   -61.1570    67.4530    22.3830    32.8390    24.3170  -999.2500  -999.2500   -95.6180    73.5360    41.8710
 2568.5000   -40.7820     2.3900     0.0310     0.1970   -61.3820    71.9880    20.8670    33.1410    24.2540  -999.2500  -999.2500   -95.6180    74.6210    40.5750
 2569.0000   -39.4500     2.3940     0.0250     0.1930   -61.6070    76.9580    21.5250    35.3420    25.8940  -999.2500  -999.2500   -95.6180    75.2720    39.4120
 2569.5000   -38.1180     2.4110     0.0200     0.1860   -61.8320    78.7580    21.2880    39.6970    27.1880  -999.2500  -999.2500   -94.4290    75.5080    38.8350
 2570.0000   -36.7860     2.4540     0.0080     0.1530   -62.0570    80.1040    20.8000    44.8520    30.7940  -999.2500  -999.2500   -90.8510    74.3840    38.0530
 2570.5000   -39.7150     2.5060    -0.0090     0.1200   -62.2820    73.2930    20.5590    56.7680    46.8700  -999.2500  -999.2500   -87.2720    72.1220    37.2560
 2571.0000   -47.6010     2.5580    -0.0030     0.1120   -62.5070    63.9470    24.6810    68.6830    61.4970  -999.2500  -999.2500   -76.7280    67.7360    36.4330
 2571.5000   -55.4880     2.6160     0.0150     0.1030   -62.7320    55.6210    36.3100    80.5990    77.1390  -999.2500  -999.2500   -79.6750    63.1020    36.7650
 2572.0000   -63.3750     2.6030     0.0480     0.1080   -62.9560    55.4810   105.2250    90.3310    72.1230  -999.2500  -999.2500   -82.6220    58.4680    37.2680
 2572.5000   -62.1610     2.5600     0.0580     0.1240   -63.1810    58.8560   217.7310    98.3940    62.7430  -999.2500  -999.2500   -85.6570    57.2810    37.7940
 2573.0000   -56.6110     2.5010     0.0370     0.1440   -63.4060    62.0640   184.6330    99.7550    54.6820  -999.2500  -999.2500   -83.5330    58.7870    39.0750
