~VERSION INFORMATION
 VERS.                2.0:   CWLS LOG ASCII STANDARD - VERSION 2.0
 WRAP.                 NO:   ONE LINE PER DEPTH STEP
~WELL INFORMATION
#MNEM.UNIT      DATA TYPE    INFORMATION
#----------   ------------   ------------------------------
 STRT.F          600.0000:   START DEPTH
 STOP.F         3201.0000:   STOP DEPTH
 STEP.F            0.5000:   STEP LENGTH
 NULL.          -999.2500:   NO VALUE
 COMP.    FENIX & SCISSON:   COMPANY
 WELL. FENIX & SCISSON 38 "AX" #3-34:   WELL
 FLD .              NPR 3:   FIELD
 LOC .      S34 T39N R78W:   LOCATION
 CNTY.            NATRONA:   COUNTY
 STAT.            WYOMING:   STATE
 CTRY. UNITED STATES OF AMERICA:   COUNTRY
 SRVC.              WELEX:   SERVICE COMPANY
 DATE.        16-SEP-1980:   LOGDATE
 API .     49025108560000:   API NUMBER
~CURVE INFORMATION
#MNEM.UNIT       API CODE    CURVE DESCRIPTION
#----------   ------------   ------------------------------
 DEPT.F                  :   
 CORR.G/C3   45 356 01 00:   DENSITY CORRECTION
 GRD .GAPI   45 310 01 00:   GAMMA RAY FROM DENSITY LOG
 RHOB.G/C3   45 350 01 00:   BULK DENSITY
 TEND.LBS    45 635 01 00:   TENSION FORM DENSITY LOG
 CALD.IN     45 280 60 00:   CALIPER FROM DENSITY LOG
 SPR .MV     07 010 01 00:   SPONTANEOUS POTENTIAL FROM RES.
 ILD .OHMM   07 120 46 00:   DEEP INDUCTION RESISTIVITY
 ILM .OHMM   07 120 44 00:   INDUCTION LOG MEDIUM RESISTIVITY
 GURD.OHMM   07 220 05 00:   GUARD LOG RESISTIVITY
~PARAMETER INFORMATION
#MNEM.UNIT          VALUE    DESCRIPTION
#----------   ------------   ------------------------------
 EKB .F         5205.0000:   Kelly bushing
 EGL .F         5195.0000:   Ground level
 TD  .F         3202.0000:   Total depth
 CLNT.            A2DTECH:   Client Code
 SL  . 582' FSL & 1600' FWL:   Surface Location
 PD  .                 GL:   Permanent Datum
 EPD .F              5195:   Elevation Permanent Datum
 LMF .                 KB:   Log Measured From
 DMF .                 KB:   Drilling Measured From
 DAPD.F                10:   Feet Above Permanent Datum
 DATE.        16-SEP-1980:   Date Logged [DD-MMM-YYYY]
 DD  .F              3200:   Depth driller
 DL  .F              3203:   Depth logger
 BLI .F              3201:   Bottom log interval
 TLI .F               600:   Top log interval
 CS1 .IN            8.625:   Casing size
 CBD1.      8.625" @ 580':   Casing driller 1
 CBL1.F               600:   Casing logger 1
 BS1 .IN            7.875:   Bit size
 BSD1.F              3200:   Depth drilled with bit1
 DFT .          DISPERSED:   Type fluid in hole
 DFD .                8.8:   Density
 DFV .                 40:   Viscosity
 DFPH.                 11:   pH
 DFL .                  8:   Fluid loss
 MSS .           FLOWLINE:   Source of sample
 RMS .OHMM           1.33:   Rm
 MST .F                65:   Rm Meas. temp.
 RMF .OHMM           1.15:   Rmf
 MFST.F                65:   Rmf Meas. temp.
 MFSS.               MEAS:   Source Rmf.
 RMC .OHMM           1.50:   Rmc
 MCST.F                65:   Rmc Meas. temp.
 MCSS.               MEAS:   Source Rmc.
 RMB .OHMM            .75:   Rm. at BHT
 BHT .F               115:   BHT.
 TCS .HRS               8:   Time Circ. stopped
 MRT .F               115:   Maximum recorded temp.
 LUN .               1892:   Logging unit number
 LUL .             CASPER:   Logging unit location
 ENGI.    PERIMMER / REIN:   Recorded By
 WITN.              FIVAS:   Witnessed by
 ORIG.         2.5" PRINT:   Origin of data
 UWI .     49025108560000:   Unique Well ID
 DICO. A2D TECHNOLOGIES, INC.:   Digitizing Company
~OTHER INFORMATION
~A   DEPT       CORR       GRD        RHOB      TEND       CALD       SPR          ILD        ILM       GURD 
# ...
 1111.0000    -0.0221    37.7281     2.4259   498.4939    11.6938   -36.1084     7.1607     7.5456     7.2379
 1111.5000    -0.0251    37.7088     2.4364   499.2469    11.8314   -36.1205     7.2577     7.5408     7.3350
 1112.0000    -0.0372    38.7304     2.4393   500.0000    11.7268   -35.8299     7.3560     7.5369     7.4335
 1112.5000    -0.0466    40.9432     2.4316   500.7531    11.6361   -35.8434     7.5943     7.5329     7.8709
 1113.0000    -0.0558    42.7098     2.4302   501.6438    11.6054   -35.7058     7.4624     7.5249     7.9582
 1113.5000    -0.0622    44.4138     2.4427   502.3564    11.6357   -35.5663     7.1883     7.4212     7.8439
 1114.0000    -0.0511    41.1976     2.4831   472.9485    11.7034   -34.9774     6.9473     7.3851     7.6836
 1114.5000    -0.0211    37.1368     2.4942   473.6445    11.7911   -34.6867     6.9446     7.2893     7.5155
 1115.0000     0.0016    37.0958     2.4796   458.3348    11.1753   -34.3977     6.9419     7.2065     7.4083
 1115.5000     0.0227    38.0697     2.4690   444.9660    11.7805   -34.7108     7.0359     7.1028     7.3026
 1116.0000     0.0196    39.3254     2.4735   445.7831    11.7198   -34.7229     7.0329     7.0991     7.1984
 1116.5000     0.0196    39.3031     2.4765   446.5361    11.5954   -35.0361     7.0300     7.0954     7.1945
 1117.0000     0.0195    37.9567     2.4599   447.2891    11.5383   -35.0482     7.0271     7.0916     7.1905
 1117.5000     0.0191    35.6662     2.4508   448.1729    11.6010   -35.0626     7.0764     7.0877     7.1865
 1118.0000     0.0164    35.1981     2.4631   448.8855    11.6713   -35.0739     7.1192     7.0837     7.1825
 1118.5000     0.0164    37.4247     2.4826   449.5981    11.5954   -35.0843     7.2151     7.0798     7.1786
 1119.0000     0.0133    40.1031     2.4967   450.3107    11.5047   -35.3978     7.2123     7.0759     7.1740
 1119.5000     0.0133    41.4287     2.4867   481.1747    11.4739   -35.4096     7.2095     7.0713     7.1703
 1120.0000     0.0132    41.2875     2.4686   481.9277    11.4731   -35.4217     7.2065     7.0676     7.1665
 1120.5000     0.0102    40.9379     2.4562   482.6807    11.5695   -35.4337     7.1784     7.1061     7.1627
 1121.0000     0.0071    40.9177     2.4486   483.4338    11.6510   -35.4458     7.1014     7.1587     7.1767
 1121.5000     0.0071    40.8942     2.4474   484.1867    11.6088   -35.7590     7.0503     7.1547     7.2551
 1122.0000     0.0101    40.4262     2.4548   485.0632    11.5593   -35.7729     6.9012     7.1305     7.2505
 1122.5000     0.0130    39.5090     2.4613   485.7760    11.4983   -35.7842     6.8985     7.0485     7.3476
 1123.0000     0.0169    38.5658     2.4502   486.4886    11.5274   -35.7956     6.9919     7.0446     7.3429
 1123.5000     0.0190    38.1238     2.4502   487.2012    11.5865   -35.5057     6.9892     6.9439     7.1385
 1124.0000     0.0159    39.0030     2.4666   487.9519    11.6156   -35.5181     7.0839     6.9394     7.1348
 1124.5000     0.0189    40.4865     2.4833   488.7048    11.5735   -35.2272     7.1019     6.9358     7.1310
 1125.0000     0.0279    42.9975     2.4926   489.4579    11.3817   -35.1155     7.1770     6.9322     7.1436
 1125.5000     0.0399    44.7750     2.4996   490.2108    11.2536   -34.7897     7.2736     6.9285     7.3237
 1126.0000     0.0398    44.8262     2.4920   490.9639    11.4024   -34.0602     7.2133     6.9100     7.4220
 1126.5000     0.0368    43.3898     2.4936   491.8333    11.6111   -34.3747     6.9714     6.8001     7.3151
 1127.0000     0.0367    42.9207     2.5009   492.5459    11.5502   -34.6873     6.7783     6.7280     7.1106
 1127.5000     0.0406    42.4513     2.5114   493.2229    11.5194   -34.7063     6.6824     6.7243     6.9128
 1128.0000     0.0469    41.4792     2.5189   493.9759    11.4886   -35.0120     6.6797     6.6275     6.7204
 1128.5000     0.0577    39.9386     2.5098   494.7289    11.5214   -35.3253     6.6931     6.6240     6.7169
 1129.0000     0.0606    40.1418     2.5152   495.4820    11.6666   -35.3373     6.9182     6.8065     6.9164
 1129.5000     0.0606    41.4701     2.5260   496.2349    11.5945   -35.3494     7.0520     6.8978     7.0921
 1130.0000     0.0636    42.3503     2.5349   496.9880    11.5449   -35.0602     6.8559     6.8940     7.0877
 1130.5000     0.0695    41.4322     2.5366   497.8905    11.5139   -35.0737     6.6654     6.8695     6.9863
 1131.0000     0.0785    42.3832     2.5276   498.6033    11.5131   -35.0850     6.6628     6.6983     6.6976
 1131.5000     0.0775    43.1907     2.5155   499.2469    11.5122   -35.0964     6.6602     6.5612     6.6021
 1132.0000     0.0648    42.7186     2.5034   499.9999    11.5413   -35.1084     6.6576     6.3679     6.5986
 1132.5000     0.0550    42.9492     2.4913   500.7531    11.6153   -35.1205     6.7478     6.3262     6.5952
 1133.0000     0.0482    44.4716     2.4932   501.5060    11.6893   -35.0231     6.7686     6.5005     6.6837
 1133.5000     0.0452    44.0035     2.5059   502.2590    11.5573   -34.8434     6.8365     6.6796     6.7978
 1134.0000     0.0451    42.1882     2.5024   503.0120    11.5377   -34.8577     6.8332     6.7692     6.8642
 1134.5000     0.0481    40.2958     2.4948   503.7651    11.5668   -34.8690     6.8298     6.7654     6.8597
 1135.0000     0.0480    38.5554     2.4971   504.6606    11.5958   -34.8804     6.8272     6.6686     6.8553
 1135.5000     0.0540    38.0894     2.5075   505.3732    11.5649   -34.8917     6.8245     6.6466     6.8517
 1136.0000     0.0544    38.5150     2.5240   506.0241    11.5940   -34.8755     6.8218     6.5696     6.8481
 1136.5000     0.0614    39.3893     2.5571   506.7984    11.6231   -34.3120     6.8103     6.4751     6.8446
 1137.0000     0.0700    41.6158     2.5493   507.5301    11.5623   -34.0222     6.7224     6.3827     6.8289
 1137.5000     0.0733    41.5969     2.5464   508.2831    11.5614   -34.0361     6.7196     6.3793     6.7198
 1138.0000     0.0779    41.1287     2.5496   509.0360    11.5605   -34.0506     6.7168     6.2883     6.6465
 1138.5000     0.0809    41.5589     2.5606   509.7891    11.6588   -34.3631     6.6217     6.2848     6.5515
 1139.0000     0.0808    41.9891     2.5598   510.5422    11.6484   -34.6757     6.6186     6.2813     6.4571
 1139.5000     0.0808    42.5958     2.5402   511.4306    11.6476   -35.2895     6.6160     6.3084     6.4538
 1140.0000     0.0717    44.2215     2.5236   512.1432    11.7365   -35.6024     6.6134     6.3619     6.4504
 1140.5000     0.0593    45.5187     2.5175   512.8012    11.7956   -35.6145     6.6107     6.4463     6.4470
 1141.0000     0.0529    44.1493     2.5143   513.5685    11.6973   -35.9277     6.6080     6.4430     6.4435
 1141.5000     0.0495    43.2321     2.5111   514.3073    11.6741   -35.9398     6.6052     6.4396     6.5301
 1142.0000     0.0474    42.3149     2.5084   515.0602    11.7629   -36.2530     6.6025     6.5261     6.5261
 1142.5000     0.0474    42.7451     2.5084   515.8132    11.8331   -36.2669     6.6488     6.5225     6.6135
 1143.0000     0.0473    41.9836     2.4932   516.5663    11.7310   -36.2783     6.5965     6.5189     6.6091
 1143.5000     0.0503    40.4573     2.4947   517.3192    11.6703   -36.2896     6.5033     6.5153     6.6057
 1144.0000     0.0533    39.9841     2.5036   518.0723    11.8192   -36.3012     6.3231     6.3856     6.6022
 1144.5000     0.0592    39.5160     2.5126   518.9131    11.7883   -36.3133     6.2337     6.2840     6.4185
 1145.0000     0.0655    38.5989     2.5124   519.6257    11.7275   -35.9388     6.2196     6.2392     6.2397
 1145.5000     0.0718    38.1308     2.5055   520.3314    11.7491   -35.6130     6.1431     6.1501     6.2363
 1146.0000     0.0772    37.2136     2.4933   521.0844    11.9204   -35.4458     6.2264     6.1469     6.2328
 1146.5000     0.0771    39.2089     2.4698   521.8373    11.9756   -34.8574     6.2661     6.2294     6.3116
 1147.0000     0.0801    41.2723     2.4582   522.5904    11.8735   -34.5663     6.3950     6.3129     6.4894
