~VERSION INFORMATION
 VERS.                2.0:   CWLS LOG ASCII STANDARD - VERSION 2.0
 WRAP.                 NO:   ONE LINE PER DEPTH STEP
~WELL INFORMATION
#MNEM.UNIT      DATA TYPE    INFORMATION
#----------   ------------   ------------------------------
 STRT.F           11.5000:   START DEPTH
 STOP.F         1726.0000:   STOP DEPTH
 STEP.F            0.5000:   STEP LENGTH
 NULL.          -999.2500:   NO VALUE
 COMP. LAWRENCE ALLISON & ASSOC WEST:   COMPANY
 WELL. LAWRENCE NPR 3 "X" #51-26:   WELL
 FLD .                NPR:   FIELD
 LOC .      S26 T38N R78W:   LOCATION
 CNTY.            NATRONA:   COUNTY
 STAT.            WYOMING:   STATE
 CTRY. UNITED STATES OF AMERICA:   COUNTRY
 SRVC.      DRESSER ATLAS:   SERVICE COMPANY
 DATE.        13-AUG-1983:   LOGDATE
 API .     49025109270000:   API NUMBER
~CURVE INFORMATION
#MNEM.UNIT       API CODE    CURVE DESCRIPTION
#----------   ------------   ------------------------------
 DEPT.F                  :   
 CALD.IN     45 280 60 00:   CALIPER FROM DENSITY LOG
 RHOB.G/C3   45 350 01 00:   BULK DENSITY
 CORR.G/C3   45 356 01 00:   DENSITY CORRECTION
 TEND.LBS    45 635 01 00:   TENSION FROM DENSITY LOG
 GRR .GAPI   07 310 01 00:   GAMMA RAY FROM RESISTIVITY
 RILD.OHMM   07 120 46 00:   INDUCTION LOG DEEP RESISTIVITY
 RILM.OHMM   07 120 44 00:   INDUCTION LOG MEDIUM RESISTIVITY
 TENR.LBS    07 635 01 00:   TENSION
~PARAMETER INFORMATION
#MNEM.UNIT          VALUE    DESCRIPTION
#----------   ------------   ------------------------------
 EKB .F         5455.0000:   Kelly bushing
 EGL .F         5444.0000:   Ground level
 EDF .F            0.0000:   Drilling floor
 EPD .F         5444.0000:   Permanent datum
 TD  .F         1726.0000:   Total depth
 DATE.        13-AUG-1983:   Date logged
 CLNT.            A2DTECH:   Client Code
 PD  .                 GL:   Permanent Datum
 LMF .                 KB:   Log Measured From
 DMF .                 KB:   Drilling Measured From
 DAPD.F                11:   Feet Above Permanent Datum
 DD  .F              1726:   Depth driller
 DL  .F              1724:   Depth logger
 BLI .F              1718:   Bottom log interval
 CBD1.F                47:   Casing driller 1
 CBL1.F                48:   Casing logger 1
 BS1 .IN            12.25:   Bit size
 BSD1.F              1726:   Depth drilled with bit1
 DFT .           AIR/FOAM:   Type fluid in hole
 TCS .HRS               1:   Time Circ. stopped
 MRT .F                85:   Maximum recorded temp.
 LUN .               6270:   Logging unit number
 LUL .              WLSTN:   Logging unit location
 ENGI.            QUICKEL:   Recorded By
 WITN.           JENNINGS:   Witnessed by
 ORIG.           5" PRINT:   Origin of data
 UWI .     49025109270000:   Unique Well ID
 DICO. A2D TECHNOLOGIES, INC.:   Digitizing Company
~OTHER INFORMATION
~A   DEPT     CALD       RHOB       CORR       TEND         GRR      RILD       RILM       TENR   
# ...
 1145.5000    13.2870     2.5270     0.1130   -54.9640   120.1320     5.7830     5.9020   -63.2530
 1146.0000    13.2860     2.5220     0.1260   -54.7250   120.7250     5.6990     5.8520   -63.1770
 1146.5000    13.2860     2.5130     0.1290   -54.4860   123.0780     5.6160     5.8020   -63.1020
 1147.0000    13.2860     2.5040     0.1180   -54.2470   127.2400     5.5320     5.7520   -63.0270
 1147.5000    13.2860     2.5010     0.1150   -54.0080   131.1040     5.4490     5.7020   -62.9510
 1148.0000    13.2860     2.4960     0.1220   -53.7690   133.9780     5.3950     5.6520   -62.8760
 1148.5000    13.2860     2.4820     0.1250   -53.5300   132.6200     5.3870     5.6020   -62.8010
 1149.0000    13.2860     2.4700     0.1130   -53.2910   128.7240     5.3970     5.5520   -62.7260
 1149.5000    13.2860     2.4610     0.1010   -53.0520   124.6720     5.4090     5.4870   -62.6500
 1150.0000    13.2860     2.4520     0.0890   -52.8130   122.2330     5.4200     5.5070   -62.5750
 1150.5000    13.2860     2.4500     0.0800   -52.5740   120.1650     5.4320     5.5350   -62.5000
 1151.0000    13.2860     2.4550     0.0730   -52.3350   121.1620     5.4440     5.5630   -62.4240
 1151.5000    13.2860     2.4600     0.0790   -52.0950   123.8830     5.4560     5.5910   -62.3490
 1152.0000    13.2860     2.4650     0.0870   -51.8560   126.6100     5.4670     5.6190   -62.2740
 1152.5000    13.2860     2.4700     0.0750   -52.4050   129.0100     5.4790     5.6480   -62.1990
 1153.0000    13.2860     2.4750     0.0630   -54.2710   129.0540     5.4910     5.6760   -62.1230
 1153.5000    13.2860     2.4710     0.0590   -56.1370   127.9850     5.5030     5.7040   -62.0480
 1154.0000    13.2860     2.4660     0.0700   -58.0030   127.8170     5.5140     5.7320   -61.9730
 1154.5000    13.2860     2.4610     0.0800   -59.8690   127.8680     5.5260     5.7600   -61.8970
 1155.0000    13.2860     2.4580     0.0900   -61.7350   127.9320     5.5380     5.7880   -61.8220
 1155.5000    13.2860     2.4540     0.1010   -63.6010   127.2370     5.5500     5.8170   -61.7470
 1156.0000    13.2860     2.4500     0.0960   -65.4670   125.5470     5.5610     5.8450   -61.6720
 1156.5000    13.2860     2.4480     0.0860   -66.8410   127.1390     5.5730     5.8730   -61.5960
 1157.0000    13.2860     2.4570     0.0760   -67.0840   129.9630     5.5850     5.9010   -61.5210
 1157.5000    13.2860     2.4650     0.0780   -67.3260   132.4640     5.6040     5.9290   -61.4460
 1158.0000    13.2860     2.4730     0.0850   -67.5690   126.8460     5.6260     5.9570   -61.3700
 1158.5000    13.2860     2.4820     0.0920   -67.8120   120.1340     5.6490     5.9860   -61.2950
 1159.0000    13.2860     2.4760     0.0990   -68.0550   117.1380     5.6720     6.0180   -61.2200
 1159.5000    13.2860     2.4660     0.1050   -68.2980   122.4660     5.6940     5.9680   -61.1450
 1160.0000    13.2860     2.4560     0.0910   -68.5410   126.9230     5.6370     5.8550   -61.0690
 1160.5000    13.2860     2.4460     0.0770   -68.7840   130.8600     5.5830     5.7420   -60.9940
 1161.0000    13.2860     2.4370     0.0680   -69.0270   130.5050     5.5300     5.6290   -60.9190
 1161.5000    13.2860     2.4460     0.0580   -69.2690   129.2360     5.4760     5.5170   -60.8430
 1162.0000    13.2860     2.4560     0.0620   -69.5120   128.0920     5.4220     5.4300   -60.7680
 1162.5000    13.2860     2.4670     0.0680   -69.7550   127.4680     5.3680     5.4090   -60.6930
 1163.0000    13.2860     2.4730     0.0740   -69.9980   130.0950     5.3150     5.3870   -60.6170
 1163.5000    13.2860     2.4750     0.0800   -70.2410   130.3270     5.2610     5.3650   -60.5420
 1164.0000    13.2860     2.4770     0.0860   -70.4840   127.9440     5.2070     5.3440   -60.4670
 1164.5000    13.2860     2.4790     0.0920   -70.7270   125.7300     5.1530     5.3220   -60.3920
 1165.0000    13.2860     2.4820     0.0980   -70.9700   129.1140     5.0960     5.3000   -60.3160
 1165.5000    13.2860     2.4830     0.1040   -71.2120   132.9970     5.0720     5.2780   -60.2410
 1166.0000    13.2860     2.4690     0.1090   -71.4550   134.8120     5.0460     5.2570   -60.1660
 1166.5000    13.2860     2.4520     0.0840   -71.6980   134.7330     5.0200     5.2350   -60.0900
 1167.0000    13.2860     2.4440     0.0650   -71.9410   136.0810     4.9940     5.2130   -60.0150
 1167.5000    13.2860     2.4400     0.0560   -72.1840   137.5680     4.9680     5.1910   -59.9400
 1168.0000    13.2860     2.4370     0.0470   -72.4270   137.5850     4.9570     5.2180   -59.8650
 1168.5000    13.2860     2.4380     0.0370   -72.6700   135.1240     5.0510     5.2390   -59.7890
 1169.0000    13.2860     2.4410     0.0290   -72.9130   132.5390     5.1450     5.3530   -59.7140
 1169.5000    13.2860     2.4570     0.0360   -73.1550   129.9860     5.2400     5.4670   -59.6390
 1170.0000    13.2860     2.4780     0.0470   -73.3980   127.7630     5.3350     5.5810   -59.5630
 1170.5000    13.2860     2.5000     0.0580   -73.6410   127.4660     5.4300     5.6950   -59.4880
 1171.0000    13.2860     2.5220     0.0710   -73.8840   128.5920     5.5240     5.8090   -59.4130
 1171.5000    13.2860     2.5430     0.0870   -74.1270   130.2000     5.6190     5.9230   -59.3380
 1172.0000    13.2860     2.5660     0.1130   -74.3700   134.8950     5.7470     5.9690   -59.2620
 1172.5000    13.2860     2.5700     0.1460   -74.6130   133.2110     5.7290     5.9840   -59.1870
 1173.0000    13.2860     2.5490     0.1760   -74.8560   129.1440     5.6900     5.9990   -59.1120
 1173.5000    13.2860     2.5270     0.1510   -75.0980   126.8150     5.6510     6.0180   -59.0360
 1174.0000    13.2860     2.5050     0.1240   -75.3410   125.8650     5.6120     5.9400   -58.9610
 1174.5000    13.2860     2.4950     0.1030   -75.5840   122.3740     5.5730     5.8590   -58.8860
 1175.0000    13.2860     2.4870     0.0900   -75.8270   118.9850     5.5380     5.7780   -58.8110
 1175.5000    13.2860     2.4840     0.0760   -76.0700   117.8130     5.4720     5.6970   -58.7350
 1176.0000    13.2820     2.4830     0.0670   -76.3130   118.7980     5.3980     5.6160   -58.6600
 1176.5000    13.2780     2.4870     0.0570   -76.5560   120.7560     5.3240     5.5350   -58.5850
 1177.0000    13.2730     2.4950     0.0520   -76.8070   124.4930     5.2510     5.4540   -58.5090
 1177.5000    13.2690     2.5030     0.0760   -76.6240   129.1000     5.1770     5.3730   -58.4340
 1178.0000    13.2650     2.5070     0.1020   -76.4330   130.8300     5.1440     5.2880   -58.3590
 1178.5000    13.2610     2.5130     0.1190   -76.2430   130.3490     5.2210     5.4010   -58.2830
 1179.0000    13.2560     2.5160     0.1230   -76.0530   130.4560     5.3250     5.5510   -58.2080
 1179.5000    13.2520     2.5130     0.1220   -75.8620   130.6710     5.4280     5.7020   -58.1330
 1180.0000    13.2480     2.5010     0.1190   -75.6720   130.8910     5.5320     5.8530   -58.0580
 1180.5000    13.2430     2.4800     0.1170   -75.4820   130.6970     5.6360     6.0030   -57.9820
 1181.0000    13.2390     2.4590     0.1050   -75.2910   129.8820     5.7390     6.1540   -57.9070
 1181.5000    13.2350     2.4370     0.0640   -75.1010   128.1860     5.8430     6.3040   -57.8320
 1182.0000    13.2310     2.4320     0.0210   -74.9110   126.5210     5.9470     6.4550   -57.7560
 1182.5000    13.2270     2.4430     0.0040   -74.7210   125.1630     6.0500     6.6050   -57.6810
 1183.0000    13.2260     2.4530     0.0350   -74.5300   125.7420     6.1300     6.6620   -57.6060
 1183.5000    13.2260     2.4670     0.0540   -74.3400   127.0540     6.1300     6.6010   -57.5310
 1184.0000    13.2260     2.4740     0.0430   -74.1500   129.0870     6.1030     6.4620   -57.4550
 1184.5000    13.2260     2.4750     0.0300   -73.9590   129.3810     5.9920     6.3280   -57.3800
 1185.0000    13.2260     2.4770     0.0290   -73.7690   128.6790     5.8810     6.1940   -57.3050
 1185.5000    13.2250     2.4870     0.0360   -73.5790   125.8210     5.7700     6.0600   -57.2290
