~VERSION INFORMATION
 VERS.                2.0:   CWLS LOG ASCII STANDARD - VERSION 2.0
 WRAP.                 NO:   ONE LINE PER DEPTH STEP
~WELL INFORMATION
#MNEM.UNIT      DATA TYPE    INFORMATION
#----------   ------------   ------------------------------
 STRT.F          210.0000:   START DEPTH
 STOP.F         2998.0000:   STOP DEPTH
 STEP.F            0.5000:   STEP LENGTH
 NULL.          -999.2500:   NO VALUE
 COMP.    FENIX & SCISSON:   COMPANY
 WELL. FENIX & SCISSON "A" #41-28:   WELL
 FLD .          N.P.R. #3:   FIELD
 LOC .      S28 T39N R78W:   LOCATION
 CNTY.            NATRONA:   COUNTY
 STAT.            WYOMING:   STATE
 CTRY. UNITED STATES OF AMERICA:   COUNTRY
 SRVC.       SCHLUMBERGER:   SERVICE COMPANY
 DATE.        08-MAY-1977:   LOGDATE
 API .     49025103670000:   API NUMBER
~CURVE INFORMATION
#MNEM.UNIT       API CODE    CURVE DESCRIPTION
#----------   ------------   ------------------------------
 DEPT.F                  :   
 CALD.IN     45 280 60 00:   CALIPER FROM DENSITY LOG
 GRD .GAPI   45 310 01 00:   GAMMA RAY FROM DENSITY LOG
 CORR.G/C3   45 356 01 00:   DENSITY CORRECTION
 RHOB.G/C3   45 350 01 00:   BULK DENSITY
 SPR .MV     07 010 01 00:   SPONTANEOUS POTENTIAL
 LL8 .OHMM   07 220 08 00:   LATEROLOG-8 RES.
 ILM .OHMM   07 120 44 00:   INDUCTION LOG MEDIUM RESISTIVITY
 ILD .OHMM   07 120 46 00:   DEEP INDUCTION RESISTIVITY
~PARAMETER INFORMATION
#MNEM.UNIT          VALUE    DESCRIPTION
#----------   ------------   ------------------------------
 EKB .F         5012.0000:   Kelly bushing
 EGL .F         5002.0000:   Ground level
 TD  .F         3000.0000:   Total depth
 CLNT.            A2DTECH:   Client Code
 SL  . 330' FNL & 2310' FWL:   Surface Location
 DATE.        08-MAY-1977:   Date Logged [DD-MMM-YYYY]
 DD  .F              3000:   Depth driller
 DL  .F              2999:   Depth logger
 BLI .F              2993:   Bottom log interval
 TLI .F               222:   Top log interval
 CS1 .              8.625:   Casing size
 CBD1.      8.625" @ 112':   Casing driller 1
 CBL1.IN              222:   Casing logger 1
 BS1 .IN            7.875:   Bit size
 BSD1.F              3000:   Depth drilled with bit1
 DFT .                KCL:   Type fluid in hole
 DFD .                8.8:   Density
 DFV .                 32:   Viscosity
 DFPH.                8.0:   pH
 DFL .                8.8:   Fluid loss
 MSS .           FLOWLINE:   Source of sample
 RMS .OHMM          0.124:   Rm
 MST .F                80:   Rm Meas. temp.
 RMF .OHMM          0.117:   Rmf
 MFST.F                80:   Rmf Meas. temp.
 MFSS.               MEAS:   Source Rmf.
 RMB .OHMM         0.0886:   Rm. at BHT
 BHT .F               112:   BHT.
 TCS .HRS            0200:   Time Circ. stopped
 TLAB.HRS            0515:   Time logger at bottom
 MRT .F               112:   Maximum recorded temp.
 LUN .               5642:   Logging unit number
 LUL .               CSPR:   Logging unit location
 ENGI.            MARATIN:   Recorded By
 WITN.         PETTINGILL:   Witnessed by
 ORIG.      2.5" 5" PRINT:   Origin of data
 UWI .     49025103670000:   Unique Well ID
 DICO. A2D TECHNOLOGIES, INC.:   Digitizing Company
 PD  .                 GL:   Permanent Datum
 EPD .               5002:   Elevation Permanent Datum
 LMF .                 KB:   Log Measured From
 DMF .                 KB:   Drilling Measured From
 DAPD.                 10:   Feet Above Permanent Datum
~OTHER INFORMATION
~A   DEPT     CALD         GRD      CORR       RHOB        SPR        LL8        ILM        ILD   
# ...
 2397.0000     9.3860   128.2604     0.1140     2.5273   -32.6747     9.0579     7.1649     6.6777
 2397.5000     9.3881   128.1281     0.1262     2.5266   -33.5330     8.8963     6.9635     6.4058
 2398.0000     9.3902   128.9011     0.1262     2.5454   -33.7925     8.6433     6.8649     6.2305
 2398.5000     9.3768   127.8802     0.1219     2.5567   -34.3512     8.5183     6.6719     6.0599
 2399.0000     9.3794   126.7047     0.1054     2.5426   -34.7904     8.2409     6.4843     5.8941
 2399.5000     9.3815   128.2228     0.0994     2.5277   -34.7605     7.9267     6.4843     5.7327
 2400.0000     9.3686   130.3316     0.0995     2.5203   -34.7356     7.2010     6.4843     5.6798
 2400.5000     9.3547   133.3345     0.1048     2.4972   -34.9970     6.2207     6.4843     5.4009
 2401.0000     9.3380   137.5297     0.1115     2.5070   -35.2205     5.4142     6.4843     5.3509
 2401.5000     9.3160   139.6384     0.1161     2.5183   -35.4844     7.2108     6.4843     5.5468
 2402.0000     9.3186   140.4059     0.1145     2.5304   -36.0865     8.2353     6.5775     5.7351
 2402.5000     9.2912   134.3179     0.1079     2.5342   -36.4043     8.3545     6.5838     5.9183
 2403.0000     9.2937   128.5280     0.1006     2.5238   -37.0185     8.4266     6.6719     6.0004
 2403.5000     9.2813   127.7995     0.0984     2.5396   -37.6326     8.4260     6.8684     6.1681
 2404.0000     9.2838   127.8274     0.1002     2.5569   -38.2468     8.4254     6.8689     6.2339
 2404.5000     9.2714   129.1910     0.1062     2.5674   -38.5250     8.4248     6.8694     6.3215
 2405.0000     9.2590   131.0017     0.1144     2.5533   -38.4876     8.4242     6.7725     6.3224
 2405.5000     9.2615   131.7635     0.1174     2.5489   -38.2037     8.4236     6.6772     6.3071
 2406.0000     9.2790   127.4695     0.1140     2.5572   -38.5065     8.4230     6.5831     6.1372
 2406.5000     9.2816   126.4430     0.1082     2.5580   -38.8486     8.4224     6.4904     6.0683
 2407.0000     9.2991   130.3457     0.1030     2.5521   -39.4202     8.4218     6.4909     5.9739
 2407.5000     9.3016   134.0938     0.0996     2.5440   -39.4599     8.4211     6.3994     5.8939
 2408.0000     9.3042   135.4574     0.1013     2.5456   -39.7165     8.4205     6.3093     5.8149
 2408.5000     9.3067   138.9074     0.1058     2.5576   -39.7099     8.3005     6.3097     5.7454
 2409.0000     9.3093   140.7181     0.1095     2.5584   -39.6483     8.2999     6.3102     5.7462
 2409.5000     9.3118   139.6971     0.1096     2.5518   -39.0802     8.2993     6.4012     5.7470
 2410.0000     9.3144   136.8823     0.1074     2.5489   -38.7036     8.2321     6.5869     5.8331
 2410.5000     9.3169   137.8043     0.1007     2.5467   -38.0771     7.8689     6.8752     5.9962
 2411.0000     9.3045   138.4228     0.1023     2.5356   -37.6913     6.8447     7.0746     6.2495
 2411.5000     9.3070   135.9115     0.1069     2.5215   -36.8951     6.4163     7.3843     6.4265
 2412.0000     9.3096   132.6551     0.1121     2.5485   -36.5803     6.7930     7.7075     6.7874
 2412.5000     9.3121   129.6968     0.1159     2.5560   -36.2654     9.5691     7.9310     7.0755
 2413.0000     9.3147   127.3346     0.1137     2.5558   -36.3396    10.5742     8.1610     7.2746
 2413.5000     9.3172   126.6117     0.1026     2.5556   -36.6450    10.7257     8.5182     7.5834
 2414.0000     9.3048   124.3986     0.0974     2.5525   -37.2592    10.8791     8.6412     7.7968
 2414.5000     9.2924   123.8192     0.0997     2.5481   -37.7848    10.8783     8.8917     7.9063
 2415.0000     9.2949   125.4864     0.0938     2.5333   -37.3767    10.4214     9.0201     8.0173
 2415.5000     9.2825   127.1480     0.0946     2.5296   -37.0586     9.2957     9.1502     8.2430
 2416.0000     9.2850   127.3138     0.0976     2.5364   -36.7408     8.0581     9.1509     8.3588
 2416.5000     9.2876   126.7400     0.1015     2.5447   -36.5247     8.4102     9.1584     8.4762
 2417.0000     9.2901   126.9169     0.1045     2.5478   -36.5185     9.4274     9.2836     8.4773
 2417.5000     9.2927   127.5353     0.1082     2.5621   -36.5123    10.2700     9.2843     8.4785
 2418.0000     9.2952   128.6008     0.1106     2.5651   -36.5062    11.0292     9.2849     8.4797
 2418.5000     9.2978   131.4547     0.1076     2.5548   -36.5000    11.1872     9.2856     8.4809
 2419.0000     9.3153   134.4576     0.1003     2.5489   -36.4938    10.8713     9.2862     8.4821
 2419.5000     9.3178   136.4173     0.0988     2.5474   -36.7975    10.2670     9.1554     8.3668
 2420.0000     9.3204   135.9925     0.1041     2.5490   -37.2222     9.2897     9.1561     8.2532
 2420.5000     9.3229   134.2265     0.1056     2.5529   -37.7099     8.9562     9.0271     8.0296
 2421.0000     9.3254   130.0759     0.1042     2.5567   -38.1420     9.9758     8.8803     8.0307
 2421.5000     9.3280   128.9004     0.1080     2.5597   -38.7563    10.7134     8.6503     8.0318
 2422.0000     9.3305   130.7166     0.1104     2.5591   -39.0617    10.8668     8.5285     8.0330
 2422.5000     9.3331   132.8253     0.1074     2.5509   -39.8147    10.5600     8.4084     7.8152
 2423.0000     9.3356   134.9341     0.1045     2.5473   -40.5987     9.9730     8.2899     7.6034
 2423.5000     9.3232   134.2112     0.1045     2.5511   -41.5217     9.4187     8.1731     7.5002
 2424.0000     9.3257   133.1893     0.1046     2.5549   -42.7532     9.1528     8.1738     7.2969
 2424.5000     9.3133   134.2558     0.1054     2.5528   -43.8273     9.1522     8.1468     7.2979
 2425.0000     9.3159   136.0665     0.1078     2.5484   -45.5242     9.4167     8.0592     7.4004
 2425.5000     9.3184   137.4301     0.1107     2.5492   -48.1541     9.5514     8.0598     7.4014
 2426.0000     9.3210   135.6640     0.1182     2.5545   -49.8271     9.5507     8.0604     7.4025
 2426.5000     9.3235   133.5999     0.1266     2.5628   -49.0371     9.5501     8.0610     7.4035
 2427.0000     9.3260   135.4105     0.1274     2.5659   -46.3389     9.6867     8.0615     7.4045
 2427.5000     9.3286   137.0722     0.1252     2.5495   -43.2875     9.8253     8.0621     7.4670
 2428.0000     9.3311   136.3493     0.1103     2.5324   -41.4566     9.9659     8.0627     7.5094
 2428.5000     9.3337   135.1789     0.1044     2.5489   -41.3148     9.9652     8.0633     7.5104
 2429.0000     9.3362   136.0959     0.1066     2.5580   -41.3087     9.9645     8.1036     7.5114
 2429.5000     9.3388   135.8201     0.1090     2.5633   -41.3025     9.9638     8.1802     7.6169
 2430.0000     9.3413   133.3089     0.1127     2.5656   -41.6049     9.9631     8.1808     7.6180
 2430.5000     9.3439   129.6054     0.1181     2.5620   -42.2149     9.9624     8.1814     7.6741
 2431.0000     9.3464   123.3684     0.1211     2.5523   -42.5185     9.9617     8.1819     7.8335
 2431.5000     9.3490   122.6287     0.1214     2.5464   -43.1285     9.9610     8.3000     7.9435
 2432.0000     9.3515   123.7110     0.1145     2.5682   -43.5433     9.9603     8.3499     7.9446
 2432.5000     9.3690   123.4352     0.1138     2.5623   -42.4989     9.9596     8.4204     7.9972
 2433.0000     9.3716   124.6498     0.1161     2.5616   -41.5669     9.9736     8.5419     8.0573
 2433.5000     9.3591   126.6101     0.1184     2.5610   -40.3261    10.1014     8.5975     8.1076
 2434.0000     9.3617   127.0790     0.1155     2.5588   -40.0114    10.1006     8.6658     8.1716
 2434.5000     9.3792   127.5484     0.1044     2.5499   -40.6225    10.0999     8.6664     8.1726
 2435.0000     9.3817   128.1719     0.1021     2.5298   -40.9250    10.0992     8.6670     8.1289
 2435.5000     9.3843   129.4016     0.0970     2.5374   -40.6102    10.0985     8.7921     8.0626
 2436.0000     9.3868   132.1259     0.0949     2.5487   -39.9868    10.0486     8.7928     8.0226
 2436.5000     9.3894   134.9788     0.0971     2.5532   -39.0547     9.3284     8.6690     7.6619
 2437.0000     9.3919   137.3905     0.1001     2.5511   -38.1227     8.6806     8.4826     7.3546
