~VERSION INFORMATION
 VERS.                2.0:   CWLS LOG ASCII STANDARD - VERSION 2.0
 WRAP.                 NO:   ONE LINE PER DEPTH STEP
~WELL INFORMATION
#MNEM.UNIT      DATA TYPE    INFORMATION
#----------   ------------   ------------------------------
 STRT.F          602.0000:   START DEPTH
 STOP.F         5553.0000:   STOP DEPTH
 STEP.F            0.5000:   STEP LENGTH
 NULL.          -999.2500:   NO VALUE
 COMP.         U. S. NAVY:   COMPANY
 WELL. U. S. 1-TP-33 NPR #3-33:   WELL
 FLD . TEAPOT NAVAL RESERVE:   FIELD
 LOC .      S33 T39N R78W:   LOCATION
 CNTY.            NATRONA:   COUNTY
 STAT.            WYOMING:   STATE
 CTRY. UNITED STATES OF AMERICA:   COUNTRY
 SRVC.       SCHLUMBERGER:   SERVICE COMPANY
 DATE.        24-JUN-1952:   LOGDATE
 API .     49025065260000:   API NUMBER
~CURVE INFORMATION
#MNEM.UNIT       API CODE    CURVE DESCRIPTION
#----------   ------------   ------------------------------
 DEPT.F                  :   
 SPR .MV     01 010 01 00:   SPONTANEOUS POTENTIAL FROM RES.
 ASN .OHMM   01 041 16 00:   AMPLIFIED SHORT NORMAL 16"
 LAT .OHMM   01 070 08 00:   LATERAL 8'
 LN  .OHMM   01 060 64 00:   LONG NORMAL 64"
~PARAMETER INFORMATION
#MNEM.UNIT          VALUE    DESCRIPTION
#----------   ------------   ------------------------------
 EKB .F         5160.0000:   Kelly bushing
 EGL .F         5147.0000:   Ground level
 TD  .F         5553.0000:   Total depth
 CLNT.            A2DTECH:   Client Code
 DATE.        24-JUN-1952:   Date Logged [DD-MMM-YYYY]
 DD  .F              5549:   Depth driller
 DL  .F              5553:   Depth logger
 BLI .F              5553:   Bottom log interval
 TLI .F               602:   Top log interval
 CBL1.F               602:   Casing logger 1
 BSD1.F              5549:   Depth drilled with bit1
 DFT .           GYP BASE:   Type fluid in hole
 DFD .                9.8:   Density
 DFV .                 44:   Viscosity
 MSS .           FLOWLINE:   Source of sample
 RMS .OHMM            1.4:   Rm
 MST .F                60:   Rm Meas. temp.
 RMB .OHMM           0.48:   Rm. at BHT
 BHT .F               175:   BHT.
 TCS .HRS             1.5:   Time Circ. stopped
 MRT .F               175:   Maximum recorded temp.
 LUN .                563:   Logging unit number
 ENGI.             SANDER:   Recorded By
 WITN.            GRIBBIN:   Witnessed by
 ORIG.      1" 2.5" PRINT:   Origin of data
 UWI .     49025065260000:   Unique Well ID
 DICO. A2D TECHNOLOGIES, INC.:   Digitizing Company
~OTHER INFORMATION
~A  DEPTH      SPR        ASN        LAT         LN
# ...
 2208.0000   -55.1844     4.5979     3.5287     5.4278
 2208.5000   -55.3720     4.6132     3.3600     5.4285
 2209.0000   -55.4693     4.6132     3.3046     5.3190
 2209.5000   -55.4679     4.6132     3.3046     5.2910
 2210.0000   -55.4665     4.6514     3.3046     5.2917
 2210.5000   -55.4648     4.6972     3.3046     5.2641
 2211.0000   -55.4636     4.7278     3.3935     5.1542
 2211.5000   -55.4621     4.7240     3.5085     5.1549
 2212.0000   -55.4607     4.6705     3.6552     5.0704
 2212.5000   -55.4593     4.6514     3.8823     5.0174
 2213.0000   -55.4576     4.6285     3.9973     4.9875
 2213.5000   -55.2580     4.6285     4.1124     4.8766
 2214.0000   -55.1674     4.6743     4.2883     4.7658
 2214.5000   -55.1660     4.7278     4.4862     4.7424
 2215.0000   -55.1645     4.7469     4.6013     4.6828
 2215.5000   -55.1629     4.7698     4.7163     4.6049
 2216.0000   -55.1617     4.7927     4.8314     4.6000
 2216.5000   -55.0136     4.8138     5.0079     4.4675
 2217.0000   -54.8712     4.8138     5.1724     4.3783
 2217.5000   -54.9034     4.7946     5.1724     4.3299
 2218.0000   -55.1558     4.7583     5.1724     4.2954
 2218.5000   -55.1545     4.6666     5.1724     4.1923
 2219.0000   -55.1530     4.4813     5.1724     4.1932
 2219.5000   -55.1516     4.2407     5.1724     4.1016
 2220.0000   -55.1885     3.9923     5.1724     4.0556
 2220.5000   -55.4361     3.8013     5.1724     4.0187
 2221.0000   -55.4348     3.6867     5.1724     3.9079
 2221.5000   -55.4334     3.5721     4.9846     3.7800
 2222.0000   -55.4319     3.4384     4.7074     3.7806
 2222.5000   -55.4305     3.3429     4.5869     3.7141
 2223.0000   -55.4290     3.2417     4.3569     3.6431
 2223.5000   -55.2101     3.1500     4.1267     3.6313
 2224.0000   -55.1387     3.0602     4.0230     3.5056
 2224.5000   -55.1372     2.9799     3.9884     3.5063
 2225.0000   -55.0879     2.9608     3.8733     3.5069
 2225.5000   -54.8468     2.9513     3.7356     3.4655
 2226.0000   -54.8454     2.9513     3.7356     3.3694
 2226.5000   -54.6781     2.9532     3.6718     3.3702
 2227.0000   -54.5550     2.9799     3.5567     3.2718
 2227.5000   -54.5535     2.9990     3.4483     3.2326
 2228.0000   -54.5521     3.0220     3.4483     3.2333
 2228.5000   -54.5506     3.0449     3.4483     3.2340
 2229.0000   -54.5492     3.0678     3.4483     3.2348
 2229.5000   -54.5478     3.0946     3.4483     3.2354
 2230.0000   -54.5463     3.0946     3.4483     3.2361
 2230.5000   -54.5449     3.1079     3.4483     3.2368
 2231.0000   -54.5434     3.1156     3.4483     3.2375
 2231.5000   -54.5420     3.0946     3.4483     3.2382
 2232.0000   -54.6595     3.0946     3.4483     3.2389
 2232.5000   -54.8267     3.0754     3.4483     3.2396
 2233.0000   -54.8252     3.0659     3.4483     3.2403
 2233.5000   -54.8238     3.0659     3.4483     3.2410
 2234.0000   -54.8224     3.0659     3.4483     3.2417
 2234.5000   -54.6972     3.0659     3.4483     3.2424
 2235.0000   -54.5319     3.0659     3.4483     3.2431
 2235.5000   -54.5305     3.0927     3.4483     3.2437
 2236.0000   -54.5288     3.1309     3.4483     3.2204
 2236.5000   -54.5276     3.1557     3.3820     3.1063
 2237.0000   -54.5262     3.2092     3.3046     3.1069
 2237.5000   -54.5248     3.2474     3.3046     3.1076
 2238.0000   -54.5233     3.2799     3.3046     3.1621
 2238.5000   -54.5216     3.2951     3.3046     3.2479
 2239.0000   -54.5205     3.2951     3.3046     3.2486
 2239.5000   -54.5190     3.2951     3.3046     3.2493
 2240.0000   -54.5176     3.2951     3.2950     3.2500
 2240.5000   -54.5362     3.2818     3.1609     3.2507
 2241.0000   -54.8020     3.2435     3.1609     3.2514
 2241.5000   -54.9953     3.1786     3.0935     3.2521
 2242.0000   -55.0869     3.1519     3.0172     3.2528
 2242.5000   -55.0855     3.1328     3.0071     3.2535
 2243.0000   -55.0840     3.0965     2.8736     3.2542
 2243.5000   -55.0824     3.0583     2.8736     3.2549
 2244.0000   -55.0812     3.0334     2.8736     3.2556
 2244.5000   -55.0797     2.9799     2.8736     3.2562
 2245.0000   -54.9920     2.9608     2.8736     3.2569
 2245.5000   -54.7596     2.9513     2.8736     3.2576
 2246.0000   -54.5002     2.9513     2.8736     3.2917
 2246.5000   -54.4989     2.9513     2.9422     3.3979
 2247.0000   -54.4974     2.9513     3.0172     3.3987
 2247.5000   -54.4960     2.9704     3.0286     3.4896
 2248.0000   -54.4600     3.0067     3.1609     3.5389
 2248.5000   -54.2055     3.0754     3.1609     3.5396
 2249.0000   -54.2042     3.1976     3.1609     3.5486
 2249.5000   -54.3551     3.4384     3.2015     3.6800
 2250.0000   -54.4888     3.5912     3.3046     3.6806
 2250.5000   -54.4874     3.8280     3.3046     3.6813
 2251.0000   -54.4858     4.0802     3.4030     3.7199
 2251.5000   -54.4845     4.2731     3.4483     3.8215
 2252.0000   -54.6403     4.3266     3.4483     3.8223
 2252.5000   -54.8698     4.3266     3.4483     3.8229
 2253.0000   -55.0555     4.3266     3.4483     3.8236
 2253.5000   -55.0538     4.3266     3.5473     3.8646
 2254.0000   -55.2709     4.3247     3.5920     3.9769
 2254.5000   -55.3385     4.2980     3.6338     4.1036
 2255.0000   -55.3371     4.2789     3.7356     4.1042
 2255.5000   -55.2868     4.2827     3.7356     4.1748
 2256.0000   -55.0466     4.3056     3.8353     4.2444
 2256.5000   -55.0452     4.3324     3.8793     4.2604
 2257.0000   -55.0438     4.4126     3.9217     4.3848
 2257.5000   -54.9321     4.4890     4.0230     4.3854
 2258.0000   -54.7534     4.5941     4.0230     4.4583
 2258.5000   -54.7519     4.7164     4.0230     4.5706
 2259.0000   -54.5224     4.8596     4.0230     4.6653
 2259.5000   -54.4615     5.1003     4.0660     4.6660
 2260.0000   -54.4601     5.3487     4.1667     4.6667
 2260.5000   -54.4586     5.5932     4.1667     4.7419
 2261.0000   -54.4572     5.7536     4.1667     4.8069
 2261.5000   -54.4557     5.8166     4.1667     4.8076
 2262.0000   -54.4543     5.8166     4.1231     4.8084
 2262.5000   -54.4529     5.7975     4.0230     4.8090
 2263.0000   -54.4514     5.7880     4.0230     4.8865
 2263.5000   -54.4500     5.8109     4.0230     4.9493
 2264.0000   -54.4486     5.8816     4.0230     4.9500
 2264.5000   -54.4471     5.9885     4.0230     4.9507
 2265.0000   -54.5703     6.0268     4.0385     4.9514
 2265.5000   -54.7999     6.0726     4.1667     5.0313
 2266.0000   -55.0180     6.1108     4.1667     5.0917
 2266.5000   -55.0162     6.1318     4.1667     5.0924
 2267.0000   -55.0150     6.0745     4.1219     5.0931
 2267.5000   -55.1430     6.0363     4.0230     5.2025
 2268.0000   -55.2269     5.9503     4.0230     5.2333
 2268.5000   -55.0107     5.8357     4.0230     5.2882
 2269.0000   -55.0090     5.7211     4.0230     5.3736
 2269.5000   -55.0078     5.5874     4.0230     5.3743
 2270.0000   -55.0064     5.5301     4.0230     5.3750
 2270.5000   -54.9273     5.4881     4.0230     5.3757
 2271.0000   -54.7160     5.4728     4.0230     5.4329
 2271.5000   -54.7143     5.4709     4.0230     5.5160
 2272.0000   -54.5176     5.4441     4.0230     5.5167
 2272.5000   -54.4241     5.4441     4.0230     5.5174
 2273.0000   -54.4227     5.4441     4.0230     5.6041
 2273.5000   -54.4212     5.4899     4.0230     5.6576
 2274.0000   -54.4196     5.6351     4.0982     5.6898
 2274.5000   -54.6187     5.9026     4.1667     5.7979
 2275.0000   -54.8482     6.1126     4.1846     5.7986
 2275.5000   -54.9906     6.3514     4.3103     5.7993
 2276.0000   -54.9891     6.5730     4.5191     5.8611
 2276.5000   -54.9875     6.7850     4.6735     5.9396
 2277.0000   -55.1914     7.1060     4.8829     5.9403
 2277.5000   -55.2724     7.2206     5.1910     5.9411
 2278.0000   -55.2709     7.2245     5.3161     5.9417
 2278.5000   -55.2695     7.1099     5.4211     6.0058
 2279.0000   -55.2679     6.9551     5.4598     6.0819
 2279.5000   -55.2666     6.8481     5.4598     6.0826
 2280.0000   -55.2652     6.8481     5.4789     6.0834
 2280.5000   -55.2637     6.8749     5.6034     6.1771
