~VERSION INFORMATION
 VERS.                2.0:   CWLS LOG ASCII STANDARD - VERSION 2.0
 WRAP.                 NO:   ONE LINE PER DEPTH STEP
~WELL INFORMATION
#MNEM.UNIT      DATA TYPE    INFORMATION
#----------   ------------   ------------------------------
 STRT.F          198.5000:   START DEPTH
 STOP.F         3172.0000:   STOP DEPTH
 STEP.F            0.5000:   STEP LENGTH
 NULL.          -999.2500:   NO VALUE
 COMP.    FENIX & SCISSON:   COMPANY
 WELL. FENIX & SCISSON AX #26-11:   WELL
 FLD .              NPR-3:   FIELD
 LOC .      S11 T38N R78W:   LOCATION
 CNTY.            NATRONA:   COUNTY
 STAT.            WYOMING:   STATE
 CTRY. UNITED STATES OF AMERICA:   COUNTRY
 SRVC.              WELEX:   SERVICE COMPANY
 DATE.        11-NOV-1977:   LOGDATE
 API .     49025104420000:   API NUMBER
~CURVE INFORMATION
#MNEM.UNIT       API CODE    CURVE DESCRIPTION
#----------   ------------   ------------------------------
 DEPT.F                  :   
 GRD .GAPI   45 310 01 00:   GAMMA RAY FROM DENSITY LOG
 CALD.IN     45 280 60 00:   CALIPER FROM DENSITY LOG
 CORR.G/C3   45 356 01 00:   DENSITY CORRECTION
 TEND.LBS    45 635 01 00:   TENSION FROM DENSITY LOG
 RHOB.G/C3   45 350 01 00:   BULK DENSITY
 SPR .MV     07 010 01 00:   SPONTANEOUS POTENTIAL
 ILD .OHMM   07 120 46 00:   DEEP INDUCTION RESISTIVITY
 ILM .OHMM   07 120 44 00:   INDUCTION LOG MEDIUM RESISTIVITY
 SGRD.OHMM   07 220 05 00:   SHALLOW SHORT GUARD RESISTIVITY
~PARAMETER INFORMATION
#MNEM.UNIT          VALUE    DESCRIPTION
#----------   ------------   ------------------------------
 EKB .F         5187.0000:   Kelly bushing
 EGL .F         5177.0000:   Ground level
 EDF .F            0.0000:   Drilling floor
 EPD .F         5177.0000:   Permanent datum
 TD  .F         3174.0000:   Total depth
 CLNT.            A2DTECH:   Client Code
 SL  . 1650' FSL & 840' FWL:   Surface Location
 PD  .                 GL:   Permanent Datum
 LMF .                 KB:   Log Measured From
 DMF .                 KB:   Drilling Measured From
 DAPD.F                10:   Feet Above Permanent Datum
 DATE.        11-NOV-1977:   Date Logged [DD-MMM-YYYY]
 DD  .F              3170:   Depth driller
 DL  .F              3174:   Depth logger
 BLI .F              3172:   Bottom log interval
 TLI .F               200:   Top log interval
 CS1 .              8.625:   Casing size
 CBD1.      8.625" @ 220':   Casing driller 1
 CBL1.IN              220:   Casing logger 1
 BS1 .IN            7.875:   Bit size
 BSD1.F              3170:   Depth drilled with bit1
 DFT .            KCL MUD:   Type fluid in hole
 DFD .                8.9:   Density
 DFV .                 37:   Viscosity
 DFPH.               11.0:   pH
 DFL .                6.4:   Fluid loss
 MSS .           FLOWLINE:   Source of sample
 RMS .OHMM           2.79:   Rm
 MST .F                50:   Rm Meas. temp.
 RMF .OHMM           2.16:   Rmf
 MFST.F                50:   Rmf Meas. temp.
 MFSS.               FANN:   Source Rmf.
 MCSS.               TEST:   Source Rmc.
 RMB .OHMM           1.22:   Rm. at BHT
 BHT .F               114:   BHT.
 TCS .HRS               3:   Time Circ. stopped
 MRT .F               114:   Maximum recorded temp.
 LUN .               8611:   Logging unit number
 LUL .             CASPER:   Logging unit location
 ENGI.            C. DOAK:   Recorded By
 WITN.         HARRINGTON:   Witnessed by
 ORIG.      2.5" 5" PRINT:   Origin of data
 UWI .     49025104420000:   Unique Well ID
 DICO. A2D TECHNOLOGIES, INC.:   Digitizing Company
~OTHER INFORMATION
~A   DEPT       GRD      CALD       CORR       TEND       RHOB        SPR        ILD        ILM       SGRD   
# ...
 2352.0000   128.0479     8.3963    -0.0008  1879.3846     2.4410   -73.3839     7.7810    14.4907    16.2788
 2352.5000   129.2184     8.3955     0.0015  1880.1191     2.4701   -73.3962     8.0418    14.9553    13.8779
 2353.0000   132.7874     8.3947    -0.0025  1880.7281     2.4685   -73.4084     8.0380    13.9417    14.2616
 2353.5000   139.9492     8.3940    -0.0088  1881.3368     2.4517   -73.4207     8.0910    13.8573    14.8616
 2354.0000   145.3147     8.3932    -0.0139  1881.9454     2.4359   -73.4329     8.1434    14.0481    14.8541
 2354.5000   147.6886     8.3924    -0.0170  1882.5544     2.4211   -73.4452     8.0772    14.0462    15.5849
 2355.0000   143.4707     8.3916    -0.0128  1883.1631     2.4225   -73.4574     8.0170    13.8517    15.7973
 2355.5000   139.8541     8.3909    -0.0066  1883.7721     2.4345   -73.4697     8.0126    13.6599    14.0369
 2356.0000   135.6387     8.3901    -0.0030  1884.3807     2.4406   -73.4819     7.8979    13.4707    13.2756
 2356.5000   133.2197     8.3893    -0.0106  1854.1538     2.4304   -73.4942     7.8391    13.2842    13.6426
 2357.0000   134.9923     8.3885    -0.0200  1854.8291     2.4097   -73.5064     7.7807    13.3744    15.3477
 2357.5000   137.9625     8.3878    -0.0278  1855.4379     2.3940   -73.5187     7.6693    14.7297    16.4432
 2358.0000   142.1303     8.4045    -0.0294  1856.0468     2.3913   -73.5309     7.5596    14.8409    15.6098
 2358.5000   145.1005     8.4172    -0.0200  1856.6555     2.4176   -73.5432     7.5555    14.0256    12.9750
 2359.0000   147.4720     8.4163    -0.0107  1857.2642     2.4366   -73.5554     7.5513    13.3572    12.1866
 2359.5000   146.2505     8.4155    -0.0031  1857.8732     2.4561   -73.5676     7.7059    12.9114    13.0545
 2360.0000   143.2327     8.4147     0.0012  1858.4818     2.4780   -73.5799     7.8082    12.4716    15.0901
 2360.5000   142.0113     8.4140     0.0043  1859.0905     2.4947   -73.5921     7.8594    12.3845    15.9442
 2361.0000   140.1911     8.4132     0.0104  1859.6995     2.5032   -73.6044     7.7997    11.5563    14.4646
 2361.5000   138.9697     8.4124     0.0134  1860.3081     2.5026   -73.6166     7.7416    10.7839    15.0732
 2362.0000   137.7484     8.4427     0.0165  1860.9231     2.4973   -73.6289     7.5257    10.9324    13.5802
 2362.5000   135.3293     8.4419     0.0104  1861.5383     2.4890   -73.6411     7.4180    11.0833    11.2612
 2363.0000   137.1095     8.4411     0.0011  1862.1537     2.4785   -73.6534     7.3627    10.8542    12.4879
 2363.5000   139.4889     8.4403    -0.0081  1862.7693     2.4641   -73.6656     7.3587    10.4124    13.9442
 2364.0000   142.4914     8.4396    -0.0020  1863.3845     2.4618   -73.6779     7.3547     9.7837    11.0928
 2364.5000   144.8780     8.4388    -0.0020  1863.9999     2.4736   -73.6901     7.3507     9.4505    12.8381
 2365.0000   144.0716     8.4380    -0.0020  1864.6154     2.4858   -73.7024     7.3432     9.7138    14.7184
 2365.5000   140.4784     8.4683    -0.0020  1865.2307     2.5021   -73.7146     7.2919     8.7568    14.1141
 2366.0000   138.0997     8.4675    -0.0020  1865.8459     2.5046   -73.7269     7.2367     8.1715    11.5431
 2366.5000   137.5329     8.4667    -0.0112  1866.4615     2.4856   -73.7391     7.1331     7.7849    11.0692
 2367.0000   137.5090     8.4659    -0.0266  1867.0769     2.4677   -73.7514     6.9824     7.5690    11.2188
 2367.5000   137.4055     8.4652    -0.0299  1867.6923     2.4579   -73.7636     6.8349     7.3578    11.6897
 2368.0000   135.4892     8.4954    -0.0236  1868.3077     2.4676   -73.7759     6.5984     7.0645    11.2097
 2368.5000   132.2628     8.4946    -0.0205  1868.9231     2.4780   -73.7881     6.3260     6.7770    10.6764
 2369.0000   129.3179     8.4938    -0.0175  1869.5385     2.4958   -73.8004     6.0229     6.4563    12.2549
 2369.5000   125.7882     8.4930    -0.0143  1870.1538     2.5091   -73.8126     5.6948     6.1509    12.4328
 2370.0000   122.7550     8.4923    -0.0051  1870.7692     2.5138   -73.8248     5.5745     5.9005    10.2286
 2370.5000   121.1736     8.4915    -0.0022  1871.3845     2.5075   -73.8371     5.5329     5.6603     8.5988
 2371.0000   121.1497     8.4907    -0.0022  1841.2308     2.4971   -73.8493     5.5299     5.5054     7.5734
 2371.5000   120.9821     8.4955    -0.0059  1841.8461     2.4866   -73.8733     5.5268     5.4667     6.6497
 2372.0000   120.5030     8.5202    -0.0148  1842.4615     2.4612   -73.9004     5.5231     6.1467     9.3325
 2372.5000   118.9614     8.5194    -0.0211  1843.0770     2.4716   -73.9275     5.5593     7.2036    11.7218
 2373.0000   116.5267     8.5284    -0.0237  1843.6923     2.4850   -73.9547     5.5942     7.1524    11.9640
 2373.5000   114.6902     8.5489    -0.0140  1844.3077     2.4983   -73.9818     5.7087     7.0010    10.7789
 2374.0000   112.8541     8.5480    -0.0047  1844.9231     2.5116   -74.0089     5.8661     6.9085    11.0006
 2374.5000   110.8024     8.5472    -0.0023  1845.5385     2.5086   -74.0361     6.0278     6.9554    11.0736
 2375.0000   110.1796     8.5464    -0.0100  1846.1538     2.5011   -74.0632     6.1940     7.1985    10.0460
 2375.5000   109.3494     8.5457    -0.0193  1846.8895     2.4936   -74.0903     6.4091     7.5539     9.9039
 2376.0000   107.6888     8.5449    -0.0269  1847.4982     2.4891   -74.1175     6.5405     8.0371    10.4633
 2376.5000   103.0735     8.5441    -0.0269  1848.1072     2.4831   -74.1446     6.6282     8.4340    12.0949
 2377.0000   100.8704     8.5274    -0.0269  1848.7158     2.4771   -74.1717     6.7170     8.7290    14.0780
 2377.5000   102.0355     8.5116    -0.0269  1849.3248     2.4711   -74.1989     6.8071     8.9108    13.7799
 2378.0000   106.5872     8.5108    -0.0312  1849.9335     2.4651   -74.2260     6.8576     8.9093    13.3717
 2378.5000   108.9822     8.5101    -0.0392  1850.5421     2.4591   -74.2531     6.9427     8.7859    12.5405
 2379.0000   110.5868     8.5091    -0.0436  1851.1511     2.4531   -74.2803     6.9872     8.7243    10.5821
 2379.5000   109.7476     8.5084    -0.0515  1851.7598     2.4471   -74.3074     7.0320     8.7901    10.1476
 2380.0000   107.5849     8.4767    -0.0501  1852.3688     2.4396   -74.3345     7.1253     9.3715    10.5006
 2380.5000   104.5752     8.4759    -0.0424  1852.9774     2.4360   -74.3617     7.1720    10.5075    11.3265
 2381.0000   100.3279     8.4751    -0.0331  1853.5861     2.4558   -74.3938     7.2180    11.1027    13.8379
 2381.5000    94.2917     8.4744    -0.0223  1854.1951     2.4737   -74.4056     7.2643    10.5774    15.6671
 2382.0000    95.2099     8.4736    -0.0162  1885.5729     2.4959   -74.4174     7.2593     9.3400    16.2137
 2382.5000    98.1637     8.4728    -0.0082  1886.1816     2.5108   -74.4291     7.1554     8.6558    12.8969
 2383.0000   100.5429     8.4721    -0.0025  1886.7905     2.5137   -74.4409     7.0530     8.5359    10.9948
 2383.5000   103.8562     8.4713     0.0005  1887.3993     2.4972   -74.4527     6.9521     8.8957    11.5358
 2384.0000   106.5867     8.4705    -0.0087  1888.0082     2.4714   -74.6151     6.8951     9.1439    13.6144
 2384.5000   109.5804     8.4698    -0.0241  1888.6169     2.4461   -74.6269     6.7536     7.6930    14.8898
 2385.0000   114.4863     8.4690    -0.0302  1889.7466     2.4179   -74.6387     6.7033     6.8401    10.5923
 2385.5000   121.6481     8.4682    -0.0364  1920.6156     2.4187   -74.6506     6.5617     6.6529     6.4842
 2386.0000   124.6183     8.4675    -0.0333  1921.2308     2.4290   -74.6626     6.4231     7.1368     8.7885
 2386.5000   121.6005     8.4667    -0.0272  1921.8461     2.4363   -74.6769     6.2874     7.6543    11.2700
 2387.0000   120.9779     8.4659    -0.0211  1922.4617     2.4403   -74.6887     6.1974     8.1804    11.9079
 2387.5000   123.9481     8.4652    -0.0150  1923.0770     2.4353   -74.7005     6.0246     8.0671    11.6585
 2388.0000   128.1160     8.4644    -0.0150  1954.4614     2.4222   -74.7123     5.8565     7.4761    13.2899
