~VERSION INFORMATION
 VERS.                2.0:   CWLS LOG ASCII STANDARD - VERSION 2.0
 WRAP.                 NO:   ONE LINE PER DEPTH STEP
~WELL INFORMATION
#MNEM.UNIT      DATA TYPE    INFORMATION
#----------   ------------   ------------------------------
 STRT.F           30.0000:   START DEPTH
 STOP.F         5698.0000:   STOP DEPTH
 STEP.F            0.5000:   STEP LENGTH
 NULL.          -999.2500:   NO VALUE
 COMP. LAWRRENCE-ALLISON & ASSOCIATES:   COMPANY
 WELL. LAWERNCE "X" #41-3:   WELL
 FLD .           N P R #3:   FIELD
 LOC .       S3 T38N R78W:   LOCATION
 CNTY.            NATRONA:   COUNTY
 STAT.            WYOMING:   STATE
 CTRY. UNITED STATES OF AMERICA:   COUNTRY
 SRVC.      DRESSER ATLAS:   SERVICE COMPANY
 DATE.        04-JUN-1983:   LOGDATE
 API .     49025109200000:   API NUMBER
~CURVE INFORMATION
#MNEM.UNIT       API CODE    CURVE DESCRIPTION
#----------   ------------   ------------------------------
 DEPT.F                  :   
 TENS.LBS    60 635 01 00:   TENSION FROM SONIC
 DT  .US/F   60 520 00 00:   DELTA TIME
 SPR .MV     11 010 01 00:   SPONTANEOUS POTENTIAL FROM RES.
 TENR.LBS    11 635 01 00:   TENSION FROM RES. LOG
 GRR .GAPI   11 310 01 00:   GAMMA RAY FROM RES.
 CALR.IN     11 280 01 00:   CALIPER FROM RES.
 RMLL.OHMM   11 270 04 00:   MICRO LATEROLOG
 RD  .OHMM   11 220 10 00:   RESISTIVITY DEEP
 RS  .OHMM   11 220 09 00:   RESISTIVITY SHALLOW
 TEND.LBS    45 635 01 00:   TENSION FROM DENSITY LOG
 CORR.G/C3   45 356 01 00:   DENSITY CORRECTION
 RHOB.G/C3   45 350 01 00:   BULK DENSITY
 NPHI.DEC    42 890 03 00:   NEUTRON POROSITY SANDSTONE
~PARAMETER INFORMATION
#MNEM.UNIT          VALUE    DESCRIPTION
#----------   ------------   ------------------------------
 EKB .F         5157.5000:   Kelly bushing
 EGL .F         5147.5000:   Ground level
 EDF .F            0.0000:   Drilling floor
 TD  .F         5690.0000:   Total depth
 DATE.        04-JUN-1983:   Date logged
 CLNT.            A2DTECH:   Client Code
 SL  . 2218' FWL & 287' FNL:   Surface Location
 PD  .                 GL:   Permanent Datum
 EPD .F            5147.5:   Elevation Permanent Datum
 LMF .                 KB:   Log Measured From
 DMF .                 KB:   Drilling Measured From
 DD  .F              5690:   Depth driller
 DL  .F              5685:   Depth logger
 BLI .F              5682:   Bottom log interval
 CS1 .IN            9.625:   Casing size
 CBD1.       9.625 @ 568':   Casing driller 1
 CBL1.F               568:   Casing logger 1
 BS1 .IN             8.75:   Bit size
 DFT .        KCL-DRISPAC:   Type fluid in hole
 DFD .                9.1:   Density
 DFV .                 37:   Viscosity
 DFPH.                  8:   pH
 DFL .                3.8:   Fluid loss
 MSS .               TANK:   Source of sample
 RMS .OHMM           0.41:   Rm
 MST .F                75:   Rm Meas. temp.
 RMF .OHMM           0.28:   Rmf
 MFST.F                70:   Rmf Meas. temp.
 RMC .OHMM           0.53:   Rmc
 MCST.F                75:   Rmc Meas. temp.
 MFSS.               MEAS:   Source Rmf.
 RMB .OHMM           0.18:   Rm. at BHT
 BHT .F               160:   BHT.
 TCS .HRS               5:   Time Circ. stopped
 MRT .F               166:   Maximum recorded temp.
 LUN .               6274:   Logging unit number
 LUL .               GLTE:   Logging unit location
 ENGI.             RAUTIO:   Recorded By
 WITN.             STRONG:   Witnessed by
 ORIG.     2.5", 5" PRINT:   Origin of data
 UWI .     49025109200000:   Unique Well ID
 DICO. A2D TECHNOLOGIES, INC.:   Digitizing Company
 MCSS.               CALC:   Source Rmc.
 DAPD.                 10:   Feet Above Permanent Datum
 BSD1.               5690:   Depth drilled with bit1
~OTHER INFORMATION
~A   DEPT     TENS         DT        SPR       TENR         GRR      CALR       RMLL         RD         RS       TEND       CORR       RHOB       NPHI   
# ...
 4970.0000  -999.2500  -999.2500   -79.5700   -58.9950    83.9170     9.9490    20.5510    19.1140    20.5510  -107.8430     0.0310     2.6660     0.1470
 4970.5000  -999.2500  -999.2500   -79.6030   -66.4520    87.0560     9.9490    19.3270    18.1540    19.9790  -117.6470     0.0250     2.6600     0.1480
 4971.0000  -999.2500  -999.2500   -79.6330   -60.2230    90.5010     9.9490    18.1020    17.3550    18.5490  -101.9610     0.0300     2.6540     0.1500
 4971.5000  -999.2500  -999.2500   -79.6580   -45.6710    93.6490     9.9490    18.6450    16.5560    17.1180   -81.4540     0.0350     2.6550     0.1570
 4972.0000  -999.2500  -999.2500   -79.6860   -29.7970    97.3770     9.9490    18.6020    16.2360    15.6870   -67.8590     0.0390     2.6560     0.1670
 4972.5000  -999.2500  -999.2500   -79.7130   -28.7800    99.1930     9.9490    16.2380    15.7670    14.8290   -65.8090     0.0440     2.6580     0.1770
 4973.0000  -999.2500  -999.2500   -79.7400   -28.2570   100.8760     9.9490    14.0440    15.3760    14.8290   -63.7580     0.0470     2.6570     0.1840
 4973.5000  -999.2500  -999.2500   -79.7670   -28.6890   102.0890     9.9490    13.9180    14.9850    15.0320   -61.7080     0.0530     2.6570     0.1830
 4974.0000  -999.2500  -999.2500   -79.7930   -28.4950    99.8870     9.9490    13.7920    14.5620    15.3760   -59.6570     0.0560     2.6560     0.1690
 4974.5000  -999.2500  -999.2500   -79.8210   -28.5190    97.5760     9.9490    16.2360    15.5840    16.8900   -44.2160     0.0720     2.6550     0.1560
 4975.0000  -999.2500  -999.2500   -79.8480   -28.5440    94.3540     9.9490    19.2920    18.1390    18.1520   -19.6080     0.0920     2.6550     0.1510
 4975.5000  -999.2500  -999.2500   -79.8740   -28.5350    86.3010     9.9490    22.3470    20.6940    19.4140     5.0000     0.0710     2.6510     0.1540
 4976.0000  -999.2500  -999.2500   -79.9040   -28.5130    73.7540     9.9490    26.0140    23.7590    20.9270    19.6080     0.0430     2.6480     0.1570
 4976.5000  -999.2500  -999.2500   -79.9260   -28.5790    71.2870     9.9490    23.9490    22.2640    20.9270    17.3530     0.0200     2.6480     0.1580
 4977.0000  -999.2500  -999.2500   -79.9590   -28.6120    74.1930     9.9490    21.3680    20.3940    19.4610    15.1160    -0.0040     2.6480     0.1530
 4977.5000  -999.2500  -999.2500   -79.9760   -31.7950    80.7800     9.9490    19.3900    18.5240    17.9950    12.8790    -0.0020     2.6480     0.1500
 4978.0000  -999.2500  -999.2500   -80.1540   -35.8820    85.0680     9.9490    18.1020    17.3000    16.2360    10.6420     0.0190     2.6480     0.1460
 4978.5000  -999.2500  -999.2500   -80.3270   -40.1140    85.0010     9.9490    18.1020    17.6590    17.0250     0.8250     0.0370     2.6500     0.1420
 4979.0000  -999.2500  -999.2500   -80.1640   -44.0640    82.7880     9.9490    18.4920    18.3030    18.0120   -13.5290     0.0570     2.6560     0.1360
 4979.5000  -999.2500  -999.2500   -79.9870   -47.9780    80.3750     9.9490    19.1420    18.9480    18.9980   -27.8840     0.0540     2.6630     0.1310
 4980.0000  -999.2500  -999.2500   -79.7960   -48.3940    77.7360     9.9490    19.7920    19.4630    20.1820   -42.2390     0.0340     2.6640     0.1290
 4980.5000  -999.2500  -999.2500   -79.6150   -45.6130    76.9400     9.9490    20.1820    19.8200    20.5510   -58.8240     0.0170     2.6590     0.1260
 4981.0000  -999.2500  -999.2500   -79.4300   -38.3370    78.3600     9.9490    20.1820    19.4340    20.3670   -54.8310     0.0010     2.6490     0.1260
 4981.5000  -999.2500  -999.2500   -79.2460   -31.2600    80.0720     9.9490    19.1330    19.0490    19.7450   -45.8820     0.0090     2.6470     0.1260
 4982.0000  -999.2500  -999.2500   -79.0620   -28.4070    81.9610     9.9490    18.4330    18.4330    18.4330   -36.9340     0.0150     2.6500     0.1290
 4982.5000  -999.2500  -999.2500   -78.8780   -31.8150    82.9760     9.9490    18.5010    18.5010    18.5080   -27.9860     0.0300     2.6500     0.1340
 4983.0000  -999.2500  -999.2500   -78.6940   -35.9130    82.7920     9.9490    18.6710    18.6710    18.6020   -19.6080     0.0230     2.6440     0.1380
 4983.5000  -999.2500  -999.2500   -78.5100   -40.0450    82.9770     9.9490    18.8410    18.8410    18.6950   -33.4620     0.0110     2.6400     0.1380
 4984.0000  -999.2500  -999.2500   -78.3250   -44.1170    82.3730     9.9490    19.0120    19.0120    18.7700   -54.2840    -0.0020     2.6390     0.1380
 4984.5000  -999.2500  -999.2500   -78.1420   -47.9850    83.9110     9.9490    19.1140    19.1140    17.8690   -75.1060    -0.0180     2.6500     0.1380
 4985.0000  -999.2500  -999.2500   -77.9570   -48.0120    85.2620     9.9490    17.9960    19.1140    17.1170   -95.9280    -0.0020     2.6590     0.1450
 4985.5000  -999.2500  -999.2500   -77.7710   -45.9470    86.6390     9.9490    16.8780    17.6700    16.3660  -116.7500     0.0270     2.6710     0.1560
 4986.0000  -999.2500  -999.2500   -77.6300   -44.0950    88.1220     9.9490    15.7600    16.4670    15.6140  -137.2550     0.0770     2.6750     0.1690
 4986.5000  -999.2500  -999.2500   -77.6300   -42.1450    93.1310     9.9490    14.6420    15.2630    14.8630   -35.4900     0.0910     2.6710     0.1680
 4987.0000  -999.2500  -999.2500   -77.6660   -40.3040    99.7660     9.9490    13.3000    14.3010    14.3010   156.8630     0.0770     2.6680     0.1660
 4987.5000  -999.2500  -999.2500   -77.7070   -38.4900   103.7570     9.9490    13.3490    14.0440    14.1300   129.4120     0.0370     2.6650     0.1590
 4988.0000  -999.2500  -999.2500   -77.7480   -38.4040   102.1050     9.9490    13.4710    15.7040    13.9180    90.0390    -0.0010     2.6620     0.1460
 4988.5000  -999.2500  -999.2500   -77.7880   -38.3630    98.7170     9.9490    14.9210    18.4700    16.1810    50.6670    -0.0040     2.6590     0.1330
 4989.0000  -999.2500  -999.2500   -77.8290   -38.3940    95.4330     9.9490    18.3650    21.2360    18.8530    11.2940     0.0080     2.6560     0.1220
 4989.5000  -999.2500  -999.2500   -77.8700   -38.3810    91.9520     9.9490    21.8090    24.0020    21.5250   -28.0780     0.0050     2.6540     0.1150
 4990.0000  -999.2500  -999.2500   -77.9090   -38.3830    84.4970     9.9490    25.2530    26.7680    24.1960   -67.4510    -0.0050     2.6540     0.1090
 4990.5000  -999.2500  -999.2500   -77.9530   -38.3860    76.5020     9.9490    28.6970    29.5340    26.8680   -79.2250    -0.0140     2.6600     0.1040
 4991.0000  -999.2500  -999.2500   -77.9920   -38.3850    73.1660     9.9490    31.4700    31.3180    30.0740   -81.6860    -0.0010     2.6680     0.0990
 4991.5000  -999.2500  -999.2500   -78.0070   -38.3860    71.6330     9.9490    32.3360    33.1020    30.7390   -84.1470     0.0150     2.6770     0.0930
 4992.0000  -999.2500  -999.2500   -77.8180   -38.3860    70.1910     9.9490    34.7240    34.8860    32.4000   -86.6080     0.0300     2.6850     0.0880
 4992.5000  -999.2500  -999.2500   -77.6280   -38.3860    66.5340     9.9490    37.1110    36.6700    34.0610   -88.2350     0.0450     2.6890     0.0840
 4993.0000  -999.2500  -999.2500   -77.4320   -38.3860    64.2930     9.9490    39.4990    37.3840    35.7230   -88.2350     0.0590     2.6780     0.0850
 4993.5000  -999.2500  -999.2500   -77.2350   -38.3860    64.4140     9.9490    41.6800    37.1600    37.3840   -88.2350     0.0780     2.6660     0.0870
 4994.0000  -999.2500  -999.2500   -77.0430   -38.3860    65.1360     9.9490    39.7130    36.7120    36.3820   -88.2350     0.0590     2.6560     0.0930
 4994.5000  -999.2500  -999.2500   -76.8600   -38.3860    65.7490     9.9490    36.4340    32.9470    33.5300   -88.2350     0.0180     2.6520     0.1000
 4995.0000  -999.2500  -999.2500   -76.8530   -38.3860    67.0210     9.9490    33.1550    29.8090    30.8520   -88.2350     0.0170     2.6490     0.1010
 4995.5000  -999.2500  -999.2500   -77.0120   -38.3860    68.4980     9.9490    29.8760    26.6720    26.3870   -56.1400     0.0400     2.6460     0.1030
