~VERSION INFORMATION
 VERS.                2.0:   CWLS LOG ASCII STANDARD - VERSION 2.0
 WRAP.                 NO:   ONE LINE PER DEPTH STEP
~WELL INFORMATION
#MNEM.UNIT      DATA TYPE    INFORMATION
#----------   ------------   ------------------------------
 STRT.F            0.0000:   START DEPTH
 STOP.F         4000.0000:   STOP DEPTH
 STEP.F            0.5000:   STEP LENGTH
 NULL.          -999.2500:   NO VALUE
 COMP. LAWRENCE &  ALLISON ASSOC.:   COMPANY
 WELL. LAWRENCE NPR 3 "TX" #14-28:   WELL
 FLD .              N P R:   FIELD
 LOC .      S28 T39N R78W:   LOCATION
 CNTY.            NATRONA:   COUNTY
 STAT.            WYOMING:   STATE
 CTRY. UNITED STATES OF AMERICA:   COUNTRY
 SRVC.      DRESSER ATLAS:   SERVICE COMPANY
 DATE.        11-APR-1984:   LOGDATE
 API .     49025109710000:   API NUMBER
~CURVE INFORMATION
#MNEM.UNIT       API CODE    CURVE DESCRIPTION
#----------   ------------   ------------------------------
 DEPT.F                  :   
 RHOB.G/C3   45 350 01 00:   BULK DENSITY
 CORR.G/C3   45 356 01 00:   DENSITY CORRECTION
 TEND.LBS    45 635 01 00:   TENSION FROM DENSITY LOG
 CNC .DEC    42 890 03 00:   NEUTRON PORISITY SANDSTONE
 DT  .US/F   60 520 00 00:   DELTA TIME
 TENS.LBS    60 635 01 00:   TENSION FROM SONIC LOG
 GRR .GAPI   07 310 01 00:   GAMMA RAY FROM RESISTIVITY
 SPR .MV     07 010 01 00:   SPONTANEOUS POTENTIAL
 CALR.IN     07 280 01 00:   CALIPER FROM RESISTIVITY
 TENR.LBS    07 635 01 00:   TENSION
 RILD.OHMM   07 120 46 00:   INDUCTION LOG DEEP RESISTIVITY
 RILM.OHMM   07 120 44 00:   INDUCTION LOG MEDIUM RESISTIVITY
 RFOC.OHMM   07 220 01 00:   RESISTIVITY FOCUSED LOG RES.
~PARAMETER INFORMATION
#MNEM.UNIT          VALUE    DESCRIPTION
#----------   ------------   ------------------------------
 EKB .F         5024.0000:   Kelly bushing
 EGL .F         5014.0000:   Ground level
 TD  .F         3996.0000:   Total depth
 DATE.        11-APR-1984:   Date logged
 CLNT.            A2DTECH:   Client Code
 SL  . 250' FWL & 2100' FNL:   Surface Location
 PD  .                 GL:   Permanent Datum
 EPD .F              5014:   Elevation Permanent Datum
 LMF .                 KB:   Log Measured From
 DMF .                 KB:   Drilling Measured From
 DD  .F              3996:   Depth driller
 DL  .F              3994:   Depth logger
 BLI .F              3992:   Bottom log interval
 CS1 .IN            8.625:   Casing size
 CBD1.      8.625" @ 404':   Casing driller 1
 CBL1.F               404:   Casing logger 1
 BS1 .IN            7.875:   Bit size
 DFT .            GEL/KCL:   Type fluid in hole
 DFD .                9.1:   Density
 DFV .                 38:   Viscosity
 DFPH.                  8:   pH
 DFL .                 14:   Fluid loss
 MSS .           FLOWLINE:   Source of sample
 RMS .OHMM           .417:   Rm
 MST .F                90:   Rm Meas. temp.
 RMF .OHMM           .313:   Rmf
 MFST.F                90:   Rmf Meas. temp.
 RMC .OHMM           .521:   Rmc
 MCST.F                90:   Rmc Meas. temp.
 MFSS.               CALC:   Source Rmf.
 RMB .OHMM            .25:   Rm. at BHT
 BHT .F               150:   BHT.
 TCS .HRS               3:   Time Circ. stopped
 MRT .F               150:   Maximum recorded temp.
 LUN .               6307:   Logging unit number
 LUL .               GLTE:   Logging unit location
 ENGI.           FAHLSING:   Recorded By
 WITN.             STRONG:   Witnessed by
 ORIG.           5" PRINT:   Origin of data
 UWI .     49025109710000:   Unique Well ID
 DICO. A2D TECHNOLOGIES, INC.:   Digitizing Company
 DAPD.F                10:   Feet Above Permanent Datum
 BSD1.F              3996:   Depth drilled with bit1
 MCSS.               CALC:   Source Rmc.
~OTHER INFORMATION
~A    DEPT    RHOB       CORR       TEND        CNC         DT       TENS         GRR       SPR       CALR       TENR       RILD       RILM       RFOC   
# ...
 2782.0000     2.5140     0.0020    22.2770     0.2300    82.5250    32.1780   134.4320   -39.0630     8.3870   -30.2950     5.2120     4.8280     4.4760
 2782.5000     2.4910     0.0020    22.2770     0.2380    83.5150    32.1780   153.3720   -38.0470     8.3820   -30.3710     4.6820     4.3250     4.0470
 2783.0000     2.4330     0.0220    22.2770     0.2450    87.2770    32.1780   172.6790   -37.0290     8.3760   -30.4480     4.1520     3.8230     3.6190
 2783.5000     2.3500     0.0840    22.2770     0.2510    91.3890    32.1780   186.8750   -36.0130     8.3700   -30.5240     3.6210     3.3200     3.1900
 2784.0000     2.2600     0.1450    22.2770     0.2530    96.7810    32.1780   199.2770   -35.0080     8.3640   -30.6000     3.1790     2.9000     2.7610
 2784.5000     2.2920     0.0910    22.2770     0.2340   102.3270    32.1780   198.4630   -34.4270     8.3580   -30.6770     3.3400     2.9270     2.5740
 2785.0000     2.3730     0.0230    22.2770     0.2130   102.0300    32.1780   187.0660   -34.6890     8.3530   -30.7530     4.1560     3.9350     2.9290
 2785.5000     2.4660    -0.0270    22.2770     0.1980    93.0300    32.1780   158.5100   -34.9570     8.3560   -30.8290     4.9730     4.9830     4.9990
 2786.0000     2.5370    -0.0120    22.2770     0.1870    85.9900    32.2600   129.8830   -35.3430     8.3590   -30.9060     5.7890     6.0310     7.0690
 2786.5000     2.5580     0.0390    22.2770     0.1770    75.4950    32.3610   100.6790   -35.9310     8.3630   -30.9820     6.6050     7.0780     8.5800
 2787.0000     2.5530     0.0290    22.2770     0.1790    74.1090    32.4630    93.8170   -36.5160     8.3660   -31.0580     7.4600     8.1770     8.7990
 2787.5000     2.5410     0.0130    22.2770     0.1880    74.9500    32.5640    93.9210   -37.1000     8.3700   -31.1340     7.4600     8.1770     8.7060
 2788.0000     2.5300     0.0040    22.2770     0.2000    75.9500    32.6650    95.0490   -37.6850     8.3740   -31.2110     7.4600     7.9980     8.5830
 2788.5000     2.5220     0.0100    22.2770     0.2010    76.9500    32.7660   103.5020   -38.2700     8.3770   -31.2870     7.1590     7.6730     8.4590
 2789.0000     2.5180     0.0180    22.2770     0.1990    77.8510    32.8670   107.7180   -38.8550     8.3810   -31.3630     6.8410     7.3480     8.3280
 2789.5000     2.5130     0.0200    22.2770     0.2000    78.4940    32.9680   103.9790   -39.4440     8.3840   -31.4400     6.5240     7.0230     7.8550
 2790.0000     2.5080     0.0070    22.2770     0.2000    79.1370    33.0700   101.8150   -40.0330     8.3880   -31.5160     6.3140     6.6820     7.3530
 2790.5000     2.5070    -0.0070    22.2770     0.2000    79.4550    33.1710   108.1180   -40.0650     8.3910   -31.5920     6.0790     6.4440     6.8520
 2791.0000     2.5060    -0.0080    22.2770     0.1990    79.7330    33.2720   117.6730   -39.8360     8.3950   -31.6690     5.8440     6.1910     6.3500
 2791.5000     2.5030    -0.0060    22.2770     0.1980    79.9830    33.3730   111.7270   -39.4220     8.3980   -31.7450     5.6090     5.9370     5.8490
 2792.0000     2.4980    -0.0090    22.2770     0.1990    80.1490    33.4740   109.7170   -39.0070     8.4020   -31.8210     5.3740     5.6610     5.3130
 2792.5000     2.4940    -0.0170    22.2770     0.2020    80.7850    33.5750   120.0290   -38.5920     8.4060   -31.8980     5.1390     5.2320     4.8330
 2793.0000     2.4900    -0.0250    22.2770     0.2070    81.3440    33.6760   130.7320   -38.1770     8.4090   -31.9740     4.9040     4.8020     4.3180
 2793.5000     2.4860    -0.0280    22.6520     0.2130    82.0300    33.7780   123.2290   -37.7630     8.4090   -32.0500     4.6690     4.3730     3.8030
 2794.0000     2.4800    -0.0180    23.0930     0.2300    82.6580    33.8790   135.0110   -37.3480     8.3920   -32.1270     4.4220     3.9440     3.2890
 2794.5000     2.4570     0.0040    23.5340     0.2540    83.4080    33.9800   156.1560   -36.9340     8.3740   -32.2030     3.9790     3.5150     2.7740
 2795.0000     2.4320     0.0290    23.9750     0.2770    84.0100    34.0810   175.2560   -36.5160     8.3570   -32.2790     3.5000     3.0860     2.4590
 2795.5000     2.3840     0.0810    24.4160     0.2690    88.5100    34.1820   175.7360   -36.3260     8.3390   -32.3560     2.9810     2.6220     2.3700
 2796.0000     2.3190     0.1500    24.8570     0.2600    91.2380    34.2830   176.8970   -36.5900     8.3210   -32.4320     2.9810     2.6220     2.3480
 2796.5000     2.2870     0.1540    25.2980     0.2390    93.3170    34.3850   168.6390   -37.4910     8.3120   -32.5080     3.0360     2.7140     2.3760
 2797.0000     2.3520     0.0660    25.7390     0.2190    88.7130    34.4860   140.9610   -38.3820     8.3080   -32.5840     3.6790     2.8930     2.4910
 2797.5000     2.4370     0.0110    26.1800     0.2080    83.1770    34.5870   115.2310   -39.2730     8.3050   -32.6610     4.3830     3.3320     2.6660
 2798.0000     2.5240     0.0020    26.6210     0.2100    77.9700    34.6880   113.9020   -40.1630     8.3030   -32.7370     5.0860     4.0190     2.8400
 2798.5000     2.5430     0.0190    27.0620     0.2140    77.1780    34.7890   113.5850   -41.0540     8.3000   -32.8130     5.7900     4.7060     3.3480
 2799.0000     2.5430     0.0170    27.5030     0.2180    77.5740    34.8900   114.6080   -41.9450     8.2970   -32.8900     6.5610     5.3930     4.1800
 2799.5000     2.5400     0.0110    27.9440     0.2220    78.7730    34.9910   119.3240   -42.8360     8.2940   -32.9660     6.7190     6.0800     5.0120
 2800.0000     2.5350    -0.0020    28.3850     0.2270    79.7330    35.0930   122.3560   -43.7320     8.2910   -33.0420     6.8210     6.5790     5.8440
 2800.5000     2.5260     0.0080    28.8260     0.2260    80.3340    35.1940   121.8280   -44.3000     8.2890   -33.1190     6.8520     6.6330     6.2940
 2801.0000     2.5180     0.0170    29.2670     0.2170    80.9350    35.2950   119.8430   -44.7310     8.2860   -33.1950     6.8830     6.6720     6.4420
 2801.5000     2.5100     0.0230    29.7080     0.2130    81.4860    35.3960   120.0020   -45.1650     8.2830   -33.2710     6.9130     6.7120     6.4770
 2802.0000     2.5120     0.0160    30.1490     0.2180    81.9370    35.4970   122.0990   -45.5720     8.2800   -33.3480     6.9440     6.7510     6.5100
 2802.5000     2.5140     0.0010    30.5900     0.2270    82.2280    35.5980   124.2350   -45.2880     8.2770   -33.4240     6.9740     6.7910     6.5420
 2803.0000     2.5160    -0.0020    31.0310     0.2320    82.2280    35.6990   125.2300   -44.9490     8.2750   -33.5000     7.0050     6.8300     6.5750
 2803.5000     2.5190     0.0060    31.4720     0.2240    82.0100    35.8010   125.6140   -44.6110     8.2720   -33.5770     7.0350     6.8690     6.6080
 2804.0000     2.5190     0.0140    31.9130     0.2140    81.8030    35.9020   125.9850   -44.2750     8.2690   -33.6530     7.0660     6.9040     6.6410
 2804.5000     2.5190     0.0130    32.3540     0.2080    81.5970    36.0030   126.3570   -43.9360     8.2660   -33.7290     7.0960     6.9390     6.6730
 2805.0000     2.5190     0.0100    32.7950     0.2150    81.4360    36.1040   126.7430   -43.8340     8.2640   -33.8060     7.1270     6.9740     6.7060
 2805.5000     2.5150     0.0070    33.2360     0.2250    81.6340    36.2050   127.9860   -44.0280     8.2610   -33.8820     7.1580     7.0090     6.7390
 2806.0000     2.5080     0.0040    33.6770     0.2260    82.0130    36.3060   130.7470   -44.2230     8.2580   -33.9580     7.1880     7.0440     6.7720
 2806.5000     2.5010     0.0010    34.1180     0.2130    82.3210    36.4080   134.9920   -44.4270     8.2550   -34.0340     7.2190     7.0790     6.8060
 2807.0000     2.4960    -0.0020    34.5590     0.2100    82.4150    36.5090   134.6700   -44.6560     8.2520   -34.1110     7.2490     7.1140     6.8130
 2807.5000     2.4950    -0.0050    35.0000     0.2150    82.3730    36.6100   133.3320   -44.8890     8.2500   -34.1870     7.3140     7.1490     6.8260
