~VERSION INFORMATION
 VERS.                2.0:   CWLS LOG ASCII STANDARD - VERSION 2.0
 WRAP.                 NO:   ONE LINE PER DEPTH STEP
~WELL INFORMATION
#MNEM.UNIT      DATA TYPE    INFORMATION
#----------   ------------   ------------------------------
 STRT.F            0.0000:   START DEPTH
 STOP.F         3982.0000:   STOP DEPTH
 STEP.F            0.5000:   STEP LENGTH
 NULL.          -999.2500:   NO VALUE
 COMP.   LAWRENCE ALLISON:   COMPANY
 WELL. LAWRENCE NPR 3 "LX" #61-10:   WELL
 FLD .                NPR:   FIELD
 LOC .      S10 T38N R78W:   LOCATION
 CNTY.            NATRONA:   COUNTY
 STAT.            WYOMING:   STATE
 CTRY. UNITED STATES OF AMERICA:   COUNTRY
 SRVC.      DRESSER ATLAS:   SERVICE COMPANY
 DATE.        14-APR-1983:   LOGDATE
 API .     49025109180000:   API NUMBER
~CURVE INFORMATION
#MNEM.UNIT       API CODE    CURVE DESCRIPTION
#----------   ------------   ------------------------------
 DEPT.F                  :   
 CALD.IN     45 280 60 00:   CALIPER FROM DENSITY LOG
 RHOB.G/C3   45 350 01 00:   BULK DENSITY
 DRHO.G/C3   45 356 01 00:   DENSITY CORRECTION
 TEND.LBS    45 635 01 00:   TENSION FROM DENSITY LOG
 CNC .DEC    42 890 03 00:   NEUTRON PORISITY SANDSTONE
 GRR .GAPI   07 310 01 00:   GAMMA RAY FROM RESISTIVITY
 SPR .MV     07 010 01 00:   SPONTANEOUS POTENTIAL
 ILD .OHMM   07 120 46 00:   DEEP INDUCTION RESISTIVITY
 ILM .OHMM   07 120 44 00:   INDUCTION LOG MEDIUM RESISTIVITY
 SFL .OHMM   07 220 01 00:   SHALLOW FOCUSED LOG RESISTIVITY
 TENS.LBS    60 635 01 00:   TENSION FROM SONIC LOG
 DT  .US/F   60 520 00 00:   DELTA TIME
 TENR.LBS    07 635 01 00:   TENSION FROM RESISTIVITY
~PARAMETER INFORMATION
#MNEM.UNIT          VALUE    DESCRIPTION
#----------   ------------   ------------------------------
 EKB .F         5164.0000:   Kelly bushing
 EGL .F         5154.0000:   Ground level
 EDF .F            0.0000:   Drilling floor
 TD  .F         3985.0000:   Total depth
 DATE.        14-APR-1983:   Date logged
 CLNT.            A2DTECH:   Client Code
 SL  . 138' FNL & 1331' FEL:   Surface Location
 PD  .                 GL:   Permanent Datum
 EPD .F              5154:   Elevation Permanent Datum
 LMF .                 KB:   Log Measured From
 DMF .                 KB:   Drilling Measured From
 DD  .F              3985:   Depth driller
 DL  .F              3948:   Depth logger
 BLI .F              3945:   Bottom log interval
 CS1 .IN            8.625:   Casing size
 CBD1.      8.625" @ 442':   Casing driller 1
 CBL1.F               453:   Casing logger 1
 BS1 .IN            7.875:   Bit size
 DFT .                KCI:   Type fluid in hole
 DFD .                8.9:   Density
 DFV .                 40:   Viscosity
 DFPH.                8.5:   pH
 DFL .                 10:   Fluid loss
 MSS .           FLOWLINE:   Source of sample
 RMS .OHMM           0.38:   Rm
 MST .F                68:   Rm Meas. temp.
 RMF .OHMM           0.30:   Rmf
 MFST.F                68:   Rmf Meas. temp.
 RMC .OHMM           0.49:   Rmc
 MCST.F                68:   Rmc Meas. temp.
 MFSS.               MEAS:   Source Rmf.
 RMB .OHMM           0.22:   Rm. at BHT
 BHT .F               122:   BHT.
 TCS .HRS               4:   Time Circ. stopped
 MRT .F               122:   Maximum recorded temp.
 LUN .               6764:   Logging unit number
 LUL .              WLSTN:   Logging unit location
 ENGI.            QUICKEL:   Recorded By
 WITN.           JENNINGS:   Witnessed by
 ORIG.           5" PRINT:   Origin of data
 UWI .     49025109180000:   Unique Well ID
 DICO. A2D TECHNOLOGIES, INC.:   Digitizing Company
 DAPD.                 10:   Feet Above Permanent Datum
 BSD1.               3985:   Depth drilled with bit1
 MCSS.               CALC:   Source Rmc.
~OTHER INFORMATION
~A    DEPT    CALD       RHOB       DRHO       TEND        CNC         GRR       SPR        ILD        ILM        SFL       TENS         DT       TENR   
# ...
 3926.0000     7.9100     2.5470    -0.0070   208.3670     0.1550  -999.2500   -22.0430     4.4560     4.8200     5.3750   -24.5490  -999.2500     9.0390
 3926.5000     7.9040     2.5170     0.0020   213.1470     0.1710  -999.2500   -22.5840     3.1380     3.5630     3.6980   -24.5490  -999.2500     9.7180
 3927.0000     7.8980     2.4860     0.0110   213.1470     0.3110  -999.2500   -22.7660     2.9300     3.1580     2.9480   -24.5490  -999.2500    10.3970
 3927.5000     7.8920     2.4530     0.0080   213.1470     0.3500  -999.2500   -22.7870     2.7470     2.7370     2.8010   -24.5490  -999.2500    11.0760
 3928.0000     7.8910     2.4220    -0.0190   213.1470     0.3790  -999.2500   -22.8170     2.5220     2.6880     2.7740   -25.3260  -999.2500    11.7550
 3928.5000     7.8920     2.4230    -0.0240   213.1470     0.3660  -999.2500   -22.7580     2.4730     2.6880     2.8390   -26.2090  -999.2500    12.6360
 3929.0000     7.8940     2.4360    -0.0170   213.1470     0.3450  -999.2500   -22.6920     2.4090     2.6880     2.9180   -27.0920  -999.2500    12.6360
 3929.5000     7.8950     2.4450    -0.0100   213.1470     0.3240  -999.2500   -22.7030     2.4500     2.7460     2.9950   -27.9750  -999.2500    12.6360
 3930.0000     7.8970     2.4530    -0.0090   213.1470     0.3130  -999.2500   -22.5990     2.4990     2.8190     3.0920   -28.8590  -999.2500    12.6360
 3930.5000     7.8980     2.4600    -0.0130   213.1470     0.3130  -999.2500   -22.1990     2.5990     2.8910     3.1670   -29.7420  -999.2500    12.6360
 3931.0000     7.9000     2.4680    -0.0160   213.1470     0.3130  -999.2500   -21.7040     2.7210     2.9430     3.1820   -30.6250  -999.2500    12.6360
 3931.5000     7.9010     2.4790    -0.0210   213.1470     0.3050  -999.2500   -21.2810     2.7880     2.9820     3.1960   -31.5080  -999.2500    12.6360
 3932.0000     7.9020     2.4920    -0.0170   215.6650     0.2970  -999.2500   -20.8480     2.8130     3.0260     3.3150   -32.3910  -999.2500    12.6360
 3932.5000     7.9040     2.5000    -0.0040   220.2100     0.2880  -999.2500   -20.4360     2.8390     3.0260     3.3150   -33.2750  -999.2500    12.6360
 3933.0000     7.9050     2.5030     0.0100   224.7560     0.2800  -999.2500   -20.0480     2.8280     3.0260     3.1960   -34.1580  -999.2500    12.6360
 3933.5000     7.9070     2.5060     0.0230   229.3010     0.2760  -999.2500   -19.6540     2.8120     3.0260     3.2250   -35.0410  -999.2500    12.6360
 3934.0000     7.9080     2.5050     0.0360   233.8460     0.2780  -999.2500   -19.3750     2.7960     3.0260     3.2850   -35.9240  -999.2500    12.6360
 3934.5000     7.9090     2.4970     0.0490   238.3920     0.2840  -999.2500   -19.1900     2.7800     3.0320     3.1520   -36.8070  -999.2500    12.6360
 3935.0000     7.9100     2.4780     0.0620   242.9370     0.2890  -999.2500   -18.9860     2.7620     3.0370     2.9990   -37.6900  -999.2500    12.6360
 3935.5000     7.9100     2.4550     0.0600   247.4830     0.2890  -999.2500   -18.7640     2.8000     3.0410     2.8910   -38.5740  -999.2500    12.6360
 3936.0000     7.9100     2.4310     0.0460   252.0280     0.2750  -999.2500   -18.5050     2.8400     3.0460     3.0240   -39.4570  -999.2500    12.6360
 3936.5000     7.9100     2.4330     0.0310   251.5940     0.2620  -999.2500   -18.2950  -999.2500     3.0510     3.1670   -40.3400  -999.2500    12.6360
 3937.0000     7.9100     2.4410     0.0170   248.0220     0.2500  -999.2500  -999.2500  -999.2500     3.0500     3.4940   -41.2230  -999.2500    12.6360
 3937.5000     7.9100     2.4490     0.0100   244.4510     0.2500  -999.2500  -999.2500  -999.2500     3.0410     3.6310   -42.1060  -999.2500    12.6360
 3938.0000     7.9100     2.4560    -0.0010   240.8790     0.2530  -999.2500  -999.2500  -999.2500     3.0320     3.3580   -42.9900  -999.2500    12.6360
 3938.5000     7.9100     2.4580    -0.0100   237.3080     0.2560  -999.2500  -999.2500  -999.2500     3.0230     3.2050   -43.8730  -999.2500    12.6360
 3939.0000     7.9100     2.4540    -0.0100   233.7360     0.2590  -999.2500  -999.2500  -999.2500     3.0140     3.1670   -36.0270  -999.2500    12.6360
 3939.5000     7.9100     2.4510    -0.0050   235.7770     0.2610  -999.2500  -999.2500  -999.2500     3.0050     3.1670     9.3370  -999.2500    12.6360
 3940.0000     7.9100     2.4500    -0.0110   239.1100     0.2610  -999.2500  -999.2500  -999.2500     2.9990     3.2960    55.6110  -999.2500   133.5480
 3940.5000     7.9100     2.4500    -0.0270   242.4440     0.2540  -999.2500  -999.2500  -999.2500  -999.2500     3.5160   214.5290  -999.2500   235.6980
 3941.0000     7.9100     2.4500    -0.0430   245.7770     0.2460  -999.2500  -999.2500  -999.2500  -999.2500     3.8870   327.2120  -999.2500   340.0590
 3941.5000     7.9100     2.4580    -0.0550   249.1100     0.2320  -999.2500  -999.2500  -999.2500  -999.2500     4.4780   391.3680  -999.2500   458.6220
 3942.0000     7.9100     2.4660    -0.0460   252.4440     0.2190  -999.2500  -999.2500  -999.2500  -999.2500     4.6020   433.6530  -999.2500   468.5330
 3942.5000     7.9100     2.4740    -0.0030   255.7770     0.2130  -999.2500  -999.2500  -999.2500  -999.2500     4.6020   454.4090  -999.2500   498.2660
 3943.0000     7.9100     2.4750    -0.0020   259.1100     0.2080  -999.2500  -999.2500  -999.2500  -999.2500     4.2390   441.9340  -999.2500   498.2660
 3943.5000     7.9100     2.4740    -0.0080   262.4440     0.2040  -999.2500  -999.2500  -999.2500  -999.2500     3.7850   429.4590  -999.2500   448.8220
 3944.0000     7.9100     2.4750    -0.0110   258.2340     0.1950  -999.2500  -999.2500  -999.2500  -999.2500     3.5790   372.8170  -999.2500   389.2470
 3944.5000     7.9100     2.4890     0.0020   252.6780     0.1840  -999.2500  -999.2500  -999.2500  -999.2500     3.5010   271.3150  -999.2500   274.6560
 3945.0000     7.9100     2.5050    -0.0010   247.1230     0.1740  -999.2500  -999.2500  -999.2500  -999.2500     3.5580   112.5430  -999.2500   171.2090
 3945.5000     7.9100     2.5210    -0.0100   241.5670     0.1670  -999.2500  -999.2500  -999.2500  -999.2500     3.5980   -36.6620  -999.2500    25.7680
 3946.0000     7.9100     2.5240    -0.0110   236.0120     0.1660  -999.2500  -999.2500  -999.2500  -999.2500     3.5980  -125.3730  -999.2500  -126.1150
 3946.5000     7.9100     2.5120     0.0260   233.0680     0.1650  -999.2500  -999.2500  -999.2500  -999.2500     3.5980  -204.9100  -999.2500  -157.0260
 3947.0000     7.9100     2.4940     0.0660   246.8440     0.1750  -999.2500  -999.2500  -999.2500  -999.2500     3.5980  -204.9100  -999.2500  -195.4910
 3947.5000     7.9100     2.4850     0.0570   262.6340     0.1810  -999.2500  -999.2500  -999.2500  -999.2500     3.5980  -204.9100  -999.2500  -195.4910
 3948.0000     7.9100     2.4960     0.0260   278.4230     0.1780  -999.2500  -999.2500  -999.2500  -999.2500     3.5980  -204.9100  -999.2500  -195.4910
 3948.5000     7.9100     2.5190     0.0230   292.8290     0.1700  -999.2500  -999.2500  -999.2500  -999.2500     3.5980  -204.9100  -999.2500  -195.4910
 3949.0000     7.9100     2.5340     0.0230   296.3050     0.1690  -999.2500  -999.2500  -999.2500  -999.2500     3.5980  -204.9100  -999.2500  -195.4910
 3949.5000     7.9100     2.5410     0.0230   300.2180     0.1700  -999.2500  -999.2500  -999.2500  -999.2500     3.5980  -204.9100  -999.2500  -195.4910
 3950.0000     7.9100     2.5430     0.0120   304.1310     0.1710  -999.2500  -999.2500  -999.2500  -999.2500     3.5980  -204.9100  -999.2500  -195.4910
 3950.5000     7.9100     2.5460    -0.0010   308.0440     0.1700  -999.2500  -999.2500  -999.2500  -999.2500  -999.2500  -999.2500  -999.2500  -999.2500
 3951.0000     7.9100     2.5530    -0.0010   311.9570     0.1700  -999.2500  -999.2500  -999.2500  -999.2500  -999.2500  -999.2500  -999.2500  -999.2500
 3951.5000     7.9100     2.5690     0.0290   315.8700     0.1560  -999.2500  -999.2500  -999.2500  -999.2500  -999.2500  -999.2500  -999.2500  -999.2500
