~VERSION INFORMATION
 VERS.                2.0:   CWLS LOG ASCII STANDARD - VERSION 2.0
 WRAP.                 NO:   ONE LINE PER DEPTH STEP
~WELL INFORMATION
#MNEM.UNIT      DATA TYPE    INFORMATION
#----------   ------------   ------------------------------
 STRT.F         1053.5000:   START DEPTH
 STOP.F         3062.0000:   STOP DEPTH
 STEP.F            0.5000:   STEP LENGTH
 NULL.          -999.2500:   NO VALUE
 COMP.    FENIX & SCISSON:   COMPANY
 WELL.  FENIX "A" #301-11:   WELL
 FLD .              NPR-3:   FIELD
 LOC .      S11 T38N R78W:   LOCATION
 CNTY.            NATRONA:   COUNTY
 STAT.            WYOMING:   STATE
 CTRY. UNITED STATES OF AMERICA:   COUNTRY
 SRVC.      NL MCCULLOUGH:   SERVICE COMPANY
 DATE.        13-OCT-1977:   LOGDATE
 API .     49025104410000:   API NUMBER
~CURVE INFORMATION
#MNEM.UNIT       API CODE    CURVE DESCRIPTION
#----------   ------------   ------------------------------
 DEPT.F                  :   
 GR  .GAPI   35 310 01 00:   GAMMA RAY
 NEUT.NAPI   35 330 01 00:   NEUTRON
~PARAMETER INFORMATION
#MNEM.UNIT          VALUE    DESCRIPTION
#----------   ------------   ------------------------------
 EDF .F         5165.0000:   Drilling floor
 TD  .F         3097.0000:   Total depth
 CLNT.            A2DTECH:   Client Code
 PD  .                 DF:   Permanent Datum
 EPD .F              5165:   Elevation Permanent Datum
 LMF .                 GL:   Log Measured From
 DMF .                 DF:   Drilling Measured From
 DATE.        13-OCT-1977:   Date Logged [DD-MMM-YYYY]
 DD  .F              3097:   Depth driller
 BLI .F              3060:   Bottom log interval
 TLI .F              1060:   Top log interval
 BSD1.F              3097:   Depth drilled with bit1
 DFT .              WATER:   Type fluid in hole
 ENGI.            MUNDELL:   Recorded By
 ORIG.           5" PRINT:   Origin of data
 UWI .     49025104410000:   Unique Well ID
 DICO. A2D TECHNOLOGIES, INC.:   Digitizing Company
~OTHER INFORMATION
~A  DEPT         GR      NEUT   
# ...
 2997.5000   109.8042   218.1030
 2998.0000   110.4471   204.6430
 2998.5000   108.2373   198.4709
 2999.0000   107.9402   198.4655
 2999.5000   110.9191   198.4600
 3000.0000   110.2977   199.0152
 3000.5000   111.0847   200.1309
 3001.0000   112.6541   173.2150
 3001.5000   117.3387   168.7247
 3002.0000   119.3729   154.7041
 3002.5000   118.4341   150.7744
 3003.0000   119.2165   150.2097
 3003.5000   121.2631   160.2938
 3004.0000   121.0943   170.9398
 3004.5000   120.9378   179.8524
 3005.0000   122.5026   192.7355
 3005.5000   123.7545   221.8762
 3006.0000   124.2239   258.3048
 3006.5000   121.7202   299.5909
 3007.0000   122.1981   305.3740
 3007.5000   122.5026   307.0423
 3008.0000   119.3729   305.3496
 3008.5000   115.9303   305.3388
 3009.0000   114.9914   312.0552
 3009.5000   118.1211   316.5292
 3010.0000   119.0704   319.3214
 3010.5000   118.3962   316.5048
 3011.0000   116.5563   319.2970
 3011.5000   115.6174   334.9831
 3012.0000   116.8692   350.1086
 3012.5000   115.4609   356.8251
 3013.0000   115.6174   368.0264
 3013.5000   116.0868   373.0610
 3014.0000   117.1990   359.8122
 3014.5000   118.7470   333.2336
 3015.0000   119.9989   332.1015
 3015.5000   121.0943   330.9694
 3016.0000   121.8767   325.3525
 3016.5000   121.8767   320.2944
 3017.0000   120.9378   327.5715
 3017.5000   121.1779   339.8940
 3018.0000   122.8156   372.9598
 3018.5000   121.0943   402.3223
 3019.0000   120.4683   416.6627
 3019.5000   120.6248   432.9094
 3020.0000   120.6248   462.0501
 3020.5000   119.9989   468.7692
 3021.0000   120.4683   464.8314
 3021.5000   119.9989   446.3206
 3022.0000   120.6248   403.5947
 3022.5000   123.2850   368.2961
 3023.0000   125.9452   336.9672
 3023.5000   133.1434   334.1533
 3024.0000   136.8503   333.5846
 3024.5000   144.2537   324.0407
 3025.0000   149.5741   307.2117
 3025.5000   153.0168   303.2766
 3026.0000   152.3908   309.8523
 3026.5000   150.5130   372.2068
 3027.0000   147.8528   448.4383
 3027.5000   139.1651   526.7872
 3028.0000   135.3342   641.2642
 3028.5000   133.6129   719.1776
 3029.0000   126.7276   739.9092
 3029.5000   122.8156   744.3859
 3030.0000   116.7127   710.7360
 3030.5000   110.4534   590.1427
 3031.0000   108.8740   530.9534
 3031.5000   108.5756   459.5493
 3032.0000   108.5756   416.3717
 3032.5000   108.5756   393.3760
 3033.0000   110.1405   379.3501
 3033.5000   111.8618   358.5968
 3034.0000   113.4266   342.8890
 3034.5000   114.2090   318.2835
 3035.0000   114.8349   309.7888
 3035.5000   117.9646   309.2174
 3036.0000   121.7202   318.7368
 3036.5000   123.2850   327.6957
 3037.0000   123.7545   333.8515
 3037.5000   130.4832   320.3861
 3038.0000   135.5856   309.1246
 3038.5000   137.5250   236.8315
 3039.0000   138.7768   233.4597
 3039.5000   140.0287   250.8249
 3040.0000   139.4028   301.2686
 3040.5000   138.6203   378.6214
 3041.0000   139.5881   450.9287
 3041.5000   143.7843   551.9175
 3042.0000   149.4177   585.6341
 3042.5000   150.0436   587.1235
 3043.0000   149.5741   576.4584
 3043.5000   147.6964   566.3566
 3044.0000   148.9482   554.0125
 3044.5000   147.3339   537.7441
 3045.0000   141.2805   542.2181
 3045.5000   138.4639   562.6827
 3046.0000   139.2463   598.8149
 3046.5000   140.6546   619.5464
 3047.0000   139.5592   633.5508
 3047.5000   139.2463   646.4339
 3048.0000   140.4981   650.3500
 3048.5000   139.2463   593.7153
 3049.0000   141.2805   503.3107
 3049.5000   145.1926   429.9939
 3050.0000   151.9214   422.6979
 3050.5000   150.5130   440.0631
 3051.0000   149.2612   478.7341
 3051.5000   148.0093   494.4202
 3052.0000   147.3834   505.0609
 3052.5000   148.0093   515.7559
 3053.0000   148.3223   531.8596
 3053.5000   151.6084   562.7681
 3054.0000   153.3297   572.2875
 3054.5000   156.3029   573.9612
 3055.0000   157.5757   568.3416
 3055.5000   158.8066   555.9974
 3056.0000   159.5891   455.0775
 3056.5000  -999.2500   444.4152
 3057.0000  -999.2500   502.1440
 3057.5000  -999.2500   527.9210
 3058.0000  -999.2500   627.6981
 3058.5000  -999.2500   630.4903
 3059.0000  -999.2500   631.6034
 3059.5000  -999.2500   631.5898
 3060.0000  -999.2500   605.5667
 3060.5000  -999.2500   481.8863
 3061.0000  -999.2500   483.5573
 3061.5000  -999.2500   483.5437
 3062.0000  -999.2500   483.5329
