~VERSION INFORMATION
 VERS.                2.0:   CWLS LOG ASCII STANDARD - VERSION 2.0
 WRAP.                 NO:   ONE LINE PER DEPTH STEP
~WELL INFORMATION
#MNEM.UNIT      DATA TYPE    INFORMATION
#----------   ------------   ------------------------------
 STRT.F          212.0000:   START DEPTH
 STOP.F         2806.0000:   STOP DEPTH
 STEP.F            0.5000:   STEP LENGTH
 NULL.          -999.2500:   NO VALUE
 COMP.    FENIX & SCISSON:   COMPANY
 WELL.    FENIX AX #12-21:   WELL
 FLD .        TEAPOT DOME:   FIELD
 LOC .      S21 T39N R78W:   LOCATION
 CNTY.            NATRONA:   COUNTY
 STAT.            WYOMING:   STATE
 CTRY. UNITED STATES OF AMERICA:   COUNTRY
 SRVC.           BIRDWELL:   SERVICE COMPANY
 DATE.        14-AUG-1973:   LOGDATE
 API .     49025106930000:   API NUMBER
~CURVE INFORMATION
#MNEM.UNIT       API CODE    CURVE DESCRIPTION
#----------   ------------   ------------------------------
 DEPT.F                  :   
 SN  .OHMM   05 040 16 00:   SHORT NORMAL 16"
 ILD .OHMM   05 120 46 00:   INDUCTION LOG DEEP RESISTIVITY
 RHOB.G/C3   45 350 01 00:   BULK DENSITY
 CORR.G/C3   45 356 01 00:   DENSITY CORRECTION
 GRD .GAPI   45 310 01 00:   GAMMA RAY FROM DENSITY LOG
 CALD.IN     45 280 60 00:   CALIPER FROM DENSITY LOG
 SPR .MV     05 010 01 00:   SPONTANEOUS POTENTIAL
~PARAMETER INFORMATION
#MNEM.UNIT          VALUE    DESCRIPTION
#----------   ------------   ------------------------------
 EKB .F         4998.0000:   Kelly bushing
 EGL .F         4988.0000:   Ground level
 EDF .F            0.0000:   Drilling floor
 EPD .F         4988.0000:   Permanent datum
 TD  .F         2809.0000:   Total depth
 DATE.        14-AUG-1973:   Date logged
 CLNT.            A2DTECH:   Client Code
 SL  . 1300' FNL & 300' FWL:   Surface Location
 PD  .                 GL:   Permanent Datum
 DD  .F              2800:   Depth driller
 DL  .F              2809:   Depth logger
 BLI .F              2803:   Bottom log interval
 TLI .F               235:   Top log interval
 CS1 .IN            8.625:   Casing size
 BS1 .IN            7.875:   Bit size
 BSD1.F              2800:   Depth drilled with bit1
 DFT .                GEL:   Type fluid in hole
 DFD .                9.7:   Density
 DFV .                 34:   Viscosity
 DFPH.                 12:   pH
 MSS .           FLOWLINE:   Source of sample
 RMS .OHMM            .15:   Rm
 MST .F                57:   Rm Meas. temp.
 RMF .OHMM            .95:   Rmf
 MFST.F                69:   Rmf Meas. temp.
 RMC .OHMM            1.5:   Rmc
 MCST.F                78:   Rmc Meas. temp.
 MFSS.               MEAS:   Source Rmf.
 RMB .OHMM            .87:   Rm. at BHT
 BHT .F               115:   BHT.
 TCS .HRS               3:   Time Circ. stopped
 MRT .F               115:   Maximum recorded temp.
 LUN .               3006:   Logging unit number
 LUL .               CASP:   Logging unit location
 ENGI.             MILLER:   Recorded By
 WITN.           MCGINLEY:   Witnessed by
 UWI .     49025106930000:   Unique Well ID
 DICO. A2D TECHNOLOGIES, INC.:   Digitizing Company
 ORIG.           5" PRINT:   Origin of data
~OTHER INFORMATION
~A   DEPT       SN        ILD       RHOB       CORR         GRD      CALD        SPR   
# ...
 2441.5000     7.8150     5.7990     2.5720     0.1550    91.0580     8.1690   -20.4620
 2442.0000     7.4630     5.6930     2.5800     0.1700    90.9530     8.2330   -20.4370
 2442.5000     7.3100     5.5860     2.5900     0.1750    91.1380     8.1710   -20.4120
 2443.0000     7.3370     5.4800     2.5940     0.1700    91.3170     7.8940   -20.3870
 2443.5000     7.3700     5.3970     2.5820     0.1510    93.2280     7.6740   -20.3610
 2444.0000     7.4030     5.4430     2.5730     0.1410    94.8250     7.6240   -20.3360
 2444.5000     7.4360     5.4870     2.5740     0.1420    89.8540     7.5760   -20.3110
 2445.0000     7.4690     5.5320     2.5840     0.1540    90.0710     7.5600   -20.2860
 2445.5000     7.5020     5.6460     2.5970     0.1580    86.0560     7.6490   -20.2610
 2446.0000     7.7130     5.7980     2.5890     0.1470    86.5280     7.8750   -20.2570
 2446.5000     7.9510     5.9500     2.5820     0.1280    98.7740     7.4880   -20.2570
 2447.0000     7.9920     6.1030     2.5850     0.1220   103.8230     7.5530   -20.2570
 2447.5000     8.2490     6.2550     2.5700     0.1070   102.9800     7.5530   -20.2560
 2448.0000     9.2410     6.4070     2.5570     0.0820    98.3550     7.5930   -20.2580
 2448.5000    10.3050     6.5790     2.5560     0.0730    94.8900     7.6460   -20.5180
 2449.0000    10.9010     6.7720     2.5510     0.0710    99.6990     7.7300   -20.8160
 2449.5000    10.9990     6.9650     2.5410     0.0690   103.6050     7.8430   -21.1180
 2450.0000    11.0980     7.2430     2.5400     0.0670   106.6070     7.9570   -21.4290
 2450.5000    11.1960     7.2280     2.5410     0.0650    97.9970     8.0710   -21.4060
 2451.0000    11.2940     7.2060     2.5360     0.0590    91.2020     8.1840   -21.3610
 2451.5000    11.3930     7.1840     2.5310     0.0560    92.6180     8.2610   -21.3170
 2452.0000    11.4910     7.1630     2.5320     0.0560    89.8420     8.2360   -21.2740
 2452.5000    11.5650     7.1410     2.5320     0.0570   140.0000     8.1520   -21.2580
 2453.0000    11.3490     7.1200     2.5320     0.0600   138.0110     8.0720   -21.3490
 2453.5000    11.1530     7.0980     2.5370     0.0690   139.4040     7.9980   -21.4400
 2454.0000    10.9540     7.0760     2.5430     0.0770   139.2310     7.9680   -21.5310
 2454.5000    10.6160     7.0550     2.5480     0.0880   139.1740     7.9830   -21.6220
 2455.0000    10.2710     6.8180     2.5540     0.1050   138.9480     8.0710   -21.7130
 2455.5000     9.6320     6.4350     2.5600     0.1210    88.8690     8.1060   -21.8020
 2456.0000     8.9920     6.0520     2.5660     0.1310    86.9150     8.0170   -21.7420
 2456.5000     8.4690     5.7160     2.5640     0.1360   140.0000     7.9580   -21.2660
 2457.0000     8.1010     5.5400     2.5620     0.1450   137.5560     8.0010   -20.7950
 2457.5000     7.7340     5.3650     2.5690     0.1590   139.1450     8.0700   -20.3260
 2458.0000     7.3670     5.1890     2.5770     0.1720   138.9740     8.1150   -20.2570
 2458.5000     7.1500     5.0610     2.5810     0.1790   138.9630     8.1010   -20.2560
 2459.0000     7.0100     5.0610     2.5850     0.1780   139.2060     8.0970   -20.2570
 2459.5000     6.8700     5.0610     2.5890     0.1720   137.9640     8.0930   -20.2570
 2460.0000     6.7780     5.0610     2.5850     0.1600   140.0000     8.0890   -20.2570
 2460.5000     6.6920     5.0610     2.5810     0.1530    90.3930     8.0850   -20.2570
 2461.0000     6.6680     5.0610     2.5780     0.1480    94.6590     8.0720   -20.2570
 2461.5000     6.6680     5.0610     2.5760     0.1380    93.8040     8.0550   -20.2570
 2462.0000     6.6680     5.0610     2.5740     0.1330    95.2260     8.0390   -20.2570
 2462.5000     6.6680     5.0420     2.5720     0.1290    97.1430     8.0220   -20.2570
 2463.0000     6.6680     5.0210     2.5700     0.1250   100.8430     8.0070   -20.2570
 2463.5000     6.6120     5.0010     2.5680     0.1220   101.7210     8.0220   -20.2570
 2464.0000     6.4610     4.9800     2.5670     0.1220   101.7060     8.0390   -20.2040
 2464.5000     6.3680     4.9600     2.5710     0.1200   100.7800     8.0400   -20.1140
 2465.0000     6.3680     4.9390     2.5750     0.1100    99.0020     8.0310   -20.0230
 2465.5000     6.4400     4.9230     2.5720     0.1010    96.6980     8.0230   -19.9330
 2466.0000     6.5120     4.9700     2.5620     0.0840    96.1830     8.0150   -19.8650
 2466.5000     6.5840     5.0080     2.5460     0.0700    96.3130     8.0070   -19.8980
 2467.0000     6.6560     5.1590     2.5360     0.0670    96.7130     8.0350   -19.9280
 2467.5000     6.8690     5.3340     2.5350     0.0700    98.9590     8.0680   -19.9580
 2468.0000     7.3340     5.4970     2.5430     0.0770   101.2090     8.0760   -19.9880
 2468.5000     8.4510     5.9060     2.5480     0.0770   102.4730     8.0610   -20.0180
 2469.0000     9.5690     6.2910     2.5450     0.0710   101.4720     8.0460   -20.0480
 2469.5000    10.6630     6.6770     2.5350     0.0670   100.5180     8.0300   -20.0780
 2470.0000    11.7000     7.0620     2.5280     0.0670    96.3830     8.0150   -20.1080
 2470.5000    12.0570     7.3530     2.5260     0.0680    90.2230     8.0000   -20.1380
 2471.0000    12.1190     7.7240     2.5270     0.0680    90.5920     7.9850   -20.1680
 2471.5000    12.1190     7.7150     2.5290     0.0680    90.7820     7.9680   -20.1980
 2472.0000    11.9470     7.6980     2.5260     0.0700    89.7320     8.0010   -20.2270
 2472.5000    11.7130     7.6820     2.5190     0.0730    82.6300     8.0410   -20.2570
 2473.0000    11.4690     7.6650     2.5140     0.0770    82.2090     8.0610   -20.2870
 2473.5000    11.4200     7.6480     2.5140     0.0810    82.0080     8.0520   -20.3170
 2474.0000    11.3690     7.6310     2.5140     0.0850    82.4980     8.0460   -20.3470
 2474.5000    11.3180     7.6140     2.5140     0.0880    88.4360     8.0850   -20.3770
 2475.0000    11.2670     7.5970     2.5140     0.0920    90.5490     8.2050   -20.4070
 2475.5000    11.2160     7.5680     2.5140     0.0960    92.4710     8.2200   -20.4360
 2476.0000    11.1650     7.4930     2.5170     0.1010    94.4220     8.2370   -20.4370
 2476.5000    11.1140     7.4180     2.5270     0.1100    94.3870     8.2290   -20.3490
 2477.0000    11.0630     7.3440     2.5500     0.1390    93.3690     8.2120   -20.2620
 2477.5000    10.7030     7.2690     2.5570     0.1610    92.4060     8.1960   -20.1750
 2478.0000    10.1260     7.0080     2.5640     0.1810    91.5890     8.1790   -20.0890
 2478.5000     9.4650     6.4930     2.5760     0.2020    90.7580     8.1650   -20.0020
 2479.0000     8.8040     6.2150     2.5890     0.2070    90.2590     8.2300   -19.9150
 2479.5000     8.1430     5.9710     2.6020     0.2080    89.1860     8.2990   -19.8280
 2480.0000     7.6120     5.7030     2.6020     0.2060    89.1510     8.3330   -19.7380
 2480.5000     7.3070     5.6750     2.5760     0.1930   103.4350     8.3660   -19.6650
 2481.0000     7.1670     5.6190     2.5570     0.1960   100.0390     8.4190   -19.4050
 2481.5000     7.0630     5.5480     2.5510     0.2040    99.9630     8.3230   -19.0490
 2482.0000     7.2650     5.5770     2.5440     0.2150    99.3530     8.2250   -18.7340
 2482.5000     7.4590     5.6160     2.5490     0.2360    93.5600     8.1660   -18.8620
 2483.0000     7.6490     5.6550     2.5890     0.2580    92.5230     8.1150     0.2670
 2483.5000     7.8340     5.6940     2.6070     0.2740    91.7170     8.0860    -0.2510
 2484.0000     8.0180     5.8600     2.6310     0.2620    91.8970     8.0570    -0.2090
 2484.5000     8.2020     6.1340     2.6960     0.2370   101.2910     8.0280    -0.3210
 2485.0000     8.5550     6.4070     2.6600     0.1900   102.1880     7.9990    -0.4350
 2485.5000     9.1650     6.6810     2.5790     0.1210   101.9910     7.9810    -0.5350
 2486.0000     9.7740     6.9540     2.5190     0.0660    98.9550     7.9720    -0.6340
 2486.5000    10.3660     7.1980     2.5200     0.0680    84.9130     7.9630    -0.7340
