~VERSION INFORMATION
 VERS.                2.0:   CWLS LOG ASCII STANDARD - VERSION 2.0
 WRAP.                 NO:   ONE LINE PER DEPTH STEP
~WELL INFORMATION
#MNEM.UNIT      DATA TYPE    INFORMATION
#----------   ------------   ------------------------------
 STRT.F          502.0000:   START DEPTH
 STOP.F         4210.0000:   STOP DEPTH
 STEP.F            0.5000:   STEP LENGTH
 NULL.          -999.2500:   NO VALUE
 COMP.   FENIX & SCISSION:   COMPANY
 WELL. FENIX NPR 3 "JX" #43-34:   WELL
 FLD .              N P R:   FIELD
 LOC .      S34 T39N R78W:   LOCATION
 CNTY.            NATRONA:   COUNTY
 STAT.            WYOMING:   STATE
 CTRY. UNITED STATES OF AMERICA:   COUNTRY
 SRVC.              WELEX:   SERVICE COMPANY
 DATE.        05-FEB-1979:   LOGDATE
 API .     49025107690000:   API NUMBER
~CURVE INFORMATION
#MNEM.UNIT       API CODE    CURVE DESCRIPTION
#----------   ------------   ------------------------------
 DEPT.F                  :   
 TENR.LBS    07 635 01 00:   TENSION FROM RESISTIVITY
 SPR .MV     07 010 01 00:   SPONTANEOUS POTENTIAL
 SFL .OHMM   07 220 01 00:   SHALLOW FOCUSED LOG RESISTIVITY
 ILD .OHMM   07 120 46 00:   DEEP INDUCTION RESISTIVITY
 ILM .OHMM   07 120 44 00:   INDUCTION LOG MEDIUM RESISTIVITY
 TEND.LBS    45 635 01 00:   TENSION FROM DENSITY LOG
 CALD.IN     45 280 60 00:   CALIPER FROM DENSITY LOG
 GRD .GAPI   45 310 01 00:   GAMMA RAY FROM DENSITY LOG
 CORR.G/C3   45 356 01 00:   DENSITY CORRECTION
 NPHI.DEC    42 890 03 00:   NEUTRON POROSITY SANDSTONE
 RHOB.G/C3   45 350 01 00:   BULK DENSITY
~PARAMETER INFORMATION
#MNEM.UNIT          VALUE    DESCRIPTION
#----------   ------------   ------------------------------
 EKB .F         5108.0000:   Kelly bushing
 EGL .F         5098.0000:   Ground level
 TD  .F         4204.0000:   Total depth
 DATE.        05-FEB-1979:   Date logged
 CLNT.            A2DTECH:   Client Code
 SL  . 1627' FNL & 2110' FWL:   Surface Location
 PD  .                 GL:   Permanent Datum
 DD  .F              4200:   Depth driller
 DL  .F              4204:   Depth logger
 BLI .F              4202:   Bottom log interval
 CS1 .IN            8.625:   Casing size
 CBD1.      8.625" @ 506':   Casing driller 1
 CBL1.F               506:   Casing logger 1
 BS1 .IN            7.875:   Bit size
 DFT .           CHEM/GEL:   Type fluid in hole
 DFD .                9.2:   Density
 DFV .                 55:   Viscosity
 DFPH.                9.5:   pH
 DFL .                5.7:   Fluid loss
 MSS .            MUD/PIT:   Source of sample
 RMS .OHMM            1.1:   Rm
 MST .F                52:   Rm Meas. temp.
 RMF .OHMM            .45:   Rmf
 MFST.F                52:   Rmf Meas. temp.
 RMC .OHMM            1.8:   Rmc
 MCST.F                52:   Rmc Meas. temp.
 MFSS.               MEAS:   Source Rmf.
 RMB .OHMM           5.06:   Rm. at BHT
 BHT .F               128:   BHT.
 TCS .HRS               8:   Time Circ. stopped
 MRT .F               128:   Maximum recorded temp.
 LUN .               9685:   Logging unit number
 LUL .             CASPER:   Logging unit location
 ENGI.        KEIN/JOINER:   Recorded By
 WITN.        J. DINSMORE:   Witnessed by
 ORIG.           5" PRINT:   Origin of data
 UWI .     49025107690000:   Unique Well ID
 DICO. A2D TECHNOLOGIES, INC.:   Digitizing Company
 DAPD.F                10:   Feet Above Permanent Datum
 BSD1.F              4200:   Depth drilled with bit1
 MCSS.               MEAS:   Source Rmc.
 EPD .F              5098:   Elevation Permanent Datum
 LMF .                 KB:   Log Measured From
 DMF .                 KB:   Drilling Measured From
 TLI .F               500:   Top log interval
~OTHER INFORMATION
~A   DEPT     TENR        SPR        SFL        ILD        ILM        TEND        CALD       GRD        CORR       NPHI       RHOB 
# ...
 1722.0000  1020.0000   -57.8260     6.5620     4.9610     4.0650  1090.5570     9.0200   153.2130     0.0010     0.3080     2.4650
 1722.5000  1020.0000   -57.7930     6.5070     4.8930     4.0650  1090.6680     9.0200   153.1730     0.0020     0.3060     2.4630
 1723.0000  1020.0000   -57.7590     6.4410     4.8260     4.0650  1090.7791     9.0150   153.5550     0.0030     0.3070     2.4560
 1723.5000  1020.0000   -57.7250     6.3760     4.7580     4.0650  1090.8900     9.0110   154.2730     0.0050     0.3110     2.4580
 1724.0000  1020.0000   -57.6910     6.3160     4.6910     4.0610  1091.0010     9.0060   154.9470     0.0060     0.3140     2.4480
 1724.5000  1020.0000   -57.6580     6.2780     4.6240     4.0530  1091.1121     9.0010   155.5690     0.0140     0.3180     2.4280
 1725.0000  1020.0000   -57.6240     6.2410     4.6040     4.0450  1091.2230     8.9960   156.3710     0.0270     0.3160     2.4330
 1725.5000  1020.0000   -57.5900     6.2030     4.5840     4.0380  1091.3340     8.9910   155.9370     0.0400     0.3150     2.4430
 1726.0000  1020.0000   -57.5560     6.1650     4.5640     4.0310  1091.4449     8.9870   154.6250     0.0470     0.3210     2.4150
 1726.5000  1020.0000   -57.5220     6.1270     4.5440     4.0230  1091.5560     8.9820   153.3900     0.0430     0.3290     2.3900
 1727.0000  1020.0000   -57.4890     6.0960     4.5250     4.0160  1091.6670     8.9800   152.5200     0.0390     0.3370     2.3940
 1727.5000  1020.0000   -57.4550     6.0820     4.5050     4.0090  1091.7770     8.9800   153.3240     0.0340     0.3420     2.3750
 1728.0000  1020.0000   -57.4210     6.0630     4.4850     4.0010  1091.8879     8.9800   154.7340     0.0180     0.3420     2.3480
 1728.5000  1020.0000   -57.3870     6.0450     4.4650     3.9940  1091.9990     8.9800   155.3990     0.0050     0.3480     2.3620
 1729.0000  1020.0000   -57.3540     6.0270     4.4450     3.9910  1092.1100     8.9800   154.8660    -0.0110     0.3470     2.3730
 1729.5000  1020.0000   -57.3200     6.0080     4.4250     3.9730  1092.2209     8.9800   156.3610    -0.0130     0.3450     2.3680
 1730.0000  1020.0000   -57.2860     5.9900     4.4050     3.9490  1092.3320     8.9800   158.4140    -0.0030     0.3410     2.3920
 1730.5000  1020.0000   -57.2520     5.9290     4.3850     3.9250  1092.4430     8.9800   160.4220     0.0050     0.3310     2.4100
 1731.0000  1020.0000   -57.2180     5.8530     4.3460     3.9010  1092.5540     8.9790   161.9160     0.0140     0.3270     2.4450
 1731.5000  1020.0000   -57.1880     5.7680     4.2880     3.8780  1092.6650     8.9840   161.2250     0.0230     0.3240     2.4630
 1732.0000  1020.0000   -57.1250     5.8080     4.2290     3.8540  1092.7760     8.9400   160.7420     0.0300     0.3240     2.4630
 1732.5000  1020.0000   -57.0390     5.8520     4.1710     3.7800  1092.8870     8.8960   160.0440     0.0370     0.3230     2.4420
 1733.0000  1020.0000   -56.9530     5.8750     4.0880     3.6820  1092.9980     8.9010   159.3710     0.0450     0.3250     2.4050
 1733.5000  1020.0000   -56.8760     5.8050     3.9770     3.5850  1093.1080     8.9000   156.2430     0.0560     0.3270     2.3540
 1734.0000  1020.0000   -56.7810     5.6990     3.8010     3.4880  1093.2190     8.9000   152.8590     0.0670     0.3240     2.3000
 1734.5000  1020.0000   -56.8260     5.3850     3.5460     3.3910  1093.3300     8.9000   149.3350     0.0800     0.3180     2.2350
 1735.0000  1020.0000   -56.8910     4.9780     3.1990     3.2940  1093.4410     8.9000   147.5980     0.0630     0.3210     2.1400
 1735.5000  1020.0000   -56.9600     4.4930     3.2180     3.1960  1093.5520     8.9010   146.7300     0.0230     0.3240     2.1980
 1736.0000  1020.0000   -57.0250     3.4440     3.2470     3.1410  1093.6630     8.8940   146.8840    -0.0150     0.3240     2.3100
 1736.5000  1020.0000   -57.0920     3.5810     3.2590     3.1410  1093.7740     8.8810   147.6720    -0.0220     0.3190     2.3580
 1737.0000  1020.0000   -57.1580     4.2090     3.4210     3.2190  1093.8850     8.8690   150.3990    -0.0170     0.3140     2.4000
 1737.5000  1020.0000   -57.2240     4.5400     3.6210     3.3160  1093.9960     8.8570   152.9980    -0.0120     0.3120     2.4190
 1738.0000  1020.0000   -57.2910     5.6990     3.8210     3.4120  1094.1071     8.8450   153.7300    -0.0080     0.3160     2.4170
 1738.5000  1020.0000   -57.3570     6.0960     4.0210     3.5080  1094.2180     8.8330   154.7480    -0.0030     0.3200     2.4160
 1739.0000  1020.0000   -57.4250     6.1320     4.1920     3.6050  1094.3280     8.8210   153.5970     0.0010     0.3220     2.4280
 1739.5000  1020.0000   -57.4880     6.1790     4.3540     3.7010  1094.4390     8.8100   154.4880     0.0060     0.3240     2.4470
 1740.0000  1020.0000   -57.5640     6.2210     4.4720     3.7970  1094.5500     8.7980   156.0100     0.0110     0.3270     2.4450
 1740.5000  1020.0000   -57.5870     6.2520     4.5400     3.8940  1094.6610     8.7860   157.0910     0.0150     0.3320     2.4390
 1741.0000  1020.0000   -57.6120     6.2840     4.5030     3.9910  1094.7720     8.7740   157.7680     0.0200     0.3310     2.4420
 1741.5000  1020.0000   -57.6340     6.3250     4.3950     3.9670  1094.8831     8.7620   155.5910     0.0240     0.3300     2.4390
 1742.0000  1020.0000   -57.6580     6.2320     4.2880     3.9230  1094.9940     8.7500   153.4430     0.0300     0.3300     2.4280
 1742.5000  1020.0000   -57.6810     5.9540     4.1810     3.8790  1095.1050     8.7380   152.9860     0.0310     0.3300     2.4120
 1743.0000  1020.0000   -57.7040     5.4300     4.0650     3.8350  1095.2159     8.7260   154.2760     0.0270     0.3300     2.3950
 1743.5000  1020.0000   -57.7270     4.6240     3.9820     3.7910  1095.3270     8.7150   154.6590     0.0150     0.3320     2.3850
 1744.0000  1020.0000   -57.7500     4.7270     3.8460     3.7470  1095.4380     8.7010   154.1020     0.0030     0.3280     2.3770
 1744.5000  1020.0000   -57.7740     5.0720     3.8880     3.7070  1095.5490     8.7000   156.3840    -0.0100     0.3220     2.3800
 1745.0000  1020.0000   -57.7970     5.4170     3.9740     3.7070  1095.6591     8.7000   155.6120    -0.0170     0.3170     2.4160
 1745.5000  1020.0000   -57.8200     5.7610     4.0600     3.7070  1095.7700     8.7000   157.4870    -0.0120     0.3140     2.4110
 1746.0000  1020.0000   -57.8430     5.9850     4.1460     3.7490  1095.8810     8.7000   159.6550    -0.0070     0.3160     2.4120
 1746.5000  1020.0000   -57.8660     6.0240     4.2310     3.7880  1095.9919     8.7000   161.8640    -0.0010     0.3200     2.4120
 1747.0000  1020.0000   -57.8890     6.0700     4.3000     3.8270  1096.1030     8.7000   161.4740     0.0040     0.3250     2.4270
 1747.5000  1020.0000   -57.9130     6.0960     4.3180     3.8660  1096.2140     8.7000   161.0130     0.0090     0.3300     2.4470
 1748.0000  1020.0000   -57.9350     6.0960     4.3360     3.9050  1096.3250     8.7000   160.5190     0.0150     0.3290     2.4690
 1748.5000  1020.1540   -57.9590     6.0960     4.3540     3.9440  1096.4360     8.7000   159.9740     0.0200     0.3280     2.4700
 1749.0000  1020.3400   -57.9690     6.0960     4.3760     3.9910  1096.5470     8.7000   159.5430     0.0260     0.3280     2.4700
 1749.5000  1020.5260   -57.9680     6.0960     4.3760     3.9850  1096.6580     8.7000   159.3520     0.0310     0.3260     2.4620
 1750.0000  1020.7120   -57.9680     6.0960     4.3760     3.9770  1096.7690     8.7000   156.0000     0.0280     0.3240     2.4540
 1750.5000  1020.8980   -57.9680     6.0960     4.3760     3.9700  1096.8790     8.7000   152.8580     0.0230     0.3270     2.4440
 1751.0000  1021.0830   -57.9680     6.0960     4.3760     3.9630  1096.9900     8.6940   153.9140     0.0180     0.3250     2.4460
 1751.5000  1021.2690   -57.9680     6.0400     4.3760     3.9550  1097.1010     8.6880   155.1830     0.0130     0.3220     2.4420
 1752.0000  1021.4550   -57.9680     5.9020     4.3760     3.9480  1097.2120     8.6810   156.4770     0.0110     0.3250     2.4430
