~VERSION INFORMATION
 VERS.                2.0:   CWLS LOG ASCII STANDARD - VERSION 2.0
 WRAP.                 NO:   ONE LINE PER DEPTH STEP
~WELL INFORMATION
#MNEM.UNIT      DATA TYPE    INFORMATION
#----------   ------------   ------------------------------
 STRT.F            0.0000:   START DEPTH
 STOP.F         3474.0000:   STOP DEPTH
 STEP.F            0.5000:   STEP LENGTH
 NULL.          -999.2500:   NO VALUE
 COMP. LAWRENCE ALLISON & ASSOCIATES:   COMPANY
 WELL. LAWRENCE ALLISON #13-AX-14:   WELL
 FLD .            WILDCAT:   FIELD
 LOC .      S14 T38N R78W:   LOCATION
 CNTY.            NATRONA:   COUNTY
 STAT.            WYOMING:   STATE
 CTRY. UNITED STATES OF AMERICA:   COUNTRY
 SRVC.      DRESSER ATLAS:   SERVICE COMPANY
 DATE.        31-MAR-1986:   LOGDATE
 API .     49025110640000:   API NUMBER
~CURVE INFORMATION
#MNEM.UNIT       API CODE    CURVE DESCRIPTION
#----------   ------------   ------------------------------
 DEPT.F                  :   
 TEND.LBS    45 635 01 00:   TENSION FROM DENSITY LOG
 RHOB.G/C3   45 350 01 00:   BULK DENSITY
 CORR.G/C3   45 356 01 00:   DENSITY CORRECTION
 CALD.IN     45 280 60 00:   CALIPER FROM DENSITY LOG
 NPHI.DEC    42 890 00 00:   NEUTRON POROSITY
 TENR.LBS    07 635 01 00:   TENSION FROM RESISTIVITY
 RFOC.OHMM   07 220 01 00:   RESISTIVITY FOCUSED LOG RES.
 RILD.OHMM   07 120 46 00:   DEEP INDUCTION RESISTIVITY
 RILM.OHMM   07 120 44 00:   INDUCTION LOG MEDIUM RESISTIVITY
 GRR .GAPI   07 310 01 00:   GAMMA RAY FROM RESISTIVITY
 SPR .MV     07 010 01 00:   SPONTANEOUS POTENTIAL
 TENS.LBS    60 635 01 00:   TENSION FROM SONIC LOG
 DT  .US/F   60 520 00 00:   DELTA TIME
~PARAMETER INFORMATION
#MNEM.UNIT          VALUE    DESCRIPTION
#----------   ------------   ------------------------------
 EKB .F         5251.0000:   Kelly bushing
 EGL .F         5239.2000:   Ground level
 EDF .F         5248.1000:   Drilling floor
 TD  .F         3456.0000:   Total depth
 DATE.        31-MAR-1986:   Date logged
 CLNT.            A2DTECH:   Client Code
 SL  . 238' FWL & 1739' FNL:   Surface Location
 PD  .                 GL:   Permanent Datum
 EPD .F            5239.2:   Elevation Permanent Datum
 LMF .                 KB:   Log Measured From
 DMF .                 KB:   Drilling Measured From
 DAPD.F              11.8:   Feet Above Permanent Datum
 DD  .F              3450:   Depth driller
 DL  .F              3456:   Depth logger
 BLI .F              3450:   Bottom log interval
 CS1 .IN            8.625:   Casing size
 CBD1.      8.625" @ 689':   Casing driller 1
 CBL1.F               692:   Casing logger 1
 BS1 .IN            7.875:   Bit size
 BSD1.F              3450:   Depth drilled with bit1
 DFT .        POLYMER/KCL:   Type fluid in hole
 DFD .                9.1:   Density
 DFV .                 38:   Viscosity
 DFPH.                8.5:   pH
 DFL .               11.2:   Fluid loss
 MSS .           FLOWLINE:   Source of sample
 RMS .OHMM            .29:   Rm
 MST .F                65:   Rm Meas. temp.
 RMF .OHMM           .235:   Rmf
 MFST.F                65:   Rmf Meas. temp.
 RMC .OHMM           .378:   Rmc
 MCST.F                65:   Rmc Meas. temp.
 MFSS.               MEAS:   Source Rmf.
 MCSS.               MEAS:   Source Rmc.
 RMB .OHMM           .163:   Rm. at BHT
 BHT .F               115:   BHT.
 TCS .HRS               3:   Time Circ. stopped
 MRT .F               115:   Maximum recorded temp.
 LUN .            HL-6274:   Logging unit number
 LUL .           GILLETTE:   Logging unit location
 ENGI.             RAUTIO:   Recorded By
 WITN.             STRONG:   Witnessed by
 ORIG.           5" PRINT:   Origin of data
 UWI .     49025110640000:   Unique Well ID
 DICO. A2D TECHNOLOGIES, INC.:   Digitizing Company
~OTHER INFORMATION
~A    DEPT    TEND       RHOB       CORR       CALD       NPHI       TENR       RFOC       RILD       RILM          GRR      SPR       TENS         DT   
# ...
 2522.0000   -54.8050     2.5570     0.0270    10.3470     0.2550   -54.6190     5.9080     4.7990     4.8810   107.1660   -22.0710   -56.8420    86.3960
 2522.5000   -44.7950     2.5570     0.0270    10.3440     0.2460   -54.4600     5.6190     4.9840     5.0490   107.7960   -22.4230   -56.9920    86.1960
 2523.0000   -44.7950     2.5530     0.0120    10.3400     0.2480   -55.1320     5.3870     5.1880     5.1430   105.5220   -22.6090   -57.1420    86.4640
 2523.5000   -44.7950     2.5490    -0.0040    10.3360     0.2600   -56.1540     5.3870     5.1680     5.2460   102.3430   -22.6810   -57.2930    86.5510
 2524.0000   -44.7950     2.5440    -0.0030    10.3320     0.2680   -57.1760     5.8070     5.1440     5.3490   102.3630   -22.8390   -57.4430    86.3960
 2524.5000   -44.7950     2.5440     0.0050    10.3290     0.2600   -58.1980     6.1300     5.1910     5.4010   106.8870   -22.9950   -57.5930    86.0130
 2525.0000   -44.7950     2.5440     0.0120    10.3250     0.2590   -59.2190     5.8600     5.3390     5.4230   108.3340   -23.1520   -57.7440    86.0400
 2525.5000   -44.7950     2.5450     0.0140    10.3210     0.2590   -60.2410     5.5890     5.4870     5.4460   104.6540   -23.3090   -57.8940    86.0680
 2526.0000   -83.0330     2.5410     0.0020    10.3170     0.2580   -61.2630     5.7260     5.4900     5.4680   103.6810   -23.5160   -58.0440    86.0960
 2526.5000  -132.1820     2.5380    -0.0090    10.3140     0.2610   -62.2850     5.9020     5.5060     5.4870   105.1180   -23.8190   -58.1940    85.8720
 2527.0000  -154.9050     2.5380    -0.0080    10.3100     0.2640   -63.3070     6.1300     5.5230     5.4870   107.6740   -24.1280   -58.3450    85.3990
 2527.5000  -136.6370     2.5360     0.0030    10.3060     0.2610   -64.3280     6.1220     5.5380     5.4870   106.2840   -24.1960   -58.4950    84.9580
 2528.0000   -62.9130     2.5310     0.0150    10.3040     0.2580   -65.3500     6.1100     5.4230     5.3910   102.7010   -23.8470   -58.6450    84.8120
 2528.5000   -44.7950     2.5260     0.0150    10.3060     0.2610   -66.3720     6.0980     5.2530     5.2500   100.4700   -23.4600   -58.7960    84.8470
 2529.0000   -34.8850     2.5240     0.0110    10.3070     0.2670   -67.3940     6.0860     5.0840     5.1090   100.3840   -23.3560   -58.9460    84.8830
 2529.5000   -25.6690     2.5240     0.0070    10.3080     0.2680   -68.4160     6.0740     4.9150     4.9690   104.4510   -23.2810   -59.0960    85.1340
 2530.0000   -16.4540     2.5320     0.0030    10.3090     0.2740   -69.4370     5.5560     4.7770     4.9110   108.8880   -23.2060   -59.2470    86.0910
 2530.5000   -19.1880     2.5380     0.0030    10.3110     0.2830   -70.4590     5.0390     4.8630     4.9110   113.1670   -23.1310   -59.3970    87.1630
 2531.0000   -40.6910     2.5370     0.0020    10.3120     0.2780   -71.4810     4.7770     4.9110     4.9110   112.3850   -23.0570   -59.5470    87.8310
 2531.5000   -62.1930     2.5330     0.0010    10.3130     0.2660   -72.5030     4.9720     4.8110     4.8510   107.8710   -23.0590   -59.6970    87.7980
 2532.0000   -84.8350     2.5330     0.0040    10.3140     0.2540   -73.5250     5.4880     4.7370     4.7860   104.2430   -23.3710   -59.8480    86.6590
 2532.5000   -71.1340     2.5330     0.0040    10.3150     0.2540   -74.4730     6.0050     4.6630     4.7210   101.8230   -23.6820   -59.9980    85.3950
 2533.0000   -54.8050     2.5320    -0.0050    10.3170     0.2680   -73.6390     6.1300     4.5880     4.6570   102.2570   -23.9930   -60.1480    84.9950
 2533.5000   -54.8050     2.5320    -0.0080    10.3180     0.2800   -72.8610     5.4140     4.5610     4.6470   107.7310   -24.3210   -60.2990    85.4710
 2534.0000   -81.7320     2.5350    -0.0010    10.3190     0.2810   -72.0820     4.7330     4.5610     4.7330   113.7460   -24.0850   -60.4490    86.7270
 2534.5000  -104.8550     2.5360     0.0110    10.3200     0.2750   -71.3040     4.6980     4.6900     4.7770   114.0450   -23.6380   -60.5990    87.7910
 2535.0000   -98.0790     2.5310     0.0230    10.3220     0.2700   -70.5250     4.6900     4.7330     4.9110   111.6410   -23.2230   -60.7500    88.0980
 2535.5000   -82.9560     2.5230     0.0360    10.3230     0.2640   -69.7470     5.0080     4.8210     5.0030   109.7710   -23.3340   -60.9000    87.5980
 2536.0000   -67.8330     2.5280     0.0480    10.3240     0.2480   -68.9680     5.8040     5.0450     5.2090   110.1060   -23.6180   -61.0500    86.1620
 2536.5000   -60.6250     2.5470     0.0510    10.3240     0.2290   -68.1890     6.3610     5.2900     5.4300   108.7890   -24.1430   -61.2000    84.7580
 2537.0000   -54.8050     2.5990     0.0410    10.3240     0.2110   -67.4110     6.7970     5.5350     5.6510   100.7030   -24.6710   -61.3510    82.9630
 2537.5000   -50.8530     2.6490     0.0190    10.3240     0.1900   -66.6320     7.1070     5.7800     5.8710    91.7450   -25.1680   -61.5010    79.3210
 2538.0000   -45.6800     2.6770     0.0030    10.3240     0.1900   -65.8540     7.7970     6.0180     6.0920    82.5860   -25.0800   -61.6510    74.1080
 2538.5000   -40.5060     2.6530     0.0070    10.3240     0.2070   -65.0750     8.3150     6.1130     6.1870    80.5680   -25.0290   -61.8020    67.5000
 2539.0000   -34.7850     2.6290     0.0130    10.3240     0.2240   -64.2970     7.9840     6.1870     6.1870    84.2420   -25.0790   -61.9520    64.4740
 2539.5000   -49.8670     2.6040     0.0260    10.3240     0.2410   -63.5180     7.3340     6.1620     6.1870    88.1170   -25.1300   -62.1020    66.5500
 2540.0000   -71.7110     2.5850     0.0370    10.3240     0.2580   -62.7400     6.6830     6.1280     6.1870    94.9820   -25.1840   -62.2530    71.7600
 2540.5000   -74.0170     2.5700     0.0370    10.3240     0.2610   -61.9610     6.2450     6.0950     6.1870   101.4380   -25.2420   -62.4030    76.9700
 2541.0000   -70.7410     2.5600     0.0310    10.3230     0.2620   -61.1830     6.4140     6.0620     6.1870   106.0570   -25.3400   -62.5530    81.5040
 2541.5000   -67.4640     2.5500     0.0230    10.3120     0.2580   -60.4040     6.5990     6.0180     6.1870   106.4030   -25.4110   -62.7040    83.7500
 2542.0000   -64.8150     2.5390     0.0140    10.3000     0.2520   -59.6260     6.8490     6.0430     6.1870   106.4270   -25.4770   -62.8540    84.5950
 2542.5000   -64.8150     2.5320     0.0050    10.2890     0.2520   -58.8470     6.8240     6.0790     6.1870   105.6020   -25.5430   -63.0040    84.4730
 2543.0000   -64.8150     2.5300     0.0030    10.2780     0.2630   -58.0690     6.7660     6.1300     6.1870   104.1260   -25.6530   -63.1540    84.4620
 2543.5000   -64.8150     2.5260     0.0030    10.2650     0.2760   -57.2900     6.7080     6.1060     6.1880   103.6680   -25.9950   -63.3050    84.6510
 2544.0000   -64.8150     2.5260    -0.0020    10.2060     0.2760   -56.5120     6.6500     6.0660     6.1680   104.1520   -26.3410   -63.4550    84.8400
 2544.5000   -64.8150     2.5350    -0.0070    10.1680     0.2670   -55.7330     6.6010     6.0260     6.1480   104.5410   -26.6970   -63.6050    84.8950
 2545.0000   -64.8150     2.5490    -0.0050    10.1720     0.2590   -54.9550     6.6180     5.9850     6.1280   103.1710   -26.7890   -63.7560    84.8950
 2545.5000   -64.8150     2.5560     0.0020    10.1760     0.2550   -54.8660     6.6620     5.9450     6.1080   102.2290   -26.7100   -63.9060    84.8950
 2546.0000   -64.8150     2.5450    -0.0030    10.1800     0.2550   -56.3540     6.5600     5.9080     6.0890   101.7330   -26.6150   -64.0560    84.8950
 2546.5000   -64.8150     2.5250    -0.0070    10.1850     0.2650   -57.8410     6.4130     5.9080     6.0740   103.1980   -26.5200   -64.2070    85.0950
 2547.0000   -64.8150     2.5150    -0.0020    10.1710     0.2760   -59.3280     6.3610     5.9630     6.1620   104.8220   -26.4260   -64.3570    85.6440
 2547.5000   -64.8150     2.5130     0.0060    10.1470     0.2830   -60.8150     6.4220     6.0420     6.2320   106.3860   -26.3310   -64.5070    85.9470
