~VERSION INFORMATION
 VERS.                2.0:   CWLS LOG ASCII STANDARD - VERSION 2.0
 WRAP.                 NO:   ONE LINE PER DEPTH STEP
~WELL INFORMATION
#MNEM.UNIT      DATA TYPE    INFORMATION
#----------   ------------   ------------------------------
 STRT.F           54.0000:   START DEPTH
 STOP.F         5201.0000:   STOP DEPTH
 STEP.F            0.5000:   STEP LENGTH
 NULL.          -999.2500:   NO VALUE
 COMP.   TESORO PETROLEUM:   COMPANY
 WELL. TESORO DX NPR-3 #51-26:   WELL
 FLD .        TEAPOT DOME:   FIELD
 LOC .      S26 T38N R78W:   LOCATION
 CNTY.            NATRONA:   COUNTY
 STAT.            WYOMING:   STATE
 CTRY. UNITED STATES OF AMERICA:   COUNTRY
 SRVC.      DRESSER ATLAS:   SERVICE COMPANY
 DATE.        27-AUG-1976:   LOGDATE
 API .     49025102680000:   API NUMBER
~CURVE INFORMATION
#MNEM.UNIT       API CODE    CURVE DESCRIPTION
#----------   ------------   ------------------------------
 DEPT.F                  :   
 GRD .GAPI   45 310 01 00:   GAMMA RAY FROM DENSITY LOG
 CALD.IN     45 280 60 00:   CALIPER FROM DENSITY LOG
 CORR.G/C3   45 356 01 00:   DENSITY CORRECTION
 RHOB.G/C3   45 350 01 00:   BULK DENSITY
 SPR .MV     07 010 01 00:   SPONTANEOUS POTENTIAL
 ILD .OHMM   07 120 46 00:   DEEP INDUCTION RESISTIVITY
 ILM .OHMM   07 120 44 00:   INDUCTION LOG MEDIUM RESISTIVITY
 RFOC.OHMM   07 220 04 00:   RESISTIVITY FOCUSED LOG RES.
 TEND.LBS    45 635 01 00:   TENSION FORM DENSITY LOG
 NPHI.DEC    42 890 03 00:   NEUTRON POROSITY SANDSTONE
~PARAMETER INFORMATION
#MNEM.UNIT          VALUE    DESCRIPTION
#----------   ------------   ------------------------------
 EKB .F         5453.5000:   Kelly bushing
 EGL .F         5442.0000:   Ground level
 EDF .F         5452.0000:   Drilling floor
 EPD .F            0.0000:   Permanent datum
 TD  .F         5193.0000:   Total depth
 CLNT.            A2DTECH:   Client Code
 SL  . 2000' FEL & 600' FNL:   Surface Location
 PD  .                 GL:   Permanent Datum
 DAPD.F              11.5:   Feet Above Permanent Datum
 DATE.        27-AUG-1976:   Date Logged [DD-MMM-YYYY]
 DD  .F              5193:   Depth driller
 DL  .F              5193:   Depth logger
 BLI .F              5191:   Bottom log interval
 TLI .F              1726:   Top log interval
 CS1 .IN            8.625:   Casing size
 CBD1.     8.625" @ 1724':   Casing driller 1
 CBL1.F              1726:   Casing logger 1
 BS1 .IN            7.875:   Bit size
 BSD1.F              5193:   Depth drilled with bit1
 DFT .           CHEM GEL:   Type fluid in hole
 DFD .                9.2:   Density
 DFV .                 65:   Viscosity
 DFPH.                 10:   pH
 DFL .                5.8:   Fluid loss
 MSS .           FLOWLINE:   Source of sample
 RMS .OHMM           1.70:   Rm
 MST .F                71:   Rm Meas. temp.
 RMF .OHMM              1:   Rmf
 MFST.F                68:   Rmf Meas. temp.
 MFSS.               MEAS:   Source Rmf.
 RMC .OHMM           1.30:   Rmc
 MCST.F                66:   Rmc Meas. temp.
 MCSS.               MEAS:   Source Rmc.
 RMB .OHMM           0.85:   Rm. at BHT
 BHT .F               142:   BHT.
 TCS .HRS               6:   Time Circ. stopped
 MRT .F               142:   Maximum recorded temp.
 LUN .               6145:   Logging unit number
 LUL .              GLTTE:   Logging unit location
 ENGI.        GOULD-HOYER:   Recorded By
 WITN.        WOLF-CARTER:   Witnessed by
 ORIG.           5" PRINT:   Origin of data
 UWI .     49025102680000:   Unique Well ID
 DICO. A2D TECHNOLOGIES, INC.:   Digitizing Company
~OTHER INFORMATION
~A   DEPT      GRD       CALD       CORR       RHOB        SPR         ILD        ILM      RFOC       TEND       NPHI   
# ...
 3337.0000    87.1263     8.7182     0.0819     2.4814   -33.1201     6.4795     6.7660     9.6026    49.3300     0.2482
 3337.5000    85.9308     8.7354     0.0776     2.4590   -32.8031     6.3082     6.4513     7.8672    48.6046     0.2455
 3338.0000    84.3349     8.7378     0.0717     2.4492   -32.7849     6.1370     6.1939     5.8520    55.5569     0.2406
 3338.5000    85.3365     8.7257     0.0733     2.4456   -32.7945     6.0217     6.1131     6.1038    62.3277     0.2424
 3339.0000    87.5229     8.7125     0.0735     2.4562   -32.8399     5.9842     6.1183     7.1587    61.4211     0.2478
 3339.5000    91.6197     8.6999     0.0707     2.4886   -32.8379     6.0323     6.2074     9.1206    60.6956     0.2564
 3340.0000    98.5822     8.6873     0.0603     2.5262   -33.0163     6.0795     6.3854     7.0208    52.4739     0.2525
 3340.5000    97.6548     8.6903     0.0393     2.4985   -33.4920     6.1271     6.7059     6.6045    59.2447     0.2453
 3341.0000    96.7460     8.6771     0.0364     2.4978   -33.9810     6.2179     7.0424     7.0828    58.3377     0.2449
 3341.5000    95.8242     8.6645     0.0383     2.4950   -34.3973     6.4425     7.3449     7.9701    57.6122     0.2530
 3342.0000    94.8161     8.6822     0.0307     2.4823   -34.5972     6.7215     7.6605     8.8456    72.0608     0.2578
 3342.5000    96.3890     8.6996     0.0309     2.4612   -34.6240     6.7742     7.4552     9.6828    71.1538     0.2605
 3343.0000    97.1333     8.7169     0.0371     2.4502   -34.6496     6.7333     7.2589    10.4539    62.9321     0.2598
 3343.5000    95.9764     8.7193     0.0523     2.4503   -34.1942     6.6927     7.1162     9.9684    54.7104     0.2565
 3344.0000    94.8288     8.7217     0.0599     2.4564   -34.1746     6.9841     7.0708     8.3345    38.9803     0.2649
 3344.5000    93.6719     8.7390     0.0601     2.4535   -34.1226     7.1353     7.2247     7.1942    15.5970     0.2661
 3345.0000    87.9777     8.7564     0.0648     2.4513   -34.0650     7.0449     7.3808     6.9309    37.3603     0.2598
 3345.5000    81.8058     8.7741     0.0801     2.4529   -33.8754     7.0511     7.3857     7.5882   104.1011     0.2482
 3346.0000    78.9463     8.7914     0.1103     2.4583   -33.6417     6.9587     7.1883     8.1362   126.0460     0.2394
 3346.5000    76.1580     8.8236     0.1375     2.4433   -33.6210     6.9182     7.0957     8.4863    27.6877     0.2427
 3347.0000    75.4787     8.8559     0.1467     2.4156   -33.4189     6.9244     7.1006     8.8515    41.9547     0.2463
 3347.5000    74.3125     8.9031     0.1498     2.3714   -33.4277     6.9918     7.1604     7.4035   168.6656     0.2423
 3348.0000    75.7918     8.9353     0.1259     2.3760   -33.4315     7.2322     7.4631     7.8836   103.9479     0.2375
 3348.5000    70.5752     8.9377     0.1050     2.4155   -33.4914     7.2888     7.6771     8.4532    17.2896     0.2387
 3349.0000    67.0302     8.9251     0.0914     2.4568   -33.4819     7.2433     7.7890     8.3179   106.3380     0.2395
 3349.5000    71.6047     8.8078     0.0692     2.5071   -33.6264     6.9083     7.7407     7.4268    75.6275     0.2335
 3350.0000    76.4179     8.7205     0.0559     2.5319   -33.6363     6.5420     7.1798     9.0160    97.3908     0.2425
 3350.5000    78.0418     8.6780     0.0400     2.5163   -33.7920     6.2815     6.3895     9.7341   104.3432     0.2445
 3351.0000    79.3985     8.6804     0.0247     2.5088   -33.6205     6.0309     6.1345     8.9673    80.9474     0.2391
 3351.5000    80.4048     8.6833     0.0189     2.5029   -33.6927     6.0376     6.0545     7.8173    34.2328     0.2401
 3352.0000    78.5455     8.6856     0.0314     2.5030   -33.6812     5.9586     5.9756     6.8147    28.1507     0.2426
 3352.5000    77.6286     8.6575     0.0392     2.5054   -33.8274     5.7623     5.8976     6.0637    38.5843     0.2462
 3353.0000    84.6178     8.6422     0.0485     2.5137   -33.8252     5.4947     5.8217     5.8684    49.0180     0.2495
 3353.5000    89.2062     8.6446     0.0533     2.5183   -33.6783     5.3853     5.7855     5.9977    63.1757     0.2521
 3354.0000    94.0334     8.6545     0.0446     2.5154   -33.6077     5.3160     5.7101     6.7500    85.2255     0.2575
 3354.5000    96.2338     8.6686     0.0388     2.5123   -33.6720     5.2487     5.6737     8.0833    99.6332     0.2647
 3355.0000    94.6132     8.6802     0.0331     2.4886   -33.6377     5.2899     5.6385     8.7264    83.9092     0.2725
 3355.5000    96.5875     8.6821     0.0244     2.4804   -33.3822     5.4056     5.8393     6.5836    68.3316     0.2679
 3356.0000    95.9222     8.6840     0.0216     2.4625   -32.9682     5.6009     6.0085     5.4319    52.7541     0.2589
 3356.5000    94.3017     8.6859     0.0235     2.4393   -33.0334     5.8435     6.1925     5.5122    97.1465     0.2642
 3357.0000    92.9071     8.6729     0.0285     2.4199   -33.0181     5.9302     6.4595     5.6715    96.0560     0.2669
 3357.5000    93.2098     8.6753     0.0407     2.3944   -33.2229     6.0181     6.8316     6.5163    63.4733     0.2623
 3358.0000    97.0818     8.6473     0.0561     2.3802   -33.1134     5.9819     7.1261     7.0363    35.4212     0.2569
 3358.5000    96.1777     8.6487     0.0653     2.3706   -33.1667     5.9876     6.9780     7.9444    79.6675     0.2556
 3359.0000    94.3092     8.6357     0.0536     2.3834   -33.1072     5.9524     6.5935    11.9805    94.2211     0.2436
 3359.5000    94.1306     8.6380     0.0359     2.4083   -33.0344     5.8758     6.0965    14.9684    71.0011     0.2284
 3360.0000    91.8064     8.6549     0.0557     2.4833   -33.1300     5.7204     5.9354     8.5676    32.9348     0.2155
 3360.5000    88.5142     8.6567     0.0515     2.5589   -33.5849     5.6079     5.6212     5.5142    62.3347     0.2311
 3361.0000    86.6421     8.6587     0.0458     2.5596   -33.9907     5.3105     5.2871     5.9542   106.7271     0.2422
 3361.5000    93.1537     8.6606     0.0401     2.5590   -34.0517     5.0639     5.0768     6.9362   136.1320     0.2545
 3362.0000   104.4287     8.6027     0.0314     2.5591   -33.9676     4.8623     4.8749     7.0372    97.0595     0.2599
 3362.5000   109.2559     8.6196     0.0271     2.5592   -33.8791     4.6686     4.7461     6.4406    52.4738     0.2635
 3363.0000   114.5607     8.6468     0.0259     2.5495   -33.6751     4.5671     4.6526     6.1424    89.2481     0.2720
 3363.5000   120.8503     8.6707     0.0263     2.5371   -33.4813     4.5178     4.6243     5.8985    73.6705     0.2823
 3364.0000   127.1839     8.7155     0.0296     2.5191   -33.3316     4.4485     4.5963     5.6643    43.1005     0.2928
 3364.5000   134.3088     8.7174     0.0329     2.4967   -33.1787     4.3682     4.6001     5.9089    65.0041     0.2934
 3365.0000   132.2106     8.7342     0.0332     2.4840   -33.0243     4.2859     4.6358     6.1670    79.5577     0.2895
 3365.5000   126.7692     8.7361     0.0354     2.4773   -32.9010     4.2270     4.6403     6.2986    71.3302     0.2861
 3366.0000   121.3278     8.7380     0.0370     2.4578   -32.6300     4.1762     4.6441     5.7645    70.7451     0.2909
 3366.5000   117.3192     8.7399     0.0342     2.4486   -32.6588     4.1515     4.6479     5.6113    85.1575     0.2945
 3367.0000   113.5493     8.7264     0.0343     2.4356   -32.4460     4.1624     4.5879     6.2730    92.0637     0.2962
 3367.5000   111.6900     8.6840     0.0360     2.4320   -32.4339     4.2169     4.5278     6.4528    78.8704     0.2986
 3368.0000   111.2635     8.6709     0.0466     2.4388   -32.6768     4.2824     4.5324     5.8652    75.8034     0.3001
 3368.5000   114.6578     8.6650     0.0483     2.4554   -32.8834     4.4039     4.5675     5.6713    82.8610     0.3100
 3369.0000   111.3784     8.6903     0.0423     2.4600   -33.0369     4.5315     4.6991     5.4461    82.1298     0.3051
 3369.5000   109.0414     8.7813     0.0349     2.4556   -33.4094     4.6628     4.9356     5.1582    89.0410     0.3011
 3370.0000   104.5552     8.7089     0.0307     2.4527   -33.2369     4.8648     5.2199     6.1346    88.4559     0.2972
