~VERSION INFORMATION
 VERS.                2.0:   CWLS LOG ASCII STANDARD - VERSION 2.0
 WRAP.                 NO:   ONE LINE PER DEPTH STEP
~WELL INFORMATION
#MNEM.UNIT      DATA TYPE    INFORMATION
#----------   ------------   ------------------------------
 STRT.F           15.0000:   START DEPTH
 STOP.F         2952.5000:   STOP DEPTH
 STEP.F            0.5000:   STEP LENGTH
 NULL.          -999.2500:   NO VALUE
 COMP.    FENIX & SCISSON:   COMPANY
 WELL.  FENIX "AX" #64-29:   WELL
 FLD .  TEAPOT DOME NPR-3:   FIELD
 LOC .      S29 T39N R78W:   LOCATION
 CNTY.            NATRONA:   COUNTY
 STAT.            WYOMING:   STATE
 CTRY. UNITED STATES OF AMERICA:   COUNTRY
 SRVC.           BIRDWELL:   SERVICE COMPANY
 DATE.        02-MAY-1978:   LOGDATE
 API .     49025106460000:   API NUMBER
~CURVE INFORMATION
#MNEM.UNIT       API CODE    CURVE DESCRIPTION
#----------   ------------   ------------------------------
 DEPT.F                  :   
 SPR .MV     05 010 01 00:   SPONTANEOUS POTENTIAL
 IL  .OHMM   05 120 00 00:   INDUCTION RESISTIVITY
 SN  .OHMM   05 040 16 00:   SHORT NORMAL 16"
 CALD.IN     45 280 60 00:   CALIPER FROM DENSITY LOG
 GRD .GAPI   45 310 01 00:   GAMMA RAY FROM DENSITY LOG
 CORR.G/C3   45 356 01 00:   DENSITY CORRECTION
 RHOB.G/C3   45 350 01 00:   BULK DENSITY
~PARAMETER INFORMATION
#MNEM.UNIT          VALUE    DESCRIPTION
#----------   ------------   ------------------------------
 EKB .F         4993.0000:   Kelly bushing
 EGL .F         4983.0000:   Ground level
 EDF .F            0.0000:   Drilling floor
 TD  .F         2952.0000:   Total depth
 DATE.        02-MAY-1978:   Date logged
 CLNT.            A2DTECH:   Client Code
 SL  . 2150' FNL & 1560' FEL:   Surface Location
 PD  .                 GL:   Permanent Datum
 DD  .F              2950:   Depth driller
 DL  .F              2952:   Depth logger
 BLI .F              2947:   Bottom log interval
 CBL1.F               150:   Casing logger 1
 BS1 .IN            7.875:   Bit size
 DFT .                GEL:   Type fluid in hole
 DFD .                8.7:   Density
 DFV .                 30:   Viscosity
 DFPH.                 10:   pH
 DFL .                7.6:   Fluid loss
 MSS .            MUD PIT:   Source of sample
 RMS .OHMM            1.3:   Rm
 MST .F                62:   Rm Meas. temp.
 RMF .OHMM            .95:   Rmf
 MFST.F                64:   Rmf Meas. temp.
 RMC .OHMM              1:   Rmc
 MCST.F                64:   Rmc Meas. temp.
 MFSS.               MEAS:   Source Rmf.
 RMB .OHMM            .73:   Rm. at BHT
 BHT .F               110:   BHT.
 TCS .HRS               3:   Time Circ. stopped
 MRT .F               110:   Maximum recorded temp.
 LUN .               2958:   Logging unit number
 LUL .               CASP:   Logging unit location
 ENGI.             MILLER:   Recorded By
 WITN.           MCGINLEY:   Witnessed by
 ORIG.         2.5" PRINT:   Origin of data
 UWI .     49025106460000:   Unique Well ID
 DICO. A2D TECHNOLOGIES, INC.:   Digitizing Company
 DAPD.                 10:   Feet Above Permanent Datum
 BSD1.F              2950:   Depth drilled with bit1
 EPD .F              4983:   Elevation Permanent Datum
 LMF .                 KB:   Log Measured From
 DMF .                 KB:   Drilling Measured From
 TLI .F               150:   Top log interval
~OTHER INFORMATION
~A   DEPT      SPR         IL         SN       CALD        GRD       CORR       RHOB   
# ...
 2563.0000   -46.4140     8.1240    10.3760     7.7040    93.5570     0.0530     2.5910
 2563.5000   -46.4010     8.1310    10.3210     7.7140    92.2640     0.0480     2.5850
 2564.0000   -46.3900     8.0350    10.2660     7.7240    92.3620     0.0480     2.5800
 2564.5000   -46.3780     7.8680    10.2110     7.7340    93.5850     0.0510     2.5730
 2565.0000   -46.3670     7.7080    10.1560     7.7450    96.2700     0.0530     2.5720
 2565.5000   -46.3550     7.5480    10.0340     7.7550    99.1130     0.0550     2.5750
 2566.0000   -46.3430     7.3880     9.8570     7.7650    99.3490     0.0580     2.5760
 2566.5000   -46.3320     7.2280     9.6800     7.7700    96.1050     0.0600     2.5800
 2567.0000   -46.3200     7.0910     9.5020     7.7710    93.1680     0.0630     2.5840
 2567.5000   -46.3090     6.9800     9.3250     7.7730    90.3160     0.0650     2.5880
 2568.0000   -46.2970     6.8690     9.1480     7.7750    86.5880     0.0670     2.5910
 2568.5000   -46.2860     6.7600     8.9700     7.7760    82.5980     0.0670     2.5950
 2569.0000   -46.2740     6.5180     8.6950     7.7780    77.9800     0.0670     2.5990
 2569.5000   -46.2630     6.2820     8.3650     7.7790    77.6350     0.0670     2.6030
 2570.0000   -46.2510     6.0450     8.0350     7.7810    77.5970     0.0670     2.6050
 2570.5000   -46.2390     5.8090     7.7060     7.7820    77.9290     0.0590     2.6020
 2571.0000   -46.2280     5.5730     7.3760     7.7840    81.9100     0.0610     2.5980
 2571.5000   -46.2160     5.3370     6.8860     7.7850    85.4950     0.0620     2.5950
 2572.0000   -46.2050     5.1310     6.8900     7.7870    89.4460     0.0630     2.5920
 2572.5000   -46.1930     5.1370     6.8980     7.7880    91.3220     0.0650     2.5980
 2573.0000   -46.1820     5.1410     6.9050     7.7900    91.8790     0.0660     2.6040
 2573.5000   -46.1700     5.1460     6.9130     7.7910    90.5010     0.0650     2.6030
 2574.0000   -46.1590     5.1510     6.9210     7.7930    89.1790     0.0590     2.5980
 2574.5000   -46.1470     5.1560     6.9290     7.7940    87.1930     0.0580     2.5940
 2575.0000   -46.1350     5.1600     6.9360     7.7960    85.0330     0.0580     2.5880
 2575.5000   -46.1240     5.1650     6.9440     7.7980    82.2590     0.0570     2.5940
 2576.0000   -46.1120     5.1700     6.9520     7.7990    83.5690     0.0570     2.6020
 2576.5000   -46.1010     5.1750     6.9600     7.8010    86.3340     0.0570     2.6060
 2577.0000   -46.0890     5.1800     6.9670     7.8020    86.4120     0.0560     2.6050
 2577.5000   -46.0780     5.1840     6.9750     7.8040    86.3070     0.0560     2.6050
 2578.0000   -46.0660     5.1890     6.9830     7.8050    87.2000     0.0550     2.6040
 2578.5000   -46.0550     5.1930     6.9910     7.8070    89.6780     0.0550     2.6010
 2579.0000   -46.0430     5.1980     6.9980     7.8090    97.2500     0.0560     2.5840
 2579.5000   -46.0310     5.2030     7.0060     7.8010   102.6870     0.0580     2.5850
 2580.0000   -46.0200     5.2080     7.0140     7.7860   101.0520     0.0590     2.5950
 2580.5000   -46.0080     5.2130     7.1380     7.7730    98.3090     0.0600     2.5970
 2581.0000   -45.9970     5.2180     7.2580     7.7600    96.0380     0.0620     2.5840
 2581.5000   -45.9850     5.2230     7.3770     7.7460    96.0660     0.0630     2.5860
 2582.0000   -45.9740     5.3000     7.4970     7.7330    97.0510     0.0640     2.5930
 2582.5000   -45.9620     5.6560     7.6170     7.7190    98.1510     0.0650     2.5940
 2583.0000   -45.9510     6.0130     7.7360     7.7060    97.1560     0.0670     2.5880
 2583.5000   -45.9390     6.3690     7.8560     7.6940    91.4120     0.0720     2.5900
 2584.0000   -45.9270     6.7260     7.9770     7.6780    90.6370     0.0780     2.6040
 2584.5000   -45.9160     7.0820     8.8950     7.6450    91.7930     0.0750     2.5990
 2585.0000   -45.9040     7.4110     9.8200     7.6130    88.9900     0.0710     2.5860
 2585.5000   -45.8930     7.7150    10.7450     7.5810    85.2230     0.0700     2.5750
 2586.0000   -45.8810     7.9970    11.5220     7.5490    80.9810     0.0690     2.5650
 2586.5000   -45.8700     8.2760    11.4040     7.5170    79.7950     0.0680     2.5540
 2587.0000   -45.8580     8.2220    11.3020     7.4910    84.0070     0.0670     2.5470
 2587.5000   -45.8470     8.1690    11.2010     7.4900    86.5700     0.0670     2.5550
 2588.0000   -45.8350     8.1170    11.0990     7.4900    87.5700     0.0670     2.5630
 2588.5000   -45.8240     8.0640    10.9980     7.4900    85.0940     0.0670     2.5600
 2589.0000   -45.8120     8.0110    10.8960     7.4900    76.9000     0.0670     2.5540
 2589.5000   -45.8000     7.9580    10.7950     7.4900    76.8100     0.0670     2.5560
 2590.0000   -45.7890     7.9050    10.7050     7.4900    76.8750     0.0670     2.5590
 2590.5000   -45.7770     7.8530    10.4260     7.4900    77.4240     0.0680     2.5560
 2591.0000   -45.7660     7.8000    10.1300     7.4900    77.9570     0.0690     2.5470
 2591.5000   -45.7540     7.7470    10.0530     7.4900    84.0550     0.0710     2.5510
 2592.0000   -45.7430     7.6890     9.8760     7.4900    89.5220     0.0720     2.5630
 2592.5000   -45.7310     7.5940     9.6990     7.4900    93.9650     0.0730     2.5730
 2593.0000   -45.7200     7.4880     9.5210     7.4900    97.2790     0.0750     2.5810
 2593.5000   -45.7080     7.3830     9.3440     7.4900   100.6350     0.0770     2.5760
 2594.0000   -45.6960     7.2770     9.1670     7.4890   100.7190     0.0810     2.5700
 2594.5000   -45.6850     7.1720     8.9890     7.4910   100.7840     0.0840     2.5730
 2595.0000   -45.6730     7.0660     8.8070     7.4870   101.1750     0.0870     2.5880
 2595.5000   -45.6620     6.9600     8.6190     7.4930   104.8320     0.0870     2.5930
 2596.0000   -45.6500     6.8550     8.4320     7.4920   107.4910     0.0870     2.5890
 2596.5000   -45.6390     6.7490     8.2450     7.4720   107.6340     0.0870     2.5860
 2597.0000   -45.6270     6.6370     8.0580     7.5260   108.6110     0.0870     2.5810
 2597.5000   -45.6150     6.6640     7.8710     7.4950   110.4890     0.0870     2.5720
 2598.0000   -45.5760     6.6920     8.0140     8.1690   112.3200     0.0840     2.5790
 2598.5000   -45.5430     6.7200     8.2450     7.5340   112.8830     0.0770     2.5900
 2599.0000   -45.5080     6.7480     8.4760     7.6200   110.5930     0.0710     2.5900
 2599.5000   -45.4740     6.7760     8.7070     7.5850   108.3970     0.0690     2.5900
 2600.0000   -45.4390     6.8040     9.0720     7.6050   106.1920     0.0670     2.5920
 2600.5000   -45.4050     6.8320     8.9430     7.6240   103.8980     0.0710     2.5960
 2601.0000   -45.3700     6.8610     8.6360     7.6280   101.7150     0.0740     2.6010
 2601.5000   -45.3360     6.8860     8.1250     7.6430    99.5940     0.0770     2.6050
 2602.0000   -45.3010     7.0250     8.2670     7.6510    97.0170     0.0790     2.6200
 2602.5000   -45.2650     7.1520     8.6960     7.6540   100.1840     0.0790     2.6360
 2603.0000   -45.2370     7.2760     9.1250     7.6570   108.4430     0.0790     2.6450
 2603.5000   -45.1540     7.5060     9.5540     7.6600   105.4790     0.0790     2.6470
 2604.0000   -45.0310     7.7320     9.9830     7.6640    97.5330     0.0790     2.6440
 2604.5000   -44.9160     7.9580    10.4120     7.6670    90.4150     0.0790     2.6400
 2605.0000   -44.8240     8.1840    11.1060     7.6700    81.8620     0.0790     2.6380
 2605.5000   -44.8210     8.4100    11.0570     7.6730    82.8660     0.0790     2.6350
 2606.0000   -44.8200     8.5650    10.9290     7.6770    83.2640     0.0790     2.6370
 2606.5000   -44.8210     8.4730    10.8020     7.6800    85.5540     0.0790     2.6410
 2607.0000   -44.8210     8.3810    10.6740     7.6830    89.3100     0.0790     2.6450
 2607.5000   -44.8220     8.2900    10.5470     7.6870    92.7950     0.0790     2.6490
 2608.0000   -44.7980     8.1980    10.4200     7.6900    96.3470     0.0790     2.6530
