~VERSION INFORMATION
 VERS.                2.0:   CWLS LOG ASCII STANDARD - VERSION 2.0
 WRAP.                 NO:   ONE LINE PER DEPTH STEP
~WELL INFORMATION
#MNEM.UNIT      DATA TYPE    INFORMATION
#----------   ------------   ------------------------------
 STRT.F          450.5000:   START DEPTH
 STOP.F         3173.5000:   STOP DEPTH
 STEP.F            0.5000:   STEP LENGTH
 NULL.          -999.2500:   NO VALUE
 COMP.    FENIX & SCISSON:   COMPANY
 WELL. FENIX & SCISSONNPR #72-TX-33:   WELL
 FLD .              N.P.R:   FIELD
 LOC .      S33 T39N R78W:   LOCATION
 CNTY.            NATRONA:   COUNTY
 STAT.            WYOMING:   STATE
 CTRY. UNITED STATES OF AMERICA:   COUNTRY
 SRVC.       SCHLUMBERGER:   SERVICE COMPANY
 DATE.        03-SEP-1981:   LOGDATE
 API .     49025108810000:   API NUMBER
~CURVE INFORMATION
#MNEM.UNIT       API CODE    CURVE DESCRIPTION
#----------   ------------   ------------------------------
 DEPT.F                  :   
 CALD.IN     45 280 60 00:   CALIPER FROM DENSITY LOG
 GRD .GAPI   45 310 01 00:   GAMMA RAY FROM DENSITY LOG
 DPHI.DEC    45 890 03 00:   
 RHOB.G/C3   45 350 01 00:   BULK DENSITY
 CORR.G/C3   45 356 01 00:   DENSITY CORRECTION
 SPR .MV     07 010 01 00:   SPONTANEOUS POTENTIAL
 SFL .OHMM   07 220 01 00:   SHALLOW FOCUSED LOG RESISTIVITY
 ILD .OHMM   07 120 46 00:   DEEP INDUCTION RESISTIVITY
 ILM .OHMM   07 120 44 00:   INDUCTION LOG MEDIUM RESISTIVITY
 TENR.LBS    07 635 01 00:   TENSION FROM RESISTIVITY
~PARAMETER INFORMATION
#MNEM.UNIT          VALUE    DESCRIPTION
#----------   ------------   ------------------------------
 EKB .F         5115.0000:   Kelly bushing
 EGL .F         5105.0000:   Ground level
 EDF .F            0.0000:   Drilling floor
 TD  .F         3162.0000:   Total depth
 DATE.        03-SEP-1981:   Date logged
 CLNT.            A2DTECH:   Client Code
 CTRY.                USA:   Country
 SL  . 808' FNL & 954' FEL:   Surface Location
 PD  .                 GL:   Permanent Datum
 EPD .F              5105:   Elevation Permanent Datum
 LMF .                 KB:   Log Measured From
 DMF .                 KB:   Drilling Measured From
 DAPD.F                10:   Feet Above Permanent Datum
 DD  .F              3162:   Depth driller
 DL  .F              3162:   Depth logger
 BLI .F              3158:   Bottom log interval
 TLI .F              1612:   Top log interval
 CS1 .IN            9.625:   Casing size
 CBD1.      9.625" @ 480':   Casing driller 1
 BS1 .IN            7.875:   Bit size
 BSD1.F              3162:   Depth drilled with bit1
 DFT .              WATER:   Type fluid in hole
 MSS .               TANK:   Source of sample
 RMS .OHMM            6.3:   Rm
 MST .F                73:   Rm Meas. temp.
 RMF .OHMM            6.3:   Rmf
 MFST.F                73:   Rmf Meas. temp.
 TCS .HRS            2200:   Time Circ. stopped
 TLAB.HRS            0300:   Time logger at bottom
 MRT .F               100:   Maximum recorded temp.
 LUN .               8039:   Logging unit number
 LUL .               CSPR:   Logging unit location
 ENGI.           C. PEARR:   Recorded By
 WITN.           R. SCOTT:   Witnessed by
 ORIG.         2.5" PRINT:   Origin of data
 UWI .     49025108810000:   Unique Well ID
 DICO. A2D TECHNOLOGIES, INC.:   Digitizing Company
~OTHER INFORMATION
~A   DEPT     CALD         GRD      DPHI       RHOB       CORR        SPR        SFL        ILD        ILM       TENR   
# ...
  484.0000    12.2668   133.7123     0.1857     2.3919     0.0462  -999.2500  -999.2500  -999.2500  -999.2500  -999.2500
  484.5000    12.1887   133.7031     0.1648     2.4075     0.0540  -999.2500  -999.2500  -999.2500  -999.2500  -999.2500
  485.0000    12.0712   129.6197     0.1417     2.4543     0.0735  -999.2500  -999.2500  -999.2500  -999.2500  -999.2500
  485.5000    12.1540   128.4477     0.1331     2.4621     0.0832  -999.2500  -999.2500  -999.2500  -999.2500  -999.2500
  486.0000    12.1862   127.8526     0.1300     2.4601     0.0909  -999.2500  -999.2500  -999.2500  -999.2500  -999.2500
  486.5000    12.3400   127.2620     0.1292     2.4601     0.0909  -999.2500  -999.2500  -999.2500  -999.2500  -999.2500
  487.0000    12.3397   124.9227     0.1354     2.4483     0.0909  -999.2500  -999.2500  -999.2500  -999.2500  -999.2500
  487.5000    12.3385   123.7508     0.1416     2.4405     0.0908  -999.2500  -999.2500  -999.2500  -999.2500  -999.2500
  488.0000    12.2216   123.1556     0.1496     2.4287     0.0888  -999.2500  -999.2500  -999.2500  -999.2500  -999.2500
  488.5000    11.9494   124.3092     0.1527     2.4189     0.0829  -999.2500  -999.2500  -999.2500  -999.2500  -999.2500
  489.0000    11.6774   126.6209     0.1559     2.4150     0.0653  -999.2500  -999.2500  -999.2500  -999.2500  -999.2500
  489.5000    11.3277   126.0257     0.1575     2.4130     0.0575  -999.2500  -999.2500  -999.2500  -999.2500  -999.2500
  490.0000    11.0558   123.6910     0.1590     2.4149     0.0105  -999.2500  -999.2500  -999.2500  -999.2500  -999.2500
  490.5000    10.9773   120.1890     0.1567     2.4188     0.0164  -999.2500  -999.2500  -999.2500  -999.2500  -999.2500
  491.0000    10.9380   120.1798     0.1513     2.4344     0.0339  -999.2500  -999.2500  -999.2500  -999.2500  -999.2500
  491.5000    10.8595   121.9101     0.1350     2.4382     0.0437  -999.2500  -999.2500  -999.2500  -999.2500  -999.2500
  492.0000    10.7036   124.8078     0.1187     2.4597     0.0651  -999.2500  -999.2500  -999.2500  -999.2500  -999.2500
  492.5000    10.6642   125.9568     0.1021     2.5046     0.0885  -999.2500  -999.2500  -999.2500  -999.2500  -999.2500
  493.0000    10.6245   126.5290     0.1029     2.4882     0.0696  -999.2500  -999.2500  -999.2500  -999.2500  -999.2500
  493.5000    10.5464   126.5152     0.1146     2.4771     0.0507  -999.2500  -999.2500  -999.2500  -999.2500  -999.2500
  494.0000    10.3517   124.7619     0.1365     2.4517     0.0141  -999.2500  -999.2500  -999.2500  -999.2500  -999.2500
  494.5000    10.2348   122.4226     0.1365     2.4614     0.0142  -999.2500  -999.2500  -999.2500  -999.2500  -999.2500
  495.0000    10.1954   121.8320     0.1288     2.4692     0.0102  -999.2500  -999.2500  -999.2500  -999.2500  -999.2500
  495.5000    10.1414   121.8182     0.1233     2.4731     0.0141  -999.2500  -999.2500  -999.2500  -999.2500  -999.2500
  496.0000    10.1161   122.3904     0.1241     2.4672     0.0140  -999.2500  -999.2500  -999.2500  -999.2500  -999.2500
  496.5000    10.0767   123.5394     0.1264     2.4671     0.0062  -999.2500  -999.2500  -999.2500  -999.2500  -999.2500
  497.0000    10.0758   124.1115     0.1218     2.4749    -0.0017  -999.2500  -999.2500  -999.2500  -999.2500  -999.2500
  497.5000    10.0364   121.7722     0.1138     2.4963     0.0042  -999.2500  -999.2500  -999.2500  -999.2500  -999.2500
  498.0000    10.0743   117.6888     0.1054     2.5041     0.0139  -999.2500  -999.2500  -999.2500  -999.2500  -999.2500
  498.5000    10.0736   116.5169     0.1085     2.4962     0.0197  -999.2500  -999.2500  -999.2500  -999.2500  -999.2500
  499.0000    10.0727   118.8286     0.1177     2.4864     0.0255  -999.2500  -999.2500  -999.2500  -999.2500  -999.2500
  499.5000    10.0718   121.1449     0.1268     2.4668     0.0060  -999.2500  -999.2500  -999.2500  -999.2500  -999.2500
  500.0000    10.0715   125.7821     0.1360     2.4492    -0.0058  -999.2500  -999.2500  -999.2500  -999.2500  -999.2500
  500.5000    10.0481   125.2507     0.1452     2.4316    -0.0059  -999.2500  -999.2500  -999.2500  -999.2500  -999.2500
  501.0000    10.0340   124.0372     0.1461     2.4375    -0.0019  -999.2500  -999.2500  -999.2500  -999.2500  -999.2500
  501.5000     9.9922   122.8744     0.1406     2.4453     0.0039  -999.2500  -999.2500  -999.2500  -999.2500  -999.2500
  502.0000     9.9922   120.5488     0.1312     2.4590     0.0059  -999.2500  -999.2500  -999.2500  -999.2500  -999.2500
  502.5000     9.8760   118.2233     0.1273     2.4668     0.0078  -999.2500  -999.2500  -999.2500  -999.2500  -999.2500
  503.0000     9.8760   116.4791     0.1261     2.4707     0.0078  -999.2500  -999.2500  -999.2500  -999.2500  -999.2500
  503.5000     9.8760   117.0605     0.1258     2.4668     0.0024  -999.2500  -999.2500  -999.2500  -999.2500  -999.2500
  504.0000     9.8760   119.3860     0.1297     2.4570     0.0019  -999.2500  -999.2500  -999.2500  -999.2500  -999.2500
  504.5000     9.8760   119.9674     0.1319     2.4550     0.0019  -999.2500  -999.2500  -999.2500  -999.2500  -999.2500
  505.0000     9.8372   119.9674     0.1328     2.4609     0.0136  -999.2500  -999.2500  -999.2500  -999.2500  -999.2500
  505.5000     9.8042   118.2233     0.1305     2.4628     0.0174  -999.2500  -999.2500  -999.2500  -999.2500  -999.2500
  506.0000     9.7597   115.8977     0.1328     2.4570     0.0175  -999.2500  -999.2500  -999.2500  -999.2500  -999.2500
  506.5000     9.7597   113.5721     0.1362     2.4511     0.0116  -999.2500  -999.2500  -999.2500  -999.2500  -999.2500
  507.0000     9.7209   113.5721     0.1375     2.4491     0.0106  -999.2500  -999.2500  -999.2500  -999.2500  -999.2500
  507.5000     9.6822   114.1535     0.1399     2.4472     0.0097  -999.2500  -999.2500  -999.2500  -999.2500  -999.2500
  508.0000     9.7609   114.1535     0.1360     2.4491     0.0097  -999.2500  -999.2500  -999.2500  -999.2500  -999.2500
  508.5000     9.7609   114.1535     0.1329     2.4608     0.0111  -999.2500  -999.2500  -999.2500  -999.2500  -999.2500
  509.0000     9.7609   115.8977     0.1308     2.4628     0.0096  -999.2500  -999.2500  -999.2500  -999.2500  -999.2500
  509.5000     9.7997   118.8047     0.1313     2.4530     0.0077  -999.2500  -999.2500  -999.2500  -999.2500  -999.2500
  510.0000     9.7997   120.5488     0.1438     2.4452     0.0038  -999.2500  -999.2500  -999.2500  -999.2500  -999.2500
  510.5000     9.7997   123.4558     0.1438     2.4373     0.0018  -999.2500  -999.2500  -999.2500  -999.2500  -999.2500
  511.0000     9.7997   124.6186     0.1423     2.4432     0.0037  -999.2500  -999.2500  -999.2500  -999.2500  -999.2500
  511.5000     9.7997   125.7814     0.1399     2.4529     0.0076  -999.2500  -999.2500  -999.2500  -999.2500  -999.2500
  512.0000     9.8195   128.1070     0.1329     2.4647     0.0115  -999.2500  -999.2500  -999.2500  -999.2500  -999.2500
  512.5000     9.8384   130.4326     0.1048     2.4998     0.0252  -999.2500  -999.2500  -999.2500  -999.2500  -999.2500
  513.0000     9.8384   130.4326     0.0993     2.5213     0.0330  -999.2500  -999.2500  -999.2500  -999.2500  -999.2500
  513.5000     9.8384   129.8512     0.0993     2.5095     0.0349  -999.2500  -999.2500  -999.2500  -999.2500  -999.2500
  514.0000     9.8384   129.8512     0.1212     2.5056     0.0252  -999.2500  -999.2500  -999.2500  -999.2500  -999.2500
  514.5000     9.8384   129.8512     0.1282     2.4666     0.0193  -999.2500  -999.2500  -999.2500  -999.2500  -999.2500
  515.0000     9.8593   127.5256     0.1282     2.4666     0.0232  -999.2500  -999.2500  -999.2500  -999.2500  -999.2500
  515.5000     9.8772   124.0372     0.1282     2.4665     0.0251  -999.2500  -999.2500  -999.2500  -999.2500  -999.2500
  516.0000     9.8384   121.1302     0.1368     2.4509     0.0251  -999.2500  -999.2500  -999.2500  -999.2500  -999.2500
  516.5000     9.8384   120.5488     0.1407     2.4431     0.0173  -999.2500  -999.2500  -999.2500  -999.2500  -999.2500
  517.0000     9.8384   119.9674     0.1415     2.4431     0.0153  -999.2500  -999.2500  -999.2500  -999.2500  -999.2500
