~VERSION INFORMATION
 VERS.                2.0:   CWLS LOG ASCII STANDARD - VERSION 2.0
 WRAP.                 NO:   ONE LINE PER DEPTH STEP
~WELL INFORMATION
#MNEM.UNIT      DATA TYPE    INFORMATION
#----------   ------------   ------------------------------
 STRT.F            0.0000:   START DEPTH
 STOP.F         5576.0000:   STOP DEPTH
 STEP.F            0.5000:   STEP LENGTH
 NULL.          -999.2500:   NO VALUE
 COMP.      FLUCOR DANIEL:   COMPANY
 WELL.  FLUCOR "X" #76-10:   WELL
 FLD .          N.P.R. #3:   FIELD
 LOC .      S10 T38N R78W:   LOCATION
 CNTY.            NATRONA:   COUNTY
 STAT.            WYOMING:   STATE
 CTRY. UNITED STATES OF AMERICA:   COUNTRY
 SRVC. ATLAS WIRELINE SERVICES:   SERVICE COMPANY
 DATE.        16-MAR-1995:   LOGDATE
 API .     49025226860000:   API NUMBER
~CURVE INFORMATION
#MNEM.UNIT       API CODE    CURVE DESCRIPTION
#----------   ------------   ------------------------------
 DEPT.F                  :   
 CNC .DEC    42 890 01 00:   NEUTRON POROSITY LIMESTONE
 CALD.IN     45 280 60 00:   CALIPER FROM DENSITY LOG
 ZDEN.G/C3   45 350 01 00:   BULK DENSITY
 ZCOR.G/C3   45 356 01 00:   DENSITY CORRECTION
 RILD.OHMM   07 120 46 00:   INDUCTION LOG DEEP RESISTIVITY
 RILM.OHMM   07 120 44 00:   INDUCTION LOG MEDIUM RESISTIVITY
 RS  .OHMM   11 220 10 00:   RESISTIVITY SHALLOW
 RD  .OHMM   11 220 09 00:   RESISTIVITY DEEP
 GRR .GAPI   07 310 01 00:   GAMMA RAY
 TENR.LBS    07 635 01 00:   TENSION FROM RESISTIVITY
~PARAMETER INFORMATION
#MNEM.UNIT          VALUE    DESCRIPTION
#----------   ------------   ------------------------------
 EKB .F         5191.0000:   Kelly bushing
 EGL .F         5101.0000:   Ground level
 EDF .F         5190.0000:   Drilling floor
 TD  .F         5582.0000:   Total depth
 CLNT.            A2DTECH:   Client Code
 SL  . 1896' FSL & 832' FEL:   Surface Location
 PD  .                 GL:   Permanent Datum
 EPD .F              5181:   Elevation Permanent Datum
 LMF .                 KB:   Log Measured From
 DMF .                 KB:   Drilling Measured From
 DAPD.F                10:   Feet Above Permanent Datum
 DATE.        16-MAR-1995:   Date Logged [DD-MMM-YYYY]
 DD  .F              5582:   Depth driller
 DL  .F              5578:   Depth logger
 BLI .F              5566:   Bottom log interval
 TLI .F               518:   Top log interval
 CS1 .IN            8.625:   Casing size
 CBD1.      8.625" @ 519':   Casing driller 1
 CBL1.F               518:   Casing logger 1
 BS1 .IN             8.75:   Bit size
 BSD1.F              5582:   Depth drilled with bit1
 DFT .               LSND:   Type fluid in hole
 DFD .               10.1:   Density
 DFV .                 52:   Viscosity
 DFPH.                9.5:   pH
 DFL .                7.2:   Fluid loss
 MSS .           FLOWLINE:   Source of sample
 RMS .OHMM          0.536:   Rm
 MST .F                70:   Rm Meas. temp.
 RMF .OHMM          0.415:   Rmf
 MFST.F                70:   Rmf Meas. temp.
 MFSS.               MEAS:   Source Rmf.
 RMC .OHMM          0.646:   Rmc
 MCST.F                70:   Rmc Meas. temp.
 MCSS.               MEAS:   Source Rmc.
 RMB .OHMM          0.228:   Rm. at BHT
 BHT .F               165:   BHT.
 TCS .HRS             6.5:   Time Circ. stopped
 MRT .F               165:   Maximum recorded temp.
 LUN .            HL-6530:   Logging unit number
 LUL .             CASPER:   Logging unit location
 ENGI.      PAT RASMUSSEN:   Recorded By
 WITN.        GARY STRONG:   Witnessed by
 ORIG.           5" PRINT:   Origin of data
 UWI .     49025226860000:   Unique Well ID
 DICO. A2D TECHNOLOGIES, INC.:   Digitizing Company
~OTHER INFORMATION
~A  DEPTH      CNC       CALD       ZDEN       ZCOR       RILD       RILM         RS         RD        GRR       TENR
# ...
 3484.0000     0.2413     9.8073     2.4405    -0.0016  -999.2500  -999.2500    11.4568    12.7462   131.3812   -52.6778
 3484.5000     0.2395     9.8066     2.4480     0.0015  -999.2500  -999.2500    12.4494    13.8479   124.2197   -52.2519
 3485.0000     0.2398     9.7908     2.4472     0.0042  -999.2500  -999.2500    12.9750    15.0467   124.2111   -51.8260
 3485.5000     0.2372     9.7903     2.4441     0.0072  -999.2500  -999.2500    13.5505    16.3492   124.5077   -66.5289
 3486.0000     0.2144     9.7897     2.4410     0.0040  -999.2500  -999.2500    15.1074    18.3177   122.9818   -81.1251
 3486.5000     0.2093     9.7891     2.4380    -0.0021  -999.2500  -999.2500    16.8794    20.1227   115.0922   -80.6992
 3487.0000     0.2153     9.7884     2.4281    -0.0067  -999.2500  -999.2500    16.8729    19.9741   106.5988   -95.4022
 3487.5000     0.2390     9.7878     2.4190    -0.0083  -999.2500  -999.2500    14.8798    17.3719   105.6833   -94.8698
 3488.0000     0.2620     9.7872     2.4182    -0.0082  -999.2500  -999.2500     9.1400     9.6118   118.0967  -102.1147
 3488.5000     0.2447     9.7867     2.4242    -0.0025  -999.2500  -999.2500     7.8946     8.8380   119.6033   -78.8896
 3489.0000     0.2233     9.7860     2.4294    -0.0025  -999.2500  -999.2500     8.5191     8.7737   114.4410   -70.7929
 3489.5000     0.2124     9.8157     2.4339    -0.0041  -999.2500  -999.2500    11.4044    10.4566   103.2203   -62.8030
 3490.0000     0.2193     9.8606     2.4308    -0.0058  -999.2500  -999.2500    14.3417    13.9671    97.4541   -62.3771
 3490.5000     0.2336     9.8903     2.4293     0.0017  -999.2500  -999.2500    14.8449    15.3905    98.0678   -61.9512
 3491.0000     0.2611     9.9049     2.4284     0.0032  -999.2500  -999.2500    12.7330    14.2487   104.1014   -53.8547
 3491.5000     0.2920     9.9042     2.4276    -0.0017  -999.2500  -999.2500     8.7407    10.2691   113.1837   -45.8645
 3492.0000     0.3011     9.9036     2.4185     0.0029  -999.2500  -999.2500     7.2411     8.1025   121.6600   -53.1094
 3492.5000     0.3132     9.9030     2.3935     0.0270  -999.2500  -999.2500     6.3421     6.5278   128.3180   -52.5719
 3493.0000     0.3434     9.9024     2.3633     0.0541  -999.2500  -999.2500     5.5157     5.7917   138.3073   -59.7156
 3493.5000     0.3401     9.9170     2.3564     0.0706  -999.2500  -999.2500     4.8309     4.8016   148.9048   -59.1835
 3494.0000     0.3243     9.9012     2.3662     0.0691  -999.2500  -999.2500     4.6639     4.7009   154.3507   -58.7576
 3494.5000     0.3202     9.9006     2.3964     0.0252  -999.2500  -999.2500     4.9289     5.0367   153.1300   -58.3208
 3495.0000     0.3290     9.9000     2.4016     0.0020  -999.2500  -999.2500     5.9859     5.8662   146.9805   -65.3638
 3495.5000     0.3335     9.8993     2.3804    -0.0067  -999.2500  -999.2500     6.6881     6.6921   144.0197   -72.6087
 3496.0000     0.3163     9.8987     2.3849    -0.0053  -999.2500  -999.2500     6.9221     7.0719   144.0111   -87.2164
 3496.5000     0.3139     9.8981     2.3954    -0.0039  -999.2500  -999.2500     7.0653     7.2178   145.5176   -71.5442
 3497.0000     0.3190     9.8969     2.3991    -0.0085  -999.2500  -999.2500     6.9643     7.0157   147.6303   -40.8611
 3497.5000     0.3387     9.9121     2.3696    -0.0071  -999.2500  -999.2500     6.4937     6.4959   145.8013   -25.3066
 3498.0000     0.3641     9.9419     2.3484     0.0079  -999.2500  -999.2500     5.7272     5.4565   136.0957   -24.8809
 3498.5000     0.3532     9.9563     2.3461     0.0199  -999.2500  -999.2500     5.0507     5.0517   129.4205   -54.7122
 3499.0000     0.3142     9.9709     2.3725     0.0092  -999.2500  -999.2500     4.9795     5.4509   126.9876   -69.4149
 3499.5000     0.2918    10.0158     2.3884     0.0016  -999.2500  -999.2500     6.3051     6.7129   129.5005   -84.1178
 3500.0000     0.2834    10.0151     2.3958    -0.0015  -999.2500  -999.2500     7.8740     8.6193   138.7098   -53.3283
 3500.5000     0.2837    10.0145     2.4040    -0.0016  -999.2500  -999.2500     9.0450    10.1808   153.6149   -45.7640
 3501.0000     0.2830    10.0139     2.4153    -0.0017  -999.2500  -999.2500     8.6718     9.8958   155.4202   -53.3283
 3501.5000     0.2804    10.0133     2.4183    -0.0018  -999.2500  -999.2500     8.5487     9.7546   152.9744   -68.4569
 3502.0000     0.2773    10.0884     2.4182    -0.0019  -999.2500  -999.2500     8.5453     9.7500   149.3209   -68.4569
 3502.5000     0.2731    10.1183     2.4197    -0.0051  -999.2500  -999.2500     8.5412     9.8823   149.6512   -60.8926
 3503.0000     0.2644    10.1176     2.4226    -0.0052  -999.2500  -999.2500     8.3993     9.9467   155.9489   -53.3283
 3503.5000     0.2595    10.1170     2.4256    -0.0023  -999.2500  -999.2500     8.2341     9.8722   157.4511   -53.3283
 3504.0000     0.2620    10.1162     2.4278    -0.0008  -999.2500  -999.2500     8.1727     9.2035   155.0054   -53.3283
 3504.5000     0.2710    10.1157     2.4263     0.0066  -999.2500  -999.2500     7.8346     8.1166   150.7029   -53.3283
 3505.0000     0.2847    10.1304     2.4330     0.0155  -999.2500  -999.2500     6.9562     6.8456   151.9364   -53.3283
 3505.5000     0.2832    10.1448     2.4465     0.0215  -999.2500  -999.2500     5.9246     6.7462   155.2525   -38.1997
 3506.0000     0.2671    10.1442     2.4541     0.0150  -999.2500  -999.2500     5.8813     7.2270   154.0232   -38.1997
 3506.5000     0.2623    10.1588     2.4578     0.0001  -999.2500  -999.2500     6.5254     7.5296   150.0666   -38.1997
 3507.0000     0.2699    10.1884     2.4328     0.0031  -999.2500  -999.2500     6.7984     7.3676   131.8633   -38.1997
 3507.5000     0.2829    10.2636     2.3610    -0.0031  -999.2500  -999.2500     6.6075     6.6328   130.9413   -38.1997
 3508.0000     0.3170    10.4304     2.1661    -0.0032  -999.2500  -999.2500     5.2131     4.5209   138.4956   -30.6354
 3508.5000     0.3491    10.6840     2.1479     0.0208  -999.2500  -999.2500     2.9450     2.8738   144.8420   -31.8045
 3509.0000     0.3804    10.7895     2.1754     0.1114  -999.2500  -999.2500     2.4057     2.2987   150.4469   -31.3534
 3509.5000     0.3476    10.7735     2.2535     0.1118  -999.2500  -999.2500     2.0489     2.0839   158.7428   -30.8297
 3510.0000     0.2941    10.2343     2.3313     0.0552  -999.2500  -999.2500     2.1651     2.1904   164.4831   -30.4011
 3510.5000     0.2671    10.0749     2.4717     0.0144  -999.2500  -999.2500     3.3075     3.4571   162.6478   -29.9725
 3511.0000     0.2650    10.0742     2.4837    -0.0038  -999.2500  -999.2500     4.5209     5.3547   151.5215   -29.5439
 3511.5000     0.2611    10.0893     2.4677    -0.0009  -999.2500  -999.2500     7.7730     7.2166   128.3666   -13.9705
 3512.0000     0.2608    10.0926     2.4466     0.0020  -999.2500  -999.2500     8.3287     8.3458   115.9252   -13.5419
 3512.5000     0.2623    10.0958     2.4443     0.0019  -999.2500  -999.2500     7.5519     7.9975   112.2717   -28.2579
 3513.0000     0.2608    10.0991     2.4503     0.0048  -999.2500  -999.2500     7.3408     7.8814   115.2848   -20.2035
 3513.5000     0.2583    10.1023     2.4578     0.0047  -999.2500  -999.2500     7.2347     8.0460   118.5966     2.7819
 3514.0000     0.2602    10.1056     2.4608     0.0000  -999.2500  -999.2500     6.9353     8.0922   123.1249     3.3175
 3514.5000     0.2748    10.1088     2.4554    -0.0046  -999.2500  -999.2500     6.5565     7.7545   123.4150   -18.9175
 3515.0000     0.2844    10.1121     2.4455    -0.0077  -999.2500  -999.2500     6.0275     7.2282   123.0905   -33.4193
 3515.5000     0.2851    10.1130     2.4410    -0.0048  -999.2500  -999.2500     5.8590     7.0236   121.5181   -40.5263
 3516.0000     0.2844    10.1125     2.4485    -0.0019  -999.2500  -999.2500     5.9380     7.2166   118.8094   -32.5564
 3516.5000     0.2814    10.1126     2.4591     0.0011  -999.2500  -999.2500     6.2761     7.9491   116.9740   -32.0263
 3517.0000     0.2802    10.1127     2.4680     0.0055  -999.2500  -999.2500     7.0088     8.5251   116.3550   -31.5977
