~VERSION INFORMATION
 VERS.                2.0:   CWLS LOG ASCII STANDARD - VERSION 2.0
 WRAP.                 NO:   ONE LINE PER DEPTH STEP
~WELL INFORMATION
#MNEM.UNIT      DATA TYPE    INFORMATION
#----------   ------------   ------------------------------
 STRT.F          198.0000:   START DEPTH
 STOP.F         3252.0000:   STOP DEPTH
 STEP.F            0.5000:   STEP LENGTH
 NULL.          -999.2500:   NO VALUE
 COMP. FENIX & SCISSON - U.S. NAVY:   COMPANY
 WELL.   FENIX A X #21-33:   WELL
 FLD .              NPR-3:   FIELD
 LOC .      S33 T39N R78W:   LOCATION
 CNTY.            NATRONA:   COUNTY
 STAT.            WYOMING:   STATE
 CTRY. UNITED STATES OF AMERICA:   COUNTRY
 SRVC.              WELEX:   SERVICE COMPANY
 DATE.        06-JUN-1977:   LOGDATE
 API .     49025103750000:   API NUMBER
~CURVE INFORMATION
#MNEM.UNIT       API CODE    CURVE DESCRIPTION
#----------   ------------   ------------------------------
 DEPT.F                  :   
 CALD.IN     45 280 60 00:   CALIPER FROM DENSITY LOG
 GRD .GAPI   45 310 01 00:   GAMMA RAY FROM DENSITY LOG
 RHOB.G/C3   45 350 01 00:   BULK DENSITY
 CORR.G/C3   45 356 01 00:   DENSITY CORRECTION
 NPHI.DEC    42 890 01 00:   NEUTRON POROSITY LIMESTONE
 SPR .MV     07 010 01 00:   SPONTANEOUS POTENTIAL
 GURD.OHMM   07 220 05 00:   GUARD LOG RESISTIVITY
 FORX.OHMM   07 220 00 00:   FORMATION FACTOR
~PARAMETER INFORMATION
#MNEM.UNIT          VALUE    DESCRIPTION
#----------   ------------   ------------------------------
 EKB .F         5147.0000:   Kelly bushing
 EGL .F         5137.0000:   Ground level
 EDF .F            0.0000:   Drilling floor
 EPD .F            0.0000:   Permanent datum
 TD  .F         3254.0000:   Total depth
 CLNT.            A2DTECH:   Client Code
 SL  . 660' FNL & 1320' FWL:   Surface Location
 PD  .                 GL:   Permanent Datum
 DAPD.F                10:   Feet Above Permanent Datum
 DATE.        06-JUN-1977:   Date Logged [DD-MMM-YYYY]
 DD  .F              3249:   Depth driller
 DL  .F              3254:   Depth logger
 BLI .F              3252:   Bottom log interval
 TLI .F               200:   Top log interval
 CS1 .IN            8.625:   Casing size
 CBD1.      8.625" @ 204':   Casing driller 1
 CBL1.F               221:   Casing logger 1
 BS1 .IN            7.875:   Bit size
 BSD1.F              3249:   Depth drilled with bit1
 DFT .            KCL MUD:   Type fluid in hole
 DFD .                  9:   Density
 DFV .                134:   Viscosity
 DFPH.                7.5:   pH
 DFL .                7.8:   Fluid loss
 MSS .           FLOWLINE:   Source of sample
 RMS .OHMM           0.64:   Rm
 MST .F                85:   Rm Meas. temp.
 RMF .OHMM           0.61:   Rmf
 MFST.F                85:   Rmf Meas. temp.
 MFSS.           FANN KIT:   Source Rmf.
 RMC .OHMM              1:   Rmc
 MCST.F                85:   Rmc Meas. temp.
 MCSS.           FANN KIT:   Source Rmc.
 RMB .OHMM           0.46:   Rm. at BHT
 BHT .F               116:   BHT.
 TCS .HRS             2.5:   Time Circ. stopped
 MRT .F               116:   Maximum recorded temp.
 LUN .               8611:   Logging unit number
 LUL .             CASPER:   Logging unit location
 ENGI.            C. DOAK:   Recorded By
 WITN.      B. HARRINGTON:   Witnessed by
 ORIG.           5" PRINT:   Origin of data
 UWI .     49025103750000:   Unique Well ID
 DICO. A2D TECHNOLOGIES, INC.:   Digitizing Company
~OTHER INFORMATION
~A   DEPT     CALD         GRD      RHOB       CORR       NPHI        SPR       GURD       FORX   
  198.0000  -999.2500    82.5457  -999.2500  -999.2500  -999.2500  -999.2500  -999.2500  -999.2500
  198.5000  -999.2500    82.5948  -999.2500  -999.2500     0.3313  -999.2500  -999.2500  -999.2500
  199.0000  -999.2500    82.9416  -999.2500  -999.2500     0.3328  -999.2500  -999.2500  -999.2500
  199.5000     8.3393    82.9907     1.9397  -999.2500     0.3345  -999.2500     8.1505  -999.2500
  200.0000     8.3543    81.8493     1.9398    -0.4664     0.3360  -999.2500     8.1505  -999.2500
  200.5000     8.3393    79.2199     1.9449    -0.4618     0.3375  -999.2500     7.7674  -999.2500
  201.0000     8.3393    76.5904     1.9489    -0.4572     0.3392  -999.2500     7.3011  -999.2500
  201.5000     8.3393    74.8462     1.9377    -0.4601     0.3395  -999.2500     6.7691  -999.2500
  202.0000     8.3393    74.0101     1.9288    -0.4570     0.3370  -999.2500     7.1520  -999.2500
  202.5000     8.3094    73.4640     1.9430    -0.4554     0.3343  -999.2500     8.3779  -999.2500
  203.0000     8.2945    72.9179     1.9491    -0.4493     0.3298  -999.2500     8.4357  -999.2500
  203.5000     8.2945    77.1459     1.9401    -0.4418     0.3252  -999.2500     7.7142  -999.2500
  204.0000     8.2945    83.4451     1.9343    -0.4342     0.3207  -999.2500     6.7691  -999.2500
  204.5000     8.2945    82.8989     1.9709    -0.4222     0.3186  -999.2500     5.5832  -999.2500
  205.0000     8.2945    81.1624     1.9852    -0.4071     0.3232  -999.2500     6.9579  -999.2500
  205.5000     8.2945    81.8067     1.9936    -0.3891     0.3281  -999.2500     7.3515  -999.2500
  206.0000     8.2945    84.3016     2.0003    -0.3711     0.3316  -999.2500     5.8586  -999.2500
  206.5000     8.2945    88.7625     1.9876    -0.3590     0.3355  -999.2500     4.2112  -999.2500
  207.0000     8.2945    95.6568     1.9555    -0.3529     0.3385  -999.2500     4.6051  -999.2500
  207.5000     8.2945   111.7774     1.9136    -0.3469     0.3399  -999.2500     5.1409  -999.2500
  208.0000     8.2945   137.4218     1.8576    -0.3453     0.3414  -999.2500     1.9466  -999.2500
  208.5000     8.2945   140.4471     1.7791    -0.3467     0.3435  -999.2500     5.5832  -999.2500
  209.0000     8.2945   135.3522     1.6901    -0.3526     0.3450  -999.2500     4.4494  -999.2500
  209.5000     8.2795   119.4225     1.5989    -0.3644     0.3476  -999.2500     3.1983  -999.2500
  210.0000     8.2795   102.8050     1.5765    -0.3659     0.3514  -999.2500     2.5664  -999.2500
  210.5000     8.2795   101.3660     1.5848    -0.3672     0.3550  -999.2500     0.6665  -999.2500
  211.0000     8.2795   102.6056     1.5909    -0.3641     0.3592  -999.2500     1.4803  -999.2500
  211.5000     8.2795   107.1190     1.5999    -0.3611     0.3624  -999.2500     0.9198  -999.2500
  212.0000     8.2795   110.7396     1.6097    -0.3565     0.3645  -999.2500     0.2615  -999.2500
  212.5000     8.2646   112.5744     1.6277    -0.3444     0.3660  -999.2500     1.0714  -999.2500
  213.0000     8.2496   111.8628     1.6546    -0.3309     0.3659  -999.2500     0.2295  -999.2500
  213.5000     8.2347    97.2087     1.7384    -0.3099     0.3650  -999.2500     0.1946  -999.2500
  214.0000     8.3393    90.7102     1.8821    -0.2724     0.3623  -999.2500     0.1946  -999.2500
  214.5000     8.5336    83.3189     1.9781    -0.2095     0.3598  -999.2500     1.4107  -999.2500
  215.0000     8.8176    80.6894     2.0221    -0.1347     0.3577  -999.2500     0.2453  -999.2500
  215.5000     8.9522    78.0600     2.0872    -0.0569     0.3562  -999.2500  -999.2500  -999.2500
  216.0000     9.0120    83.4662     2.1546    -0.0164     0.3552  -999.2500  -999.2500  -999.2500
  216.5000     8.8924    93.9320     2.2133     0.0644     0.3543  -999.2500  -999.2500  -999.2500
  217.0000     9.0419   101.2440     2.1965     0.1377     0.3533  -999.2500     1.3351  -999.2500
  217.5000     9.3558   113.0902     2.1727     0.1229     0.3511  -999.2500     0.2920  -999.2500
  218.0000     9.9537   124.4488     2.1495     0.1214     0.3437    -3.3333     5.1056  -999.2500
  218.5000    10.4469   129.8551     2.1309     0.1156     0.3358   -20.3704    11.3391  -999.2500
  219.0000    10.6861   133.4756     2.0853     0.1037     0.3289   -32.3704     6.9579     0.2233
  219.5000    10.7907   137.6914     2.0255     0.0799     0.3232   -37.4074    14.0341     0.3871
  220.0000    10.9103   129.7048     2.0001     0.0516     0.3220   -40.8148    10.5853     0.6529
  220.5000    11.2093   132.4325     2.0361     0.0397     0.3258   -43.6296     4.2112     0.9531
  221.0000    11.5680   137.2798     2.1887     0.0338     0.3288   -46.5926     7.7674     1.2209
  221.5000    12.4649   139.6756     2.3683     0.0399     0.3305   -49.7037     7.1030     1.5215
  222.0000    12.9432   130.2112     2.4842     0.0564     0.3282   -53.1111     6.9579     1.7947
  222.5000    12.9581   126.6889     2.5172     0.0625     0.3200   -55.3333     6.9579     2.1168
  223.0000    12.9581   124.9523     2.5031     0.0686     0.3145   -57.2593     7.1520     2.3958
  223.5000    12.9731   122.0253     2.4911     0.0687     0.3094   -59.0370     7.2511     2.7872
  224.0000    12.9880   122.6696     2.4972     0.0703     0.3067   -60.9630     7.0543     3.1983
  224.5000    12.9879   129.2664     2.4912     0.0704     0.3060   -62.7407     6.9102     3.5703
  225.0000    12.9880   134.3750     2.4823     0.0705     0.3090   -64.3704     6.7691     3.8510
  225.5000    13.0030   139.1278     2.4681     0.0705     0.3153   -65.8519     6.7227     4.0969
  226.0000    13.0030   151.7474     2.4644     0.0706     0.3204   -66.7407     6.7691     4.3287
  226.5000    13.0030   145.8442     2.4615     0.0707     0.3275   -67.7778     7.0217     4.5735
  227.0000    13.0106   140.2385     2.4518     0.0708     0.3322   -68.8148     7.1255     4.7011
  227.5000    13.0128   138.7995     2.4339     0.0754     0.3358   -69.7037     6.9179     4.7992
  228.0000    13.0000   146.2892     2.4198     0.0770     0.3382   -70.5926     6.6352     5.0014
  228.5000    13.0022   149.0168     2.4191     0.0816     0.3384   -71.3333     6.4152     4.8323
  229.0000    12.9895   150.5541     2.4184     0.0876     0.3366   -72.0741     6.1943     4.7663
  229.5000    12.9922   152.7589     2.4169     0.0952     0.3348   -72.6667     5.8966     4.8656
  230.0000    12.9944   156.6170     2.4142     0.1028     0.3326   -73.4074     5.5734     4.7011
  230.5000    12.9965   157.2491     2.4083     0.1118     0.3317   -74.0000     5.2307     4.5735
  231.0000    12.9833   141.2390     2.3823     0.1134     0.3307   -74.4444     5.0148     4.3287
  231.5000    12.9860   130.8715     2.2889     0.1120     0.3283   -75.0370     4.8078     4.1252
  232.0000    13.0030   107.7063     2.2201     0.1031     0.3268   -75.4815     4.5443     3.9043
  232.5000    13.0052    94.6602     2.1537     0.0868     0.3276   -76.0741     4.0006     3.6953
  233.0000    12.9905    94.7093     2.0977     0.0675     0.3300   -76.5185     3.3273     3.4260
  233.5000    12.8464    99.6279     2.0611     0.0466     0.3330   -76.6667     2.9711     3.1115
  234.0000    12.5956   110.5715     1.9969     0.0348     0.3377   -76.6667     2.7103     2.7303
  234.5000    12.1662   115.9999     2.0202     0.0289     0.3386   -76.6667     2.4030     2.3630
  235.0000    11.8410   127.9538     2.1078     0.0245     0.3367   -76.6667     2.0128     2.0034
  235.5000    11.5604   132.1696     2.1249     0.0111     0.3337   -76.6459     1.9713     1.7459
  236.0000    11.4138   135.7901     2.1633     0.0008     0.3304   -76.2222     3.0211     1.6525
  236.5000    11.2968   130.1845     2.2390     0.0053     0.3259   -76.2222     1.6639     1.6586
  237.0000    11.2228   116.2455     2.3356     0.0129     0.3201   -76.0741     5.4941     1.8452
  237.5000    11.1529   110.6399     2.3596     0.0190     0.3147   -76.0741     3.7184     2.3019
  238.0000    11.0807   110.0938     2.3754     0.0206     0.3078   -76.2222     2.8597     3.0616
