~VERSION INFORMATION
 VERS.                2.0:   CWLS LOG ASCII STANDARD - VERSION 2.0
 WRAP.                 NO:   ONE LINE PER DEPTH STEP
~WELL INFORMATION
#MNEM.UNIT      DATA TYPE    INFORMATION
#----------   ------------   ------------------------------
 STRT.F           85.5000:   START DEPTH
 STOP.F         3267.0000:   STOP DEPTH
 STEP.F            0.5000:   STEP LENGTH
 NULL.          -999.2500:   NO VALUE
 COMP. LAWRENCE ALLISON & ASSOCIATES:   COMPANY
 WELL. LAWRENCE "X" #78-33:   WELL
 FLD .           N P R #3:   FIELD
 LOC .      S33 T39N R78W:   LOCATION
 CNTY.            NATRONA:   COUNTY
 STAT.            WYOMING:   STATE
 CTRY. UNITED STATES OF AMERICA:   COUNTRY
 SRVC.      DRESSER ATLAS:   SERVICE COMPANY
 DATE.        04-FEB-1986:   LOGDATE
 API .     49025110630000:   API NUMBER
~CURVE INFORMATION
#MNEM.UNIT       API CODE    CURVE DESCRIPTION
#----------   ------------   ------------------------------
 DEPT.F                  :   
 CNC .DEC    42 890 03 00:   NEUTRON PORISITY SANDSTONE
 DEN .G/C3   45 350 01 00:   BULK DENSITY
 DCOR.G/C3   45 356 01 00:   DENSITY CORRECTION
 TEND.LBS    45 635 01 00:   TENSION FROM DENSITY LOG
 GRR .GAPI   07 310 01 00:   GAMMA RAY FROM RESISTIVITY
 CALR.IN     07 280 01 00:   CALIPER FROM RESISTIVITY
 RILM.OHMM   07 120 44 00:   INDUCTION LOG MEDIUM RESISTIVITY
 RILD.OHMM   07 120 46 00:   DEEP INDUCTION RESISTIVITY
 RFOC.OHMM   07 220 04 00:   RESISTIVITY FOCUSED LOG RES.
 TENR.LBS    07 635 01 00:   TENSION FROM RESISTIVITY
 DT  .US/F   60 520 00 00:   DELTA TIME
 TENS.LBS    60 635 01 00:   TENSION FROM SONIC
 SPR .MV     07 010 01 00:   SPONTANEOUS POTENTIAL
~PARAMETER INFORMATION
#MNEM.UNIT          VALUE    DESCRIPTION
#----------   ------------   ------------------------------
 EKB .F            0.0000:   Kelly bushing
 EGL .F         5150.0000:   Ground level
 EDF .F         5161.0000:   Drilling floor
 TD  .F         3260.0000:   Total depth
 DATE.        04-FEB-1986:   Date logged
 CLNT.            A2DTECH:   Client Code
 SL  . 1200' FEL & 650' FEL:   Surface Location
 PD  .                 GL:   Permanent Datum
 DD  .F              3260:   Depth driller
 DL  .F              3260:   Depth logger
 BLI .F              3258:   Bottom log interval
 CS1 .IN            8.625:   Casing size
 CBD1.      8.625" @ 566':   Casing driller 1
 CBL1.F               566:   Casing logger 1
 BS1 .IN            7.875:   Bit size
 DFT .        POLYMER-KCL:   Type fluid in hole
 DFD .                9.0:   Density
 DFV .                 36:   Viscosity
 DFPH.                8.5:   pH
 DFL .                 14:   Fluid loss
 MSS .           FLOWLINE:   Source of sample
 RMS .OHMM          0.367:   Rm
 MST .F                65:   Rm Meas. temp.
 RMF .OHMM          0.275:   Rmf
 MFST.F                65:   Rmf Meas. temp.
 RMC .OHMM          0.459:   Rmc
 MCST.F                65:   Rmc Meas. temp.
 MFSS.               CALC:   Source Rmf.
 RMB .OHMM          0.227:   Rm. at BHT
 BHT .F               105:   BHT.
 TCS .HRS               6:   Time Circ. stopped
 MRT .F               105:   Maximum recorded temp.
 LUN .               6274:   Logging unit number
 LUL .           GILLETTE:   Logging unit location
 ENGI.             MILLER:   Recorded By
 WITN.             STRONG:   Witnessed by
 ORIG.           5" PRINT:   Origin of data
 UWI .     49025110630000:   Unique Well ID
 DICO. A2D TECHNOLOGIES, INC.:   Digitizing Company
 DAPD.                 11:   Feet Above Permanent Datum
 BSD1.               3260:   Depth drilled with bit1
 MCSS.               CALC:   Source Rmc.
 EPD .F              5150:   Elevation Permanent Datum
 LMF .                 KB:   Log Measured From
 DMF .                 KB:   Drilling Measured From
 TLI .                566:   Top log interval
~OTHER INFORMATION
~A   DEPT      CNC        DEN       DCOR       TEND         GRR      CALR       RILM       RILD       RFOC       TENR         DT       TENS        SPR   
# ...
 3231.5000     0.2450     2.5210     0.0590   115.1580   108.7480     7.9780     4.6450     4.9090     6.6740   534.9360    75.3710   520.9230   -60.4840
 3232.0000     0.2460     2.5190     0.0580   116.1700   108.7480     7.9790     4.3040     4.5080     5.9570   538.9650    75.4360   528.5380   -60.3780
 3232.5000     0.2430     2.5170     0.0320   117.1820   108.7480     7.9810     4.0350     4.1930     6.4550   542.9940    75.4050   536.1540   -60.3580
 3233.0000     0.2400     2.5150     0.0080   117.9440   108.7480     7.9830     3.7670     3.8780     7.0350   547.0230    75.3740   543.7690   -60.4930
 3233.5000     0.2450     2.5110     0.0080   122.9990   108.7480     7.9850     3.4980     3.5630     7.3630   551.0520    75.3880   545.0000   -60.4750
 3234.0000     0.2530     2.5010     0.0200   127.8370   108.7480     7.9860     3.2290     3.2470     6.6180   555.0000    75.5530   545.0000   -60.3890
 3234.5000     0.2590     2.4920     0.0250   132.6760   108.7480     7.9880     3.0690     3.0410     5.7180   549.9500    75.2500   545.0000   -60.3550
 3235.0000     0.2590     2.4810     0.0280   137.5150   108.7480     7.9900     2.9580     2.9350     5.0010   545.0000    72.2920   545.0000   -60.2870
 3235.5000     0.2600     2.4700     0.0260   142.3530   108.7480     7.9920     2.9290     2.8300     4.5090   549.9500    68.1500   549.9170   -60.2350
 3236.0000     0.2670     2.4580     0.0290   147.1920   108.7480     7.9940     2.8930     2.7230     4.0090   555.0000    68.8980   558.1670   -60.1810
 3236.5000     0.2790     2.4550     0.0510   152.0310   108.7480     7.9960     2.8880     2.7230     3.8710   585.0000    71.9130   566.4170   -60.1210
 3237.0000     0.2820     2.4600     0.0530   156.8700   108.7480     7.9980     2.9140     2.7230     3.8290   595.0000    75.0500   574.6670   -60.0700
 3237.5000     0.2780     2.4670     0.0410   160.6100   108.7480     7.9970     2.9410     2.7740     4.1590   600.7580  -999.2500   582.9170   -60.0110
 3238.0000     0.2700     2.4720     0.0280   165.2240   108.7480     7.9950     2.9680     3.0150     4.5190   606.7580  -999.2500   591.1670   -59.9580
 3238.5000     0.2590     2.4760     0.0230   169.8380   108.7480     7.9930     3.0560     3.2330     4.2310   612.7580  -999.2500   599.4170   -59.9010
 3239.0000     0.2480     2.4980     0.0190   174.4510   108.7480     7.9910     3.2690     3.4680     3.3650   618.7580  -999.2500   607.6670   -59.8460
 3239.5000     0.2370     2.5210     0.0090   179.0650   108.7480     7.9900     3.4810     3.7030     3.5300   624.7580  -999.2500   615.3790   -59.7920
 3240.0000     0.2310     2.5410    -0.0030   183.6790   108.7480     7.9880     3.6930     3.9370     3.8290   630.7580  -999.2500   618.7930   -59.7390
 3240.5000     0.2270     2.5300    -0.0010   188.2920   108.7480     7.9860     3.9060     4.1980     7.1620   635.0000  -999.2500   622.2070   -59.6960
 3241.0000     0.2320     2.5170     0.0020   192.9060   108.7480     7.9840     4.0720     4.3070     7.8530   637.4620  -999.2500   625.6210   -59.6410
 3241.5000     0.2380     2.5040    -0.0010   197.5200   108.7480     7.9820     4.2180     4.4290     7.0080   639.3650  -999.2500   629.0340   -59.6070
 3242.0000     0.2430     2.4940     0.0050   188.9800   108.7480     7.9810     4.3550     4.5190     6.2260   641.2690  -999.2500   632.4480   -59.5490
 3242.5000     0.2490     2.4910     0.0160   190.2850   108.7480     7.9790     4.2870     4.4090     6.1280   643.1730  -999.2500   636.5630   -59.3820
 3243.0000     0.2530     2.4930     0.0390   191.5910   108.7480     7.9790     4.2230     4.3210     6.5030   645.0000  -999.2500   642.7500   -59.1410
 3243.5000     0.2560     2.4980     0.0560   192.8960   108.7480     7.9810     4.1580     4.2370     6.5520   654.8100  -999.2500   648.9380   -58.7980
 3244.0000     0.2590     2.4990     0.0580   194.2010   108.7480     7.9830     4.1370     4.2590     6.0920   664.2380  -999.2500   655.1250   -58.4790
 3244.5000     0.2610     2.5000     0.0490   195.5060   108.7480     7.9850     4.1750     4.2760     5.5850   673.6670  -999.2500   661.3130   -58.3410
 3245.0000     0.2590     2.5050     0.0530   196.8110   108.7480     7.9870     4.2590     4.3550     5.2680   685.0000  -999.2500   667.5000   -58.3500
 3245.5000     0.2550     2.5150     0.0630   198.1170   108.7480     7.9890     4.4100     4.5080     5.1160   698.9410  -999.2500   673.6880   -58.3540
 3246.0000     0.2540     2.5250     0.0600   198.5890   108.7480     7.9910     4.5610     4.6980     5.0730   716.4120  -999.2500   684.1760   -58.3290
 3246.5000     0.2590     2.5340     0.0390   198.5890   108.7480     7.9930     4.7130     4.8890     5.0940   733.8820  -999.2500   695.8240   -58.3790
 3247.0000     0.2630     2.5360     0.0290   198.5890   108.7480     7.9950     4.8640     5.0800     5.8700   745.0000  -999.2500   707.4710   -58.3050
 3247.5000     0.2650     2.5380     0.0330   198.5890   108.7480     7.9970     5.0150     5.2700     6.8810   745.0000  -999.2500   716.9440   -58.3970
 3248.0000     0.2610     2.5390     0.0460   198.5890   108.7480     7.9980     5.1660     5.4610     7.8920   745.0000  -999.2500   722.4440   -58.2980
 3248.5000     0.2540     2.5340     0.0540   198.5890   108.7480     7.9990     5.4390     5.6520     8.7710   745.0000  -999.2500   727.1180   -57.1210
 3249.0000     0.2520     2.5330     0.0620   209.3150   108.7480     8.0010     5.8160     5.8430     8.1730   745.0000  -999.2500   731.0740   -55.9250
 3249.5000     0.2520     2.5330     0.0700   220.3790   108.7480     8.0030     6.1940     6.0120     7.0960   745.0000  -999.2500   735.0300   -54.9990
 3250.0000     0.2530     2.5330     0.0780   223.4860   108.7480     8.0050     6.5720     5.7990     6.7980   745.0000  -999.2500   738.9860   -53.6270
 3250.5000     0.2560     2.5320     0.0630   226.5930   108.7480     8.0060     6.8400     5.5850     6.4130   755.0760  -999.2500   742.9420   -52.8010
 3251.0000     0.2590     2.5310     0.0470   230.7140   108.7480     8.0080     7.0470     5.5610     6.7770   766.2880  -999.2500   750.7130   -52.8160
 3251.5000     0.2590     2.5380     0.0460   237.4450   108.7480     8.0100     7.2070     5.5250     7.1130   777.5000  -999.2500   762.6210   -52.8640
 3252.0000     0.2590     2.5480     0.0520   244.1760   108.7480     8.0120     7.2950     5.4890     8.3310   788.7120  -999.2500   774.5290   -52.8790
 3252.5000     0.2590     2.5480     0.0490   250.9070   108.7480     8.0130     7.2950     5.4530     9.0980   805.0000  -999.2500   786.4370   -52.9210
 3253.0000     0.2590     2.5380     0.0470   257.6380   108.7480     8.0150     7.2950     5.4220     9.4730   814.7140  -999.2500   798.3450   -52.9440
 3253.5000     0.2590     2.5400     0.0410   264.3690   108.7480     8.0170     7.2950     5.3960    10.3520   824.1110  -999.2500   810.2530   -52.9850
 3254.0000     0.2590     2.5450     0.0290   271.1000   108.7480     8.0180     7.2950     5.3700    11.2470   833.5080  -999.2500   817.9670   -53.0040
 3254.5000     0.2590     2.5400     0.0260   277.8320   108.7480     8.0180     7.2740     5.3440    10.9220   845.0000  -999.2500   822.9000   -53.0210
 3255.0000     0.2600     2.5380     0.0480   271.3470   108.7480     8.0180     7.2370     5.3170    10.5110   850.8970  -999.2500   827.8330   -53.0500
 3255.5000     0.2600     2.5430     0.1110   261.3850   108.7480     8.0180     7.2010     5.2850    10.1630   858.4870  -999.2500   832.7670   -53.0690
 3256.0000     0.2630     2.5320     0.1730   218.7500   108.7480     8.0180     7.1620     5.3080    10.6420   865.0000  -999.2500   844.6430   -53.0930
 3256.5000     0.2650     2.5040     0.1610    75.5460   108.7480     8.0180     7.1900     5.3380    10.3820   893.3670  -999.2500   862.2620   -53.1170
 3257.0000  -999.2500     2.4960     0.1460   -73.8850   108.7480     8.0180     7.2200     5.3680    10.0290   888.4330  -999.2500   879.8810   -53.1360
