~VERSION INFORMATION
 VERS.                2.0:   CWLS LOG ASCII STANDARD - VERSION 2.0
 WRAP.                 NO:   ONE LINE PER DEPTH STEP
~WELL INFORMATION
#MNEM.UNIT      DATA TYPE    INFORMATION
#----------   ------------   ------------------------------
 STRT.F          200.0000:   START DEPTH
 STOP.F         3000.0000:   STOP DEPTH
 STEP.F            0.5000:   STEP LENGTH
 NULL.          -999.2500:   NO VALUE
 COMP.    FENIX & SCISSON:   COMPANY
 WELL.   FENIX "A" #65-28:   WELL
 FLD .              NPR 3:   FIELD
 LOC .      S28 T39N R78W:   LOCATION
 CNTY.            NATRONA:   COUNTY
 STAT.            WYOMING:   STATE
 CTRY. UNITED STATES OF AMERICA:   COUNTRY
 SRVC.              WELEX:   SERVICE COMPANY
 DATE.        25-JUL-1977:   LOGDATE
 API .     49025104010000:   API NUMBER
~CURVE INFORMATION
#MNEM.UNIT       API CODE    CURVE DESCRIPTION
#----------   ------------   ------------------------------
 DEPT.F                  :   
 GRD .GAPI   45 310 01 00:   GAMMA RAY FROM DENSITY LOG
 CALD.IN     45 280 60 00:   CALIPER FROM DENSITY LOG
 RHOB.G/C3   45 350 01 00:   BULK DENSITY
 DCOR.G/C3   45 356 01 00:   DENSITY CORRECTION
 SPR .MV     07 010 01 00:   SPONTANEOUS POTENTIAL
 RILM.OHMM   07 120 44 00:   INDUCTION LOG MEDIUM RESISTIVITY
 RILD.OHMM   07 120 46 00:   DEEP INDUCTION RESISTIVITY
 SGRD.OHMM   07 220 05 00:   SHALLOW GUARD
~PARAMETER INFORMATION
#MNEM.UNIT          VALUE    DESCRIPTION
#----------   ------------   ------------------------------
 EKB .F         5069.0000:   Kelly bushing
 EGL .F         5059.0000:   Ground level
 EDF .F            0.0000:   Drilling floor
 TD  .F         3006.0000:   Total depth
 DATE.        25-JUL-1977:   Date logged
 CLNT.            A2DTECH:   Client Code
 SL  . 2310' FSL & 1650' FEL:   Surface Location
 PD  .                 GL:   Permanent Datum
 EPD .F              5059:   Elevation Permanent Datum
 LMF .                 KB:   Log Measured From
 DMF .                 KB:   Drilling Measured From
 DAPD.F                10:   Feet Above Permanent Datum
 DD  .F              3006:   Depth driller
 DL  .F              3006:   Depth logger
 BLI .F              3004:   Bottom log interval
 TLI .F               200:   Top log interval
 CS1 .IN            8.625:   Casing size
 CBD1.      8.625" @ 205':   Casing driller 1
 CBL1.F               220:   Casing logger 1
 BS1 .IN            7.875:   Bit size
 BSD1.F              3006:   Depth drilled with bit1
 DFT .            KCL MUD:   Type fluid in hole
 DFD .                8.9:   Density
 DFV .                 39:   Viscosity
 DFPH.                7.5:   pH
 DFL .                7.2:   Fluid loss
 MSS .           FLOWLINE:   Source of sample
 RMS .OHMM           0.29:   Rm
 MST .F                78:   Rm Meas. temp.
 RMF .OHMM           0.19:   Rmf
 MFST.F                78:   Rmf Meas. temp.
 RMC .OHMM           0.80:   Rmc
 MCST.F                78:   Rmc Meas. temp.
 MFSS.               FANN:   Source Rmf.
 MCSS.                KIT:   Source Rmc.
 RMB .OHMM           0.20:   Rm. at BHT
 BHT .F               113:   BHT.
 TCS .HRS               3:   Time Circ. stopped
 MRT .F               113:   Maximum recorded temp.
 LUN .               8766:   Logging unit number
 LUL .             CASPER:   Logging unit location
 ENGI.         G. BENTSEN:   Recorded By
 WITN.      B. HARRINGTON:   Witnessed by
 ORIG.           5" PRINT:   Origin of data
 UWI .     49025104010000:   Unique Well ID
 DICO. A2D TECHNOLOGIES, INC.:   Digitizing Company
~OTHER INFORMATION
~A   DEPT       GRD        CALD       RHOB      DCOR       SPR       RILM         RILD       SGRD 
# ...
 1293.5000    96.8790     9.8170     2.5080     0.0240   -43.8810     7.4940     6.9480    10.3470
 1294.0000    99.8730     9.8490     2.5140     0.0270   -43.8280     7.4720     6.9550    10.3930
 1294.5000   101.7910     9.8400     2.5200     0.0300   -43.7790     7.4490     6.9610    10.2820
 1295.0000    97.6720     9.8160     2.5260     0.0330   -43.8850     7.4260     6.9680    10.1860
 1295.5000   100.9500     9.7970     2.5310     0.0360   -44.0040     7.4070     6.9750    10.0900
 1296.0000   102.9730     9.7980     2.5370     0.0390   -44.1220     7.4390     6.9820     9.9940
 1296.5000    98.0040     9.7970     2.5370     0.0390   -44.2410     7.4670     6.9880     9.8980
 1297.0000    99.5020     9.8110     2.5350     0.0380   -44.3630     7.4960     6.9950     9.8020
 1297.5000   101.1430     9.8290     2.5330     0.0360   -44.4330     7.5240     7.0020     9.7050
 1298.0000    94.2200     9.8470     2.5290     0.0330   -44.5030     7.5430     7.0110     9.6090
 1298.5000   101.1610     9.8650     2.5250     0.0300   -44.5730     7.4110     6.9440     9.5130
 1299.0000    96.5280     9.8680     2.5220     0.0260   -44.6440     7.3100     6.8510     9.4170
 1299.5000    94.2010     9.8260     2.5230     0.0230   -44.7130     7.2100     6.7590     9.3120
 1300.0000    93.4210     9.8040     2.5180     0.0200   -44.7380     7.1090     6.6660     9.2980
 1300.5000    97.5860     9.8330     2.5150     0.0200   -44.6450     7.0090     6.5730     9.2720
 1301.0000    96.1300     9.8540     2.5200     0.0240   -44.5550     6.9080     6.4800     9.2450
 1301.5000    99.2250     9.8010     2.5240     0.0280   -44.4650     6.8070     6.3970     9.2190
 1302.0000   100.6490     9.8790     2.5280     0.0320   -44.3750     6.7590     6.3970     9.1920
 1302.5000    95.1000     9.8700     2.5260     0.0360   -44.2850     6.9470     6.3970     9.1660
 1303.0000    93.3000     9.8320     2.5280     0.0350   -44.1910     7.0290     6.3970     9.1430
 1303.5000    96.4690     9.7990     2.5310     0.0340   -44.1860     7.1170     6.4090     9.2770
 1304.0000    96.0720     9.8380     2.5280     0.0320   -44.2080     7.2060     6.5050     9.3960
 1304.5000    98.1640     9.8330     2.5270     0.0310   -44.2300     7.2950     6.6000     9.5160
 1305.0000    98.7310     9.8280     2.5280     0.0300   -44.2520     7.4070     6.6950     9.6350
 1305.5000    98.1190     9.8240     2.5260     0.0320   -44.2740     7.3990     6.7900     9.7550
 1306.0000   100.6170     9.8190     2.5220     0.0300   -44.2960     7.3840     6.8850     9.9280
 1306.5000   102.2500     9.8240     2.5180     0.0280   -44.3180     7.3690     6.9470     9.8930
 1307.0000    97.6680     9.8320     2.5180     0.0300   -44.3400     7.3550     6.9080     9.8290
 1307.5000    99.7040     9.8380     2.5190     0.0320   -44.3640     7.3400     6.8750     9.7650
 1308.0000   101.8640     9.8370     2.5160     0.0320   -44.3290     7.3250     6.8420     9.7010
 1308.5000    96.2710     9.8320     2.5150     0.0320   -44.2780     7.3110     6.8210     9.6370
 1309.0000    99.9540     9.8270     2.5150     0.0340   -44.2270     7.2960     6.8780     9.5710
 1309.5000    95.9520     9.8220     2.5160     0.0360   -44.1760     7.2810     6.9260     9.6420
 1310.0000    95.7510     9.8180     2.5150     0.0320   -44.1250     7.2720     6.9470     9.7150
 1310.5000    97.0430     9.8230     2.5120     0.0280   -44.0740     7.3750     6.8850     9.7880
 1311.0000   100.7590     9.8290     2.5100     0.0280   -44.0240     7.4500     6.8210     9.8610
 1311.5000    98.7340     9.8340     2.5080     0.0270   -43.9730     7.5240     6.8690     9.9340
 1312.0000    96.3840     9.8390     2.5080     0.0260   -43.9220     7.5990     6.9500    10.0070
 1312.5000    95.1420     9.8450     2.5090     0.0250   -43.8710     7.6740     7.0310    10.0800
 1313.0000   100.2060     9.8500     2.5110     0.0250   -43.8200     7.7480     7.1130    10.1530
 1313.5000    97.9050     9.8550     2.5120     0.0250   -43.7690     7.8230     7.1940    10.2260
 1314.0000    95.1130     9.8520     2.5140     0.0270   -43.7180     7.8970     7.2750    10.2980
 1314.5000   101.9030     9.8400     2.5180     0.0290   -43.6670     7.8570     7.3390    10.2280
 1315.0000    97.5370     9.8280     2.5260     0.0320   -43.6170     7.8170     7.2970    10.1600
 1315.5000   103.6370     9.8160     2.5330     0.0340   -43.6280     7.7780     7.2620    10.0910
 1316.0000   101.9810     9.8050     2.5350     0.0370   -43.9000     7.7380     7.2270    10.0220
 1316.5000    99.8960     9.7930     2.5340     0.0370   -44.1680     7.6980     7.1920     9.9530
 1317.0000    98.6780     9.7810     2.5300     0.0350   -44.3860     7.6590     7.1570     9.9280
 1317.5000    99.0970     9.7780     2.5230     0.0340   -44.2000     7.6130     7.1220    10.0340
 1318.0000   101.4200     9.7780     2.5160     0.0310   -44.2510     7.6310     7.0880    10.1090
 1318.5000   103.8430     9.7780     2.5080     0.0280   -44.3040     7.6530     7.0750    10.1830
 1319.0000   105.0270     9.7780     2.5030     0.0260   -44.3600     7.6750     7.1240    10.2580
 1319.5000   103.1710     9.7770     2.4990     0.0230   -44.3480     7.6960     7.1580    10.2980
 1320.0000   101.1550     9.7900     2.4950     0.0210   -44.3190     7.7180     7.1920    10.2460
 1320.5000   106.3790     9.8060     2.4980     0.0190   -44.2900     7.7400     7.2260    10.2100
 1321.0000   104.3570     9.8120     2.5020     0.0180   -44.2610     7.7610     7.2600    10.1740
 1321.5000   102.0720     9.7890     2.5090     0.0200   -44.2320     7.7830     7.2940    10.1370
 1322.0000   100.6850     9.7930     2.5160     0.0210   -44.2020     7.8050     7.3280    10.1110
 1322.5000   103.6340     9.8230     2.5230     0.0230   -44.1710     7.8250     7.3620    10.2290
 1323.0000   105.5700     9.8400     2.5300     0.0250   -44.2420     7.7910     7.3960    10.3220
 1323.5000   104.3880     9.8470     2.5370     0.0260   -44.3250     7.7600     7.4070    10.4140
 1324.0000   102.5530     9.8530     2.5410     0.0280   -44.4090     7.7280     7.3340    10.5070
 1324.5000   101.6770     9.8570     2.5360     0.0290   -44.4950     7.6970     7.2850    10.5990
 1325.0000   104.5910     9.8440     2.5300     0.0270   -44.5150     7.6660     7.2350    10.6820
 1325.5000   105.5340     9.8310     2.5250     0.0200   -44.3760     7.6350     7.1860    10.5250
 1326.0000   101.7010     9.8180     2.5220     0.0210   -44.3690     7.5980     7.1370    10.3820
 1326.5000   104.2390     9.8240     2.5240     0.0260   -44.5650     7.5490     7.0880    10.2390
 1327.0000   106.3810     9.8320     2.5270     0.0330   -44.7600     7.5000     7.0390    10.0960
 1327.5000   103.9900     9.8390     2.5320     0.0430   -44.7640     7.4510     6.9900     9.9530
 1328.0000   102.1750     9.8470     2.5410     0.0530   -44.7540     7.4010     6.9420     9.8100
 1328.5000   105.5550     9.8540     2.5490     0.0630   -45.2290     7.3520     6.9010     9.6670
 1329.0000   107.5640     9.8450     2.5550     0.0670   -45.2000     7.3030     6.8600     9.5710
 1329.5000   103.4480     9.8200     2.5480     0.0700   -44.9030     7.2540     6.8190     9.8570
 1330.0000   102.2000     9.7980     2.5410     0.0630   -44.6220     7.2050     6.7770    10.0710
 1330.5000   106.7620     9.8250     2.5340     0.0550   -44.7310     7.1560     6.7360    10.2980
 1331.0000   102.9830     9.8500     2.5270     0.0480   -44.9490     7.1070     6.6950    10.2680
 1331.5000   100.5020     9.8770     2.5210     0.0400   -44.9360     7.0750     6.6360    10.2350
 1332.0000   103.7440     9.8200     2.5170     0.0320   -44.9070     7.1480     6.6470    10.2030
 1332.5000   105.6680     9.8370     2.5120     0.0290   -44.8790     7.2030     6.6670    10.1710
 1333.0000   104.0310     9.8590     2.5030     0.0270   -44.8520     7.2570     6.6860    10.1380
 1333.5000   102.5220     9.8770     2.5040     0.0240   -44.8240     7.3110     6.7060    10.1000
