~VERSION INFORMATION
 VERS.                2.0:   CWLS LOG ASCII STANDARD - VERSION 2.0
 WRAP.                 NO:   ONE LINE PER DEPTH STEP
~WELL INFORMATION
#MNEM.UNIT      DATA TYPE    INFORMATION
#----------   ------------   ------------------------------
 STRT.F          600.0000:   START DEPTH
 STOP.F         3201.0000:   STOP DEPTH
 STEP.F            0.5000:   STEP LENGTH
 NULL.          -999.2500:   NO VALUE
 COMP.    FENIX & SCISSON:   COMPANY
 WELL. FENIX & SCISSON 38 "AX" #3-34:   WELL
 FLD .              NPR 3:   FIELD
 LOC .      S34 T39N R78W:   LOCATION
 CNTY.            NATRONA:   COUNTY
 STAT.            WYOMING:   STATE
 CTRY. UNITED STATES OF AMERICA:   COUNTRY
 SRVC.              WELEX:   SERVICE COMPANY
 DATE.        16-SEP-1980:   LOGDATE
 API .     49025108560000:   API NUMBER
~CURVE INFORMATION
#MNEM.UNIT       API CODE    CURVE DESCRIPTION
#----------   ------------   ------------------------------
 DEPT.F                  :   
 CORR.G/C3   45 356 01 00:   DENSITY CORRECTION
 GRD .GAPI   45 310 01 00:   GAMMA RAY FROM DENSITY LOG
 RHOB.G/C3   45 350 01 00:   BULK DENSITY
 TEND.LBS    45 635 01 00:   TENSION FORM DENSITY LOG
 CALD.IN     45 280 60 00:   CALIPER FROM DENSITY LOG
 SPR .MV     07 010 01 00:   SPONTANEOUS POTENTIAL FROM RES.
 ILD .OHMM   07 120 46 00:   DEEP INDUCTION RESISTIVITY
 ILM .OHMM   07 120 44 00:   INDUCTION LOG MEDIUM RESISTIVITY
 GURD.OHMM   07 220 05 00:   GUARD LOG RESISTIVITY
~PARAMETER INFORMATION
#MNEM.UNIT          VALUE    DESCRIPTION
#----------   ------------   ------------------------------
 EKB .F         5205.0000:   Kelly bushing
 EGL .F         5195.0000:   Ground level
 TD  .F         3202.0000:   Total depth
 CLNT.            A2DTECH:   Client Code
 SL  . 582' FSL & 1600' FWL:   Surface Location
 PD  .                 GL:   Permanent Datum
 EPD .F              5195:   Elevation Permanent Datum
 LMF .                 KB:   Log Measured From
 DMF .                 KB:   Drilling Measured From
 DAPD.F                10:   Feet Above Permanent Datum
 DATE.        16-SEP-1980:   Date Logged [DD-MMM-YYYY]
 DD  .F              3200:   Depth driller
 DL  .F              3203:   Depth logger
 BLI .F              3201:   Bottom log interval
 TLI .F               600:   Top log interval
 CS1 .IN            8.625:   Casing size
 CBD1.      8.625" @ 580':   Casing driller 1
 CBL1.F               600:   Casing logger 1
 BS1 .IN            7.875:   Bit size
 BSD1.F              3200:   Depth drilled with bit1
 DFT .          DISPERSED:   Type fluid in hole
 DFD .                8.8:   Density
 DFV .                 40:   Viscosity
 DFPH.                 11:   pH
 DFL .                  8:   Fluid loss
 MSS .           FLOWLINE:   Source of sample
 RMS .OHMM           1.33:   Rm
 MST .F                65:   Rm Meas. temp.
 RMF .OHMM           1.15:   Rmf
 MFST.F                65:   Rmf Meas. temp.
 MFSS.               MEAS:   Source Rmf.
 RMC .OHMM           1.50:   Rmc
 MCST.F                65:   Rmc Meas. temp.
 MCSS.               MEAS:   Source Rmc.
 RMB .OHMM            .75:   Rm. at BHT
 BHT .F               115:   BHT.
 TCS .HRS               8:   Time Circ. stopped
 MRT .F               115:   Maximum recorded temp.
 LUN .               1892:   Logging unit number
 LUL .             CASPER:   Logging unit location
 ENGI.    PERIMMER / REIN:   Recorded By
 WITN.              FIVAS:   Witnessed by
 ORIG.         2.5" PRINT:   Origin of data
 UWI .     49025108560000:   Unique Well ID
 DICO. A2D TECHNOLOGIES, INC.:   Digitizing Company
~OTHER INFORMATION
~A   DEPT       CORR       GRD        RHOB      TEND       CALD       SPR          ILD        ILM       GURD 
# ...
 2644.0000     0.0532    97.7539     2.5250   534.9396     9.5233   -26.0219     5.0748     6.2473     6.7617
 2644.5000     0.0562   100.3160     2.5175   535.5422     9.5528   -26.3404     5.0720     6.3303     6.8371
 2645.0000     0.0562   100.0884     2.5220   506.1385     9.4326   -26.3554     5.0692     6.4150     6.8323
 2645.5000     0.0591    99.6294     2.5280   506.7105     9.3965   -26.6742     5.1371     6.4110     6.8280
 2646.0000     0.0591    99.6208     2.5186   507.2289     9.3420   -26.9897     5.1336     6.4077     6.8229
 2646.5000     0.0580    99.6123     2.5144   507.9494     9.5333   -27.3051     5.2029     6.4043     6.8189
 2647.0000     0.0546   100.9670     2.5154   508.4338     9.4897   -27.6206     5.1998     6.4008     6.8149
 2647.5000     0.0469   102.9283     2.5224   509.0362     9.4004   -27.6355     5.2697     6.3759     6.9059
 2648.0000     0.0438   104.1981     2.5240   509.6386     9.3999   -27.5863     5.2667     6.2745     6.8966
 2648.5000     0.0438   104.9835     2.5203   510.2411     9.3696   -27.2660     5.2638     6.0897     6.8025
 2649.0000     0.0438   104.9730     2.5158   510.8434     9.5189   -27.0783     5.2414     5.8767     6.7983
 2649.5000     0.0407   104.9640     2.5113   511.4459     9.6100   -26.7922     5.1857     5.7132     6.7940
 2650.0000     0.0377   104.5031     2.5068   542.2640     9.6378   -26.5084     5.1472     5.5542     6.6964
 2650.5000     0.0406   103.9431     2.5017   542.8358     9.5774   -26.5227     5.1082     5.3996     6.5087
 2651.0000     0.0436   106.2878     2.4940   543.3734     9.5355   -26.2349     5.0353     5.3225     6.1542
 2651.5000     0.0466   112.1351     2.4897   543.9759     9.4719   -25.9487     5.0326     5.3195     5.6602
 2652.0000     0.0525   113.9701     2.4872   544.5784     9.4263   -25.9639     5.0300     5.3393     5.6486
 2652.5000     0.0525   114.9998     2.4903   545.1807     9.6442   -25.6760     4.9581     5.3877     6.5149
 2653.0000     0.0524   116.1635     2.5007   545.7830     9.4254   -25.6928     4.8872     5.4255     6.7648
 2653.5000     0.0524   115.9670     2.5097   546.3856     9.3651   -25.7078     4.8845     5.5324     5.7825
 2654.0000     0.0493   113.6203     2.5081   546.9880     9.3657   -25.7229     4.8818     5.5295     5.8020
 2654.5000     0.0493   107.5750     2.5096   547.5903     9.5182   -26.0414     4.8791     5.5267     6.0025
 2655.0000     0.0492   104.8637     2.5158   537.1454     9.6407   -26.0556     4.8089     5.2965     5.8742
 2655.5000     0.0522   101.7020     2.5214   518.6748     9.5706   -26.3711     4.7402     4.9235     5.5544
 2656.0000     0.0601    98.5403     2.5426   519.2924     9.4387   -26.6867     4.6726     4.7379     5.1084
 2656.5000     0.0672    95.7579     2.5575   519.8795     9.3924   -26.7441     4.6701     4.7598     4.7638
 2657.0000     0.0581    93.4230     2.5537   520.4819     9.4218   -27.2068     4.6676     4.7987     4.6309
 2657.5000     0.0430    92.6588     2.5426   521.0844     9.6309   -27.3343     4.6650     4.7955     5.1883
 2658.0000     0.0339    94.9551     2.5261   521.6867     9.4808   -27.3494     4.6624     4.9276     6.2362
 2658.5000     0.0339    98.8931     2.5080   492.1686     9.4203   -27.3674     4.6894     4.9937     6.1017
 2659.0000     0.0338    98.0343     2.5035   492.7710     9.3901   -27.3816     4.7222     5.0607     5.7264
 2659.5000     0.0368    97.5753     2.5036   493.3735     9.3964   -27.3959     4.9194     5.2060     6.1741
 2660.0000     0.0398    97.5667     2.5113   493.9759     9.4291   -27.4101     4.9854     5.3581     6.7987
 2660.5000     0.0427    97.5582     2.5155   464.4845     9.5085   -27.4247     5.0523     5.5146     6.9858
 2661.0000     0.0457    96.6487     2.5167   465.0565     9.4752   -27.1374     5.1221     5.6413     6.8854
 2661.5000     0.0456    96.6396     2.5269   435.5078     9.4177   -27.0712     5.1887     5.6381     6.4030
 2662.0000     0.0456    96.8345     2.5406   436.1445     9.4473   -26.8647     5.2583     5.6345     5.9051
 2662.5000     0.0425    99.1742     2.5335   436.7469     9.5366   -26.7319     5.2551     5.5541     5.9014
 2663.0000     0.0425   100.6125     2.5319   437.3494     9.6560   -26.2979     5.2522     5.6288     6.0478
 2663.5000     0.0455   102.5012     2.5364   437.9518     9.6201   -26.0110     5.2487     5.6257     6.4974
 2664.0000     0.0508   101.0976     2.5521   438.5541     9.4934   -26.0252     5.2460     5.6340     6.8590
 2664.5000     0.0680    98.3864     2.5844   439.1566     9.3760   -26.0395     5.2432     5.7777     6.7607
 2665.0000     0.0664    96.5760     2.5935   469.9175     9.3549   -26.0542     5.2405     5.8552     6.3925
 2665.5000     0.0513    96.1170     2.5844   470.4819     9.5497   -26.0693     5.2376     5.8513     6.5682
 2666.0000     0.0422    95.5132     2.5655   471.0842     9.5035   -26.0843     5.2347     5.8475     6.5320
 2666.5000     0.0362    92.4955     2.5288   471.6869     9.4133   -26.4006     5.2533     5.7641     5.9539
 2667.0000     0.0331    93.7836     2.5243   472.2892     9.3829   -26.5723     5.3764     5.7611     6.0835
 2667.5000     0.0361    96.2612     2.5228   472.8915     9.3226   -27.0357     5.4478     5.8384     6.6270
 2668.0000     0.0360    97.6519     2.5213   473.4938     9.3222   -27.0500     5.5207     5.8352     7.0682
 2668.5000     0.0330    97.4128     2.5212   474.0963     9.3569   -27.0642     5.5173     5.8319     7.3097
 2669.0000     0.0299    95.1519     2.5227   474.7788     9.4580   -27.0785     5.5144     5.8555     7.1058
 2669.5000     0.0238    94.2425     2.5212   475.3508     9.5305   -27.0934     5.5115     5.9067     6.9076
 2670.0000     0.0208    94.2041     2.5197   475.9226     9.4550   -27.1084     5.5085     5.9034     6.9035
 2670.5000     0.0177    98.3335     2.5159   476.5061     9.2899   -27.0291     5.4297     5.8997     7.1087
 2671.0000     0.0117   100.5888     2.4986   477.1084     9.2595   -26.8374     5.4020     5.8966     7.3898
 2671.5000     0.0119   101.9789     2.4836   469.0028     9.3190   -26.8524     5.2432     5.7325     7.0258
 2672.0000     0.0153   102.7583     2.4941   454.9632     9.4682   -26.5687     5.1600     5.5698     6.6602
 2672.5000     0.0206   101.1860     2.5061   448.7952     9.5277   -26.5830     5.0548     5.4177     6.4642
 2673.0000     0.0265   100.4865     2.5153   449.3976     9.3940   -26.5972     5.0521     5.3402     6.5065
 2673.5000     0.0295   100.4761     2.5216   450.0914     9.2795   -26.6115     5.0495     5.2638     6.4132
 2674.0000     0.0325    96.4135     2.5299   450.6634     9.2569   -26.6265     5.0468     5.2609     5.9806
 2674.5000     0.0324    94.6031     2.5331   451.2354     9.3291   -26.3388     5.0346     5.2575     5.8948
 2675.0000     0.0354    93.2432     2.5128   451.8072     9.4954   -26.3554     4.9719     5.2547     6.1554
 2675.5000     0.0323    92.7842     2.5108   452.4097     9.4351   -26.3705     4.9691     5.2520     6.2233
 2676.0000     0.0323    93.8675     2.5210   453.0121     9.3748   -26.3855     4.9664     5.2492     5.6990
 2676.5000     0.0322    96.8212     2.5255   453.6145     9.3145   -26.4006     4.9631     5.2463     5.5633
 2677.0000     0.0311    95.0748     2.5240   454.2168     9.2542   -26.4172     4.9605     5.2434     5.6790
 2677.5000     0.0291    94.0991     2.5145   454.8192     9.2874   -26.4314     4.9579     5.2405     5.8722
 2678.0000     0.0261    94.5390     2.4977   455.4218     9.3272   -26.7470     4.8871     5.2376     5.9511
 2678.5000     0.0260    95.8818     2.4924   456.0241     9.4427   -26.8003     4.8845     5.2342     6.0301
 2679.0000     0.0260    97.6750     2.4959   456.6685     9.3617   -27.3795     4.8818     5.2314     5.9436
 2679.5000     0.0259    99.9187     2.4976   457.3356     9.2519   -27.3946     4.8791     5.1568     5.9399
 2680.0000     0.0261    99.3090     2.4938   457.8314     9.3412   -27.4096     4.8093     5.1541     5.9866
