~VERSION INFORMATION
 VERS.                2.0:   CWLS LOG ASCII STANDARD - VERSION 2.0
 WRAP.                 NO:   ONE LINE PER DEPTH STEP
~WELL INFORMATION
#MNEM.UNIT      DATA TYPE    INFORMATION
#----------   ------------   ------------------------------
 STRT.F          407.0000:   START DEPTH
 STOP.F         3228.0000:   STOP DEPTH
 STEP.F            0.5000:   STEP LENGTH
 NULL.          -999.2500:   NO VALUE
 COMP.    FENIX & SCISSON:   COMPANY
 WELL.   FENIX "A" #21-34:   WELL
 FLD .             N.P.R.:   FIELD
 LOC .      S34 T39N R78W:   LOCATION
 CNTY.            NATRONA:   COUNTY
 STAT.            WYOMING:   STATE
 CTRY. UNITED STATES OF AMERICA:   COUNTRY
 SRVC.       SCHLUMBERGER:   SERVICE COMPANY
 DATE.        05-MAY-1977:   LOGDATE
 API .     49025103710000:   API NUMBER
~CURVE INFORMATION
#MNEM.UNIT       API CODE    CURVE DESCRIPTION
#----------   ------------   ------------------------------
 DEPT.F                  :   
 SPR .MV     11 010 01 00:   SPONTANEOUS POTENTIAL FROM RES.
 LLS .OHMM   11 220 09 00:   LATEROLOG LOG SHALLOW
 LLD .OHMM   11 220 10 00:   LATEROLOG DEEP
 MSFL.OHMM   11 270 04 00:   MICRO SPHERICALLY FOCUSED
 CALD.IN     45 280 60 00:   CALIPER FROM DENSITY LOG
 NPHI.DEC    42 890 03 00:   NEUTRON POROSITY SANDSTONE
 GRD .GAPI   45 310 01 00:   GAMMA RAY FROM DENSITY LOG
 CORR.G/C3   45 356 01 00:   DENSITY CORRECTION
 RHOB.G/C3   45 350 01 00:   BULK DENSITY
~PARAMETER INFORMATION
#MNEM.UNIT          VALUE    DESCRIPTION
#----------   ------------   ------------------------------
 EKB .F         5086.0000:   Kelly bushing
 EGL .F         5074.0000:   Ground level
 TD  .F         3226.0000:   Total depth
 CLNT.            A2DTECH:   Client Code
 SL  . 990' FWL & 330' FNL:   Surface Location
 PD  .                 GL:   Permanent Datum
 EPD .F              5074:   Elevation Permanent Datum
 LMF .                 KB:   Log Measured From
 DMF .                 KB:   Drilling Measured From
 DAPD.F                12:   Feet Above Permanent Datum
 DATE.        05-MAY-1977:   Date Logged [DD-MMM-YYYY]
 DD  .F              3226:   Depth driller
 DL  .F              3229:   Depth logger
 BLI .F              3227:   Bottom log interval
 TLI .F               430:   Top log interval
 CS1 .IN            8.625:   Casing size
 CBD1.      8.625" @ 424':   Casing driller 1
 CBL1.F               430:   Casing logger 1
 BS1 .IN            7.875:   Bit size
 BSD1.F              3226:   Depth drilled with bit1
 DFT .                KCL:   Type fluid in hole
 DFD .                9.4:   Density
 DFV .                 31:   Viscosity
 DFPH.                  8:   pH
 DFL .                9.6:   Fluid loss
 MSS .           MUD TANK:   Source of sample
 RMS .OHMM          0.202:   Rm
 MST .F                78:   Rm Meas. temp.
 RMF .OHMM          0.191:   Rmf
 MFST.F                76:   Rmf Meas. temp.
 MFSS.               MEAS:   Source Rmf.
 RMC .OHMM           0.30:   Rmc
 MCST.F                78:   Rmc Meas. temp.
 MCSS.               CALC:   Source Rmc.
 RMB .OHMM          0.123:   Rm. at BHT
 BHT .F               128:   BHT.
 TCS .HRS            1400:   Time Circ. stopped
 TLAB.HRS            0300:   Time logger at bottom
 MRT .F               128:   Maximum recorded temp.
 LUN .               5642:   Logging unit number
 LUL .               CSPR:   Logging unit location
 ENGI.                FIX:   Recorded By
 WITN.         HARRINGTON:   Witnessed by
 ORIG.           5" PRINT:   Origin of data
 UWI .     49025103710000:   Unique Well ID
 DICO. A2D TECHNOLOGIES, INC.:   Digitizing Company
~OTHER INFORMATION
~A   DEPT      SPR        LLS        LLD       MSFL       CALD       NPHI         GRD      CORR       RHOB   
# ...
  772.0000   -56.6004     8.9685     9.1188     7.2514     8.4262     0.3173    96.1047     0.0156     2.4438
  772.5000   -56.2474     9.0394     9.1274     9.1237     8.4353     0.3212    96.8082     0.0272     2.4634
  773.0000   -56.3924     9.1108     9.2635     9.9228     8.4443     0.3238    94.8227     0.0339     2.4604
  773.5000   -57.4605     9.1828     9.3367     7.3270     8.4487     0.3262    93.7305     0.0174     2.4447
  774.0000   -57.4844     9.3196     9.4108     7.4377     8.4429     0.3273    96.0219     0.0039     2.4425
  774.5000   -56.5786     9.3933     9.5532     8.8124     8.4373     0.3279    98.9899     0.0282     2.4622
  775.0000   -56.2628     9.4675     9.5622     9.6994     8.4317     0.3309   100.6045     0.0254     2.4638
  775.5000   -56.3358     9.4764     9.5712     7.9456     8.4261     0.3350    99.0612     0.0126     2.4489
  776.0000   -56.9486     9.4855     9.5802     8.9486     8.4205     0.3392    99.5480     0.0226     2.4671
  776.5000   -57.0760     9.4947     9.5893     9.7352     8.4149     0.3440   101.3882     0.0137     2.4582
  777.0000   -57.0731     9.5056     9.5983     6.9418     8.4106     0.3554   101.6494     0.0024     2.4365
  777.5000   -57.9458     9.5146     9.6074     7.1946     8.4107     0.3560   100.3317     0.0147     2.4426
  778.0000   -57.8416     9.5236     9.5500     9.5019     8.4107     0.3532    97.6606     0.0352     2.4676
  778.5000   -57.4626     9.4668     9.5593    10.2024     8.4107     0.3574    98.5986     0.0513     2.4805
  779.0000   -56.7021     9.3454     9.5020     8.1779     8.4119     0.3576   100.0060     0.0561     2.4867
  779.5000   -57.1156     9.2256     9.4453     7.0303     8.4150     0.3524   102.6028     0.0636     2.4920
  780.0000   -58.9273     9.1073     9.3263     8.9095     8.4181     0.3401   106.9173     0.0343     2.4620
  780.5000   -56.8674     9.1159     9.2684     9.8278     8.4212     0.3313   106.4348     0.0253     2.4554
  781.0000   -56.4762     9.1247     9.1516     6.9575     8.4242     0.3285   100.5904     0.0383     2.4616
  781.5000   -56.4539     9.0701     9.0342     9.1279     8.4273     0.3312    96.3403     0.0483     2.4654
  782.0000   -56.6423     9.0160     8.9802     9.9963     8.4303     0.3393    93.4437     0.0545     2.4806
  782.5000   -57.2391     8.9623     8.9266     7.1776     8.4334     0.3431    96.1861     0.0546     2.4890
  783.0000   -57.6443     8.8495     8.8734     9.3516     8.4365     0.3383    98.0263     0.0495     2.4816
  783.5000   -57.6332     8.7946     8.8204     9.2978     8.4395     0.3325    95.1296     0.0360     2.4667
  784.0000   -57.6285     8.7422     8.7677     8.6257     8.4426     0.3270    93.5774     0.0369     2.4540
  784.5000   -57.1137     8.5726     8.7154     9.3842     8.4457     0.3243    96.1032     0.0408     2.4662
  785.0000   -56.5586     8.5213     8.7257     9.2041     8.4487     0.3270    96.8156     0.0379     2.4859
  785.5000   -56.4525     8.6485     8.7339     7.5381     8.4504     0.3242    96.8513     0.0342     2.4830
  786.0000   -56.5749     8.7776     8.8642     7.0398     8.4507     0.3163    95.7591     0.0276     2.4515
  786.5000   -56.7091     9.0346     8.9964     8.8600     8.4524     0.3126    96.2459     0.0216     2.4682
  787.0000   -56.8631     9.1692     9.1307     9.9755     8.4540     0.3136    98.3117     0.0377     2.4781
  787.5000   -57.1694     9.3059     9.2138     7.2646     8.4556     0.3258    99.9263     0.0212     2.4729
  788.0000   -57.7159     9.4446     9.2777     7.9031     8.4572     0.3339   100.1875     0.0122     2.4550
  788.5000   -58.3475     9.4536     9.3510     9.2143     8.4588     0.3399    98.4187     0.0094     2.4430
  789.0000   -58.4474     9.3323     9.2930     9.4842     8.4604     0.3558    97.1010     0.0110     2.4363
  789.5000   -58.4838     9.2127     9.2375     8.0473     8.4620     0.3603   100.7596     0.0158     2.4470
  790.0000   -58.5990     8.9695     9.0560     6.8176     8.4636     0.3648   103.0827     0.0205     2.4517
  790.5000   -58.7076     8.7327     8.7579     8.2882     8.4652     0.3578   104.4261     0.0311     2.4555
  791.0000   -58.8230     8.4942     8.3511     8.8927     8.4669     0.3508    98.4541     0.0441     2.4730
  791.5000   -59.4159     8.2225     8.0105     8.6597     8.4685     0.3499    95.0326     0.0533     2.4808
  792.0000   -59.4174     7.8408     7.5950     8.3722     8.4701     0.3462    93.7149     0.0133     2.4604
  792.5000   -59.4229     7.6868     7.4957     7.2495     8.4688     0.3386    92.3972     0.0112     2.4560
  793.0000   -59.4463     7.6392     7.7155     5.9644     8.4673     0.3335    91.5306     0.0106     2.4500
  793.5000   -59.7594     7.9727     8.3346     6.0697     8.4657     0.3307    94.0475     0.0099     2.4457
  794.0000   -59.8028     8.7927     8.8180     7.4617     8.4641     0.3361    97.4667     0.0101     2.4504
  794.5000   -59.3124     9.0482     9.0744     8.8437     8.4625     0.3454   100.4347     0.0148     2.4543
  795.0000   -58.5615     8.8706     8.8958     9.2295     8.4609     0.3306   102.2748     0.0240     2.4589
  795.5000   -57.9641     8.6323     8.6611     6.8585     8.4593     0.3260   101.6338     0.0377     2.4899
  796.0000   -57.2450     8.5256     8.5499     8.6318     8.4578     0.3320   102.5718     0.0317     2.5021
  796.5000   -57.3198     8.5950     8.4989     8.1759     8.4562     0.3389   100.5774     0.0233     2.5082
  797.0000   -57.6348     8.6032     8.5681     7.5326     8.4546     0.3467   100.3785     0.0132     2.5008
  797.5000   -57.9733     8.7314     8.6959     7.3331     8.4530     0.3514   103.5721     0.0073     2.4813
  798.0000   -58.0724     8.8615     8.9487     8.4346     8.4514     0.3577   101.1355     0.0044     2.4724
  798.5000   -57.2628     9.0561     9.0195     9.6986     8.4478     0.3550    99.1411     0.0015     2.4786
  799.0000   -57.2315     9.1277     8.9635     9.0601     8.4398     0.3486    99.4023     0.0009     2.4862
  799.5000   -57.1618     9.0106     8.8503     9.5872     8.4320     0.3437   104.6350     0.0048     2.4954
  800.0000   -59.6412     8.7122     8.7370     7.0304     8.4241     0.3503   111.2030     0.0079     2.4819
  800.5000   -58.3598     8.4119     8.6248     7.6461     8.4163     0.3484   109.8293     0.0134     2.4813
  801.0000   -58.2920     8.2013     8.5142     6.2207     8.4106     0.3521   106.3939     0.0181     2.4789
  801.5000   -58.1553     8.1543     8.4237     8.9916     8.4116     0.3529   103.8459     0.0160     2.4732
  802.0000   -58.0019     8.1620     8.3082     6.3659     8.4133     0.3417   105.4514     0.0245     2.4885
  802.5000   -57.8574     8.2265     8.1927     7.9572     8.4150     0.3362   107.5081     0.0207     2.4999
  803.0000   -57.7159     8.2343     8.2238     8.9004     8.4168     0.3570   109.3392     0.0158     2.4857
  803.5000   -58.0203     8.4378     8.4086     6.7086     8.4185     0.3621   110.7192     0.0251     2.4918
  804.0000   -58.0435     8.6622     8.6008     5.8481     8.4202     0.3557   108.7157     0.0313     2.5040
  804.5000   -58.0295     8.8866     8.7998     8.3112     8.4219     0.3340   106.0289     0.0307     2.4837
  805.0000   -58.0278     9.1109     8.9912     9.0687     8.4237     0.3267   109.6712     0.0195     2.4997
  805.5000   -57.5915     9.3353     9.1932     6.6507     8.4254     0.3330   110.8189     0.0137     2.4976
  806.0000   -57.1946     9.5596     9.3997     7.2358     8.4271     0.3370   103.8597     0.0199     2.4803
  806.5000   -56.6166     9.6891     9.5445     9.0419     8.4288     0.3389    97.5699     0.0284     2.5051
  807.0000   -56.3969     9.8362     9.6915     9.2430     8.4306     0.3340   101.4317     0.0323     2.5002
  807.5000   -55.9393     9.9856     9.8407     9.6469     8.4323     0.3313   104.8757     0.0385     2.5078
  808.0000   -56.1123    10.1375     9.9923     9.7904     8.4340     0.3237   106.6729     0.0264     2.5147
