~VERSION INFORMATION
 VERS.                2.0:   CWLS LOG ASCII STANDARD - VERSION 2.0
 WRAP.                 NO:   ONE LINE PER DEPTH STEP
~WELL INFORMATION
#MNEM.UNIT      DATA TYPE    INFORMATION
#----------   ------------   ------------------------------
 STRT.F          243.5000:   START DEPTH
 STOP.F         2836.0000:   STOP DEPTH
 STEP.F            0.5000:   STEP LENGTH
 NULL.          -999.2500:   NO VALUE
 COMP. FENIX & SCISSON U. S. NAVY:   COMPANY
 WELL.   FENIX "A" #86-20:   WELL
 FLD .             NPR #3:   FIELD
 LOC .      S20 T39N R78W:   LOCATION
 CNTY.            NATRONA:   COUNTY
 STAT.            WYOMING:   STATE
 CTRY. UNITED STATES OF AMERICA:   COUNTRY
 SRVC.       SCHLUMBERGER:   SERVICE COMPANY
 DATE.        22-MAR-1977:   LOGDATE
 API .     49025103130000:   API NUMBER
~CURVE INFORMATION
#MNEM.UNIT       API CODE    CURVE DESCRIPTION
#----------   ------------   ------------------------------
 DEPT.F                  :   
 SPR .MV     07 010 01 00:   SPONTANEOUS POTENTIAL
 ILD .OHMM   07 120 46 00:   DEEP INDUCTION RESISTIVITY
 ILM .OHMM   07 120 44 00:   INDUCTION LOG MEDIUM RESISTIVITY
 LL8 .OHMM   07 220 08 00:   LATEROLOG-8 RES.
 CALD.IN     45 280 60 00:   CALIPER FROM DENSITY LOG
 GRD .GAPI   45 310 01 00:   GAMMA RAY FROM DENSITY LOG
 RHOB.G/C3   45 350 01 00:   BULK DENSITY
 CORR.G/C3   45 356 01 00:   DENSITY CORRECTION
~PARAMETER INFORMATION
#MNEM.UNIT          VALUE    DESCRIPTION
#----------   ------------   ------------------------------
 EKB .F         5005.0000:   Kelly bushing
 EGL .F         4994.0000:   Ground level
 EDF .F            0.0000:   Drilling floor
 TD  .F         2836.0000:   Total depth
 DATE.        22-MAR-1977:   Date logged
 CLNT.            A2DTECH:   Client Code
 SL  . 330' FEL & 1650' FSL:   Surface Location
 PD  .                 GL:   Permanent Datum
 EPD .F              5005:   Elevation Permanent Datum
 LMF .                 KB:   Log Measured From
 DMF .                 KB:   Drilling Measured From
 DD  .F              2835:   Depth driller
 DL  .F              2836:   Depth logger
 BLI .F              2826:   Bottom log interval
 TLI .F               259:   Top log interval
 CBD1.      8.625" @ 258':   Casing driller 1
 CBL1.F               259:   Casing logger 1
 BS1 .IN            7.875:   Bit size
 DFT .                KCL:   Type fluid in hole
 DFD .                9.1:   Density
 DFV .                 35:   Viscosity
 DFPH.                  9:   pH
 DFL .                8.6:   Fluid loss
 MSS .              CIRC.:   Source of sample
 RMS .OHMM           0.22:   Rm
 MST .F                60:   Rm Meas. temp.
 RMF .OHMM           0.18:   Rmf
 MFST.F                60:   Rmf Meas. temp.
 RMC .OHMM           0.33:   Rmc
 MCST.F                60:   Rmc Meas. temp.
 MFSS.               MEAS:   Source Rmf.
 RMB .OHMM           0.12:   Rm. at BHT
 BHT .F               110:   BHT.
 TCS .HRS            0900:   Time Circ. stopped
 MRT .F               110:   Maximum recorded temp.
 LUN .               7980:   Logging unit number
 LUL .               CSPR:   Logging unit location
 ENGI.                FIX:   Recorded By
 WITN.               JAPP:   Witnessed by
 ORIG.           5" PRINT:   Origin of data
 UWI .     49025103130000:   Unique Well ID
 DICO. A2D TECHNOLOGIES, INC.:   Digitizing Company
 DAPD.                 11:   Feet Above Permanent Datum
 CS1 .              8.625:   Casing size
 BSD1.               2835:   Depth drilled with bit1
 MCSS.               CACL:   Source Rmc.
 TLAB.               1630:   Time logger at bottom
~OTHER INFORMATION
~A   DEPT      SPR        ILD        ILM        LL8       CALD         GRD      RHOB       CORR   
# ...
  770.0000   -57.5500     9.8920     9.6790    11.9650     8.4210   105.6970     2.5350     0.0510
  770.5000   -57.6360     9.9100     9.7180    11.7240     8.4210   105.8470     2.5170     0.0300
  771.0000   -57.7290     9.9270     9.7570    11.5370     8.4210   105.9950     2.5110     0.0290
  771.5000   -57.6500     9.9440     9.7960    11.3290     8.4210   106.1340     2.5060     0.0330
  772.0000   -57.5560     9.9620     9.8350    11.3940     8.4210   106.2380     2.5390     0.0470
  772.5000   -57.4550     9.9800     9.8740    11.4640     8.4210   105.7530     2.5480     0.0600
  773.0000   -57.3590     9.9970     9.9140    11.5340     8.4210   105.2270     2.5360     0.0470
  773.5000   -57.2620    10.0150     9.9530    11.6040     8.4400   105.8440     2.5270     0.0350
  774.0000   -57.1640    10.0330     9.9920    11.6730     8.4400   105.9120     2.5300     0.0230
  774.5000   -57.0670    10.0500    10.0310    11.7430     8.4380   105.5090     2.5160     0.0210
  775.0000   -56.9700    10.0680    10.0700    11.8130     8.4370   104.2900     2.5250     0.0290
  775.5000   -56.8720    10.0850    10.1090    11.8830     8.4350   103.5130     2.5240     0.0380
  776.0000   -56.7750    10.1030    10.1480    11.9650     8.4340   103.4680     2.5300     0.0250
  776.5000   -56.6800    10.1210    10.1880    11.7490     8.4320   104.3590     2.5100     0.0170
  777.0000   -56.5770    10.1380    10.2270    11.7490     8.4310   108.3750     2.5170     0.0250
  777.5000   -56.5730    10.1540    10.2660    11.7490     8.4290   110.5170     2.5130     0.0320
  778.0000   -56.6290    10.1550    10.3050    12.4090     8.4280   110.2870     2.5310     0.0390
  778.5000   -56.6780    10.1550    10.3420    12.1850     8.4260   109.6240     2.5270     0.0350
  779.0000   -56.7250    10.1550    10.3290    12.0690     8.4250   108.9600     2.5430     0.0320
  779.5000   -56.7750    10.1550    10.3080    11.9590     8.4230   108.2950     2.5390     0.0380
  780.0000   -56.8240    10.1550    10.2860    11.8490     8.4220   108.0050     2.5420     0.0260
  780.5000   -56.8730    10.1550    10.2660    11.7490     8.4210   107.8440     2.5100     0.0080
  781.0000   -56.9220    10.1550    10.2450    11.5370     8.4200   108.6870     2.5080     0.0110
  781.5000   -56.9710    10.1550    10.2250    11.7000     8.4200   108.7610     2.5120     0.0160
  782.0000   -57.0200    10.1550    10.2040    11.8810     8.4200   107.8550     2.5080     0.0200
  782.5000   -57.0700    10.1550    10.1830    12.0630     8.4200   107.7760     2.5060     0.0210
  783.0000   -57.1180    10.1550    10.1630    12.1850     8.4190   107.9930     2.5110     0.0200
  783.5000   -57.1680    10.1550    10.1420    12.1050     8.4190   108.1570     2.5100     0.0180
  784.0000   -57.2160    10.1550    10.1210    12.0190     8.4190   107.3940     2.5020     0.0160
  784.5000   -57.2650    10.1550    10.1010    11.9330     8.4180   105.8760     2.5090     0.0530
  785.0000   -57.3210    10.1550    10.0800    11.8470     8.4180   104.4640     2.5280     0.0250
  785.5000   -57.3020    10.1550    10.0590    11.7610     8.4180   105.0760     2.5140     0.0310
  786.0000   -57.1950    10.1550    10.0380    11.6750     8.4170   104.9190     2.5240     0.0390
  786.5000   -57.0950    10.1550    10.0180    11.5890     8.4170   104.5000     2.5110     0.0120
  787.0000   -56.9960    10.1550     9.9970    11.5370     8.4170   104.0710     2.5160     0.0150
  787.5000   -56.8930    10.1570     9.9760    11.5370     8.4160   104.5300     2.5190     0.0270
  788.0000   -56.7940    10.1360     9.9560    11.5370     8.4160   105.9460     2.5380     0.0390
  788.5000   -56.6960    10.0830     9.9350    11.5750     8.4160   107.0800     2.5760     0.0520
  789.0000   -56.5830    10.0310     9.9140    11.7490     8.4150   108.1410     2.5850     0.0640
  789.5000   -56.6140     9.9800     9.8940    11.7070     8.4150   109.4520     2.5690     0.0640
  790.0000   -56.7700     9.9290     9.8730    11.6670     8.4150   111.1980     2.5540     0.0380
  790.5000   -56.9120     9.8770     9.8520    11.6260     8.4150   112.1500     2.5210     0.0180
  791.0000   -57.0540     9.8260     9.8310    11.5850     8.4140   110.7840     2.5350     0.0320
  791.5000   -57.1990     9.7740     9.8100    11.5440     8.4140   110.2570     2.5490     0.0510
  792.0000   -57.3420     9.7230     9.7910    11.5040     8.4140   109.8050     2.5560     0.0410
  792.5000   -57.4860     9.6720     9.7240    11.4630     8.4130   110.1110     2.5430     0.0330
  793.0000   -57.6310     9.6200     9.6610    11.4220     8.4130   110.4420     2.5370     0.0310
  793.5000   -57.7730     9.5690     9.5980    11.3810     8.4130   111.2780     2.5600     0.0600
  794.0000   -57.9150     9.5170     9.5350    11.3400     8.4120   112.3030     2.5520     0.0520
  794.5000   -58.0710     9.4660     9.4730    11.2780     8.4120   111.6780     2.5370     0.0320
  795.0000   -58.0960     9.4410     9.3750    11.1150     8.4120   111.2170     2.5190     0.0200
  795.5000   -57.9780     9.3360     9.2450    10.9520     8.4110   112.8160     2.5370     0.0340
  796.0000   -57.8730     9.1910     9.1150    10.7900     8.4110   115.9450     2.5610     0.0540
  796.5000   -57.7690     9.0470     8.9860    10.6270     8.4110   118.4550     2.5420     0.0440
  797.0000   -57.6620     8.9020     8.8560    10.4640     8.4100   119.5640     2.5240     0.0290
  797.5000   -57.5550     8.7570     8.7270    10.3010     8.4100   119.8890     2.5100     0.0210
  798.0000   -57.4520     8.6120     8.5970    10.1380     8.4100   119.8120     2.5150     0.0320
  798.5000   -57.3470     8.4630     8.4680     9.9720     8.4100   118.1460     2.5130     0.0240
  799.0000   -57.3390     8.3100     8.3380     9.9720     8.4090   115.0520     2.5110     0.0150
  799.5000   -57.3720     8.2980     8.3000     9.9720     8.4090   113.9910     2.5130     0.0210
  800.0000   -57.4670     8.2650     8.2860     9.9720     8.4090   113.1500     2.5440     0.0320
  800.5000   -57.5570     8.2330     8.2730     9.9720     8.4080   111.7790     2.5390     0.0350
  801.0000   -57.6470     8.2000     8.2590     9.9720     8.4080   109.8880     2.5330     0.0300
  801.5000   -57.7390     8.1680     8.2460     9.9720     8.4080   106.9060     2.5340     0.0260
  802.0000   -57.8290     8.1350     8.2320     9.9720     8.4070   105.3250     2.5180     0.0190
  802.5000   -57.9200     8.1030     8.2190     9.9720     8.4070   105.6810     2.5320     0.0270
  803.0000   -58.0100     8.0700     8.2060     9.9720     8.4070   109.0440     2.5410     0.0390
  803.5000   -58.1030     8.0380     8.1920     9.9720     8.4060   113.8570     2.5270     0.0330
  804.0000   -58.1380     8.0090     8.1790     9.9720     8.4060   116.2940     2.5210     0.0270
  804.5000   -58.1350     8.0080     8.1610     9.9720     8.4060   117.5420     2.5250     0.0350
  805.0000   -58.1350     8.1550     8.1690     9.9720     8.4050   117.2100     2.5310     0.0450
  805.5000   -58.1350     8.1960     8.2070     9.9710     8.4050   116.5520     2.5230     0.0360
  806.0000   -58.1350     8.2460     8.2440     9.9710     8.4050   115.1880     2.5130     0.0180
  806.5000   -58.1350     8.2950     8.2810     9.9730     8.4050   114.1410     2.5200     0.0180
  807.0000   -58.1350     8.3450     8.3180     9.9670     8.4040   113.2380     2.5270     0.0260
  807.5000   -58.1350     8.3950     8.3550    10.0070     8.4040   111.8650     2.5280     0.0270
  808.0000   -58.1350     8.4430     8.3920    10.0840     8.4040   110.6260     2.5210     0.0210
  808.5000   -58.1350     8.4910     8.4290    10.1550     8.4030   110.6900     2.5310     0.0310
  809.0000   -58.1350     8.5400     8.4670    10.1550     8.4030   110.6210     2.5410     0.0430
  809.5000   -58.1350     8.5880     8.5040    10.1550     8.4030   109.6930     2.5540     0.0510
  810.0000   -58.1350     8.6370     8.5410    10.9230     8.4020   109.4150     2.5460     0.0330
