~VERSION INFORMATION
 VERS.                2.0:   CWLS LOG ASCII STANDARD - VERSION 2.0
 WRAP.                 NO:   ONE LINE PER DEPTH STEP
~WELL INFORMATION
#MNEM.UNIT      DATA TYPE    INFORMATION
#----------   ------------   ------------------------------
 STRT.F           14.0000:   START DEPTH
 STOP.F         3030.0000:   STOP DEPTH
 STEP.F            0.5000:   STEP LENGTH
 NULL.          -999.2500:   NO VALUE
 COMP. LAWRENCE ALLISON & ASSOC. WEST:   COMPANY
 WELL. LAWRENCE "X" #37-28:   WELL
 FLD .          N.P.R. #3:   FIELD
 LOC .      S28 T39N R78W:   LOCATION
 CNTY.            NATRONA:   COUNTY
 STAT.            WYOMING:   STATE
 CTRY. UNITED STATES OF AMERICA:   COUNTRY
 SRVC.      DRESSER ATLAS:   SERVICE COMPANY
 DATE.        22-SEP-1986:   LOGDATE
 API .     49025111090000:   API NUMBER
~CURVE INFORMATION
#MNEM.UNIT       API CODE    CURVE DESCRIPTION
#----------   ------------   ------------------------------
 DEPT.F                  :   
 GRR .GAPI   07 310 01 00:   GAMMA RAY FROM RESISTIVITY
 SPR .MV     07 010 01 00:   SPONTANEOUS POTENTIAL
 TENR.LBS    07 635 01 00:   TENSION FROM RESISTIVITY
 RILD.OHMM   07 120 46 00:   DEEP INDUCTION RESISTIVITY
 RILM.OHMM   07 120 44 00:   INDUCTION LOG MEDIUM RESISTIVITY
 RFOC.OHMM   07 220 04 00:   RESISTIVITY FOCUSED LOG RES.
 CNC .DEC    42 890 03 00:   NEUTRON PORISITY SANDSTONE
 RHOB.G/C3   45 350 01 00:   BULK DENSITY
 CORR.G/C3   45 356 01 00:   DENSITY CORRECTION
 TEND.LBS    45 635 01 00:   TENSION FROM DENSITY LOG
 CALD.IN     45 280 60 00:   CALIPER FROM DENSITY LOG
~PARAMETER INFORMATION
#MNEM.UNIT          VALUE    DESCRIPTION
#----------   ------------   ------------------------------
 EKB .F         5124.0000:   Kelly bushing
 EGL .F         5113.0000:   Ground level
 EDF .F         5123.0000:   Drilling floor
 TD  .F         3026.0000:   Total depth
 DATE.        22-SEP-1986:   Date logged
 CLNT.            A2DTECH:   Client Code
 SL  . 1097' FSL & 1722' FWL:   Surface Location
 PD  .                 GL:   Permanent Datum
 EPD .F              5113:   Elevation Permanent Datum
 LMF .                 KB:   Log Measured From
 DMF .                 KB:   Drilling Measured From
 DAPD.F                11:   Feet Above Permanent Datum
 DD  .F              3026:   Depth driller
 DL  .F              3023:   Depth logger
 BLI .F              3020:   Bottom log interval
 CS1 .IN            8.625:   Casing size
 CBD1.      8.625" @ 517':   Casing driller 1
 CBL1.F               518:   Casing logger 1
 BS1 .IN            7.875:   Bit size
 BSD1.F              3026:   Depth drilled with bit1
 DFT .            KCL-GEL:   Type fluid in hole
 DFD .                8.6:   Density
 DFV .                 41:   Viscosity
 DFPH.                9.5:   pH
 DFL .                6.8:   Fluid loss
 MSS .           FLOWLINE:   Source of sample
 RMS .OHMM           0.37:   Rm
 MST .F                58:   Rm Meas. temp.
 RMF .OHMM           0.33:   Rmf
 MFST.F                63:   Rmf Meas. temp.
 RMC .OHMM           0.59:   Rmc
 MCST.F                58:   Rmc Meas. temp.
 MFSS.               MEAS:   Source Rmf.
 MCSS.               CALC:   Source Rmc.
 RMB .OHMM           0.16:   Rm. at BHT
 BHT .F               131:   BHT.
 TCS .HRS               3:   Time Circ. stopped
 MRT .F               131:   Maximum recorded temp.
 LUN .            HL 6426:   Logging unit number
 LUL .                 RS:   Logging unit location
 ENGI.               RALL:   Recorded By
 WITN.             STRONG:   Witnessed by
 ORIG.           5" PRINT:   Origin of data
 UWI .     49025111090000:   Unique Well ID
 DICO. A2D TECHNOLOGIES, INC.:   Digitizing Company
~OTHER INFORMATION
~A   DEPT      GRR        SPR       TENR       RILD       RILM       RFOC        CNC       RHOB       CORR       TEND       CALD   
# ...
 1508.5000    96.4210   -19.0160   -23.8690     7.6000     8.3190     8.8080  -999.2500  -999.2500  -999.2500  -999.2500  -999.2500
 1509.0000    94.9030   -19.0330   -23.8690     7.6180     8.2240     8.8950  -999.2500  -999.2500  -999.2500  -999.2500  -999.2500
 1509.5000    93.5960   -19.0580   -23.8690     7.6370     8.1260     8.7860  -999.2500  -999.2500  -999.2500  -999.2500  -999.2500
 1510.0000    93.4990   -19.0720   -23.8690     7.6550     8.1490     8.6240  -999.2500  -999.2500  -999.2500  -999.2500  -999.2500
 1510.5000    95.3930   -19.0930   -23.8690     7.6730     8.3780     8.4610  -999.2500  -999.2500  -999.2500  -999.2500  -999.2500
 1511.0000    97.0150   -19.1300   -23.8690     7.6920     8.6430     8.3780  -999.2500  -999.2500  -999.2500  -999.2500  -999.2500
 1511.5000    98.6550   -19.1640   -23.8690     7.7080     8.7000     8.6140  -999.2500  -999.2500  -999.2500  -999.2500  -999.2500
 1512.0000    98.9880   -19.2000   -23.8690     7.6660     8.5530     8.7150  -999.2500  -999.2500  -999.2500  -999.2500  -999.2500
 1512.5000    97.1950   -19.2260   -23.8690     7.6280     8.4050     8.9070  -999.2500  -999.2500  -999.2500  -999.2500  -999.2500
 1513.0000    96.7270   -19.2710   -23.8690     7.5900     8.2240     9.1060  -999.2500  -999.2500  -999.2500  -999.2500  -999.2500
 1513.5000    98.4970   -19.2850   -23.8690     7.5410     7.9660     9.1060  -999.2500  -999.2500  -999.2500  -999.2500  -999.2500
 1514.0000   100.7980   -19.1900   -23.8690     7.4710     7.5670     8.6980  -999.2500  -999.2500  -999.2500  -999.2500  -999.2500
 1514.5000   102.4920   -19.0780   -23.8690     7.4010     7.5670     8.4560  -999.2500  -999.2500  -999.2500  -999.2500  -999.2500
 1515.0000   101.6790   -18.9900   -26.4820     7.3310     7.6430     7.8520  -999.2500  -999.2500  -999.2500  -999.2500  -999.2500
 1515.5000    99.6720   -18.8890   -29.0400     7.2620     7.8190     8.1040  -999.2500  -999.2500  -999.2500  -999.2500  -999.2500
 1516.0000   100.7550   -18.7880   -31.5980     7.2390     7.9950     8.3460  -999.2500  -999.2500  -999.2500  -999.2500  -999.2500
 1516.5000   103.3120   -18.7000   -33.9200     7.2700     8.2240     8.6140  -999.2500  -999.2500  -999.2500  -999.2500  -999.2500
 1517.0000   102.3370   -18.5880   -15.2930     7.2920     8.2790     8.6500  -999.2500  -999.2500  -999.2500  -999.2500  -999.2500
 1517.5000    98.2280   -18.4930    -8.5070     7.4470     8.3780     8.6940  -999.2500  -999.2500  -999.2500  -999.2500  -999.2500
 1518.0000    95.4730   -18.5100   -23.1230     7.5660     8.4710     8.8550  -999.2500  -999.2500  -999.2500  -999.2500  -999.2500
 1518.5000    97.0500   -18.5600   -37.7390     7.6850     8.5970     9.1060  -999.2500  -999.2500  -999.2500  -999.2500  -999.2500
 1519.0000    99.9400   -18.5890   -38.4670     7.8040     8.7230     9.0760  -999.2500  -999.2500  -999.2500  -999.2500  -999.2500
 1519.5000    99.3860   -18.6310   -28.8760     7.8650     8.7750     9.0370  -999.2500  -999.2500  -999.2500  -999.2500  -999.2500
 1520.0000    97.2720   -18.6680   -19.2840     7.8870     8.7750     9.2610  -999.2500  -999.2500  -999.2500  -999.2500  -999.2500
 1520.5000    95.9680   -18.7040   -13.8190     7.9090     8.7750     9.7150  -999.2500  -999.2500  -999.2500  -999.2500  -999.2500
 1521.0000    93.8350   -18.7430   -13.8190     7.9250     8.7750     9.6790  -999.2500  -999.2500  -999.2500  -999.2500  -999.2500
 1521.5000    91.9170   -18.7800   -13.8190     7.9250     8.6250     9.6260  -999.2500  -999.2500  -999.2500  -999.2500  -999.2500
 1522.0000    92.3340   -18.8170   -13.8190     7.9250     8.4490     9.6260  -999.2500  -999.2500  -999.2500  -999.2500  -999.2500
 1522.5000    94.9130   -18.8550   -13.8190     7.9250     8.2240     8.9390  -999.2500  -999.2500  -999.2500  -999.2500  -999.2500
 1523.0000    98.5230   -18.8930   -13.8190     7.9250     8.3060     8.9250  -999.2500  -999.2500  -999.2500  -999.2500  -999.2500
 1523.5000   101.1990   -18.9280   -13.8190     7.9250     8.4640     8.8830  -999.2500  -999.2500  -999.2500  -999.2500  -999.2500
 1524.0000   102.6890   -18.9710   -13.8190     7.9250     8.6140     8.9640  -999.2500  -999.2500  -999.2500  -999.2500  -999.2500
 1524.5000   103.8420   -18.9990   -13.8190     7.9250     8.5290     9.2660  -999.2500  -999.2500  -999.2500  -999.2500  -999.2500
 1525.0000   103.9860   -19.0490   -13.8190     7.9250     8.4400     9.3760  -999.2500  -999.2500  -999.2500  -999.2500  -999.2500
 1525.5000   103.1280   -19.0830   -17.8580     7.9250     8.3510     9.1910  -999.2500  -999.2500  -999.2500  -999.2500  -999.2500
 1526.0000   102.1360   -18.9650   -21.8960     7.9250     8.3010     9.0050  -999.2500  -999.2500  -999.2500  -999.2500  -999.2500
 1526.5000   101.3600   -18.7680   -25.9350     7.9190     8.2300     8.9630  -999.2500  -999.2500  -999.2500  -999.2500  -999.2500
 1527.0000   100.3200   -18.5930   -29.9740     7.9140     8.1620     9.0160  -999.2500  -999.2500  -999.2500  -999.2500  -999.2500
 1527.5000    99.6530   -18.4050   -34.0120     7.9090     8.0730     9.0690  -999.2500  -999.2500  -999.2500  -999.2500  -999.2500
 1528.0000   101.2910   -18.2190   -38.0510     7.9040     8.0730     9.1060  -999.2500  -999.2500  -999.2500  -999.2500  -999.2500
 1528.5000   103.6220   -18.0430   -42.0890     7.8990     8.0730     9.0210  -999.2500  -999.2500  -999.2500  -999.2500  -999.2500
 1529.0000   103.6740   -17.8460   -43.2500     7.8940     8.0730     8.9390  -999.2500  -999.2500  -999.2500  -999.2500  -999.2500
 1529.5000   101.0110   -17.6850   -41.9040     7.8890     8.0730     8.9650  -999.2500  -999.2500  -999.2500  -999.2500  -999.2500
 1530.0000    97.2380   -17.5800   -40.5580     7.8830     8.0790     9.0220  -999.2500  -999.2500  -999.2500  -999.2500  -999.2500
 1530.5000    96.3180   -17.5100   -39.2120     7.8780     8.0920     9.0080  -999.2500  -999.2500  -999.2500  -999.2500  -999.2500
 1531.0000   100.5640   -17.5640   -37.8660     7.8730     8.1060     8.9890  -999.2500  -999.2500  -999.2500  -999.2500  -999.2500
 1531.5000   104.9030   -17.7120   -36.5190     7.8680     8.1200     8.9710  -999.2500  -999.2500  -999.2500  -999.2500  -999.2500
 1532.0000   102.8580   -17.8450   -35.1730     7.8630     8.1330     8.9520  -999.2500  -999.2500  -999.2500  -999.2500  -999.2500
 1532.5000    98.5180   -17.9860   -33.9200     7.8580     8.1490     8.9390  -999.2500  -999.2500  -999.2500  -999.2500  -999.2500
 1533.0000    97.8670   -18.1250   -35.0830     7.8520     8.0750     9.0860  -999.2500  -999.2500  -999.2500  -999.2500  -999.2500
 1533.5000    99.7140   -18.2610   -36.1710     7.8480     7.9990     9.1910  -999.2500  -999.2500  -999.2500  -999.2500  -999.2500
 1534.0000   102.6290   -18.4040   -37.2600     7.8430     8.2360     9.4960  -999.2500  -999.2500  -999.2500  -999.2500  -999.2500
 1534.5000   105.4890   -18.4620   -38.3480     7.8380     8.3260     9.5370  -999.2500  -999.2500  -999.2500  -999.2500  -999.2500
 1535.0000   108.6050   -18.4150   -39.4370     7.8330     8.1710     9.2210  -999.2500  -999.2500  -999.2500  -999.2500  -999.2500
 1535.5000   107.9660   -18.3590   -40.5250     7.8280     8.0730     8.7980  -999.2500  -999.2500  -999.2500  -999.2500  -999.2500
 1536.0000    99.3810   -18.3120   -41.6130     7.8230     8.0730     8.4560  -999.2500  -999.2500  -999.2500  -999.2500  -999.2500
 1536.5000    92.8020   -18.2580   -42.7020     7.8180     8.3530     8.6370  -999.2500  -999.2500  -999.2500  -999.2500  -999.2500
 1537.0000    93.8210   -18.2080   -43.9700     7.8130     8.6140     8.8560  -999.2500  -999.2500  -999.2500  -999.2500  -999.2500
 1537.5000    96.7920   -18.1570   -42.5690     7.8080     8.6140     8.8560  -999.2500  -999.2500  -999.2500  -999.2500  -999.2500
 1538.0000    96.5610   -18.1040   -40.8920     7.8030     8.6140     8.8560  -999.2500  -999.2500  -999.2500  -999.2500  -999.2500
 1538.5000    92.8680   -18.0550   -39.2150     7.7980     8.6140     8.8560  -999.2500  -999.2500  -999.2500  -999.2500  -999.2500
