~VERSION INFORMATION
 VERS.                2.0:   CWLS LOG ASCII STANDARD - VERSION 2.0
 WRAP.                 NO:   ONE LINE PER DEPTH STEP
~WELL INFORMATION
#MNEM.UNIT      DATA TYPE    INFORMATION
#----------   ------------   ------------------------------
 STRT.F           16.0000:   START DEPTH
 STOP.F         2860.0000:   STOP DEPTH
 STEP.F            0.5000:   STEP LENGTH
 NULL.          -999.2500:   NO VALUE
 COMP.    FENIX & SCISSON:   COMPANY
 WELL. FENIX NPR 3 "AX" #22-21:   WELL
 FLD .  TEAPOT DOME - NPR:   FIELD
 LOC .      S21 T39N R78W:   LOCATION
 CNTY.            NATRONA:   COUNTY
 STAT.            WYOMING:   STATE
 CTRY. UNITED STATES OF AMERICA:   COUNTRY
 SRVC.      DRESSER ATLAS:   SERVICE COMPANY
 DATE.        07-AUG-1978:   LOGDATE
 API .     49025106790000:   API NUMBER
~CURVE INFORMATION
#MNEM.UNIT       API CODE    CURVE DESCRIPTION
#----------   ------------   ------------------------------
 DEPT.F                  :   
 CALD.IN     45 280 60 00:   CALIPER FROM DENSITY LOG
 GRD .GAPI   45 310 01 00:   GAMMA RAY FROM DENSITY LOG
 CORR.G/C3   45 356 01 00:   DENSITY CORRECTION
 RHOB.G/C3   45 350 01 00:   BULK DENSITY
 SPR .MV     05 010 01 00:   SPONTANEOUS POTENTIAL
 ILD .OHMM   05 120 46 00:   DEEP INDUCTION RESISTIVITY
 SN  .OHMM   05 040 00 00:   SHORT NORMAL
~PARAMETER INFORMATION
#MNEM.UNIT          VALUE    DESCRIPTION
#----------   ------------   ------------------------------
 EKB .F         4989.0000:   Kelly bushing
 EGL .F         4979.0000:   Ground level
 EDF .F            0.0000:   Drilling floor
 TD  .F         2847.0000:   Total depth
 DATE.        07-AUG-1978:   Date logged
 CLNT.            A2DTECH:   Client Code
 SL  . 880' FNL & 660' FWL:   Surface Location
 PD  .                 GL:   Permanent Datum
 DD  .F              2845:   Depth driller
 DL  .F              2847:   Depth logger
 BLI .F              2841:   Bottom log interval
 CS1 .IN            8.625:   Casing size
 CBD1.      8.625" @ 240':   Casing driller 1
 CBL1.F               240:   Casing logger 1
 BS1 .IN            7.875:   Bit size
 DFT .                KCL:   Type fluid in hole
 DFD .                9.2:   Density
 DFV .                 31:   Viscosity
 DFPH.               10.5:   pH
 MSS .           FLOWLINE:   Source of sample
 RMS .OHMM           1.25:   Rm
 MST .F                74:   Rm Meas. temp.
 RMF .OHMM            1.8:   Rmf
 MFST.F                76:   Rmf Meas. temp.
 RMC .OHMM              3:   Rmc
 MCST.F                78:   Rmc Meas. temp.
 MFSS.               MEAS:   Source Rmf.
 TCS .HRS               4:   Time Circ. stopped
 LUN .               3006:   Logging unit number
 LUL .               CASP:   Logging unit location
 ENGI.             MILLER:   Recorded By
 WITN.           MCGINLEY:   Witnessed by
 ORIG.           5" PRINT:   Origin of data
 UWI .     49025106790000:   Unique Well ID
 DICO. A2D TECHNOLOGIES, INC.:   Digitizing Company
 DAPD.                 10:   Feet Above Permanent Datum
 BSD1.F              2845:   Depth drilled with bit1
 EPD .F              4970:   Elevation Permanent Datum
 LMF .                 KB:   Log Measured From
 DMF .                 KB:   Drilling Measured From
 TLI .                240:   Top log interval
~OTHER INFORMATION
~A   DEPT     CALD         GRD      CORR       RHOB        SPR        ILD         SN   
# ...
  926.0000     9.1530    88.1050     0.1340     2.4590    -9.9740     9.1600    12.2160
  926.5000     9.1610    86.2040     0.1330     2.4540    -9.9650     9.1960    12.1360
  927.0000     9.1670    81.7010     0.1320     2.4470    -9.9560     9.1600    12.1000
  927.5000     9.1740    82.1040     0.1310     2.4510    -9.9470     9.0860    12.1000
  928.0000     9.1800    83.4530     0.1250     2.4660    -9.9380     9.0120    12.1000
  928.5000     9.1860    84.8280     0.1170     2.4740    -9.9290     8.9380    12.1000
  929.0000     9.1860    86.0980     0.1130     2.4640    -9.9200     8.8700    12.1000
  929.5000     9.1860    87.3450     0.1170     2.4550    -9.9100     8.8700    12.1000
  930.0000     9.1880    86.8320     0.1210     2.4570    -9.9010     8.8690    12.1000
  930.5000     9.1820    87.1140     0.1260     2.4570    -9.8920     8.8690    12.1000
  931.0000     9.2100    88.4140     0.1270     2.4530    -9.8830     8.8690    12.1000
  931.5000     9.2450    89.7280     0.1270     2.4490    -9.8740     8.8690    12.1000
  932.0000     9.2550    90.0280     0.1270     2.4490    -9.8650     8.8690    12.1000
  932.5000     9.0390    90.3600     0.1270     2.4490    -9.8560     8.8690    12.1000
  933.0000     9.0270    90.6560     0.1270     2.4500    -9.8470     8.8690    12.1000
  933.5000     9.0060    91.6030     0.1270     2.4510    -9.8380     8.8690    12.1000
  934.0000     8.9990    92.6820     0.1320     2.4520    -9.8290     8.8690    12.1000
  934.5000     8.9970    90.6540     0.1370     2.4530    -9.8200     8.8690    12.1000
  935.0000     9.0350    87.0330     0.1430     2.4520    -9.8100     8.8690    12.1000
  935.5000     9.0710    83.3780     0.1420     2.4510    -9.8010     8.8690    12.1000
  936.0000     9.1090    81.4060     0.1400     2.4520    -9.7920     8.8690    12.1000
  936.5000     9.1450    81.9300     0.1390     2.4560    -9.7830     8.8690    12.1000
  937.0000     9.1840    82.1550     0.1380     2.4540    -9.7740     8.8690    12.1000
  937.5000     9.1860    82.4380     0.1360     2.4530    -9.7650     8.8690    12.1000
  938.0000     9.1870    82.9510     0.1350     2.4510    -9.7560     8.8690    12.1000
  938.5000     9.1860    83.9010     0.1340     2.4510    -9.7470     8.8690    12.1000
  939.0000     9.1870    84.9320     0.1320     2.4490    -9.7380     8.8690    12.1000
  939.5000     9.1860    85.4740     0.1310     2.4510    -9.7290     8.8690    12.1000
  940.0000     9.1860    85.2850     0.1300     2.4550    -9.7200     8.8690    12.1000
  940.5000     9.1800    85.1760     0.1280     2.4560    -9.7110     8.8690    12.1000
  941.0000     9.1730    85.0410     0.1290     2.4510    -9.7010     8.8690    12.1010
  941.5000     9.1650    84.9150     0.1350     2.4520    -9.6920     8.8690    12.1000
  942.0000     9.1570    84.7810     0.1320     2.4590    -9.6840     8.8690    12.1000
  942.5000     9.1490    84.6290     0.1310     2.4620    -9.6840     8.8690    12.1430
  943.0000     9.1410    84.0310     0.1290     2.4580    -9.6840     8.8690    12.3210
  943.5000     9.1340    83.3590     0.1270     2.4590    -9.6840     8.8690    12.4990
  944.0000     9.1260    82.6770     0.1260     2.4670    -9.6840     8.8690    12.6770
  944.5000     9.1180    81.8660     0.1240     2.4750    -9.6840     8.8690    12.8550
  945.0000     9.1100    81.5170     0.1220     2.4760    -9.6840     9.0850    13.0330
  945.5000     9.1050    82.7670     0.1200     2.4760    -9.6840     9.2690    13.2490
  946.0000     9.0840    84.0880     0.1170     2.4760    -9.6840     9.4530    13.2300
  946.5000     9.0650    84.7250     0.1100     2.4830    -9.6840     9.5410    13.1930
  947.0000     9.0440    85.0060     0.1030     2.4860    -9.6840     9.5410    13.1560
  947.5000     9.0320    85.3180     0.1000     2.4830    -9.6840     9.5410    13.1190
  948.0000     8.9930    85.7140     0.1020     2.4800    -9.6840     9.5410    13.0820
  948.5000     8.9270    85.5770     0.1040     2.4820    -9.6840     9.4750    13.0460
  949.0000     8.9070    84.9710     0.1060     2.4830    -9.6840     9.3990    13.0310
  949.5000     8.9090    84.1830     0.1080     2.4840    -9.6840     9.3220    13.0870
  950.0000     8.9090    82.8190     0.1140     2.4710    -9.6840     9.1990    13.1440
  950.5000     8.9080    82.9990     0.1210     2.4650    -9.6840     9.2150    13.2000
  951.0000     8.9080    85.2720     0.1230     2.4680    -9.6840     9.2560    13.2560
  951.5000     8.9170    87.2620     0.1220     2.4700    -9.6840     9.2970    13.3130
  952.0000     8.9560    88.3400     0.1210     2.4690    -9.6840     9.3390    13.3690
  952.5000     8.9930    86.2420     0.1210     2.4710    -9.6840     9.3680    13.4260
  953.0000     9.0260    83.0120     0.1200     2.4790    -9.6840     9.3680    13.4820
  953.5000     9.0200    79.6880     0.1170     2.4870    -9.6840     9.4550    13.5020
  954.0000     9.0090    78.0190     0.1110     2.4940    -9.6840     9.8200    13.5010
  954.5000     8.9990    77.5530     0.1040     2.4920    -9.6840    10.1840    13.5020
  955.0000     8.9860    79.7150     0.1090     2.4830    -9.6840    10.2650    13.5020
  955.5000     8.9820    81.6200     0.1150     2.4750    -9.6840    10.2210    13.5020
  956.0000     8.9180    83.7930     0.1220     2.4660    -9.6840    10.1760    13.5000
  956.5000     8.8680    87.3450     0.1280     2.4620    -9.6840    10.1310    13.5030
  957.0000     8.8240    86.1310     0.1350     2.4610    -9.6840    10.0790    13.5000
  957.5000     9.0670    82.9570     0.1410     2.4590    -9.6840     9.9220    13.5100
  958.0000     8.8670    80.0890     0.1420     2.4560    -9.6840     9.7390    13.3000
  958.5000     8.8390    80.2090     0.1410     2.4530    -9.6840     9.5570    13.1070
  959.0000     8.9100    80.5400     0.1400     2.4490    -9.6840     9.3750    12.9130
  959.5000     8.9690    80.9730     0.1400     2.4530    -9.6840     9.1920    12.7200
  960.0000     9.0430    84.9340     0.1350     2.4570    -9.6840     9.0320    12.5500
  960.5000     9.0570    85.7190     0.1290     2.4480    -9.6840     9.0320    12.5620
  961.0000     9.0280    84.3060     0.1260     2.4340    -9.6840     9.0320    12.5730
  961.5000     9.0050    83.2180     0.1250     2.4300    -9.6840     9.0320    12.5830
  962.0000     8.9810    82.0900     0.1230     2.4380    -9.6840     9.0320    12.5940
  962.5000     8.9550    84.5200     0.1220     2.4540    -9.6840     9.0320    12.6050
  963.0000     8.9310    87.5460     0.1200     2.4560    -9.6840     9.0320    12.6150
  963.5000     8.9150    89.5960     0.1190     2.4490    -9.6840     9.0320    12.6260
  964.0000     8.9610    90.4160     0.1190     2.4530    -9.6840     9.0320    12.6370
  964.5000     9.0200    91.4330     0.1200     2.4530    -9.6840     9.0320    12.6470
  965.0000     9.0050    92.0230     0.1250     2.4470    -9.6840     9.0320    12.6580
  965.5000     8.9840    92.3470     0.1310     2.4460    -9.6840     9.0420    12.6690
  966.0000     8.9590    92.7330     0.1360     2.4530    -9.6840     9.0520    12.6790
  966.5000     8.9500    93.0870     0.1420     2.4580    -9.6840     9.0630    12.6900
  967.0000     8.9810    93.3020     0.1410     2.4640    -9.6840     9.0740    12.7010
  967.5000     9.0150    93.5520     0.1390     2.4680    -9.6840     9.0840    12.7110
  968.0000     9.0460    91.5050     0.1370     2.4660    -9.6840     9.0950    12.7220
  968.5000     9.0640    87.8480     0.1350     2.4640    -9.6840     9.1060    12.7330
  969.0000     8.9110    85.0910     0.1350     2.4630    -9.6840     9.1160    12.7430
  969.5000     8.9190    81.9030     0.1350     2.4670    -9.6840     9.1270    12.7540
  970.0000     8.9910    81.3580     0.1350     2.4730    -9.6830     9.1380    12.7650
  970.5000     9.0550    83.3390     0.1350     2.4710    -9.6910     9.1480    12.7760
  971.0000     9.0200    84.9370     0.1360     2.4640    -9.7050     9.1590    12.7800
