~VERSION INFORMATION
 VERS.                2.0:   CWLS LOG ASCII STANDARD - VERSION 2.0
 WRAP.                 NO:   ONE LINE PER DEPTH STEP
~WELL INFORMATION
#MNEM.UNIT      DATA TYPE    INFORMATION
#----------   ------------   ------------------------------
 STRT.F          200.0000:   START DEPTH
 STOP.F         3078.0000:   STOP DEPTH
 STEP.F            0.5000:   STEP LENGTH
 NULL.          -999.2500:   NO VALUE
 COMP.   FENIX & SCISSION:   COMPANY
 WELL. FENIX NPR 72 "A" #3-28:   WELL
 FLD .              NPR-3:   FIELD
 LOC .      S28 T39N R78W:   LOCATION
 CNTY.            NATRONA:   COUNTY
 STAT.            WYOMING:   STATE
 CTRY. UNITED STATES OF AMERICA:   COUNTRY
 SRVC.              WELEX:   SERVICE COMPANY
 DATE.        06-JUN-1977:   LOGDATE
 API .     49025103770000:   API NUMBER
~CURVE INFORMATION
#MNEM.UNIT       API CODE    CURVE DESCRIPTION
#----------   ------------   ------------------------------
 DEPT.F                  :   
 CORR.G/C3   45 356 01 00:   DENSITY CORRECTION
 RHOB.G/C3   45 350 01 00:   BULK DENSITY
 CALD.IN     45 280 60 00:   CALIPER FROM DENSITY LOG
 SPR .MV     07 010 01 00:   SPONTANEOUS POTENTIAL
 GURD.OHMM   07 220 05 00:   GUARD LOG RESISTIVITY
 ILM .OHMM   07 120 44 00:   INDUCTION LOG MEDIUM RESISTIVITY
 ILD .OHMM   07 120 46 00:   DEEP INDUCTION RESISTIVITY
 GRD .GAPI   45 310 01 00:   GAMMA RAY FROM DENSITY LOG
~PARAMETER INFORMATION
#MNEM.UNIT          VALUE    DESCRIPTION
#----------   ------------   ------------------------------
 EKB .F         5022.0000:   Kelly bushing
 EGL .F         5011.0000:   Ground level
 EDF .F            0.0000:   Drilling floor
 EPD .F         5011.0000:   Permanent datum
 TD  .F         3081.0000:   Total depth
 DATE.        06-JUN-1977:   Date logged
 CLNT.            A2DTECH:   Client Code
 SL  . 990' FNL & 990' FEL:   Surface Location
 PD  .                 GL:   Permanent Datum
 DAPD.F                11:   Feet Above Permanent Datum
 DD  .F              3041:   Depth driller
 DL  .F              3081:   Depth logger
 BLI .F              3079:   Bottom log interval
 TLI .F               200:   Top log interval
 CS1 .IN            8.625:   Casing size
 CBD1.      8.625" @ 200':   Casing driller 1
 CBL1.F               218:   Casing logger 1
 BS1 .IN            7.875:   Bit size
 BSD1.F              3041:   Depth drilled with bit1
 DFT .            KCL MUD:   Type fluid in hole
 DFD .                8.8:   Density
 DFV .                 38:   Viscosity
 DFPH.                7.5:   pH
 DFL .                5.8:   Fluid loss
 MSS .           FLOWLINE:   Source of sample
 RMS .OHMM           1.19:   Rm
 MST .F                89:   Rm Meas. temp.
 RMF .OHMM           1.05:   Rmf
 MFST.F                89:   Rmf Meas. temp.
 RMC .OHMM           2.17:   Rmc
 MCST.F                89:   Rmc Meas. temp.
 MFSS.               FANN:   Source Rmf.
 MCSS.                KIT:   Source Rmc.
 RMB .OHMM           0.98:   Rm. at BHT
 BHT .F               108:   BHT.
 TCS .HRS             2.5:   Time Circ. stopped
 MRT .F               108:   Maximum recorded temp.
 LUN .               8611:   Logging unit number
 LUL .             CASPER:   Logging unit location
 ENGI.          T. JOYNER:   Recorded By
 WITN.      W. PETTINGILL:   Witnessed by
 ORIG.           5" PRINT:   Origin of data
 UWI .     49025103770000:   Unique Well ID
 DICO. A2D TECHNOLOGIES, INC.:   Digitizing Company
~OTHER INFORMATION
~A   DEPT     CORR       RHOB         CALD      SPR       GURD        ILM        ILD         GRD  
# ...
 2103.5000     0.0070     2.4630     8.2420   -51.3090    10.9560    10.1300     9.6960   106.5800
 2104.0000     0.0070     2.4630     8.2440   -51.2810    10.7050     9.9910     9.5210   107.1460
 2104.5000     0.0070     2.4620     8.2470   -51.2630    10.4800     9.8510     9.2610   107.2460
 2105.0000     0.0070     2.4590     8.2490   -51.2470    10.2510     9.6460     9.1000   107.3430
 2105.5000     0.0070     2.4570     8.2510   -51.2320    10.2240     9.4390     9.1000   107.4380
 2106.0000     0.0070     2.4550     8.2490   -51.2170    10.1960     9.5090     9.1000   106.7640
 2106.5000     0.0070     2.4550     8.2460   -51.2010    10.1690     9.5680     9.0230   105.3240
 2107.0000     0.0060     2.4530     8.2420   -51.1860    10.1580     9.6140     8.9280   103.8810
 2107.5000     0.0050     2.4500     8.2390   -51.1710    10.1580     9.4960     8.8530   102.8710
 2108.0000     0.0040     2.4470     8.2350   -51.1560    10.2230     9.3900     8.8850   102.4180
 2108.5000     0.0020     2.4440     8.2320   -51.1400    10.3460     9.2720     8.9340   103.3560
 2109.0000     0.0010     2.4430     8.2320   -51.1250    10.1710     9.1410     8.8180   104.2660
 2109.5000     0.0000     2.4410     8.2320   -51.1100     9.9730     8.9640     8.5520   104.4800
 2110.0000    -0.0010     2.4340     8.2320   -51.0940     9.6330     8.6920     8.3030   103.5230
 2110.5000    -0.0020     2.4260     8.2320   -51.0790     9.3100     8.7020     8.3790   102.5910
 2111.0000    -0.0030     2.4210     8.2290   -51.0640     9.1000     8.7230     8.3590   101.6130
 2111.5000    -0.0050     2.4200     8.2260   -51.0480     9.1970     8.7440     8.3160   101.0570
 2112.0000    -0.0050     2.4180     8.2220   -51.0330     9.3400     8.7720     8.2740    99.7480
 2112.5000    -0.0060     2.4160     8.2190   -51.0180     9.5260     8.7110     8.2270    97.6840
 2113.0000    -0.0070     2.4140     8.2150   -51.0020     9.3750     8.6220     8.1290    95.6210
 2113.5000    -0.0080     2.4120     8.2130   -50.9870     9.1600     8.5330     8.0210    93.5730
 2114.0000    -0.0080     2.4090     8.2120   -50.9720     9.0830     8.4450     7.9120    92.2440
 2114.5000    -0.0070     2.4070     8.2120   -50.9560     9.0600     8.3560     7.8030    92.9140
 2115.0000    -0.0070     2.4050     8.2120   -50.9410     9.0360     8.2670     7.6950    93.5370
 2115.5000    -0.0060     2.4070     8.2120   -50.9260     8.9770     8.1260     7.6030    94.0660
 2116.0000    -0.0060     2.4090     8.2120   -50.9100     8.7070     7.8580     7.5250    92.8290
 2116.5000    -0.0050     2.4100     8.2120   -50.8950     8.5340     7.9060     7.4870    91.3870
 2117.0000    -0.0050     2.4120     8.2120   -50.8830     8.7150     7.9910     7.4530    91.8080
 2117.5000    -0.0050     2.4140     8.2120   -50.8890     8.9340     8.0770     7.3530    91.3290
 2118.0000    -0.0040     2.4160     8.2120   -50.8940     8.8420     7.8880     7.2060    89.7650
 2118.5000    -0.0040     2.4190     8.2120   -50.8990     8.6010     7.6940     7.0590    89.6380
 2119.0000    -0.0030     2.4230     8.2120   -50.9040     8.2440     7.5010     6.9120    90.6810
 2119.5000    -0.0030     2.4270     8.2110   -50.9100     7.7160     7.3070     6.7920    91.7080
 2120.0000    -0.0030     2.4300     8.2070   -50.9150     7.2830     7.1140     6.6730    92.7320
 2120.5000    -0.0020     2.4340     8.2040   -50.9200     7.1920     6.9200     6.5540    93.7660
 2121.0000    -0.0020     2.4380     8.2010   -50.9260     7.1050     6.7590     6.4340    94.9000
 2121.5000    -0.0010     2.4370     8.1970   -50.9310     7.0220     6.6170     6.3150    96.4610
 2122.0000    -0.0010     2.4360     8.1940   -50.9360     6.8200     6.4820     6.2330    96.7590
 2122.5000    -0.0010     2.4340     8.1900   -50.9410     6.4720     6.4820     6.1920    95.8210
 2123.0000    -0.0010     2.4310     8.1870   -50.9470     6.4230     6.5980     6.2860    94.8890
 2123.5000    -0.0020     2.4240     8.1830   -50.9520     6.6910     6.8460     6.4870    93.9640
 2124.0000    -0.0030     2.4170     8.1800   -50.9570     7.3760     7.0950     6.6890    93.5450
 2124.5000    -0.0040     2.4150     8.1760   -50.9630     9.0230     7.3700     6.9120    94.5870
 2125.0000    -0.0050     2.4140     8.1740   -50.9680     9.6140     7.3230     6.8680    95.6260
 2125.5000    -0.0060     2.4140     8.1880   -50.9730     9.3170     7.1640     6.8050    94.9530
 2126.0000    -0.0060     2.4130     8.2010   -50.9780     8.3600     6.9300     6.6200    94.2070
 2126.5000    -0.0060     2.4100     8.2130   -50.9840     7.5250     6.6830     6.2950    96.6940
 2127.0000    -0.0060     2.4060     8.2280   -50.9890     6.6890     6.3480     5.9700    99.1090
 2127.5000    -0.0050     2.4030     8.2430   -50.9940     5.9530     5.8610     5.4960   100.7590
 2128.0000    -0.0050     2.4060     8.2580   -51.0000     5.4110     5.8810     5.5020    99.2480
 2128.5000    -0.0050     2.4100     8.2710   -51.0050     5.0610     5.9180     5.5140    97.8520
 2129.0000    -0.0040     2.4140     8.2740   -51.0100     5.5300     5.9560     5.5250    97.3550
 2129.5000    -0.0040     2.4180     8.2770   -51.0150     6.3690     5.9930     5.5360    99.4130
 2130.0000    -0.0030     2.4220     8.2800   -51.0210     7.2730     6.0270     5.5470   101.3730
 2130.5000    -0.0030     2.4240     8.2830   -51.0260     8.5340     6.0460     5.6440   102.6820
 2131.0000    -0.0030     2.4240     8.2860   -51.0310     7.4690     6.0650     5.7430   102.2130
 2131.5000    -0.0030     2.4210     8.2900   -51.0370     5.6500     6.0800     5.8410   101.7540
 2132.0000    -0.0060     2.4170     8.2930   -51.0420     6.1170     6.2200     5.9330   104.0940
 2132.5000    -0.0080     2.4140     8.2960   -51.0470     7.2360     6.3600     6.0230   106.4450
 2133.0000    -0.0100     2.4110     8.2990   -51.0520     6.7240     6.5000     6.1130   108.8520
 2133.5000    -0.0130     2.4090     8.3020   -51.0580     6.8030     6.6400     6.2030   109.8490
 2134.0000    -0.0140     2.4110     8.3050   -51.0630     6.9760     6.8130     6.2930   108.4820
 2134.5000    -0.0130     2.4150     8.3080   -51.0680     7.4260     7.0520     6.5690   106.5020
 2135.0000    -0.0110     2.4180     8.2980   -51.0740     7.6680     7.3650     6.8800   104.4120
 2135.5000    -0.0110     2.4210     8.2730   -51.0780     8.9340     7.6770     7.1700   102.1080
 2136.0000    -0.0110     2.4200     8.2520   -51.0600    10.6340     8.1520     7.3700    99.6540
 2136.5000    -0.0120     2.4220     8.2580   -51.0430     9.4150     8.0460     7.3560    97.1870
 2137.0000    -0.0120     2.4270     8.2640   -51.0260     8.1520     7.7160     7.3370    94.7190
 2137.5000    -0.0110     2.4330     8.2700   -51.0080     8.1980     7.7260     7.3170    92.5300
 2138.0000    -0.0090     2.4350     8.2760   -50.9910     8.2270     7.7480     7.3030    92.9880
 2138.5000    -0.0070     2.4400     8.2820   -50.9740     8.1450     7.7700     7.3030    93.5490
 2139.0000    -0.0040     2.4460     8.2870   -50.9570     8.0770     7.7920     7.3030    94.1060
 2139.5000    -0.0020     2.4510     8.2860   -50.9390     8.1470     7.8140     7.3030    94.4010
 2140.0000     0.0010     2.4570     8.2780   -50.9220     8.2270     7.8350     7.3030    92.5060
 2140.5000     0.0050     2.4620     8.2700   -50.9050     8.4940     7.8580     7.3900    90.6100
 2141.0000     0.0080     2.4670     8.2620   -50.8880     8.7790     7.9880     7.5080    90.2990
 2141.5000     0.0110     2.4690     8.2540   -50.8700     9.0170     8.1250     7.6260    90.2600
 2142.0000     0.0110     2.4670     8.2540   -50.8530     8.9290     8.2620     7.7430    93.0070
 2142.5000     0.0110     2.4660     8.2570   -50.8360     8.8530     8.3990     7.8610    95.6610
 2143.0000     0.0110     2.4640     8.2610   -50.8190     8.9180     8.4560     8.0040    98.0130
 2143.5000     0.0100     2.4590     8.2640   -50.8010     9.0010     8.4560     7.9930    98.1710
