~VERSION INFORMATION
 VERS.                2.0:   CWLS LOG ASCII STANDARD - VERSION 2.0
 WRAP.                 NO:   ONE LINE PER DEPTH STEP
~WELL INFORMATION
#MNEM.UNIT      DATA TYPE    INFORMATION
#----------   ------------   ------------------------------
 STRT.F          470.0000:   START DEPTH
 STOP.F         3791.5000:   STOP DEPTH
 STEP.F            0.5000:   STEP LENGTH
 NULL.          -999.2500:   NO VALUE
 COMP.    FENIX & SCISSON:   COMPANY
 WELL.   FENIX MDX #44-10:   WELL
 FLD .                NPR:   FIELD
 LOC .      S10 T38N R78W:   LOCATION
 CNTY.            NATRONA:   COUNTY
 STAT.            WYOMING:   STATE
 CTRY. UNITED STATES OF AMERICA:   COUNTRY
 SRVC.       SCHLUMBERGER:   SERVICE COMPANY
 DATE.        25-OCT-1977:   LOGDATE
 API .     49025104310000:   API NUMBER
~CURVE INFORMATION
#MNEM.UNIT       API CODE    CURVE DESCRIPTION
#----------   ------------   ------------------------------
 DEPT.F                  :   
 DT  .US/F   60 520 00 00:   DELTA TIME
 SPR .MV     11 010 01 00:   SPONTANEOUS POTENTIAL FROM RES.
 LLS .OHMM   11 220 09 00:   LATEROLOG LOG SHALLOW
 LLD .OHMM   11 220 10 00:   LATEROLOG LOG DEEP
 MSFL.OHMM   11 270 04 00:   MICRO SPHERICALLY FOCUSED
 NPOR.DEC    42 890 03 00:   ALPHA PROCESSED NEUTRON POROSITY
 RHOB.G/C3   45 350 01 00:   BULK DENSITY
 CORR.G/C3   45 356 01 00:   DENSITY CORRECTION
 GRD .GAPI   45 310 01 00:   GAMMA RAY FROM DENSITY LOG
 CALD.IN     45 280 60 00:   CALIPER FROM DENSITY LOG
~PARAMETER INFORMATION
#MNEM.UNIT          VALUE    DESCRIPTION
#----------   ------------   ------------------------------
 EKB .F         5239.0000:   Kelly bushing
 EGL .F         5229.0000:   Ground level
 EDF .F            0.0000:   Drilling floor
 EPD .F           10.0000:   Permanent datum
 TD  .F         3802.0000:   Total depth
 DATE.        25-OCT-1977:   Date logged
 CLNT.            A2DTECH:   Client Code
 SL  . 2640' FNL & 2640' FEL:   Surface Location
 PD  .                 GL:   Permanent Datum
 DD  .F              3802:   Depth driller
 DL  .F              3791:   Depth logger
 BLI .F              3789:   Bottom log interval
 TLI .F               505:   Top log interval
 CS1 .IN            8.625:   Casing size
 CBD1.       8.625 @ 505':   Casing driller 1
 CBL1.F               505:   Casing logger 1
 BS1 .IN            7.875:   Bit size
 DFT .            KCL MUD:   Type fluid in hole
 DFD .                9.1:   Density
 DFV .                 45:   Viscosity
 DFPH.               10.5:   pH
 DFL .                  8:   Fluid loss
 MSS .             MUDPIT:   Source of sample
 RMS .OHMM           .209:   Rm
 MST .F                72:   Rm Meas. temp.
 RMF .OHMM           .179:   Rmf
 MFST.F                72:   Rmf Meas. temp.
 RMC .OHMM           .314:   Rmc
 MCST.F                72:   Rmc Meas. temp.
 MFSS.               MEAS:   Source Rmf.
 RMB .OHMM           .122:   Rm. at BHT
 BHT .F               123:   BHT.
 TCS .HRS            1400:   Time Circ. stopped
 MRT .F               123:   Maximum recorded temp.
 LUN .               5642:   Logging unit number
 LUL .               CSPR:   Logging unit location
 ENGI.             SAYLER:   Recorded By
 WITN.         PETTINGILL:   Witnessed by
 ORIG.           5" PRINT:   Origin of data
 UWI .     49025104310000:   Unique Well ID
 DICO. A2D TECHNOLOGIES, INC.:   Digitizing Company
 DAPD.                 10:   Feet Above Permanent Datum
 BSD1.               3802:   Depth drilled with bit1
 MCSS.               CALC:   Source Rmc.
~OTHER INFORMATION
~A   DEPT        DT       SPR        LLS        LLD       MSFL       NPOR       RHOB       CORR        GRD       CALD   
# ...
 2882.0000    82.9440   -71.6920    10.6190     9.6060    11.9020     0.2280     2.5710     0.0690   122.1870     9.3490
 2882.5000    82.1630   -72.0710    10.3930     9.4280    14.5560     0.2230     2.5240     0.0370   122.5550     9.3570
 2883.0000    81.7500   -72.4500    10.1660     9.2500    14.5560     0.2250     2.4950     0.0050   123.7360     9.3750
 2883.5000    82.3000   -72.8290     9.8860     9.0720    13.8270     0.2300     2.5020     0.0160   124.7920     9.2940
 2884.0000    81.9200   -73.1780     9.9360     8.8940    13.2750     0.2360     2.5150     0.0010   124.8140     9.1390
 2884.5000    82.7730   -73.1700    10.0310     8.8520    13.2750     0.2420     2.5190     0.0160   124.2160     9.0900
 2885.0000    84.2500   -73.1680    10.1780     8.8520    13.7730     0.2460     2.5180     0.0080   123.4380     9.0850
 2885.5000    83.7080   -73.1680    10.3240     9.0790    13.9000     0.2480     2.5150    -0.0070   122.6460     9.0770
 2886.0000    82.6250   -73.1680    10.4480     9.1840    13.6290     0.2440     2.5050     0.0040   121.8550     9.0690
 2886.5000    81.6500   -73.1680    10.4480     8.9250    13.3980     0.2400     2.5120    -0.0110   121.0160     9.0600
 2887.0000    82.3500   -73.1680    10.2340     8.6530    13.3980     0.2390     2.5130     0.0030   119.6110     9.0510
 2887.5000    82.0570   -73.1680    10.1630     8.5320    12.9920     0.2430     2.5100    -0.0080   116.2200     9.0430
 2888.0000    81.3500   -73.1680    10.2570     8.8310    12.2190     0.2390     2.5170    -0.0080   112.8320     9.0340
 2888.5000    82.3250   -73.1680    11.1150     9.6890    12.2190     0.2310     2.5210     0.0110   108.9170     9.0250
 2889.0000    82.1440   -73.1290    12.0190    10.5480    13.2430     0.2310     2.5090     0.0010   103.5180     9.0060
 2889.5000    81.5330   -73.0510    12.7950    11.4560    14.1590     0.2350     2.5010     0.0160    97.7730     8.9890
 2890.0000    80.5500   -72.9730    12.4150    11.5620    14.1590     0.2380     2.4840     0.0410    90.2480     8.7660
 2890.5000    79.8000   -72.8950    11.6690    10.0050    13.1450     0.2380     2.4560     0.0220    77.9910     8.5150
 2891.0000    80.1800   -72.8170    11.4560     9.1000    12.3890     0.2350     2.4210     0.0380    76.8180     8.2640
 2891.5000    81.3790   -72.7380    11.8540    10.3140    11.8860     0.2280     2.3900     0.0250    80.3410     8.1970
 2892.0000    82.9500   -72.6590    13.0440    13.4350    12.2190     0.2150     2.3780     0.0150    82.7570     8.2810
 2892.5000    83.2000   -72.5770    14.2340    16.2300    13.2750     0.2060     2.4270     0.0360    79.4540     8.3730
 2893.0000    82.3390   -72.4980    17.5310    19.2350    20.9960     0.2120     2.4570     0.0230    73.2140     8.4650
 2893.5000    81.1170   -72.3450    22.9410    24.0220    30.8760     0.2100     2.4490     0.0390    67.0050     8.5240
 2894.0000    78.0500   -72.1940    31.0910    28.8080    51.6660     0.1930     2.4640     0.0200    60.7790     8.3280
 2894.5000    73.6000   -72.0410    33.3450    30.1320    57.4160     0.1720     2.5020     0.0340    57.3100     8.2630
 2895.0000    69.7500   -71.8890    27.8020    27.7040    31.1780     0.1560     2.5140     0.0220    57.7400     8.2160
 2895.5000    70.1500   -71.7360    22.1200    23.0430    15.6610     0.1560     2.4740     0.0400    61.1350     8.1700
 2896.0000    73.2560   -71.5840    15.9600    17.9900     8.8520     0.1790     2.4260     0.0250    61.7590     8.0730
 2896.5000    77.2500   -71.4320    15.1020    17.0230     8.8520     0.1950     2.3940     0.0400    60.1070     7.9920
 2897.0000    83.0500   -71.2790    15.6630    17.0230    10.0910     0.2020     2.3630     0.0260    59.2820     7.9930
 2897.5000    83.6500   -71.1270    16.5590    19.7900    11.2270     0.2010     2.3670     0.0380    61.3300     7.9760
 2898.0000    84.1500   -70.9860    21.7640    23.4590    19.5840     0.1950     2.3830     0.0210    63.8460     8.0080
 2898.5000    81.1500   -70.9890    29.1010    26.2440    35.8950     0.1890     2.4090     0.0150    66.3960     8.0430
 2899.0000    75.9500   -70.9900    31.2630    26.4870    37.5860     0.1830     2.4290     0.0050    68.9960     8.0700
 2899.5000    74.9880   -70.9900    28.4100    26.0670    21.7600     0.1780     2.4440     0.0190    69.6100     8.0460
 2900.0000    75.1490   -70.9900    22.7380    25.2320    12.5770     0.1780     2.4400    -0.0010    67.9930     8.0210
 2900.5000    76.5350   -70.9900    19.3170    24.3970    10.2540     0.2160     2.3920     0.0240    64.7780     7.9970
 2901.0000    79.8500   -70.9900    18.2860    23.5610     8.5960     0.2160     2.3670     0.0140    62.0140     7.9940
 2901.5000    82.1580   -70.9900    17.5990    22.6480     7.4990     0.2140     2.3540     0.0320    60.3580     7.9940
 2902.0000    82.3500   -70.9900    16.9120    21.2380     7.3310     0.2130     2.3230     0.0050    58.7170     7.9940
 2902.5000    82.7280   -70.9900    16.1020    19.6820     6.9980     0.2130     2.2960     0.0150    57.2680     7.9940
 2903.0000    83.0500   -70.9590    15.2040    17.9900     6.6650     0.2150     2.3030     0.0040    55.3010     7.9940
 2903.5000    84.4500   -70.9250    14.3060    17.5960     6.3330     0.2160     2.3070     0.0150    55.3600     7.9940
 2904.0000    87.5500   -70.8910    13.4080    17.0230     6.2380     0.2160     2.2950     0.0050    55.3620     7.9940
 2904.5000    88.2500   -70.8560    13.1530    17.2950     6.6320     0.2130     2.3040     0.0220    55.3290     7.9940
 2905.0000    90.6500   -70.8220    14.7840    18.6940     8.4020     0.2110     2.3260     0.0100    54.7120     8.0140
 2905.5000    89.4620   -70.7880    22.4740    30.6650    15.2980     0.1880     2.3750     0.0310    51.9230     8.0560
 2906.0000    85.2500   -70.7540    64.6490   110.0700    30.6530     0.1610     2.4210     0.0160    48.9360     8.0980
 2906.5000    76.3080   -70.7190   106.8230   220.3080    60.5540     0.1330     2.4950     0.0070    46.6230     8.1400
 2907.0000    69.8500   -70.6850   126.7740   199.0810    70.9630     0.1080     2.5360    -0.0010    47.7850     8.1730
 2907.5000    64.0500   -70.6510    89.6830   146.7490    62.0570     0.1080     2.5640     0.0130    51.3100     8.1650
 2908.0000    62.3500   -70.6160    49.7200    90.3640    12.9130     0.1330     2.5430     0.0300    54.7750     8.1580
 2908.5000    67.7500   -70.5280    14.9240    33.9800     9.1470     0.1560     2.4700     0.0230    55.9730     8.1530
 2909.0000    73.6790   -70.3230    13.5930    17.8840     6.0680     0.1790     2.3910     0.0120    56.7210     8.0960
 2909.5000    78.6090   -70.1190    12.3320    16.7120     5.9360     0.2030     2.3360     0.0220    57.4730     8.0070
 2910.0000    83.8580   -69.9160    12.2190    16.5590     5.7930     0.2310     2.3030     0.0010    58.3960     7.9550
 2910.5000    88.9360   -69.7120    12.7710    16.5590     5.6500     0.2290     2.2920     0.0230    59.9850     7.9650
 2911.0000    89.2500   -69.5090    13.3980    17.1390     5.5340     0.2240     2.2920     0.0040    61.5570     7.9740
 2911.5000    89.8170   -69.3060    12.7950    18.2080     5.8740     0.2190     2.2960     0.0220    63.4190     7.9790
 2912.0000    90.7140   -69.1010    13.6930    19.2770     6.3320     0.2150     2.3020     0.0130    65.7220     7.9880
 2912.5000    91.1830   -68.9350    14.9010    20.3460     6.7890     0.2110     2.3130     0.0160    68.0200     7.9960
 2913.0000    90.9500   -68.7960    16.1080    21.0390     7.8630     0.2100     2.3250     0.0280    70.3280     8.0050
 2913.5000    89.9250   -68.6590    16.4070    20.5490     8.6900     0.2130     2.3500     0.0320    72.7570     8.0130
 2914.0000    88.8740   -68.5210    14.9390    20.0330     7.9800     0.2200     2.3700     0.0380    73.2080     8.0210
 2914.5000    88.8500   -68.3830    13.7970    19.5180     6.9030     0.2280     2.3630     0.0320    72.8660     8.0300
 2915.0000    88.1640   -68.2450    13.3980    19.1880     6.9030     0.2270     2.3430     0.0250    70.8720     8.0380
