~VERSION INFORMATION
 VERS.                2.0:   CWLS LOG ASCII STANDARD - VERSION 2.0
 WRAP.                 NO:   ONE LINE PER DEPTH STEP
~WELL INFORMATION
#MNEM.UNIT      DATA TYPE    INFORMATION
#----------   ------------   ------------------------------
 STRT.F            0.0000:   START DEPTH
 STOP.F         5670.0000:   STOP DEPTH
 STEP.F            0.5000:   STEP LENGTH
 NULL.          -999.2500:   NO VALUE
 COMP.          INTEX OIL:   COMPANY
 WELL.    INTEX TP #71-15:   WELL
 FLD .             TEAPOT:   FIELD
 LOC .      S15 T38N R78W:   LOCATION
 CNTY.            NATRONA:   COUNTY
 STAT.            WYOMING:   STATE
 CTRY. UNITED STATES OF AMERICA:   COUNTRY
 SRVC.       SCHLUMBERGER:   SERVICE COMPANY
 DATE.        05-AUG-1966:   LOGDATE
 API .     49025097110000:   API NUMBER
~CURVE INFORMATION
#MNEM.UNIT       API CODE    CURVE DESCRIPTION
#----------   ------------   ------------------------------
 DEPT.F                  :   
 GRD .GAPI   45 310 01 00:   GAMMA RAY FROM DENSITY LOG
 CALD.IN     45 280 60 00:   CALIPER FROM DENSITY LOG
 CORR.G/C3   45 356 01 00:   DENSITY CORRECTION
 RHOB.G/C3   45 350 01 00:   BULK DENSITY
 SPR .MV     05 010 01 00:   SPONTANEOUS POTENTIAL FROM RES.
 ASN .OHMM   05 041 16 00:   AMPLIFIED SHORT NORMAL 16"
 ILD .OHMM   05 120 46 00:   INDUCTION LOG DEEP RESISTIVITY
~PARAMETER INFORMATION
#MNEM.UNIT          VALUE    DESCRIPTION
#----------   ------------   ------------------------------
 EKB .F         5247.5500:   Kelly bushing
 EGL .F         5236.1000:   Ground level
 EDF .F            0.0000:   Drilling floor
 EPD .F         5236.1000:   Permanent datum
 TD  .F         5670.0000:   Total depth
 CLNT.            A2DTECH:   Client Code
 SL  . 610' FNL & 710' FEL:   Surface Location
 PD  .                 GL:   Permanent Datum
 LMF .                 KB:   Log Measured From
 DMF .                 KB:   Drilling Measured From
 DAPD.F             11.45:   Feet Above Permanent Datum
 DATE.        05-AUG-1966:   Date Logged [DD-MMM-YYYY]
 DD  .F              5665:   Depth driller
 DL  .F              5670:   Depth logger
 BLI .F              5669:   Bottom log interval
 TLI .F              5551:   Top log interval
 CS1 .IN            10.75:   Casing size
 CBD1.    10.75" @ 567.9':   Casing driller 1
 CBL1.F               569:   Casing logger 1
 BS1 .IN           8.9375:   Bit size
 BSD1.F              5665:   Depth drilled with bit1
 DFT .            DEXTRID:   Type fluid in hole
 DFD .                9.4:   Density
 DFV .                 59:   Viscosity
 DFPH.                7.5:   pH
 DFL .                8.2:   Fluid loss
 MSS .           FLOWLINE:   Source of sample
 RMS .OHMM           1.80:   Rm
 MST .F                72:   Rm Meas. temp.
 RMF .OHMM           1.00:   Rmf
 MFST.F                82:   Rmf Meas. temp.
 MFSS.               MEAS:   Source Rmf.
 BHT .F               163:   BHT.
 TCS .HRS               3:   Time Circ. stopped
 MRT .F               163:   Maximum recorded temp.
 LUN .               4507:   Logging unit number
 LUL .               CSPR:   Logging unit location
 ENGI.            MANGOLD:   Recorded By
 ORIG.      2.5" 5" PRINT:   Origin of data
 UWI .     49025097110000:   Unique Well ID
 DICO. A2D TECHNOLOGIES, INC.:   Digitizing Company
~OTHER INFORMATION
~A    DEPT      GRD      CALD       CORR       RHOB        SPR        ASN        ILD   
# ...
  364.0000    78.5180    14.1743     0.0652     2.4623   -31.8270     7.8417     6.5068
  364.5000    76.8772    14.1753     0.0772     2.4811   -31.9614     7.8725     6.5116
  365.0000    76.1127    14.1463     0.0802     2.4976   -32.2437     7.9033     6.5164
  365.5000    76.1384    13.8785     0.0788     2.5047   -32.2288     7.9192     6.5212
  366.0000    76.8125    14.0446     0.0788     2.5096   -32.2140     7.9351     6.5270
  366.5000    77.3132    14.2863     0.0834     2.5127   -32.3484     7.9524     6.4560
  367.0000    78.4418    14.7707     0.0863     2.5112   -32.1816     7.9670     6.4620
  367.5000    78.9098    14.8771     0.0785     2.5068   -32.1670     7.9531     6.4667
  368.0000    79.3777    14.9397     0.0626     2.4949   -32.0039     7.9392     6.4715
  368.5000    79.8457    14.9585     0.0567     2.4890   -31.8407     7.9254     6.4762
  369.0000    79.4208    14.9594     0.0659     2.4957   -32.1233     7.8966     6.4806
  369.5000    78.1031    14.9605     0.0895     2.5073   -32.1087     7.8679     6.4857
  370.0000    77.2172    14.9016     0.0970     2.5229   -32.3913     7.8692     6.4904
  370.5000    76.8069    14.8901     0.1045     2.5351   -32.5290     7.8702     6.5697
  371.0000    76.9881    14.8013     0.1150     2.5406   -32.5107     7.8861     6.5745
  371.5000    79.3066    14.7421     0.1388     2.5485   -32.4962     7.9169     6.5794
  372.0000    82.5179    14.6531     0.1628     2.5728   -32.3328     7.9179     6.5851
  372.5000    83.7686    14.6836     0.1672     2.5847   -32.1694     7.9190     6.5898
  373.0000    83.4420    14.7182     0.1585     2.5788   -32.0030     7.8900     6.5946
  373.5000    81.3750    14.7812     0.1268     2.5461   -31.9884     7.8615     6.5236
  374.0000    79.9137    14.8143     0.1027     2.5223   -31.9738     7.8030     6.5296
  374.5000    81.4544    14.8949     0.0811     2.5101   -31.8107     7.7445     6.4586
  375.0000    82.3688    14.9254     0.0737     2.5060   -31.7961     7.6860     6.2410
  375.5000    82.3903    14.9559     0.0856     2.5209   -31.7815     7.5797     6.2457
  376.0000    81.5190    14.9565     0.0976     2.5314   -31.6184     7.3724     6.1014
  376.5000    80.6477    14.9272     0.1021     2.5302   -31.3066     7.2058     5.9568
  377.0000    79.3140    14.9278     0.0917     2.5166   -30.9948     7.0803     5.7317
  377.5000    78.4115    14.8985     0.0798     2.5074   -30.6831     7.0513     5.5067
  378.0000    78.0338    14.8967     0.0799     2.5003   -30.6685     7.0079     5.1529
  378.5000    79.3973    14.3988     0.0829     2.4884   -30.3566     6.9494     5.0074
  379.0000    79.5640    14.1540     0.0795     2.4631   -30.1932     6.8909     4.8643
  379.5000    80.3348    14.8030     0.0813     2.4318   -30.0268     6.7431     4.8691
  380.0000    80.5953    15.0208     0.0868     2.4125   -29.8636     6.4168     4.9483
  380.5000    80.1391    14.9618     0.0704     2.4109   -29.7004     6.3283     5.0276
  381.0000    79.5131    15.0567     0.0632     2.4158   -29.5373     6.3444     5.0323
  381.5000    79.5347    15.1422     0.0757     2.4637   -29.5227     6.4199     5.1116
  382.0000    79.5562    15.1428     0.0802     2.5170   -29.8053     6.6441     5.1163
  382.5000    79.5778    15.1134     0.0862     2.5272   -30.0879     6.8088     5.1975
  383.0000    78.7065    15.1140     0.0922     2.5290   -30.2255     6.9438     5.3577
  383.5000    77.8352    15.1445     0.1018     2.5246   -30.3595     7.0341     5.8024
  384.0000    76.9464    15.0746     0.1146     2.5098   -30.4903     7.0202     6.3287
  384.5000    76.0925    14.8645     0.0979     2.4889   -30.6241     7.0062     6.6315
  385.0000    75.5878    14.6239     0.0879     2.4651   -31.2085     6.9628     6.4127
  385.5000    75.1317    14.3109     0.0951     2.4667   -31.6508     6.9472     5.8959
  386.0000    74.8179    14.4000     0.1023     2.4771   -32.0661     6.8904     5.4535
  386.5000    75.2902    14.4615     0.1089     2.4766   -31.8992     6.6387     4.9366
  387.0000    75.3125    14.4322     0.1045     2.4516   -31.7361     6.3421     4.5676
  387.5000    75.3348    14.2538     0.0852     2.4281   -31.5729     6.0604     4.3499
  388.0000    74.9149    13.6574     0.0614     2.4162   -31.4097     5.8383     4.2802
  388.5000    74.9364    13.6878     0.0630     2.4217   -30.9494     5.7944     4.2850
  389.0000    74.9580    13.7540     0.0675     2.4483   -30.9348     5.8254     4.3644
  389.5000    74.5312    14.6009     0.0535     2.4925   -30.9202     5.9009     4.3702
  390.0000    74.5546    14.7045     0.0479     2.4894   -31.0530     6.0953     4.5984
  390.5000    74.5762    14.7051     0.0438     2.4701   -31.3356     6.3345     4.9013
  391.0000    74.5982    14.7767     0.0191     2.4612   -31.4733     6.5289     5.3531
  391.5000    74.1729    14.8257     0.0171     2.4747   -31.7559     6.7234     5.6559
  392.0000    73.6667    14.9027     0.0395     2.5015   -31.8899     6.9030     5.8842
  392.5000    73.2106    14.9165     0.0514     2.5216   -32.0208     7.1421     6.1125
  393.0000    72.8982    14.9469     0.0574     2.5386   -32.3031     7.3813     6.3408
  393.5000    72.4734    14.9475     0.0679     2.5512   -32.4373     7.5758     6.5691
  394.0000    72.2887    14.9481     0.0813     2.5553   -32.5825     7.7260     6.7973
  394.5000    72.3192    14.9188     0.0691     2.5320   -32.8762     7.8320     7.0257
  395.0000    72.9952    14.9493     0.0500     2.5189   -33.1361     7.8934     7.0306
  395.5000    73.9096    14.9442     0.0505     2.5179   -33.1178     7.9398     7.0363
  396.0000    74.8240    14.9205     0.0586     2.5287   -33.1033     7.9829     7.0410
  396.5000    75.2920    14.9212     0.0637     2.5392   -33.0887     8.0137     7.0451
  397.0000    76.2064    14.9218     0.0630     2.5452   -33.0741     8.0296     6.9748
  397.5000    76.2280    14.9224     0.0608     2.5273   -33.0595     8.0604     7.0553
  398.0000    75.7827    14.9231     0.0698     2.5229   -33.0449     8.0912     7.0600
  398.5000    74.9318    14.9237     0.0758     2.5445   -33.3275     8.1071     7.0648
  399.0000    74.9554    14.9242     0.0758     2.5578   -33.3130     8.1379     7.0695
  399.5000    74.2977    14.9248     0.0818     2.5588   -33.1498     8.1538     7.0742
  400.0000    73.0655    14.9254     0.0551     2.5291   -33.1352     8.1554     7.0790
  400.5000    71.4590    14.9269     0.0613     2.5217   -33.1113     8.0846     7.0745
  401.0000    70.5922    14.9284     0.0658     2.5158   -33.4216     8.0288     7.0736
  401.5000    70.1696    14.9299     0.0672     2.5156   -33.2657     8.0018     7.1507
  402.0000    70.6443    14.9313     0.0657     2.5189   -32.8140     8.0063     7.2277
  402.5000    71.5633    14.9328     0.0633     2.5205   -32.8081     8.0547     7.3796
  403.0000    71.5893    14.9343     0.0587     2.5159   -32.6536     8.1178     7.4566
  403.5000    72.5320    14.9358     0.0540     2.5100   -32.7963     8.1959     7.6824
  404.0000    73.4286    14.9373     0.0549     2.5087   -32.7905     8.2591     7.8338
  404.5000    73.3832    14.9388     0.0661     2.5106   -32.7845     8.2776     7.6875
  405.0000    72.0461    14.9403     0.0706     2.5118   -32.7786     8.2515     6.9461
  405.5000    71.7197    14.9418     0.0722     2.5099   -32.9214     8.2106     6.4278
  406.0000    72.7799    14.9433     0.0737     2.4997   -33.2313     7.9879     5.3887
  406.5000    76.1354    14.9448     0.0783     2.4801   -33.3554     7.6441     5.0930
  407.0000    77.1607    14.9463     0.0843     2.4756   -33.0508     7.0229     4.8724
  407.5000    77.1875    14.9478     0.1081     2.4287   -32.5992     6.4851     4.8756
  408.0000    74.6546    14.9493     0.1016     2.4109   -32.2961     6.3399     4.8032
  408.5000    71.4427    14.9507     0.0790     2.4214   -32.1416     6.3585     4.8808
  409.0000    70.1295    14.9522     0.0771     2.4781   -32.4329     6.6449     4.9578
