~VERSION INFORMATION
 VERS.                2.0:   CWLS LOG ASCII STANDARD - VERSION 2.0
 WRAP.                 NO:   ONE LINE PER DEPTH STEP
~WELL INFORMATION
#MNEM.UNIT      DATA TYPE    INFORMATION
#----------   ------------   ------------------------------
 STRT.F            1.5000:   START DEPTH
 STOP.F          985.0000:   STOP DEPTH
 STEP.F            0.5000:   STEP LENGTH
 NULL.          -999.2500:   NO VALUE
 COMP.       FLUOR DANIEL:   COMPANY
 WELL.  FLUOR 41 "X" #1-2:   WELL
 FLD .          N.P.R. #3:   FIELD
 LOC .       S2 T38N R78W:   LOCATION
 CNTY.            NATRONA:   COUNTY
 STAT.            WYOMING:   STATE
 CTRY. UNITED STATES OF AMERICA:   COUNTRY
 SRVC.     ATLAS WIRELINE:   SERVICE COMPANY
 DATE.        09-AUG-1994:   LOGDATE
 API .     49025226450000:   API NUMBER
~CURVE INFORMATION
#MNEM.UNIT       API CODE    CURVE DESCRIPTION
#----------   ------------   ------------------------------
 DEPT.F                  :   
 GRR .GAPI   07 310 01 00:   GAMMA RAY FROM RESISTIVITY
 TENR.LBS    07 635 01 00:   TENSION FROM RESISTIVITY
 RILD.OHMM   07 120 46 00:   INDUCTION LOG DEEP RESISTIVITY
 RILM.OHMM   07 120 44 00:   INDUCTION LOG MEDIUM RESISTIVITY
~PARAMETER INFORMATION
#MNEM.UNIT          VALUE    DESCRIPTION
#----------   ------------   ------------------------------
 EKB .F         5143.0000:   Kelly bushing
 EGL .F         5133.0000:   Ground level
 EDF .F         5142.0000:   Drilling floor
 TD  .F          970.0000:   Total depth
 CLNT.            A2DTECH:   Client Code
 PD  .                 GL:   Permanent Datum
 EPD .F              5133:   Elevation Permanent Datum
 LMF .                 KB:   Log Measured From
 DMF .                 KB:   Drilling Measured From
 DAPD.F                10:   Feet Above Permanent Datum
 DATE.        09-AUG-1994:   Date Logged [DD-MMM-YYYY]
 DD  .F               970:   Depth driller
 DL  .F               970:   Depth logger
 BLI .F               962:   Bottom log interval
 TLI .F                 0:   Top log interval
 CS1 .IN            9.625:   Casing size
 CBD1.       9.625" @ 56':   Casing driller 1
 CBL1.F                59:   Casing logger 1
 BS1 .IN             8.75:   Bit size
 BSD1.F               970:   Depth drilled with bit1
 DFT .                AIR:   Type fluid in hole
 MRT .F                94:   Maximum recorded temp.
 LUN .            HL 6530:   Logging unit number
 LUL .             CASPER:   Logging unit location
 ENGI.      PAT RASMUSSEN:   Recorded By
 WITN.        GARY STRONG:   Witnessed by
 ORIG.           5" PRINT:   Origin of data
 UWI .     49025226450000:   Unique Well ID
 DICO. A2D TECHNOLOGIES, INC.:   Digitizing Company
 SL  . 173' FNL & 2204' FWL:   Surface Location
~OTHER INFORMATION
~A    DEPT      GRR      TENR       RILD       RILM   
# ...
   74.5000   125.8106   -39.4709     5.4181     5.4886
   75.0000   125.4926   -39.1083     5.4923     5.5642
   75.5000   124.5675   -38.8182     5.5324     5.6017
   76.0000   123.8968   -46.1307     5.6046     5.6393
   76.5000   123.3207   -45.7681     5.6419     5.6769
   77.0000   123.9131   -45.4781     5.6395     5.6359
   77.5000   125.4160   -45.1807     5.6376     5.6341
   78.0000   129.9538   -37.2952     5.5578     5.5545
   78.5000   131.1533   -29.4750     5.3604     5.2885
   79.0000   129.1472   -21.6548     5.1799     5.1417
   79.5000   122.6227   -28.8949     5.0710     5.0692
   80.0000   117.7522   -28.6048     4.9992     4.9976
   80.5000   115.6132   -28.3133     4.9284     4.9268
   81.0000   117.1161   -27.9521     4.9262     4.9254
   81.5000   120.4399   -35.2647     4.9247     4.9241
   82.0000   127.4780   -34.9021     4.9925     5.0269
   82.5000   129.8189   -42.2146     5.2035     5.6186
   83.0000   128.5867   -34.3219     5.4617     5.9487
   83.5000   122.8059   -18.9716     5.4981     6.1056
   84.0000   112.7761   -18.6747     5.5759     5.9773
   84.5000   100.0149   -18.3189     5.6887     5.8520
   85.0000    97.2690   -33.0890     5.7270     5.7293
   85.5000   101.4996   -32.7989     5.7246     5.6484
   86.0000   111.1967   -40.1115     5.6435     5.6040
   86.5000   119.9833   -32.2188     5.5250     5.4516
   87.0000   121.4862   -31.9277     5.4466     5.4123
   87.5000   123.2926   -31.6265     5.3691     5.4109
   88.0000   125.0989   -31.2760     5.2930     5.4094
   88.5000   120.5284   -30.9859     5.2545     5.3704
   89.0000   118.9963   -23.1657     5.2899     5.3689
   89.5000   119.8922   -22.8756     5.3247     5.3671
   90.0000   125.0370   -30.1205     5.2855     5.3284
   90.5000   126.2681   -29.8193     5.1745     5.2167
   91.0000   120.4370   -44.5957     5.0657     5.1074
   91.5000   120.1374   -51.7632     4.9940     5.0353
   92.0000   122.2436   -43.9430     4.9577     5.0339
   92.5000   124.6569   -43.6529     4.9560     5.0323
   93.0000   125.2530   -35.8327     4.9890     5.0661
   93.5000   124.3243   -35.5422     5.0569     5.1005
   94.0000   122.1124   -35.2410     5.0910     5.1704
   94.5000   116.4007   -34.8900     5.1963     5.2784
   95.0000   115.4757   -34.5999     5.3043     5.3897
   95.5000   117.8890   -34.3098     5.4593     5.5777
   96.0000   122.1233   -34.0197     5.6828     5.7339
   96.5000   120.8948   -33.7296     5.7210     5.7729
   97.0000   119.9697   -25.9036     5.7187     5.7710
   97.5000   120.8620   -25.5468     5.6771     5.7293
   98.0000   122.0613   -32.8594     5.5966     5.6880
   98.5000   124.1712   -40.0994     5.5173     5.6466
   99.0000   125.6777   -47.3394     5.4387     5.5669
   99.5000   125.6595   -39.4467     5.3992     5.4883
  100.0000   124.4310   -31.6265     5.3919     5.3733
  100.5000   122.6031   -23.7801     5.3588     5.3577
  101.0000   118.9553   -31.0241     5.4331     5.4473
  101.5000   118.3425   -30.7229     5.5465     5.4847
  102.0000   119.8540   -30.4217     5.7021     5.6035
  102.5000   119.8481   -30.0694     5.9443     5.8790
  103.0000   119.2352   -29.7774     6.1543     6.0867
  103.5000   119.2676   -21.9554     6.3376     6.7099
  104.0000   120.4374   -21.6634     6.4587     6.6623
  104.5000   119.8230   -21.3714     6.4570     6.5692
  105.0000   117.0857   -21.0795     6.4109     6.5683
  105.5000   115.2589   -20.7831     6.2334     6.2983
  106.0000   114.6475   -20.4226     6.0609     5.8734
  106.5000   115.2485   -20.1306     5.6914     5.6693
  107.0000   115.2411   -19.8386     5.5725     5.5532
  107.5000   114.6181   -27.0768     5.5714     5.5911
  108.0000   114.6667   -26.7848     5.6092     5.6691
  108.5000   117.0429   -34.0960     5.6864     5.7479
  109.0000   121.8929   -33.7310     5.8057     5.7873
  109.5000   120.6730   -18.3735     5.8859     5.8268
  110.0000   120.0601   -18.0139     5.9673     5.9078
  110.5000   120.3592   -17.7219     6.1773     6.1166
  111.0000   120.3518   -40.0203     6.3506     6.3333
  111.5000   122.1668   -47.3315     6.4384     6.4261
  112.0000   125.2443   -39.4364     6.4820     6.4648
  112.5000   128.0223   -31.6143     6.4807     6.4637
  113.0000   129.4329   -31.3224     6.3894     6.4179
  113.5000   129.1220   -31.0241     6.2560     6.3282
  114.0000   125.4742   -30.6655     6.1254     6.1106
  114.5000   122.4334   -30.3735     5.9558     5.9833
  115.0000   122.1240   -22.5514     5.8722     5.8586
  115.5000   123.0286   -22.2595     5.7096     5.6571
  116.0000   123.3263   -21.9675     5.4748     5.3869
  116.5000   120.1963   -21.6756     5.3232     5.3486
  117.0000   118.1536   -28.9157     5.2482     5.2738
  117.5000   118.7547   -27.8615     5.2107     5.2365
  118.0000   119.9642   -20.7267     5.2464     5.2357
  118.5000   118.7429   -12.9046     5.3189     5.3085
  119.0000   116.9160   -20.2158     5.4299     5.3824
  119.5000   117.2136   -34.9840     5.5434     5.5338
  120.0000   119.6356   -34.6191     5.6989     5.6500
  120.5000   123.5751   -34.3271     5.8997     5.8497
  121.0000   126.3006   -34.0352     6.1584     6.0267
  121.5000   125.3828   -26.2048     6.4113     6.3582
  122.0000   123.8594   -10.7879     6.3654     6.4021
  122.5000   126.8884   -10.4959     6.3642     6.3565
  123.0000   129.0069   -10.2040     6.3629     6.3556
  123.5000   129.3060   -24.9723     6.3616     6.3548
  124.0000   125.0497   -32.2834     6.3161     6.3098
  124.5000   123.2229   -31.9185     6.2710     6.2215
  125.0000   124.1275   -24.0964     6.2262     6.1775
  125.5000   126.5495   -23.7952     6.2249     6.1766
  126.0000   124.7212   -15.9094     6.1801     6.1756
  126.5000   121.3769    -8.0873     6.1789     6.2182
  127.0000   120.7640   -15.3984     6.1776     6.2171
  127.5000   121.9720   -15.0335     6.2633     6.2600
  128.0000   122.5746   -22.3446     6.3499     6.3029
  128.5000   122.2637   -29.5181     6.4377     6.4350
  129.0000   122.8648   -36.7480     6.6180     6.5702
  129.5000   123.7754   -36.4458     6.7573     6.7081
  130.0000   125.6247   -36.0910     6.8977     6.8490
  130.5000   121.3282   -20.7388     6.9441     6.8960
  131.0000   119.5013    -5.3866     6.9427     6.8469
  131.5000   121.0129     2.4354     6.9413     6.8939
  132.0000   124.3454    -4.8757     6.9888     6.8929
  132.5000   126.4639   -12.0409     7.0854     6.8920
  133.0000   126.7630   -11.7470     7.1331     6.9395
  133.5000   126.1486   -18.9871     7.1815     7.0850
  134.0000   123.9817   -26.2253     7.2323     7.2337
  134.5000   119.8806   -18.3302     7.3302     7.3856
  135.0000   115.8108   -18.0382     7.3284     7.3846
  135.5000   114.8944   -10.2161     7.3785     7.4353
  136.0000   117.9234   -17.4543     7.4286     7.4340
  136.5000   122.7733   -32.2226     7.3751     7.4330
  137.0000   124.2863   -31.9277     7.2716     7.2782
  137.5000   119.7266   -24.0964     7.0703     7.0279
  138.0000   117.8998   -16.2135     6.7795     6.8336
  138.5000   118.8589    -8.3914     6.6351     6.6913
  139.0000   122.2944   -15.7026     6.4992     6.5519
  139.5000   125.1644   -30.4708     6.4525     6.4603
  140.0000   123.3375   -37.7090     6.4966     6.4592
  140.5000   121.5107   -37.3440     6.4950     6.4583
  141.0000   120.2908   -37.0482     6.4937     6.5939
  141.5000   120.2849   -36.6871     6.4473     6.7797
  142.0000   122.0999   -28.8651     6.4910     6.6847
  142.5000   122.7011   -21.0430     6.6254     6.6838
  143.0000   120.4978   -20.7510     6.8127     6.7767
  143.5000   118.4389   -28.0622     6.8589     6.8710
  144.0000   119.3434   -35.2273     6.8571     6.8700
  144.5000   126.0143   -34.9354     6.9519     6.9733
  145.0000   127.2224   -27.1084     7.2472     7.3127
  145.5000   127.8249   -26.7483     7.7146     7.6774
  146.0000   127.5141   -18.9263     8.0423     8.0043
  146.5000   123.5628   -26.2374     8.4425     9.3953
  147.0000   111.7208   -33.4756     8.8012     9.5925
