~VERSION INFORMATION
 VERS.                2.0:   CWLS LOG ASCII STANDARD - VERSION 2.0
 WRAP.                 NO:   ONE LINE PER DEPTH STEP
~WELL INFORMATION
#MNEM.UNIT      DATA TYPE    INFORMATION
#----------   ------------   ------------------------------
 STRT.F            6.0000:   START DEPTH
 STOP.F         3190.0000:   STOP DEPTH
 STEP.F            0.5000:   STEP LENGTH
 NULL.          -999.2500:   NO VALUE
 COMP. LAWRENCE ALLISON & ASSOCIATES:   COMPANY
 WELL. LAWRENCE N. P. R. 73AX #3-3:   WELL
 FLD .              N P R:   FIELD
 LOC .       S3 T38N R78W:   LOCATION
 CNTY.            NATRONA:   COUNTY
 STAT.            WYOMING:   STATE
 CTRY. UNITED STATES OF AMERICA:   COUNTRY
 SRVC.      DRESSER ATLAS:   SERVICE COMPANY
 DATE.        04-JUN-1986:   LOGDATE
 API .     49025110910000:   API NUMBER
~CURVE INFORMATION
#MNEM.UNIT       API CODE    CURVE DESCRIPTION
#----------   ------------   ------------------------------
 DEPT.F                  :   
 CALD.IN     45 280 60 00:   CALIPER FROM DENSITY LOG
 DEN .LBS    45 635 01 00:   BUCK DENSITY
 CORR.G/C3   45 356 01 00:   DENSITY CORRECTION
 TEND.LBS    45 635 01 00:   TENSION FROM DENSITY LOG
 SPR .MV     07 010 01 00:   SPONTANEOUS POTENTIAL
 GRR .GAPI   07 310 01 00:   GAMMA RAY FROM RESISTIVITY
 SFLU.OHMM   07 220 01 00:   SPHERICALLY FOCUSED LOG UNAVERAGED RESISTIVITY
 ILD .OHMM   07 120 46 00:   DEEP INDUCTION RESISTIVITY
 ILM .OHMM   07 120 44 00:   INDUCTION LOG MEDIUM RESISTIVITY
 TENR.LBS    07 635 01 00:   TENSION FROM RESISTIVITY
 CNC .DEC    42 890 01 00:   NEUTRON PORISITY LIMESTONE
~PARAMETER INFORMATION
#MNEM.UNIT          VALUE    DESCRIPTION
#----------   ------------   ------------------------------
 EKB .F         5173.0000:   Kelly bushing
 EGL .F         5161.0000:   Ground level
 TD  .F         3170.0000:   Total depth
 DATE.        04-JUN-1986:   Date logged
 CLNT.            A2DTECH:   Client Code
 PD  .                 GL:   Permanent Datum
 EPD .F              5161:   Elevation Permanent Datum
 LMF .                 KB:   Log Measured From
 DMF .                 KB:   Drilling Measured From
 DAPD.F                12:   Feet Above Permanent Datum
 DD  .F              3170:   Depth driller
 DL  .F              3168:   Depth logger
 BLI .F               8.9:   Bottom log interval
 TLI .F                38:   Top log interval
 CS1 .IN            8.625:   Casing size
 CBD1.      8.625" @ 603':   Casing driller 1
 CBL1.F               602:   Casing logger 1
 BS1 .IN            7.875:   Bit size
 BSD1.F              3170:   Depth drilled with bit1
 DFT .        KCL/POLYMER:   Type fluid in hole
 DFD .                8.9:   Density
 DFV .                 38:   Viscosity
 DFPH.                9.0:   pH
 DFL .               13.2:   Fluid loss
 MSS .           FLOWLINE:   Source of sample
 RMS .OHMM           .446:   Rm
 MST .F                64:   Rm Meas. temp.
 RMF .OHMM           .361:   Rmf
 MFST.F                64:   Rmf Meas. temp.
 RMC .OHMM            .56:   Rmc
 MCST.F                64:   Rmc Meas. temp.
 MFSS.               MEAS:   Source Rmf.
 MCSS.               CALC:   Source Rmc.
 RMB .OHMM           .242:   Rm. at BHT
 BHT .F               118:   BHT.
 TCS .HRS               3:   Time Circ. stopped
 MRT .F               118:   Maximum recorded temp.
 LUN .               6274:   Logging unit number
 LUL .           GILLETTE:   Logging unit location
 WITN.             STRONG:   Witnessed by
 ORIG.           5" PRINT:   Origin of data
 UWI .     49025110910000:   Unique Well ID
 DICO. A2D TECHNOLOGIES, INC.:   Digitizing Company
~OTHER INFORMATION
~A    DEPT    CALD        DEN       CORR       TEND        SPR         GRR      SFLU        ILD        ILM       TENR        CNC   
# ...
  616.0000  -999.2500  -999.2500  -999.2500  -999.2500   -43.7486    86.3347     5.8431     6.9667     4.9908   -72.1836  -999.2500
  616.5000  -999.2500  -999.2500  -999.2500  -999.2500   -44.5558    86.0606     5.5265     6.3500     4.2239   -65.7008  -999.2500
  617.0000  -999.2500  -999.2500  -999.2500  -999.2500   -45.3641    88.4848     5.1935     5.2755     3.9217   -65.5956  -999.2500
  617.5000  -999.2500  -999.2500  -999.2500  -999.2500   -46.7765    93.6364     4.9575     3.8163     2.7837   -65.4903  -999.2500
  618.0000  -999.2500  -999.2500  -999.2500  -999.2500   -47.3836    96.9697     4.3535     2.4911     2.3560   -45.2577  -999.2500
  618.5000  -999.2500  -999.2500  -999.2500  -999.2500   -47.3866    96.0606     3.5171     2.3346     1.8688   -65.2799  -999.2500
  619.0000  -999.2500  -999.2500  -999.2500  -999.2500   -47.3897    94.8485     3.0886     2.2286     1.7512   -65.1747  -999.2500
  619.5000  -999.2500  -999.2500  -999.2500  -999.2500   -46.7887    91.2121     2.2908     2.1472     1.6563   -65.0695  -999.2500
  620.0000  -999.2500  -999.2500  -999.2500  -999.2500   -46.1876    85.4545     2.4263     2.1075     1.7345   -64.9432  -999.2500
  620.5000  -999.2500  -999.2500  -999.2500  -999.2500   -45.7861    82.1212     2.0494     2.1465     1.8503   -74.9022  -999.2500
  621.0000  -999.2500  -999.2500  -999.2500  -999.2500   -44.9855    81.8182     2.1661     2.2066     2.5112   -74.7970  -999.2500
  621.5000  -999.2500  -999.2500  -999.2500  -999.2500   -44.7877    86.0606     2.7553     2.4203     2.7801   -74.6918  -999.2500
  622.0000  -999.2500  -999.2500  -999.2500  -999.2500   -44.5893    90.0000     4.2177     2.9393     3.0777   -74.5867  -999.2500
  622.5000  -999.2500  -999.2500  -999.2500  -999.2500   -44.3910    91.2121     4.9960     3.6364     3.8430   -74.4815  -999.2500
  623.0000  -999.2500  -999.2500  -999.2500  -999.2500   -43.9912    90.0000     5.4141     4.2556     4.4975   -74.3764  -999.2500
  623.5000  -999.2500  -999.2500  -999.2500  -999.2500   -43.1886    85.1515     5.6173     5.3137     4.9329   -74.2712  -999.2500
  624.0000  -999.2500  -999.2500  -999.2500  -999.2500   -42.5874    82.0156     5.8284     7.2789     5.5632   -84.2311  -999.2500
  624.5000  -999.2500  -999.2500  -999.2500  -999.2500   -41.7830    80.5814     6.1604     7.8374     5.9348   -84.1261  -999.2500
  625.0000  -999.2500  -999.2500  -999.2500  -999.2500   -39.5722    80.9776     6.2746     7.9827     6.2151   -84.0210  -999.2500
  625.5000  -999.2500  -999.2500  -999.2500  -999.2500   -38.7695    82.1794     6.3320     8.0558     6.3892   -73.8506  -999.2500
  626.0000  -999.2500  -999.2500  -999.2500  -999.2500   -37.5639    82.9785     6.3310     7.9067     6.7532   -83.7898  -999.2500
  626.5000  -999.2500  -999.2500  -999.2500  -999.2500   -36.3583    87.0002     6.3889     7.9791     6.8150   -73.6192  -999.2500
  627.0000  -999.2500  -999.2500  -999.2500  -999.2500   -35.9583    89.4095     6.5073     7.9778     6.8774   -73.5141  -999.2500
  627.5000  -999.2500  -999.2500  -999.2500  -999.2500   -34.9540    86.9872     6.5669     7.9766     6.8763   -73.4089  -999.2500
  628.0000  -999.2500  -999.2500  -999.2500  -999.2500   -34.7559    83.3537     6.6269     8.0496     6.8119   -83.3695  -999.2500
  628.5000  -999.2500  -999.2500  -999.2500  -999.2500   -35.3608    84.9599     6.6259     8.0484     6.8108   -83.2645  -999.2500
  629.0000  -999.2500  -999.2500  -999.2500  -999.2500   -34.9629    90.1908     6.6249     7.9730     6.7470   -83.1595  -999.2500
  629.5000  -999.2500  -999.2500  -999.2500  -999.2500   -35.3686    93.4074     6.6855     7.7533     6.7460   -83.0544  -999.2500
  630.0000  -999.2500  -999.2500  -999.2500  -999.2500   -35.9758    92.5952     6.8095     7.6099     6.7449   -82.9493  -999.2500
  630.5000  -999.2500  -999.2500  -999.2500  -999.2500   -37.9931    87.3511     6.9357     7.5386     6.7439   -82.8442  -999.2500
  631.0000  -999.2500  -999.2500  -999.2500  -999.2500   -39.2047    86.9417     6.9991     7.6076     6.7433   -72.6726  -999.2500
  631.5000  -999.2500  -999.2500  -999.2500  -999.2500   -40.0134    91.7690     6.9333     7.6062     6.6179   -82.6340  -999.2500
  632.0000  -999.2500  -999.2500  -999.2500  -999.2500   -40.0163    95.7918     6.8684     7.6758     6.6168   -72.4412  -999.2500
  632.5000  -999.2500  -999.2500  -999.2500  -999.2500   -39.8177    99.4119     6.8673     7.6746     6.4944   -82.4028  -999.2500
  633.0000  -999.2500  -999.2500  -999.2500  -999.2500   -40.4251    98.1969     6.8662     7.6734     6.4934   -82.2977  -999.2500
  633.5000  -999.2500  -999.2500  -999.2500  -999.2500   -41.2339    94.5683     6.9291     7.7436     6.4325   -72.1257  -999.2500
  634.0000  -999.2500  -999.2500  -999.2500  -999.2500   -41.6397    92.9459     6.8641     7.7424     6.4315   -72.0415  -999.2500
  634.5000  -999.2500  -999.2500  -999.2500  -999.2500   -41.8442    88.9098     6.7371     7.8133     6.3712   -71.9153  -999.2500
  635.0000  -999.2500  -999.2500  -999.2500  -999.2500   -41.8471    90.5153     6.5515     7.8121     6.3703   -71.8100  -999.2500
  635.5000  -999.2500  -999.2500  -999.2500  -999.2500   -42.0516    92.9284     6.4302     7.8836     6.3693   -81.7722  -999.2500
  636.0000  -999.2500  -999.2500  -999.2500  -999.2500   -42.0545    92.9234     6.4891     7.8824     6.3683   -81.6671  -999.2500
  636.5000  -999.2500  -999.2500  -999.2500  -999.2500   -42.0557    87.0153     6.5484     7.8080     6.3673   -81.5620  -999.2500
  637.0000  -999.2500  -999.2500  -999.2500  -999.2500   -40.4490    83.6383     6.6698     7.8073     6.2495   -81.4569  -999.2500
  637.5000  -999.2500  -999.2500  -999.2500  -999.2500   -39.4443    84.8408     6.6688     7.8061     6.2485   -81.3518  -999.2500
  638.0000  -999.2500  -999.2500  -999.2500  -999.2500   -39.0442    87.2525     6.6678     7.7330     6.1899   -81.2466  -999.2500
  638.5000  -999.2500  -999.2500  -999.2500  -999.2500   -38.0383    88.4551     6.4841     7.7318     6.1319   -91.1887  -999.2500
  639.0000  -999.2500  -999.2500  -999.2500  -999.2500   -38.2439    86.0304     6.2472     7.5887     6.0744   -81.0155  -999.2500
  639.5000  -999.2500  -999.2500  -999.2500  -999.2500   -39.0528    79.1719     6.0749     7.3113     5.9618   -80.9103  -999.2500
  640.0000  -999.2500  -999.2500  -999.2500  -999.2500   -39.0557    73.9255     6.0179     6.9794     5.6386   -80.8052  -999.2500
  640.5000  -999.2500  -999.2500  -999.2500  -999.2500   -39.6632    80.7696     6.0730     6.6629     5.3825  -100.8580  -999.2500
  641.0000  -999.2500  -999.2500  -999.2500  -999.2500   -40.6738    87.6153     6.0721     6.3013     5.0907   -80.5949  -999.2500
  641.5000  -999.2500  -999.2500  -999.2500  -999.2500   -42.8937    90.4304     5.9597     6.2422     4.9504   -80.4898  -999.2500
  642.0000  -999.2500  -999.2500  -999.2500  -999.2500   -44.1060    90.4240     5.3318     6.1837     4.8588  -100.5223  -999.2500
  642.5000  -999.2500  -999.2500  -999.2500  -999.2500   -46.3260    92.0300     4.7389     6.1827     5.2317   -80.2795  -999.2500
  643.0000  -999.2500  -999.2500  -999.2500  -999.2500   -50.7633    93.6361     4.6946     6.1818     5.5299   -80.1745  -999.2500
  643.5000  -999.2500  -999.2500  -999.2500  -999.2500   -52.9842    94.4359     5.1024     6.2383     5.8451   -80.0693  -999.2500
  644.0000  -999.2500  -999.2500  -999.2500  -999.2500   -56.3578    94.4296     5.5457     6.2374     5.9531   -79.9642  -999.2500
  644.5000  -999.2500  -999.2500  -999.2500  -999.2500   -60.0455    94.8264     5.9719     6.2944     6.0638   -79.8380  -999.2500
  645.0000  -999.2500  -999.2500  -999.2500  -999.2500   -60.8778    96.0295     6.3126     6.5311     6.4095   -79.7328  -999.2500
  645.5000  -999.2500  -999.2500  -999.2500  -999.2500   -61.7101    98.4421     6.4298     7.1639     6.7123   -79.6277  -999.2500
  646.0000  -999.2500  -999.2500  -999.2500  -999.2500   -62.4739    99.6453     6.5492     7.7139     7.3628   -89.5922  -999.2500
