~VERSION INFORMATION
 VERS.                2.0:   CWLS LOG ASCII STANDARD - VERSION 2.0
 WRAP.                 NO:   ONE LINE PER DEPTH STEP
~WELL INFORMATION
#MNEM.UNIT      DATA TYPE    INFORMATION
#----------   ------------   ------------------------------
 STRT.F            0.5000:   START DEPTH
 STOP.F         5663.0000:   STOP DEPTH
 STEP.F            0.5000:   STEP LENGTH
 NULL.          -999.2500:   NO VALUE
 COMP.         U. S. NAVY:   COMPANY
 WELL.         US TP #1-3:   WELL
 FLD . TEAPOT NAVAL RESERVE:   FIELD
 LOC .       S3 T38N R78W:   LOCATION
 CNTY.            NATRONA:   COUNTY
 STAT.            WYOMING:   STATE
 CTRY. UNITED STATES OF AMERICA:   COUNTRY
 SRVC.       SCHLUMBERGER:   SERVICE COMPANY
 DATE.        27-FEB-1953:   LOGDATE
 API .     49025064250000:   API NUMBER
~CURVE INFORMATION
#MNEM.UNIT       API CODE    CURVE DESCRIPTION
#----------   ------------   ------------------------------
 DEPT.F                  :   
 SPR .MV     01 010 01 00:   SPONTANEOUS POTENTIAL FROM RES.
 ASN .OHMM   01 041 16 00:   AMPLIFIED SHORT NORMAL 16"
 LAT .OHMM   01 070 00 00:   LATERAL
 LN  .OHMM   01 060 64 00:   LONG NORMAL 64"
 GRN .CPS    35 310 01 00:   GAMMA RAY
 NEUT.NAPI   35 330 01 00:   NEUTRON
~PARAMETER INFORMATION
#MNEM.UNIT          VALUE    DESCRIPTION
#----------   ------------   ------------------------------
 EKB .F            0.0000:   Kelly bushing
 EGL .F            0.0000:   Ground level
 EDF .F            0.0000:   Drilling floor
 EPD .F            0.0000:   Permanent datum
 TD  .F         5653.0000:   Total depth
 DATE.        27-FEB-1953:   Date logged
 CLNT.            A2DTECH:   Client Code
 DD  .F              5653:   Depth driller
 DL  .F              5653:   Depth logger
 BLI .F              5652:   Bottom log interval
 TLI .F               446:   Top log interval
 CBD1.F               445:   Casing driller 1
 CBL1.F               446:   Casing logger 1
 BS1 .IN                9:   Bit size
 BSD1.F              5653:   Depth drilled with bit1
 DFT .          LIMA/BASE:   Type fluid in hole
 DFD .                9.9:   Density
 DFV .                 43:   Viscosity
 RMS .OHMM            1.1:   Rm
 MST .F                55:   Rm Meas. temp.
 RMB .OHMM            .34:   Rm. at BHT
 BHT .F               166:   BHT.
 TCS .HRS               1:   Time Circ. stopped
 MRT .F               166:   Maximum recorded temp.
 LUN .                728:   Logging unit number
 LUL .               CSPR:   Logging unit location
 ENGI.            EVENSON:   Recorded By
 WITN.              MILLS:   Witnessed by
 ORIG.      1" 2.5" PRINT:   Origin of data
 UWI .     49025064250000:   Unique Well ID
 DICO. A2D TECHNOLOGIES, INC.:   Digitizing Company
~OTHER INFORMATION
~A  DEPTH      SPR        ASN        LAT         LN        GRN       NEUT
# ...
 5616.5000   -31.8556    40.7793   315.8753   125.0087    41.3766   723.7448
 5617.0000   -32.3446    40.2386   290.2923   124.9694    41.6228   708.7825
 5617.5000   -32.6233    40.1034   280.8448   124.9301    40.5657   701.3076
 5618.0000   -32.9009    39.9464   271.3908   124.8842    38.6146   676.3516
 5618.5000   -32.9065    40.1031   261.9433   126.2102    35.1943   671.3831
 5619.0000   -32.9133    40.7786   249.8077   126.1643    33.0124   733.9271
 5619.5000   -33.1911    41.5922   239.0161   126.1250    30.3533   758.9648
 5620.0000   -33.1978    42.6705   226.8739   126.0791    28.5995   761.5025
 5620.5000   -33.2046    43.8863   222.8028   126.0398    26.3457   762.2424
 5621.0000   -33.2114    44.6370   217.3875   126.0005    18.8419   769.0779
 5621.5000   -32.9471    45.2374   214.6605   125.9647    16.3382   794.1157
 5622.0000   -32.9539    45.6427   215.9657   125.9239    14.3344   824.1534
 5622.5000   -32.9417    45.6425   219.9525   125.8760    14.3306   871.6911
 5623.0000   -32.6958    45.6424   223.9589   125.8366    15.3268   934.2288
 5623.5000   -32.6348    45.6113   229.2898   124.4386    16.8237   936.7665
 5624.0000   -32.4390    45.1016   233.2767   124.3993    20.0693   931.7980
 5624.5000   -32.7178    44.5609   239.9583   122.9947    23.3161   923.9803
 5625.0000   -32.9946    43.4797   245.2957   122.9554    28.3123   909.3797
 5625.5000   -33.0014    42.2634   250.6331   120.1987    35.3086   901.9111
 5626.0000   -33.0081    41.0721   255.9706   118.8007    40.3048   901.9551
 5626.5000   -33.0152    39.8307   261.3080   117.4049    43.5510   851.9929
 5627.0000   -33.0217    38.4792   251.8476   115.9981    47.2979   792.0306
 5627.5000   -32.9558    37.6682   245.0882   113.2414    48.2941   727.0683
 5628.0000   -32.4606    36.9924   238.3289   113.2021    48.1047   642.1060
 5628.5000   -31.6876    36.4517   230.2255   111.8041    46.5359   592.1437
 5629.0000   -31.0127    36.3165   223.4597   111.7582    43.5321   567.1815
 5629.5000   -30.8213    36.4515   215.3563   113.0776    41.5283   544.7192
 5630.0000   -30.6223    36.5865   203.2206   113.0382    42.0246   529.7569
 5630.5000   -30.6301    36.9917   191.0850   115.7163    43.3032   512.2946
 5631.0000   -30.6377    37.7003   180.2934   117.0422    44.0170   492.3324
 5631.5000   -30.9146    38.7482   169.4953   121.0659    42.2632   482.3575
 5632.0000   -31.2683    39.5290   160.0478   122.3984    37.5094   492.4015
 5632.5000   -31.7415    40.7750   153.2885   127.7808    34.0057   509.9392
 5633.0000   -31.4782    42.3965   142.4969   130.4588    31.7380   492.4769
 5633.5000   -31.0734    44.9639   134.3935   134.7150    27.4981   482.5084
 5634.0000   -30.1364    47.2611   127.6277   139.4017    21.2443   492.5524
 5634.5000   -29.7099    48.2069   126.2447   143.9278    16.2406   540.0901
 5635.0000   -29.2312    49.1527   126.2058   149.3167    13.4868   607.6279
 5635.5000   -28.8704    50.6020   126.1694   153.3535    12.2336   625.1655
 5636.0000   -28.5378    54.0173   131.4978   158.7424    12.9798   602.7032
 5636.5000   -28.4325    55.4154   132.8160   162.3873    14.2267   595.2347
 5637.0000   -28.0079    57.1675   138.1405   167.1994    14.2783   632.7787
 5637.5000   -28.0149    58.5785   142.1404   173.5701    14.4688   682.8165
 5638.0000   -28.0706    60.9577   146.1272   178.9656    14.7154   717.8541
 5638.5000   -28.5708    62.1247   148.7830   187.0719    13.7110   703.3681
 5639.0000   -28.8484    62.5184   152.7634   192.4739    12.3340   642.9296
 5639.5000   -28.8550    63.8882   152.7245   197.8694    10.4534   656.6287
 5640.0000   -29.1337    65.5930   149.9974   203.2648     8.1996   683.0051
 5640.5000   -29.3472    67.5296   148.6144   208.6537     6.1958   679.8242
 5641.0000   -29.4173    67.5295   147.2249   214.0426     5.9421   653.0805
 5641.5000   -29.4245    68.8807   147.1860   218.0794     5.6553   632.9890
 5642.0000   -29.4310    70.0281   145.8031   223.4749     5.1845   618.1559
 5642.5000   -29.1677    71.7866   143.0760   230.2290     4.1807   608.1937
 5643.0000   -28.9022    73.1341   141.6865   235.6245     3.6770   620.7250
 5643.5000   -28.7868    73.9691   141.6476   241.0199     3.6738   650.7628
 5644.0000   -28.2363    75.6367   141.6088   246.4154     3.6694   700.8068
 5644.5000   -27.8388    75.6431   140.2258   251.8109     3.9169   750.8445
 5645.0000   -27.3861    76.9879   138.8363   258.5519     4.4125   778.3823
 5645.5000   -26.7683    78.3390   138.7974   263.9474     5.4081   800.9199
 5646.0000   -26.7217    78.4891   140.6626   273.4189     5.8876   805.9451
 5646.5000   -26.3649    80.1602   142.7584   280.1731     6.6511   785.9891
 5647.0000   -25.9756    82.3927   148.0958   289.6447     6.8980   773.5206
 5647.5000   -25.7106    83.7439   156.1085   296.3988     7.1442   773.5646
 5648.0000   -25.7194    83.7438   161.4459   300.4421     8.1404  -999.2500
 5648.5000   -25.7249    85.2501   168.1275   303.1071  -999.2500  -999.2500
 5649.0000   -25.4605    87.3390   173.4714   305.7917  -999.2500  -999.2500
 5649.5000   -25.3771    89.1488   184.1722   305.7459  -999.2500  -999.2500
 5650.0000   -25.2033    89.1486   189.5096   305.7000  -999.2500  -999.2500
 5650.5000   -25.2100    90.4999   194.8471   305.6607  -999.2500  -999.2500
 5651.0000   -24.9471    91.8511   196.1588   305.6214  -999.2500  -999.2500
 5651.5000   -24.9526    93.2023   200.1521   305.5820  -999.2500  -999.2500
 5652.0000   -24.9593    93.2022   200.1003   305.5361  -999.2500  -999.2500
 5652.5000   -24.9669    93.2020   201.4184   305.4969  -999.2500  -999.2500
 5653.0000   -24.7602    92.2838   201.3666   306.1796  -999.2500  -999.2500
 5653.5000   -24.7087    91.8504   201.3277   306.1595  -999.2500  -999.2500
 5654.0000   -24.7154    91.8503   199.9382   306.1394  -999.2500  -999.2500
 5654.5000   -24.7222    91.8501   199.8993   306.1193  -999.2500  -999.2500
 5655.0000   -24.7290    91.8500  -999.2500  -999.2500  -999.2500  -999.2500
 5655.5000   -24.7358    93.2012  -999.2500  -999.2500  -999.2500  -999.2500
 5656.0000   -24.7431    94.5524  -999.2500  -999.2500  -999.2500  -999.2500
 5656.5000   -24.7493    94.5523  -999.2500  -999.2500  -999.2500  -999.2500
 5657.0000   -24.7561    94.5522  -999.2500  -999.2500  -999.2500  -999.2500
 5657.5000   -24.9425    94.5520  -999.2500  -999.2500  -999.2500  -999.2500
 5658.0000   -25.3117    94.5519  -999.2500  -999.2500  -999.2500  -999.2500
 5658.5000   -25.3301    94.5517  -999.2500  -999.2500  -999.2500  -999.2500
 5659.0000   -25.5968    94.5516  -999.2500  -999.2500  -999.2500  -999.2500
 5659.5000   -25.6034    94.5515  -999.2500  -999.2500  -999.2500  -999.2500
 5660.0000   -25.7318    94.5514  -999.2500  -999.2500  -999.2500  -999.2500
 5660.5000   -25.8887    94.5512  -999.2500  -999.2500  -999.2500  -999.2500
 5661.0000   -25.8943    94.5511  -999.2500  -999.2500  -999.2500  -999.2500
 5661.5000  -999.2500    93.1996  -999.2500  -999.2500  -999.2500  -999.2500
 5662.0000  -999.2500    91.6324  -999.2500  -999.2500  -999.2500  -999.2500
 5662.5000  -999.2500    89.1453  -999.2500  -999.2500  -999.2500  -999.2500
 5663.0000  -999.2500    86.4424  -999.2500  -999.2500  -999.2500  -999.2500
