~VERSION INFORMATION
 VERS.                2.0:   CWLS LOG ASCII STANDARD - VERSION 2.0
 WRAP.                 NO:   ONE LINE PER DEPTH STEP
~WELL INFORMATION
#MNEM.UNIT      DATA TYPE    INFORMATION
#----------   ------------   ------------------------------
 STRT.F            5.5000:   START DEPTH
 STOP.F         3006.0000:   STOP DEPTH
 STEP.F            0.5000:   STEP LENGTH
 NULL.          -999.2500:   NO VALUE
 COMP.    FENIX & SCISSON:   COMPANY
 WELL.  FENIX "AX" #28-28:   WELL
 FLD .  TEAPOT DOME NPR-3:   FIELD
 LOC .      S28 T39N R78W:   LOCATION
 CNTY.            NATRONA:   COUNTY
 STAT.            WYOMING:   STATE
 CTRY. UNITED STATES OF AMERICA:   COUNTRY
 SRVC.           BIRDWELL:   SERVICE COMPANY
 DATE.        23-JAN-1980:   LOGDATE
 API .     49025107960000:   API NUMBER
~CURVE INFORMATION
#MNEM.UNIT       API CODE    CURVE DESCRIPTION
#----------   ------------   ------------------------------
 DEPT.F                  :   
 GRD .GAPI   45 310 01 00:   GAMMA RAY FROM DENSITY LOG
 CALD.IN     45 280 60 00:   CALIPER FROM DENSITY LOG
 DPHI.DEC    45 890 12 00:   DENSITY POROSITY SANDSTONE
 NPHI.DEC    42 890 03 00:   NEUTRON POROSITY SANDSTONE
 CORR.G/C3   45 356 01 00:   DENSITY CORRECTION
 SPR .MV     05 010 01 00:   SPONTANEOUS POTENTIAL FROM RES.
 ILD .OHMM   05 120 40 00:   INDUCTION LOG DEEP RESISTIVITY
 SN  .OHMM   05 040 16 00:   SHORT NORMAL 16"
~PARAMETER INFORMATION
#MNEM.UNIT          VALUE    DESCRIPTION
#----------   ------------   ------------------------------
 EKB .F         5120.0000:   Kelly bushing
 EGL .F         5110.0000:   Ground level
 EDF .F         5119.0000:   Drilling floor
 EPD .F         5110.0000:   Permanent datum
 TD  .F         3006.0000:   Total depth
 CLNT.            A2DTECH:   Client Code
 SL  . 600' FSL & 1300' FWL:   Surface Location
 PD  .                 GL:   Permanent Datum
 DAPD.F                 9:   Feet Above Permanent Datum
 DATE.        23-JAN-1980:   Date Logged [DD-MMM-YYYY]
 DD  .F              3006:   Depth driller
 DL  .F              3006:   Depth logger
 BLI .F              3006:   Bottom log interval
 TLI .F                10:   Top log interval
 CS1 .IN            8.625:   Casing size
 CBD1.      8.625" @ 440':   Casing driller 1
 CBL1.F               460:   Casing logger 1
 BS1 .IN            7.875:   Bit size
 BSD1.F              3006:   Depth drilled with bit1
 DFT .       GEL MUD FULL:   Type fluid in hole
 DFD .                  9:   Density
 DFV .                 46:   Viscosity
 DFPH.                 11:   pH
 DFL .               17.2:   Fluid loss
 MSS .           MUD TANK:   Source of sample
 RMS .OHMM            1.9:   Rm
 MST .F                60:   Rm Meas. temp.
 RMF .OHMM            .73:   Rmf
 MFST.F                62:   Rmf Meas. temp.
 MFSS.               MEAS:   Source Rmf.
 RMC .OHMM            .95:   Rmc
 MCST.F                62:   Rmc Meas. temp.
 TCS .HRS               5:   Time Circ. stopped
 MRT .F               110:   Maximum recorded temp.
 LUN .               3029:   Logging unit number
 LUL .             CASPER:   Logging unit location
 ENGI.           T. WOLFF:   Recorded By
 WITN.           DINSMORE:   Witnessed by
 ORIG.           5" PRINT:   Origin of data
 UWI .     49025107960000:   Unique Well ID
 DICO. A2D TECHNOLOGIES, INC.:   Digitizing Company
~OTHER INFORMATION
~A    DEPT      GRD      CALD       DPHI         NPHI     CORR        SPR        ILD         SN   
# ...
 1625.5000   104.9860     8.7911     0.2626     0.0537     0.0148   -37.4018     8.3812     8.7798
 1626.0000   109.1546     8.7929     0.2644     0.0551     0.0030   -37.2016     8.3866     8.7859
 1626.5000   109.4663     8.8541     0.2760     0.0653     0.0017   -37.1978     8.3931     8.7922
 1627.0000   109.0423     8.9151     0.2820     0.0607     0.0110   -37.0321     8.3373     8.7985
 1627.5000   109.3642     8.9169     0.2813     0.0586     0.0007   -36.9012     8.3439     8.7418
 1628.0000   112.7921     8.9187     0.2795     0.0663     0.0040   -37.2287     8.2309     8.6255
 1628.5000   113.1527     8.8318     0.2663     0.0606     0.0042   -37.8139     8.1194     8.5093
 1629.0000   111.2035     8.7742     0.2557     0.0630    -0.0001   -37.8190     8.0668     8.4532
 1629.5000   109.0017     8.7760     0.2422     0.0680     0.0047   -37.7912     7.9563     8.3393
 1630.0000   108.7259     8.7777     0.2334     0.0625     0.0111   -37.2430     7.7940     8.2858
 1630.5000   109.9319     8.7642     0.2304     0.0616     0.0006   -39.1487     7.6337     8.2931
 1631.0000   109.1971     8.7511     0.2309     0.0670     0.0070   -38.5523     7.5291     8.2384
 1631.5000   109.4253     8.7533     0.2342     0.0621     0.0102   -37.7756     7.4814     8.2454
 1632.0000   112.0722     8.7551     0.2422     0.0621     0.0044   -37.5751     7.4863     8.2514
 1632.5000   109.4261     8.7568     0.2470     0.0642    -0.0014   -37.0511     7.4910     8.2572
 1633.0000   105.8910     8.7586     0.2523     0.0728    -0.0102   -36.6096     7.4958     8.3222
 1633.5000   105.7582     8.7603     0.2577     0.0752    -0.0115   -37.5636     7.5006     8.3280
 1634.0000   109.3394     8.7621     0.2589     0.0697     0.0024   -37.0077     7.5064     8.2746
 1634.5000   112.6191     8.7638     0.2594     0.0571     0.0086   -35.8254     7.5649     8.3401
 1635.0000   115.6026     8.7656     0.2669     0.0598     0.0028   -35.8649     7.6239     8.3469
 1635.5000   115.7661     8.7674     0.2701     0.0636     0.0001   -36.7040     7.6287     8.3520
 1636.0000   107.0509     8.7691     0.2626     0.0648    -0.0027   -36.4445     7.7432     8.3579
 1636.5000   106.6219     8.7709     0.2370     0.0656    -0.0025   -36.6207     7.7481     8.3645
 1637.0000   106.7905     8.7731     0.2235     0.0683     0.0053   -36.9965     7.7530     8.3703
 1637.5000   102.9642     8.7748     0.2184     0.0645     0.0146   -37.0972     7.7579     8.3758
 1638.0000    99.8685     8.7766     0.2177     0.0543     0.0193   -37.0556     7.7628     8.3818
 1638.5000   100.1904     8.7783     0.2180     0.0553     0.0166   -37.0854     7.7677     8.3879
 1639.0000   104.9516     8.7801     0.2182     0.0624     0.0199   -37.1482     7.7172     8.3938
 1639.5000   106.0091     8.7818     0.2185     0.0597     0.0342   -37.2060     7.7222     8.3998
 1640.0000   111.8074     8.7836     0.2331     0.0432     0.0629   -37.2266     7.7824     8.4058
 1640.5000   111.8281     8.7853     0.2367     0.0458     0.0417   -37.2331     7.7874     8.4129
 1641.0000   107.3156     8.7574     0.2340     0.0566     0.0073   -37.0064     7.7924     8.4188
 1641.5000   105.9429     8.7147     0.2315     0.0724    -0.0015   -37.2493     7.7984     8.4238
 1642.0000   107.4500     8.7313     0.2395     0.0750     0.0002   -36.7973     7.8592     8.4306
 1642.5000   108.8038     8.7479     0.2503     0.0660     0.0050   -36.5912     7.9205     8.4962
 1643.0000   109.1155     8.7644     0.2565     0.0528     0.0127   -36.6646     7.9822     8.5638
 1643.5000   107.8027     8.7365     0.2622     0.0546     0.0160   -36.3546     8.0445     8.5698
 1644.0000   108.1246     8.7086     0.2562     0.0665    -0.0049   -36.9757     8.0495     8.6990
 1644.5000   113.3302     8.6807     0.2510     0.0683    -0.0031   -37.4777     8.0546     8.7051
 1645.0000   115.8692     8.7122     0.2528     0.0703     0.0061   -36.8274     8.0597     8.7736
 1645.5000   117.5193     8.7288     0.2500     0.0712     0.0004   -36.5795     8.1226     8.8426
 1646.0000   116.9472     8.7457     0.2467     0.0692    -0.0070   -36.7081     8.1277     8.8488
 1646.5000   112.9677     8.7475     0.2523     0.0651    -0.0037   -36.9830     8.1328     8.8634
 1647.0000   108.5438     8.7340     0.2538     0.0608     0.0026   -37.2522     8.1962     8.9262
 1647.5000   108.5642     8.7362     0.2541     0.0614     0.0058   -37.2484     8.2601     8.9964
 1648.0000   110.3625     8.7227     0.2594     0.0620     0.0030   -37.1816     8.2654     9.0027
 1648.5000   110.0867     8.6947     0.2624     0.0559     0.0068   -36.8190     8.2786     9.0090
 1649.0000   108.7738     8.6817     0.2626     0.0517     0.0096   -36.6580     8.3364     9.0153
 1649.5000   108.2017     8.6987     0.2635     0.0557     0.0038   -37.2164     8.3416     9.0216
 1650.0000   107.3333     8.6856     0.2652     0.0634     0.0026   -37.3678     8.3460     9.0164
 1650.5000   107.8331     8.6876     0.2655     0.0694    -0.0018   -37.5556     8.3514     9.0060
 1651.0000   108.5588     8.6748     0.2538     0.0753    -0.0045   -37.6502     8.4159     8.9956
 1651.5000   104.5840     8.6769     0.2234     0.0780    -0.0042   -37.4820     8.5416     8.9835
 1652.0000   109.0486     8.6492     0.2168     0.0771    -0.0025   -38.3275     8.6075     9.0541
 1652.5000   112.0317     8.6215     0.2276     0.0728    -0.0007   -37.8365     8.6739     9.1252
 1653.0000   111.4593     8.6241     0.2401     0.0728    -0.0005   -37.6035     8.6788     9.2628
 1653.5000   107.6276     8.6557     0.2455     0.0719     0.0033   -37.6010     8.7553     9.3356
 1654.0000   103.9440     8.6874     0.2428     0.0619     0.0076   -36.4473     8.8144     9.4090
 1654.5000   101.7420     8.7043     0.2394     0.0610    -0.0027   -36.8326     8.9461     9.5508
 1655.0000   102.6510     8.7063     0.2448     0.0640    -0.0070   -37.5139     9.0797     9.6949
 1655.5000    99.7132     8.7083     0.2460     0.0639    -0.0083   -37.4691     9.2153     9.7713
 1656.0000    98.5432     8.6955     0.2501     0.0597     0.0011   -36.0208     9.3529     9.9201
 1656.5000   104.1980     8.6832     0.2609     0.0555     0.0104   -36.4046     9.4926     9.9270
 1657.0000   109.5515     8.6699     0.2639     0.0638     0.0046   -36.9094     9.6343    10.0050
 1657.5000   112.0901     8.6724     0.2563     0.0740    -0.0014   -37.4120     9.6398    10.0119
 1658.0000   114.3325     8.6893     0.2410     0.0772    -0.0040   -37.9194     9.3749     9.7370
 1658.5000   119.9823     8.6759     0.2295     0.0727    -0.0036   -37.9147     9.1163     9.4697
 1659.0000   115.6647     8.6785     0.2271     0.0679     0.0057   -36.9435     8.8647     9.2096
 1659.5000   106.8374     8.6805     0.2265     0.0621     0.0089   -36.8168     8.6818     9.0855
 1660.0000   109.0848     8.6825     0.2289     0.0594     0.0062   -36.8887     8.6237     8.9630
 1660.5000   113.5494     8.6846     0.2336     0.0723     0.0033   -38.0618     8.5074     8.8437
 1661.0000   113.5696     8.6870     0.2372     0.0734     0.0036   -37.9168     8.4515     8.7245
 1661.5000   113.8860     8.6891     0.2333     0.0719     0.0069   -37.8809     8.3962     8.6670
 1662.0000   116.1284     8.6911     0.2299     0.0709     0.0041   -37.5922     8.4008     8.6745
 1662.5000   119.8523     8.6931     0.2388     0.0742     0.0029   -36.9756     8.2864     8.6173
 1663.0000   122.2430     8.6951     0.2581     0.0745     0.0047   -37.3872     8.1747     8.5620
 1663.5000   121.4120     8.6971     0.2697     0.0729     0.0080   -37.2546     8.1792     8.5694
 1664.0000   117.1030     8.6695     0.2748     0.0666     0.0233   -36.5509     8.0667     8.5754
 1664.5000   115.1972     8.6715     0.2724     0.0738     0.0085   -36.8554     8.0138     8.5815
 1665.0000   114.3234     8.6736     0.2675     0.0692     0.0027   -36.4546     8.0193     8.5888
 1665.5000   116.5708     8.6760     0.2639     0.0653     0.0044   -37.0413     8.0238     8.5322
