~VERSION INFORMATION
 VERS.                2.0:   CWLS LOG ASCII STANDARD - VERSION 2.0
 WRAP.                 NO:   ONE LINE PER DEPTH STEP
~WELL INFORMATION
#MNEM.UNIT      DATA TYPE    INFORMATION
#----------   ------------   ------------------------------
 STRT.F          200.0000:   START DEPTH
 STOP.F         2968.0000:   STOP DEPTH
 STEP.F            0.5000:   STEP LENGTH
 NULL.          -999.2500:   NO VALUE
 COMP. FENIX & SCISSON U.S. NAVY:   COMPANY
 WELL.   FENIX "A" #23-28:   WELL
 FLD .              NPR 3:   FIELD
 LOC .      S28 T39N R78W:   LOCATION
 CNTY.            NATRONA:   COUNTY
 STAT.            WYOMING:   STATE
 CTRY. UNITED STATES OF AMERICA:   COUNTRY
 SRVC.       SCHLUMBERGER:   SERVICE COMPANY
 DATE.        10-JUN-1977:   LOGDATE
 API .     49025103860000:   API NUMBER
~CURVE INFORMATION
#MNEM.UNIT       API CODE    CURVE DESCRIPTION
#----------   ------------   ------------------------------
 DEPT.F                  :   
 SPR .MV     07 010 01 00:   SPONTANEOUS POTENTIAL
 RILM.OHMM   07 120 44 00:   INDUCTION LOG MEDIUM RESISTIVITY
 RILD.OHMM   07 120 46 00:   DEEP INDUCTION RESISTIVITY
 LL8 .None   99 022 08 00:   LATEROLOG
 GRD .GAPI   45 310 01 00:   GAMMA RAY FROM DENSITY LOG
 CALD.IN     45 280 60 00:   CALIPER FROM DENSITY LOG
 RHOB.G/C3   45 350 01 00:   BULK DENSITY
 DRHO.G/C3   45 356 01 00:   DENSITY CORRECTION
~PARAMETER INFORMATION
#MNEM.UNIT          VALUE    DESCRIPTION
#----------   ------------   ------------------------------
 EKB .F         5019.0000:   Kelly bushing
 EGL .F         5009.0000:   Ground level
 EDF .F            0.0000:   Drilling floor
 EPD .F         5009.0000:   Permanent datum
 TD  .F         2971.0000:   Total depth
 DATE.        10-JUN-1977:   Date logged
 CLNT.            A2DTECH:   Client Code
 SL  . 1650' FNL & 990' FWL:   Surface Location
 DAPD.F                10:   Feet Above Permanent Datum
 DD  .F              2970:   Depth driller
 DL  .F              2971:   Depth logger
 BLI .F              2905:   Bottom log interval
 TLI .F               216:   Top log interval
 CS1 .IN            8.625:   Casing size
 CBD1.      9.625" @ 216':   Casing driller 1
 CBL1.F               216:   Casing logger 1
 BS1 .IN            7.875:   Bit size
 BSD1.F              2970:   Depth drilled with bit1
 DFT .            KCL MUD:   Type fluid in hole
 DFD .                8.8:   Density
 DFV .                 32:   Viscosity
 DFPH.                8.5:   pH
 DFL .                7.4:   Fluid loss
 MSS .               CIRC:   Source of sample
 RMS .OHMM           1.87:   Rm
 MST .F                85:   Rm Meas. temp.
 RMF .OHMM           1.69:   Rmf
 MFST.F                85:   Rmf Meas. temp.
 RMC .OHMM           2.80:   Rmc
 MCST.F                85:   Rmc Meas. temp.
 MFSS.               MEAS:   Source Rmf.
 MCSS.               CALC:   Source Rmc.
 RMB .OHMM           1.43:   Rm. at BHT
 BHT .F               111:   BHT.
 TCS .HRS            1600:   Time Circ. stopped
 TLAB.HRS            0945:   Time logger at bottom
 MRT .F               111:   Maximum recorded temp.
 LUN .               7711:   Logging unit number
 LUL .               CSPR:   Logging unit location
 ENGI.             SAYLER:   Recorded By
 WITN.         HARRINGTON:   Witnessed by
 ORIG.           5" PRINT:   Origin of data
 UWI .     49025103860000:   Unique Well ID
 DICO. A2D TECHNOLOGIES, INC.:   Digitizing Company
~OTHER INFORMATION
~A  DEPTH      SPR       RILM       RILD        LL8        GRD       CALD       RHOB       DRHO
# ...
  362.0000  -121.8760    11.0280     9.8170     9.0470   100.9430     9.4700     2.5120     0.0170
  362.5000  -121.9300    10.8260     9.6170     9.0310   100.9180     9.4690     2.4990     0.0070
  363.0000  -121.9840    10.5060     9.5160     9.0160   100.9990     9.4670     2.5060     0.0130
  363.5000  -122.0380    10.2200     9.4100     8.7260    99.6900     9.4650     2.5140     0.0200
  364.0000  -122.0910     9.8750     9.3030     8.3760    98.3390     9.4640     2.5150     0.0150
  364.5000  -122.1450     9.5290     9.0590     8.4400    98.9310     9.4620     2.5040     0.0080
  365.0000  -122.1990     9.2690     8.7480     8.5320   100.1190     9.4610     2.5090     0.0100
  365.5000  -122.2530     9.0850     8.4370     7.7450   100.3630     9.4590     2.5170     0.0170
  366.0000  -122.3070     8.7430     8.1260     7.2300   103.7630     9.4570     2.5110     0.0130
  366.5000  -122.3600     8.2930     7.8160     6.6970   103.6250     9.4560     2.5030     0.0080
  367.0000  -122.4130     7.8440     7.5050     6.5920   103.5910     9.4540     2.5200     0.0130
  367.5000  -122.4690     7.3630     7.3630     5.7460   104.2980     9.4570     2.5160     0.0050
  368.0000  -122.5340     8.4940     7.3860     5.0050   103.4080     9.4620     2.5090     0.0090
  368.5000  -122.0660    10.3520     7.4070     7.5110   102.1870     9.4680     2.5050     0.0110
  369.0000  -121.5450    10.2590     7.4280     9.9780   102.0740     9.4730     2.4980     0.0040
  369.5000  -121.4370    10.0700     7.9140     9.6530   102.7740     9.4840     2.4780    -0.0010
  370.0000  -121.1870    11.5210     8.6490     9.3550   101.2990     9.4960     2.4800     0.0050
  370.5000  -121.1890    11.7770     9.3850     9.4610   100.4850     9.5070     2.4830     0.0120
  371.0000  -121.2630    11.6690    10.1210     9.5570   100.6680     9.5100     2.4770     0.0110
  371.5000  -121.3010    12.6770    10.7720     9.6530   100.8560     9.4950     2.4550     0.0080
  372.0000  -120.7540    13.2750    10.9690     9.7500   100.1360     9.4790     2.4260     0.0260
  372.5000  -120.8150    12.9130    11.1440     9.8740    99.8910     9.5020     2.3970     0.0710
  373.0000  -120.8980    13.5010    11.0510    10.0230   100.5520     9.5640     2.3970     0.0420
  373.5000  -120.8870    13.3980    10.9200    10.1630    99.6890     9.9710     2.3770     0.0610
  374.0000  -120.7680    13.6720    10.7560    10.2310    97.7220    10.2860     2.3950     0.0320
  374.5000  -120.5210    14.0290    11.0420    10.2940    97.5140     9.3430     2.4490     0.0020
  375.0000  -120.1740    13.9320    11.0030    10.3570    98.6930     9.3310     2.5030     0.0130
  375.5000  -120.1100    13.6940    10.9100    10.4480   101.0550     9.3340     2.5140     0.0150
  376.0000  -120.0770    13.4560    10.8160    10.3930   103.2130     9.3320     2.5040     0.0120
  376.5000  -120.0420    13.1530    10.7230    10.2950   103.5140     9.3250     2.5070     0.0160
  377.0000  -120.0060    13.1790    10.6290    10.1980   103.8530     9.3180     2.5100     0.0180
  377.5000  -119.9710    13.2290    10.5450    10.0700   103.9990     9.3120     2.5070     0.0120
  378.0000  -119.9360    13.2790    10.5590    10.1080   103.5810     9.3070     2.5090     0.0060
  378.5000  -119.9180    13.3290    10.5890    10.1640   102.6390     9.3020     2.5100     0.0030
  379.0000  -119.9000    13.3790    10.6190    10.2200   100.5010     9.2970     2.5120     0.0080
  379.5000  -119.8800    13.6200    10.6490    10.2760    98.3510     9.2910     2.5200     0.0120
  380.0000  -119.8620    13.4800    10.6790    10.3320    96.1950     9.2860     2.5130     0.0100
  380.5000  -119.8430    13.0330    10.7090    10.3880    95.4020     9.2810     2.5030     0.0070
  381.0000  -119.8240    13.0330    10.7410    10.4480    97.6240     9.2760     2.5020     0.0030
  381.5000  -119.8040    12.6840    10.6530     9.9990    99.3030     9.2680     2.5000     0.0040
  382.0000  -119.7860    12.2180    10.5450     9.4410   100.2640     9.2600     2.5060     0.0090
  382.5000  -119.7680    11.4530    10.6260     9.7060    99.1720     9.2520     2.5010     0.0140
  383.0000  -119.7490    11.0470    10.1960     9.4330    97.7280     9.2440     2.4940     0.0160
  383.5000  -119.9480    10.5880     9.6710     8.8380    96.3010     9.2360     2.4970     0.0130
  384.0000  -120.3510    10.1300     9.1450     8.4530    95.1700     9.2290     2.5010     0.0190
  384.5000  -120.7280     9.6710     8.6200     8.1350    95.8430     9.2210     2.5040     0.0130
  385.0000  -120.7980     9.2120     8.0730     7.8220    96.4450     9.2160     2.5080     0.0160
  385.5000  -121.0950     8.6900     7.2050     7.5130    96.3350     9.2180     2.5100     0.0220
  386.0000  -121.3980     8.1370     6.3010     7.3100    96.3220     9.2200     2.5100     0.0250
  386.5000  -121.3120     7.5470     5.4830     7.0330    97.8270     9.2220     2.5050     0.0200
  387.0000  -121.5540     7.0520     4.6900     6.6480    98.6590     9.2240     2.5000     0.0130
  387.5000  -121.8000     6.6010     3.9670     6.2620    96.6790     9.2260     2.4950     0.0040
  388.0000  -121.9230     5.4120     3.2440     5.6830    95.1670     9.2290     2.4900     0.0080
  388.5000  -121.9240     4.0890     2.6400     5.0010    96.0930     9.2310     2.4860     0.0010
  389.0000  -121.9420     3.1400     2.4480     3.5110    96.6870     9.2330     2.4850     0.0070
  389.5000  -121.3890     2.4160     2.4150     2.9500    95.5260     9.2350     2.4990     0.0190
  390.0000  -120.7480     3.7870     2.3930     2.5060    94.4890     9.2330     2.5130     0.0060
  390.5000  -120.1030     5.3340     2.5970     3.3620    94.7270     9.2290     2.5240     0.0100
  391.0000  -119.5440     4.7170     3.1600     4.9780    95.3400     9.2240     2.5210     0.0090
  391.5000  -119.4520     6.4940     3.5460     6.5930    97.4360     9.2200     2.5160     0.0050
  392.0000  -119.3570     8.4530     3.8530     8.4530   100.7130     9.2160     2.5000     0.0100
  392.5000  -119.2590     8.4530     4.9620     6.9670    99.9430     9.2150     2.4840     0.0140
  393.0000  -119.1660     8.4530     6.2140     7.1120    99.0030     9.2150     2.4690     0.0110
  393.5000  -118.9020     9.3290     7.2460     7.4990    99.7390     9.2150     2.4500     0.0160
  394.0000  -118.5170    10.1980     7.3400     7.4310   100.8840     9.2150     2.4180     0.0180
  394.5000  -118.1290    10.9400     7.7070     7.6920   101.2870     9.2220     2.3670     0.0060
  395.0000  -117.8900    10.9400     8.2070     8.1640   100.8140     9.2350     2.3000     0.0110
  395.5000  -117.7600    11.0860     8.7060     8.4080    96.6210     9.2700     2.2650     0.0040
  396.0000  -117.4810    11.3510     9.2060     8.5600    92.5810     9.3440     2.2710     0.0380
  396.5000  -117.1790    11.7400     9.2690     8.8520    89.5590     9.4210     2.2370     0.0590
  397.0000  -116.8740    12.0730     9.2690     8.7710    89.0470     9.4170     2.2450     0.0680
  397.5000  -116.7650    11.7850     9.4010     9.0160    90.6500     9.7340     2.2700     0.0420
  398.0000  -116.8220    11.2830     9.5290     8.6110    92.7070     9.3670     2.3480     0.0120
  398.5000  -116.8940    10.7810     9.2690     8.4530    94.8170     9.0610     2.4250    -0.0010
  399.0000  -116.9810    10.3920     9.3400     8.5980    95.3710     9.0380     2.4860     0.0040
  399.5000  -116.6770    10.7410     9.1440     8.6850    95.7720     9.0370     2.4890     0.0080
  400.0000  -116.5190    10.5460     9.0160     8.7720    96.8160     9.0370     2.4940     0.0110
  400.5000  -116.3750    10.3520     9.5810     8.8520    98.6580     9.0380     2.4970     0.0080
  401.0000  -116.4560    10.7410     9.3810     8.7710   100.0040     9.0400     2.4900     0.0030
  401.5000  -116.5420    10.6930     9.1660     8.6110   100.2600     9.0420     2.4960     0.0020
  402.0000  -116.5040    10.5920     9.1000     8.6900    99.2500     9.0430     2.5020     0.0110
