~VERSION INFORMATION
 VERS.                2.0:   CWLS LOG ASCII STANDARD - VERSION 2.0
 WRAP.                 NO:   ONE LINE PER DEPTH STEP
~WELL INFORMATION
#MNEM.UNIT      DATA TYPE    INFORMATION
#----------   ------------   ------------------------------
 STRT.F          196.5000:   START DEPTH
 STOP.F         2376.0000:   STOP DEPTH
 STEP.F            0.5000:   STEP LENGTH
 NULL.          -999.2500:   NO VALUE
 COMP.    FENIX & SCISSON:   COMPANY
 WELL. FENIX & SCISSON NPR-3 #55-10:   WELL
 FLD .  TEAPOT DOME NPR-3:   FIELD
 LOC .      S10 T38N R78W:   LOCATION
 CNTY.            NATRONA:   COUNTY
 STAT.            WYOMING:   STATE
 CTRY. UNITED STATES OF AMERICA:   COUNTRY
 SRVC.           BIRDWELL:   SERVICE COMPANY
 DATE.        09-MAY-1979:   LOGDATE
 API .     49025107780000:   API NUMBER
~CURVE INFORMATION
#MNEM.UNIT       API CODE    CURVE DESCRIPTION
#----------   ------------   ------------------------------
 DEPT.F                  :   
 CALD.IN     45 280 60 00:   CALIPER FROM DENSITY LOG
 GRD .GAPI   45 310 01 00:   GAMMA RAY FROM DENSITY LOG
 RHOB.G/C3   45 350 01 00:   BULK DENSITY
 CORR.G/C3   45 356 01 00:   DENSITY CORRECTION
~PARAMETER INFORMATION
#MNEM.UNIT          VALUE    DESCRIPTION
#----------   ------------   ------------------------------
 EKB .F         5203.0000:   Kelly bushing
 EGL .F         5193.0000:   Ground level
 EDF .F            0.0000:   Drilling floor
 TD  .F         2376.0000:   Total depth
 CLNT.            A2DTECH:   Client Code
 SL  . 2283' FSL & 2107' FEL:   Surface Location
 PD  .                 GL:   Permanent Datum
 EPD .F              5193:   Elevation Permanent Datum
 LMF .                 KB:   Log Measured From
 DMF .                 KB:   Drilling Measured From
 DAPD.F                10:   Feet Above Permanent Datum
 DATE.        09-MAY-1979:   Date Logged [DD-MMM-YYYY]
 DD  .F              2360:   Depth driller
 DL  .F              2376:   Depth logger
 BLI .F              2376:   Bottom log interval
 TLI .F               196:   Top log interval
 CS1 .IN            9.625:   Casing size
 CBD1.             9.625":   Casing driller 1
 CBL1.F               545:   Casing logger 1
 BS1 .IN             8.75:   Bit size
 BSD1.F              2360:   Depth drilled with bit1
 DFT .                AIR:   Type fluid in hole
 TCS .HRS               3:   Time Circ. stopped
 LUN .               2959:   Logging unit number
 LUL .             CASPER:   Logging unit location
 ENGI.         B. ROLLINS:   Recorded By
 WITN.             RHODES:   Witnessed by
 ORIG.           5" PRINT:   Origin of data
 UWI .     49025107780000:   Unique Well ID
 DICO. A2D TECHNIOLOGIES,INC.:   Digitizing Company
~OTHER INFORMATION
~A  DEPTH     CALD        GRD       RHOB       CORR
# ...
 1145.5000     9.0559   124.1490     2.5863     0.1349
 1146.0000     9.0561   125.1805     2.5931     0.1636
 1146.5000     9.0412   122.2919     2.5712     0.1531
 1147.0000     9.0413   119.2798     2.5321     0.1003
 1147.5000     9.0415   117.1727     2.4954     0.0370
 1148.0000     9.0416   119.7412     2.4573    -0.0036
 1148.5000     9.0418   120.9523     2.4560    -0.0172
 1149.0000     9.0419   123.8225     2.4750    -0.0051
 1149.5000     9.0421   125.6369     2.5000     0.0266
 1150.0000     9.0573   123.3790     2.5182     0.0477
 1150.5000     9.0575   122.6282     2.5288     0.0554
 1151.0000     9.0576   122.7846     2.5333     0.0585
 1151.5000     9.0578   122.9398     2.5349     0.0629
 1152.0000     9.0579   121.5868     2.5235     0.0594
 1152.5000     9.0581   115.2564     2.5000     0.0434
 1153.0000     9.0431   113.1493     2.4675     0.0208
 1153.5000     9.0433   115.6192     2.4341    -0.0018
 1154.0000     9.0585   118.0735     2.4205    -0.0274
 1154.5000     9.0587   120.2528     2.4296    -0.0424
 1155.0000     9.0588   121.1622     2.4607    -0.0273
 1155.5000     9.0741   122.8258     2.5024     0.0013
 1156.0000     9.0742   122.9800     2.5278     0.0445
 1156.5000     9.0895   120.8739     2.5387     0.0536
 1157.0000     9.0896   120.1242     2.5236     0.0460
 1157.5000     9.0746   123.8994     2.5031     0.0430
 1158.0000     9.0899   127.9763     2.4971     0.0385
 1158.5000     9.0901   132.0531     2.5160     0.0384
 1159.0000     9.1204   130.8510     2.5123     0.0444
 1159.5000     9.1356   128.5930     2.5070     0.0625
 1160.0000     9.1358   125.4300     2.5214     0.0776
 1160.5000     9.1208   120.3063     2.5449     0.0791
 1161.0000     9.1059   121.0649     2.5526     0.0745
 1161.5000     9.0910   123.2021     2.5229     0.0655
 1162.0000     9.0760   125.2103     2.5176     0.0866
 1162.5000     9.0762   127.7149     2.5537     0.1423
 1163.0000     9.0612   127.2667     2.5863     0.2026
 1163.5000     9.0614   126.6690     2.6298     0.2388
 1164.0000     9.0616   123.0535     2.6229     0.2555
 1164.5000     9.0617   117.1756     2.5745     0.2437
 1165.0000     9.0619   117.3309     2.5389     0.2116
 1165.5000     9.0620   118.6928     2.5177     0.1694
 1166.0000     9.0622   125.3338     2.4980     0.1332
 1166.5000     9.0623   126.0913     2.4859     0.0804
 1167.0000     9.0625   125.3416     2.4730     0.0442
 1167.5000     9.0626   127.4588     2.4639     0.0140
 1168.0000     9.0628   128.4465     2.4518    -0.0116
 1168.5000     9.0629   126.2611     2.4478    -0.0207
 1169.0000     9.0631   124.4556     2.4654    -0.0162
 1169.5000     9.0632   122.7988     2.4848     0.0067
 1170.0000     9.0634   123.4488     2.5036     0.0155
 1170.5000     9.0786   125.6014     2.4685     0.0004
 1171.0000     9.0938   126.5850     2.4571    -0.0102
 1171.5000     9.1106   124.3281     2.4670    -0.0147
 1172.0000     9.1243   121.9187     2.5064    -0.0027
 1172.5000     9.1395   118.7557     2.5390     0.0229
 1173.0000     9.1397   116.7994     2.5602     0.0666
 1173.5000     9.1398   115.2931     2.5632     0.0983
 1174.0000     9.1400   117.0708     2.5481     0.0787
 1174.5000     9.1250   121.0714     2.5367     0.0726
 1175.0000     9.1101   119.4569     2.5239     0.0696
 1175.5000     9.0952   120.4428     2.5102     0.0711
 1176.0000     9.0802   122.7097     2.5012     0.0681
 1176.5000     9.0804   121.8092     2.4973     0.0605
 1177.0000     9.0806   117.1380     2.4849     0.0499
 1177.5000     9.0958   115.3325     2.4768     0.0379
 1178.0000     9.0959   112.7728     2.5178     0.0303
 1178.5000     9.1112   113.2298     2.5466     0.0876
 1179.0000     9.1113   113.5359     2.5694     0.1328
 1179.5000     9.1115   113.8421     2.5732     0.1494
 1180.0000     9.1116   113.9974     2.5512     0.1584
 1180.5000     9.1118   114.1527     2.5338     0.1599
 1181.0000     9.1092   114.4588     2.5035     0.1294
 1181.5000     9.0970   115.9715     2.4793     0.0909
 1182.0000     9.0820   118.8418     2.4512     0.0347
 1182.5000     9.0671   121.4104     2.4899     0.0076
 1183.0000     9.0673   123.6773     2.5300     0.0347
 1183.5000     9.0524   125.3434     2.5467     0.0528
 1184.0000     9.0374   124.2085     2.5362     0.0377
 1184.5000     9.0376   121.0563     2.5077     0.0120
 1185.0000     9.0226   119.0196     2.4725     0.0135
 1185.5000     8.9775   118.7225     2.4793     0.0120
 1186.0000     8.9475   119.1796     2.4998     0.0029
 1186.5000     8.9325   119.4857     2.5059     0.0074
 1187.0000     8.9478   119.9427     2.5066     0.0227
 1187.5000     8.9630   120.0979     2.5097     0.0320
 1188.0000     8.9934   116.9250     2.5180     0.0285
 1188.5000     9.0090   114.9513     2.4915     0.0104
 1189.0000     9.0238   115.8892     2.4680    -0.0032
 1189.5000     9.0391   119.6645     2.4567    -0.0153
 1190.0000     9.0694   122.5347     2.4695     0.0058
 1190.5000     9.0696   124.1983     2.5128     0.0345
 1191.0000     9.0697   124.9569     2.5492     0.0540
 1191.5000     9.0699   124.8105     2.5538     0.0618
 1192.0000     9.0851   123.0051     2.5325     0.0510
 1192.5000     9.0852   121.9537     2.5113     0.0374
 1193.0000     9.0854   123.3156     2.4961     0.0329
 1193.5000     9.1006   125.1301     2.4938     0.0509
 1194.0000     9.1008   126.0395     2.5219     0.0675
 1194.5000     9.1009   122.4241     2.5507     0.0841
 1195.0000     9.1161   119.7136     2.5613     0.1037
 1195.5000     9.1314   118.6623     2.5545     0.1127
 1196.0000     9.1315   118.3549     2.5401     0.0946
 1196.5000     9.1166   120.0287     2.5295     0.0842
 1197.0000     9.1017   123.0793     2.5257     0.0768
 1197.5000     9.0867   126.8752     2.5477     0.0699
 1198.0000     9.0718   129.1725     2.5820     0.0674
 1198.5000     9.0719   130.4816     2.6105     0.1245
 1199.0000     9.0721   128.6494     2.6318     0.1731
 1199.5000     9.0723   124.5815     2.6364     0.2000
 1200.0000     9.0423   121.8710     2.5758     0.1759
 1200.5000     9.0372   120.5180     2.5030     0.1276
 1201.0000     9.0310   120.9750     2.4765     0.0914
 1201.5000     9.0271   124.9010     2.4568     0.0326
 1202.0000     9.0121   127.6204     2.4690     0.0070
 1202.5000     9.0121   129.2840     2.4902     0.0130
 1203.0000     9.0121   131.0984     2.5031     0.0235
 1203.5000     9.0271   130.3488     2.5065     0.0115
 1204.0000     9.0573   126.3446     2.4826     0.0012
 1204.5000     9.0724   121.5823     2.4652    -0.0138
 1205.0000     9.0724   122.0363     2.4645    -0.0168
 1205.5000     9.0422   122.6411     2.4877    -0.0015
 1206.0000     9.0271   123.2459     2.5054     0.0121
 1206.5000     9.0121   123.6999     2.5160     0.0197
 1207.0000     9.0121   129.4329     2.5092     0.0288
 1207.5000     9.0121   132.3255     2.5001     0.0376
 1208.0000     9.0121   135.0524     2.4910     0.0392
 1208.5000     9.0282   136.8471     2.4880     0.0271
 1209.0000     9.0573   135.4395     2.5062     0.0317
 1209.5000     9.0724   127.3291     2.5236     0.0438
 1210.0000     9.0724   125.3698     2.5426     0.0499
 1210.5000     9.0724   124.6171     2.5297     0.0348
 1211.0000     9.0724   124.4193     2.4994     0.0137
 1211.5000     9.0724   126.4301     2.4911     0.0032
 1212.0000     9.0875   127.3365     2.5093     0.0364
 1212.5000     9.1026   126.2822     2.5216     0.0500
 1213.0000     9.1327   125.6800     2.5285     0.0561
 1213.5000     9.1478   126.2852     2.5229     0.0651
 1214.0000     9.1629   126.4375     2.5161     0.0697
 1214.5000     9.1478   124.9307     2.5086     0.0727
 1215.0000     9.1026   123.4236     2.5063     0.0682
 1215.5000     9.0724   123.2742     2.5116     0.0683
 1216.0000     9.0724   124.4827     2.5336     0.0743
 1216.5000     9.0422   126.9547     2.5578     0.1015
 1217.0000     9.0422   125.3907     2.5765     0.1332
 1217.5000     9.0422   123.7330     2.5947     0.1679
 1218.0000     9.0422   124.9433     2.6061     0.1996
