~VERSION INFORMATION
 VERS.                2.0:   CWLS LOG ASCII STANDARD - VERSION 2.0
 WRAP.                 NO:   ONE LINE PER DEPTH STEP
~WELL INFORMATION
#MNEM.UNIT      DATA TYPE    INFORMATION
#----------   ------------   ------------------------------
 STRT.F           48.5000:   START DEPTH
 STOP.F         3509.0000:   STOP DEPTH
 STEP.F            0.5000:   STEP LENGTH
 NULL.          -999.2500:   NO VALUE
 COMP.   TESORO PETROLEUM:   COMPANY
 WELL. TESORO "TX" #45-33:   WELL
 FLD .        TEAPOT DOME:   FIELD
 LOC .      S33 T39N R78W:   LOCATION
 CNTY.            NATRONA:   COUNTY
 STAT.            WYOMING:   STATE
 CTRY. UNITED STATES OF AMERICA:   COUNTRY
 SRVC.      DRESSER ATLAS:   SERVICE COMPANY
 DATE.        03-OCT-1976:   LOGDATE
 API .     49025102700000:   API NUMBER
~CURVE INFORMATION
#MNEM.UNIT       API CODE    CURVE DESCRIPTION
#----------   ------------   ------------------------------
 DEPT.F                  :   
 SPR .MV     07 010 01 00:   SPONTANEOUS POTENTIAL
 TENR.LBS    07 635 01 00:   TENSION FROM RESISTIVITY
 SFL .OHMM   07 220 01 00:   SHALLOW FOCUSED LOG RESISTIVITY
 ILM .OHMM   07 120 44 00:   INDUCTION LOG MEDIUM RESISTIVITY
 ILD .OHMM   07 120 46 00:   DEEP INDUCTION RESISTIVITY
 GRD .GAPI   45 310 01 00:   GAMMA RAY FROM DENSITY LOG
 CALD.IN     45 280 60 00:   CALIPER FROM DENSITY LOG
 NPHI.DEC    42 890 03 00:   NEUTRON POROSITY SANDSTONE
 DPHI.DEC    45 890 12 00:   DENSITY POROSITY SANDSTONE
 TEND.LBS    45 635 01 00:   TENSION FROM DENSITY LOG
~PARAMETER INFORMATION
#MNEM.UNIT          VALUE    DESCRIPTION
#----------   ------------   ------------------------------
 EKB .F         5217.0000:   Kelly bushing
 EGL .F         5206.0000:   Ground level
 EDF .F         5216.0000:   Drilling floor
 EPD .F         5206.0000:   Permanent datum
 TD  .F         3491.0000:   Total depth
 DATE.        03-OCT-1976:   Date logged
 CLNT.            A2DTECH:   Client Code
 SL  . 2030' FWL & 2145' FSL:   Surface Location
 PD  .                 GL:   Permanent Datum
 DD  .F              3491:   Depth driller
 DL  .F              3487:   Depth logger
 BLI .F              3485:   Bottom log interval
 TLI .F               813:   Top log interval
 CS1 .IN            8.625:   Casing size
 CBD1.      8.625" @ 823':   Casing driller 1
 CBL1.F               819:   Casing logger 1
 BS1 .IN            7.875:   Bit size
 BSD1.F              3491:   Depth drilled with bit1
 DFT .           CHEM GEL:   Type fluid in hole
 DFD .                9.4:   Density
 DFV .                 47:   Viscosity
 DFPH.                 10:   pH
 DFL .                5.8:   Fluid loss
 MSS .           FLOWLINE:   Source of sample
 RMS .OHMM           1.09:   Rm
 MST .F                68:   Rm Meas. temp.
 RMF .OHMM              1:   Rmf
 MFST.F                68:   Rmf Meas. temp.
 RMC .OHMM           1.24:   Rmc
 MCST.F                68:   Rmc Meas. temp.
 MFSS.               MEAS:   Source Rmf.
 MCSS.               MEAS:   Source Rmc.
 RMB .OHMM            .62:   Rm. at BHT
 BHT .F               119:   BHT.
 TCS .HRS              12:   Time Circ. stopped
 MRT .F               119:   Maximum recorded temp.
 LUN .               6134:   Logging unit number
 LUL .              GLTTE:   Logging unit location
 ENGI.            VAUGHIN:   Recorded By
 WITN.        WOLF-CARTER:   Witnessed by
 ORIG.     2.5", 5" PRINT:   Origin of data
 UWI .     49025102700000:   Unique Well ID
 DICO. A2D TECHNOLOGIES, INC.:   Digitizing Company
 DAPD.                 11:   Feet Above Permanent Datum
~OTHER INFORMATION
~A   DEPT      SPR        TENR       SFL        ILM        ILD        GRD       CALD       NPHI       DPHI       TEND   
# ...
  316.5000   -30.3150   140.0000     6.6370     5.6220     5.2330  -999.2500  -999.2500  -999.2500  -999.2500  -999.2500
  317.0000   -30.4770   140.0000     6.5620     5.7050     5.3200  -999.2500  -999.2500  -999.2500  -999.2500  -999.2500
  317.5000   -30.9850   140.0000     6.6000     5.7880     5.4080  -999.2500  -999.2500  -999.2500  -999.2500  -999.2500
  318.0000   -31.6090   140.0000     6.6470     5.8710     5.4950  -999.2500  -999.2500  -999.2500  -999.2500  -999.2500
  318.5000   -32.2610   140.0000     6.6940     5.9540     5.5820  -999.2500  -999.2500  -999.2500  -999.2500  -999.2500
  319.0000   -32.4010   140.0000     6.7410     6.0370     5.6690  -999.2500  -999.2500  -999.2500  -999.2500  -999.2500
  319.5000   -32.2220   140.0000     6.7890     6.1200     5.7570  -999.2500  -999.2500  -999.2500  -999.2500  -999.2500
  320.0000   -32.0860   140.0000     6.8360     6.2030     5.8440  -999.2500  -999.2500  -999.2500  -999.2500  -999.2500
  320.5000   -31.9440   140.0000     6.8830     6.2860     5.9310  -999.2500  -999.2500  -999.2500  -999.2500  -999.2500
  321.0000   -31.7930   140.0000     6.9300     6.3690     6.0190  -999.2500  -999.2500  -999.2500  -999.2500  -999.2500
  321.5000   -31.6770   140.0000     6.9770     6.4420     6.0960  -999.2500  -999.2500  -999.2500  -999.2500  -999.2500
  322.0000   -31.4860   140.0000     7.0240     6.4420     6.0420  -999.2500  -999.2500  -999.2500  -999.2500  -999.2500
  322.5000   -31.2080   140.0000     7.0710     6.3650     5.9930  -999.2500  -999.2500  -999.2500  -999.2500  -999.2500
  323.0000   -30.9480   140.0000     7.1180     6.2830     5.9450  -999.2500  -999.2500  -999.2500  -999.2500  -999.2500
  323.5000   -30.6690   140.0000     7.1950     6.2000     5.8960  -999.2500  -999.2500  -999.2500  -999.2500  -999.2500
  324.0000   -30.4170   140.0000     7.1580     6.1170     5.8480  -999.2500  -999.2500  -999.2500  -999.2500  -999.2500
  324.5000   -30.1160   140.0000     7.0590     6.0340     5.7990  -999.2500  -999.2500  -999.2500  -999.2500  -999.2500
  325.0000   -30.2850   140.0000     6.9590     5.9520     5.7510  -999.2500  -999.2500  -999.2500  -999.2500  -999.2500
  325.5000   -30.5450   140.0000     6.8600     5.8690     5.7030  -999.2500  -999.2500  -999.2500  -999.2500  -999.2500
  326.0000   -30.8110   140.0000     6.7600     5.7860     5.6540  -999.2500  -999.2500  -999.2500  -999.2500  -999.2500
  326.5000   -31.0650   140.0000     6.7030     5.7040     5.6060  -999.2500  -999.2500  -999.2500  -999.2500  -999.2500
  327.0000   -31.3280   140.0000     6.7840     5.6210     5.5590  -999.2500  -999.2500  -999.2500  -999.2500  -999.2500
  327.5000   -31.5850   140.0000     6.8640     5.5590     5.6670  -999.2500  -999.2500  -999.2500  -999.2500  -999.2500
  328.0000   -31.8460   140.0000     6.9450     5.7640     5.8330  -999.2500  -999.2500  -999.2500  -999.2500  -999.2500
  328.5000   -32.1040   140.0000     7.0260     6.0020     5.9990  -999.2500  -999.2500  -999.2500  -999.2500  -999.2500
  329.0000   -32.3640   140.0000     7.1070     6.2400     6.1650  -999.2500  -999.2500  -999.2500  -999.2500  -999.2500
  329.5000   -32.6280   140.0000     7.1950     6.4780     6.3300  -999.2500  -999.2500  -999.2500  -999.2500  -999.2500
  330.0000   -32.8740   140.0000     7.3290     6.7160     6.4960  -999.2500  -999.2500  -999.2500  -999.2500  -999.2500
  330.5000   -33.1700   140.0000     7.4770     7.0640     6.6620  -999.2500  -999.2500  -999.2500  -999.2500  -999.2500
  331.0000   -33.0850   140.0000     7.7450     7.0540     6.8270  -999.2500  -999.2500  -999.2500  -999.2500  -999.2500
  331.5000   -32.6220   140.0000     7.7230     7.0360     6.9350  -999.2500  -999.2500  -999.2500  -999.2500  -999.2500
  332.0000   -32.4850   140.0000     7.6590     7.0180     6.9350  -999.2500  -999.2500  -999.2500  -999.2500  -999.2500
  332.5000   -32.5640   140.0000     7.5950     7.0000     6.9350  -999.2500  -999.2500  -999.2500  -999.2500  -999.2500
  333.0000   -32.6110   140.0000     7.5310     6.9830     6.9110  -999.2500  -999.2500  -999.2500  -999.2500  -999.2500
  333.5000   -32.6700   140.0000     7.4670     6.9650     6.8710  -999.2500  -999.2500  -999.2500  -999.2500  -999.2500
  334.0000   -32.7260   140.0000     7.4030     6.9470     6.8310  -999.2500  -999.2500  -999.2500  -999.2500  -999.2500
  334.5000   -32.7790   140.0000     7.3400     6.9290     6.7760  -999.2500  -999.2500  -999.2500  -999.2500  -999.2500
  335.0000   -32.8450   140.0000     7.2760     6.9110     6.6980  -999.2500  -999.2500  -999.2500  -999.2500  -999.2500
  335.5000   -32.8180   140.0000     7.2120     6.8930     6.6210  -999.2500  -999.2500  -999.2500  -999.2500  -999.2500
  336.0000   -32.6830   140.0000     7.1480     6.8750     6.5440  -999.2500  -999.2500  -999.2500  -999.2500  -999.2500
  336.5000   -32.5600   140.0000     7.0640     6.8580     6.4670  -999.2500  -999.2500  -999.2500  -999.2500  -999.2500
  337.0000   -32.4360   140.0000     7.0710     6.8400     6.4420  -999.2500  -999.2500  -999.2500  -999.2500  -999.2500
  337.5000   -32.3080   140.0000     7.0820     6.8220     6.4420  -999.2500  -999.2500  -999.2500  -999.2500  -999.2500
  338.0000   -32.1840   140.0000     7.0930     6.8040     6.4420  -999.2500  -999.2500  -999.2500  -999.2500  -999.2500
  338.5000   -32.0860   140.0000     7.1040     6.7860     6.4420  -999.2500  -999.2500  -999.2500  -999.2500  -999.2500
  339.0000   -32.1810   140.0000     7.1150     6.7680     6.4420  -999.2500  -999.2500  -999.2500  -999.2500  -999.2500
  339.5000   -32.2640   140.0000     7.1260     6.7500     6.4420  -999.2500  -999.2500  -999.2500  -999.2500  -999.2500
  340.0000   -32.3640   140.0000     7.1380     6.7320     6.4420  -999.2500  -999.2500  -999.2500  -999.2500  -999.2500
  340.5000   -32.4570   140.0000     7.1490     6.7150     6.4280  -999.2500  -999.2500  -999.2500  -999.2500  -999.2500
  341.0000   -32.7740   140.0000     7.1600     6.6970     6.4150  -999.2500  -999.2500  -999.2500  -999.2500  -999.2500
  341.5000   -33.1930   140.0000     7.1710     6.6790     6.4000  -999.2500  -999.2500  -999.2500  -999.2500  -999.2500
  342.0000   -33.5790   140.0000     7.1810     6.6610     6.3860  -999.2500  -999.2500  -999.2500  -999.2500  -999.2500
  342.5000   -34.0220   140.0000     7.1940     6.6430     6.3720  -999.2500  -999.2500  -999.2500  -999.2500  -999.2500
  343.0000   -34.0620   140.0000     7.1800     6.6250     6.3570  -999.2500  -999.2500  -999.2500  -999.2500  -999.2500
  343.5000   -34.0460   140.0000     7.1620     6.6070     6.3440  -999.2500  -999.2500  -999.2500  -999.2500  -999.2500
  344.0000   -33.9530   140.0000     7.1430     6.5890     6.3290  -999.2500  -999.2500  -999.2500  -999.2500  -999.2500
  344.5000   -33.8770   140.0000     7.1240     6.5720     6.2760  -999.2500  -999.2500  -999.2500  -999.2500  -999.2500
  345.0000   -33.7940   140.0000     7.1060     6.5540     6.2020  -999.2500  -999.2500  -999.2500  -999.2500  -999.2500
  345.5000   -33.6980   140.0000     7.0880     6.5360     6.1270  -999.2500  -999.2500  -999.2500  -999.2500  -999.2500
  346.0000   -33.7410   140.0000     7.0650     6.5180     6.0530  -999.2500  -999.2500  -999.2500  -999.2500  -999.2500
  346.5000   -33.9220   140.0000     7.0700     6.5000     5.9790  -999.2500  -999.2500  -999.2500  -999.2500  -999.2500
  347.0000   -34.0670   140.0000     7.0810     6.4820     5.9050  -999.2500  -999.2500  -999.2500  -999.2500  -999.2500
  347.5000   -34.0450   140.0000     7.0910     6.4640     5.8310  -999.2500  -999.2500  -999.2500  -999.2500  -999.2500
  348.0000   -34.2780   140.0000     7.1010     6.4470     5.7680  -999.2500  -999.2500  -999.2500  -999.2500  -999.2500
  348.5000   -34.7280   140.0000     7.1110     6.4040     5.7830  -999.2500  -999.2500  -999.2500  -999.2500  -999.2500
  349.0000   -35.1450   140.0000     7.1210     6.3530     5.7960  -999.2500  -999.2500  -999.2500  -999.2500  -999.2500
  349.5000   -35.5690   140.0000     7.1310     6.3200     5.8090  -999.2500  -999.2500  -999.2500  -999.2500  -999.2500
