~VERSION INFORMATION
 VERS.                2.0:   CWLS LOG ASCII STANDARD - VERSION 2.0
 WRAP.                 NO:   ONE LINE PER DEPTH STEP
~WELL INFORMATION
#MNEM.UNIT      DATA TYPE    INFORMATION
#----------   ------------   ------------------------------
 STRT.F           42.0000:   START DEPTH
 STOP.F         2778.0000:   STOP DEPTH
 STEP.F            0.5000:   STEP LENGTH
 NULL.          -999.2500:   NO VALUE
 COMP.    FENIX & SCISSON:   COMPANY
 WELL. FENIX & SCISSON SHX #56-23:   WELL
 FLD .        TEAPOT DOME:   FIELD
 LOC .      S23 T38N R78W:   LOCATION
 CNTY.            NATRONA:   COUNTY
 STAT.            WYOMING:   STATE
 CTRY. UNITED STATES OF AMERICA:   COUNTRY
 SRVC.           BIRDWELL:   SERVICE COMPANY
 DATE.        29-AUG-1979:   LOGDATE
 API .     49025107920000:   API NUMBER
~CURVE INFORMATION
#MNEM.UNIT       API CODE    CURVE DESCRIPTION
#----------   ------------   ------------------------------
 DEPT.F                  :   
 GRD .GAPI   45 310 01 00:   GAMMA RAY FROM DENSITY LOG
 CALD.IN     45 280 60 00:   CALIPER FROM DENSITY LOG
 RHOB.G/C3   45 350 01 00:   BULK DENSITY
 CORR.G/C3   45 356 01 00:   DENSITY CORRECTION
 ILD .OHMM   07 120 46 00:   DEEP INDUCTION RESISTIVITY
 SFL .OHMM   07 220 01 00:   SHALLOW FOCUSED LOG RESISTIVITY
 SPR .MV     07 010 01 00:   SPONTANEOUS POTENTIAL
~PARAMETER INFORMATION
#MNEM.UNIT          VALUE    DESCRIPTION
#----------   ------------   ------------------------------
 EKB .F         5361.0000:   Kelly bushing
 EGL .F         5351.0000:   Ground level
 EDF .F         5360.0000:   Drilling floor
 TD  .F         1465.0000:   Total depth
 DATE.        29-AUG-1979:   Date logged
 CLNT.            A2DTECH:   Client Code
 PD  .                 GL:   Permanent Datum
 EPD .F              5351:   Elevation Permanent Datum
 LMF .                 KB:   Log Measured From
 DMF .                 KB:   Drilling Measured From
 DAPD.F                 9:   Feet Above Permanent Datum
 DD  .F              1465:   Depth driller
 DL  .F              1462:   Depth logger
 BLI .F              1457:   Bottom log interval
 TLI .F                40:   Top log interval
 CBD1.F                40:   Casing driller 1
 CBL1.F                40:   Casing logger 1
 BS1 .IN            12.25:   Bit size
 BSD1.F              1465:   Depth drilled with bit1
 DFT .            GEL/MUD:   Type fluid in hole
 DFD .                9.5:   Density
 DFV .                 40:   Viscosity
 DFPH.                9.0:   pH
 DFL .                 40:   Fluid loss
 MSS .            MUD PIT:   Source of sample
 RMS .OHMM            2.6:   Rm
 MST .F                68:   Rm Meas. temp.
 RMF .OHMM            1.8:   Rmf
 MFST.F                78:   Rmf Meas. temp.
 RMC .OHMM            2.8:   Rmc
 MCST.F                76:   Rmc Meas. temp.
 MFSS.               MEAS:   Source Rmf.
 MCSS.               MEAS:   Source Rmc.
 RMB .OHMM           1.96:   Rm. at BHT
 BHT .F                90:   BHT.
 TCS .HRS               5:   Time Circ. stopped
 MRT .F                90:   Maximum recorded temp.
 LUN .               2959:   Logging unit number
 LUL .             CASPER:   Logging unit location
 ENGI.         B. ROLLINS:   Recorded By
 WITN.              AMEND:   Witnessed by
 ORIG.           5" PRINT:   Origin of data
 UWI .     49025107920000:   Unique Well ID
 DICO. A2D TECHNOLOGIES, INC.:   Digitizing Company
~OTHER INFORMATION
~A   DEPT       GRD      CALD       RHOB         CORR      ILD        SFL         SPR  
# ...
 2135.0000   153.9590    10.6210     2.5220     0.4870  -999.2500  -999.2500  -999.2500
 2135.5000   153.2190    10.6790     2.5570     0.4810  -999.2500  -999.2500  -999.2500
 2136.0000   149.5720    10.6970     2.5120     0.4460  -999.2500  -999.2500  -999.2500
 2136.5000   145.5790    10.6240     2.4710     0.4150  -999.2500  -999.2500  -999.2500
 2137.0000   142.6270    10.5520     2.4520     0.4360  -999.2500  -999.2500  -999.2500
 2137.5000   142.4130    10.4800     2.5070     0.4830  -999.2500  -999.2500  -999.2500
 2138.0000   144.7270    10.3990     2.5790     0.5000  -999.2500  -999.2500  -999.2500
 2138.5000   145.5370    10.3550     2.6070     0.4930  -999.2500  -999.2500  -999.2500
 2139.0000   146.0580    10.3690     2.5620     0.4780  -999.2500  -999.2500  -999.2500
 2139.5000   148.6210    10.3980     2.5680     0.4730  -999.2500  -999.2500  -999.2500
 2140.0000   151.1130    10.4430     2.5870     0.4720  -999.2500  -999.2500  -999.2500
 2140.5000   150.5130    10.5550     2.5700     0.4550  -999.2500  -999.2500  -999.2500
 2141.0000   148.3740    10.6340     2.5340     0.4330  -999.2500  -999.2500  -999.2500
 2141.5000   148.3960    10.7260     2.4940     0.4250  -999.2500  -999.2500  -999.2500
 2142.0000   144.5620    10.8190     2.4870     0.4200  -999.2500  -999.2500  -999.2500
 2142.5000   144.1440    10.9060     2.4950     0.4280  -999.2500  -999.2500  -999.2500
 2143.0000   146.2220    10.9840     2.5050     0.4300  -999.2500  -999.2500  -999.2500
 2143.5000   148.6410    10.8930     2.5040     0.4590  -999.2500  -999.2500  -999.2500
 2144.0000   149.1470    10.8010     2.4920     0.4730  -999.2500  -999.2500  -999.2500
 2144.5000   150.0880    10.7120     2.5050     0.4830  -999.2500  -999.2500  -999.2500
 2145.0000   151.0610    10.6730     2.5460     0.4910  -999.2500  -999.2500  -999.2500
 2145.5000   153.2960    10.6530     2.5560     0.4730  -999.2500  -999.2500  -999.2500
 2146.0000   156.2950    10.6260     2.5430     0.4520  -999.2500  -999.2500  -999.2500
 2146.5000   159.8500    10.6000     2.5360     0.4290  -999.2500  -999.2500  -999.2500
 2147.0000   159.3890    10.5740     2.5240     0.4120  -999.2500  -999.2500  -999.2500
 2147.5000   158.5650    10.5500     2.5500     0.4070  -999.2500  -999.2500  -999.2500
 2148.0000   157.8600    10.5180     2.6320     0.4010  -999.2500  -999.2500  -999.2500
 2148.5000   156.0760    10.5480     2.6140     0.3810  -999.2500  -999.2500  -999.2500
 2149.0000   153.9120    10.5870     2.5620     0.3530  -999.2500  -999.2500  -999.2500
 2149.5000   151.5340    10.6350     2.5650     0.3580  -999.2500  -999.2500  -999.2500
 2150.0000   151.3050    10.6990     2.5630     0.3670  -999.2500  -999.2500  -999.2500
 2150.5000   152.3940    10.7580     2.5500     0.3900  -999.2500  -999.2500  -999.2500
 2151.0000   153.0010    10.8180     2.5380     0.4090  -999.2500  -999.2500  -999.2500
 2151.5000   150.4740    10.8780     2.5350     0.4290  -999.2500  -999.2500  -999.2500
 2152.0000   148.5440    10.9380     2.5470     0.4580  -999.2500  -999.2500  -999.2500
 2152.5000   146.3060    10.9970     2.5240     0.4520  -999.2500  -999.2500  -999.2500
 2153.0000   149.6360    11.0570     2.4550     0.4440  -999.2500  -999.2500  -999.2500
 2153.5000   150.8990    11.0760     2.4500     0.4400  -999.2500  -999.2500  -999.2500
 2154.0000   151.4590    11.0770     2.4550     0.4460  -999.2500  -999.2500  -999.2500
 2154.5000   153.8730    11.0460     2.5040     0.4560  -999.2500  -999.2500  -999.2500
 2155.0000   156.0650    10.9370     2.5490     0.4660  -999.2500  -999.2500  -999.2500
 2155.5000   153.4600    10.8310     2.6050     0.4710  -999.2500  -999.2500  -999.2500
 2156.0000   153.2420    10.7180     2.5960     0.4670  -999.2500  -999.2500  -999.2500
 2156.5000   154.3320    10.6740     2.5610     0.4550  -999.2500  -999.2500  -999.2500
 2157.0000   151.0690    10.6780     2.5230     0.4150  -999.2500  -999.2500  -999.2500
 2157.5000   145.7110    10.6860     2.5060     0.3870  -999.2500  -999.2500  -999.2500
 2158.0000   143.1280    10.7050     2.5190     0.3870  -999.2500  -999.2500  -999.2500
 2158.5000   144.3980    10.7240     2.5420     0.3820  -999.2500  -999.2500  -999.2500
 2159.0000   148.8580    10.7390     2.5810     0.3840  -999.2500  -999.2500  -999.2500
 2159.5000   147.8330    10.7610     2.6140     0.3920  -999.2500  -999.2500  -999.2500
 2160.0000   144.0570    10.7080     2.6400     0.3960  -999.2500  -999.2500  -999.2500
 2160.5000   138.3210    10.6170     2.5700     0.3470  -999.2500  -999.2500  -999.2500
 2161.0000   136.2470    10.5500     2.5120     0.3410  -999.2500  -999.2500  -999.2500
 2161.5000   138.9900    10.5150     2.4670     0.3490  -999.2500  -999.2500  -999.2500
 2162.0000   143.5010    10.5200     2.4530     0.3600  -999.2500  -999.2500  -999.2500
 2162.5000   145.7090    10.5170     2.5040     0.4260  -999.2500  -999.2500  -999.2500
 2163.0000   144.2500    10.5290     2.5400     0.4640  -999.2500  -999.2500  -999.2500
 2163.5000   144.0620    10.5500     2.5370     0.4500  -999.2500  -999.2500  -999.2500
 2164.0000   150.5970    10.5690     2.5360     0.4600  -999.2500  -999.2500  -999.2500
 2164.5000   157.7630    10.5880     2.5350     0.4850  -999.2500  -999.2500  -999.2500
 2165.0000   158.9530    10.6080     2.5320     0.4790  -999.2500  -999.2500  -999.2500
 2165.5000   158.4270    10.6270     2.4640     0.4660  -999.2500  -999.2500  -999.2500
 2166.0000   156.3300    10.6460     2.4230     0.4740  -999.2500  -999.2500  -999.2500
 2166.5000   154.1700    10.6700     2.4450     0.4950  -999.2500  -999.2500  -999.2500
 2167.0000   151.9910    10.6520     2.4050     0.4850  -999.2500  -999.2500  -999.2500
 2167.5000   150.2290    10.5870     2.3850     0.4640  -999.2500  -999.2500  -999.2500
 2168.0000   148.0390    10.5280     2.4060     0.4570  -999.2500  -999.2500  -999.2500
 2168.5000   149.6500    10.4670     2.5000     0.4590  -999.2500  -999.2500  -999.2500
 2169.0000   153.7490    10.4060     2.5330     0.4630  -999.2500  -999.2500  -999.2500
 2169.5000   154.7420    10.3470     2.5060     0.4670  -999.2500  -999.2500  -999.2500
 2170.0000   144.1780    10.2850     2.4320     0.4680  -999.2500  -999.2500  -999.2500
 2170.5000   146.2000    10.2270     2.4540     0.4660  -999.2500  -999.2500  -999.2500
 2171.0000   151.7160    10.1640     2.5510     0.4890  -999.2500  -999.2500  -999.2500
 2171.5000   150.0010    10.1620     2.5910     0.4980  -999.2500  -999.2500  -999.2500
 2172.0000   149.7260    10.1600     2.5420     0.4760  -999.2500  -999.2500  -999.2500
 2172.5000   152.5100    10.2840     2.5080     0.4870  -999.2500  -999.2500  -999.2500
 2173.0000   155.8810    10.4600     2.4870     0.5000  -999.2500  -999.2500  -999.2500
 2173.5000   154.8590    10.6400     2.4540     0.5000  -999.2500  -999.2500  -999.2500
 2174.0000   152.5280    10.8180     2.4680     0.4950  -999.2500  -999.2500  -999.2500
 2174.5000   151.1320    10.9180     2.4560     0.4570  -999.2500  -999.2500  -999.2500
 2175.0000   154.8150    10.6910     2.3720     0.4170  -999.2500  -999.2500  -999.2500
 2175.5000   153.0500    10.6930     2.4400     0.4430  -999.2500  -999.2500  -999.2500
 2176.0000   148.2240    10.7190     2.4350     0.5000  -999.2500  -999.2500  -999.2500
 2176.5000   145.5490    10.7560     2.4140     0.4950  -999.2500  -999.2500  -999.2500
 2177.0000   148.6510    10.7510     2.4620     0.4900  -999.2500  -999.2500  -999.2500
 2177.5000   152.0790    10.6920     2.4910     0.4830  -999.2500  -999.2500  -999.2500
 2178.0000   151.1890    10.6370     2.5080     0.4840  -999.2500  -999.2500  -999.2500
 2178.5000   149.4140    10.5620     2.5260     0.4900  -999.2500  -999.2500  -999.2500
 2179.0000   147.6230    10.5590     2.5650     0.4710  -999.2500  -999.2500  -999.2500
 2179.5000   146.7010    10.5570     2.5490     0.4310  -999.2500  -999.2500  -999.2500
 2180.0000   147.5950    10.5580     2.5310     0.3890  -999.2500  -999.2500  -999.2500
