~VERSION INFORMATION
 VERS.                2.0:   CWLS LOG ASCII STANDARD - VERSION 2.0
 WRAP.                 NO:   ONE LINE PER DEPTH STEP
~WELL INFORMATION
#MNEM.UNIT      DATA TYPE    INFORMATION
#----------   ------------   ------------------------------
 STRT.F          728.0000:   START DEPTH
 STOP.F         3296.0000:   STOP DEPTH
 STEP.F            0.5000:   STEP LENGTH
 NULL.          -999.2500:   NO VALUE
 COMP.    FENIX & SCISSON:   COMPANY
 WELL. FENIX TX "AX" #55-34:   WELL
 FLD . N. P. R. - WILDCAT:   FIELD
 LOC .      S34 T39N R78W:   LOCATION
 CNTY.            NATRONA:   COUNTY
 STAT.            WYOMING:   STATE
 CTRY. UNITED STATES OF AMERICA:   COUNTRY
 SRVC.       SCHLUMBERGER:   SERVICE COMPANY
 DATE.        22-JUL-1981:   LOGDATE
 API .     49025108770000:   API NUMBER
~CURVE INFORMATION
#MNEM.UNIT       API CODE    CURVE DESCRIPTION
#----------   ------------   ------------------------------
 DEPT.F                  :   
 TENS.LBS    60 635 01 00:   TENSION FROM SONIC LOG
 DT  .US/F   60 520 00 00:   DELTA TIME
 RHOB.G/C3   45 350 01 00:   BULK DENSITY
 TEND.LBS    45 635 01 00:   TENSION FROM DENSITY LOG
 CORR.G/C3   45 356 01 00:   DENSITY CORRECTION
 CALD.IN     45 280 60 00:   CALIPER FROM DENSITY LOG
 NPHI.DEC    42 890 03 00:   NEUTRON POROSITY SANDSTONE
 TENR.LBS    07 635 01 00:   TENSION FROM RESISTIVITY
 SPR .MV     07 010 01 00:   SPONTANEOUS POTENTIAL
 GRR .GAPI   07 310 01 00:   GAMMA RAY FROM RESISTIVITY
 SFL .OHMM   07 220 01 00:   SHALLOW FOCUSED LOG RESISTIVITY
 ILM .OHMM   07 120 44 00:   INDUCTION LOG MEDIUM RESISTIVITY
 ILD .OHMM   07 120 46 00:   DEEP INDUCTION RESISTIVITY
~PARAMETER INFORMATION
#MNEM.UNIT          VALUE    DESCRIPTION
#----------   ------------   ------------------------------
 EKB .F         5092.0000:   Kelly bushing
 EGL .F         5082.0000:   Ground level
 EDF .F            0.0000:   Drilling floor
 TD  .F         3170.0000:   Total depth
 DATE.        22-JUL-1981:   Date logged
 CLNT.            A2DTECH:   Client Code
 SL  . 2012' FSL & 2774' FWL:   Surface Location
 PD  .                 GL:   Permanent Datum
 EPD .F              5082:   Elevation Permanent Datum
 LMF .                 KB:   Log Measured From
 DMF .                 KB:   Drilling Measured From
 DAPD.F                10:   Feet Above Permanent Datum
 DD  .F              3170:   Depth driller
 DL  .F              3110:   Depth logger
 BLI .F              3104:   Bottom log interval
 TLI .F               753:   Top log interval
 CS1 .IN            9.625:   Casing size
 CBD1.      9.625" @ 751':   Casing driller 1
 CBL1.F               753:   Casing logger 1
 BS1 .IN            7.875:   Bit size
 BSD1.F              3170:   Depth drilled with bit1
 DFT .                FGM:   Type fluid in hole
 DFD .                  9:   Density
 DFV .                  9:   Viscosity
 DFPH.                9.8:   pH
 DFL .                8.6:   Fluid loss
 MSS .           MUD/TANK:   Source of sample
 RMS .OHMM           1.72:   Rm
 MST .F                72:   Rm Meas. temp.
 RMF .OHMM           1.17:   Rmf
 MFST.F                70:   Rmf Meas. temp.
 MFSS.               MEAS:   Source Rmf.
 RMB .OHMM           0.90:   Rm. at BHT
 BHT .F               144:   BHT.
 TCS .HRS            1215:   Time Circ. stopped
 TLAB.HRS            0400:   Time logger at bottom
 MRT .F               144:   Maximum recorded temp.
 LUN .               8035:   Logging unit number
 LUL .               CSPR:   Logging unit location
 ENGI.            PURPICH:   Recorded By
 WITN.           R. SCOTT:   Witnessed by
 ORIG.           5" PRINT:   Origin of data
 UWI .     49025108770000:   Unique Well ID
 DICO. A2D TECHNOLOGIES, INC.:   Digitizing Company
~OTHER INFORMATION
~A   DEPT     TENS         DT         RHOB      TEND      CORR       CALD         NPHI     TENR        SPR         GRR       SFL        ILM        ILD   
# ...
 2912.0000  1934.5950    75.2400     2.5690  1290.8220     0.0140     7.6670     0.2020   685.1950   -76.9940   114.2170    10.2120     7.1910     7.4600
 2912.5000  1923.4640    76.0560     2.5770  1291.3800     0.0230     7.6670     0.2150   685.9590   -77.0720   116.7210     9.5280     7.3580     7.6330
 2913.0000  1903.3230    76.5060     2.5780  1291.9380     0.0280     7.6670     0.2160   686.7220   -77.1500   117.1080     8.8450     7.5290     7.8100
 2913.5000  1938.5699    76.1480     2.5700  1292.4960     0.0240     7.6670     0.2210   687.4860   -77.2280   116.9010     8.1610     7.5980     7.9550
 2914.0000  1973.8170    75.5720     2.5620  1293.0540     0.0210     7.6670     0.2190   688.2500   -77.3060   117.1110     7.9550     7.5680     7.9550
 2914.5000  1983.8870    75.2690     2.5600  1293.6121     0.0180     7.6670     0.2170   689.0140   -77.3840   120.0360     8.3000     7.4950     7.8760
 2915.0000  1950.3190    75.2170     2.5620  1294.1700     0.0170     7.6670     0.2190   689.7770   -77.4620   123.0610     8.7050     7.4600     7.8100
 2915.5000  1923.4640    75.7580     2.5640  1294.7280     0.0170     7.6670     0.2190   690.5410   -77.5410   126.1960     9.1100     7.5290     7.8100
 2916.0000  1953.6760    77.0690     2.5670  1295.2860     0.0200     7.6670     0.2170   691.3050   -77.6190   126.6960     9.5160     7.5290     7.8820
 2916.5000  1983.8870    78.3810     2.5690  1295.8440     0.0220     7.6670     0.2140   692.0680   -77.6230   125.3380     9.9140     7.5290     7.8820
 2917.0000  1983.8870    79.6920     2.5680  1296.4020     0.0240     7.6670     0.2150   692.8320   -77.2940   123.8860    10.0050     7.3500     7.6510
 2917.5000  1983.8870    81.0030     2.5600  1296.9600     0.0260     7.6670     0.2260   693.5960   -76.9730   127.6410     9.3830     7.0010     7.3900
 2918.0000  1983.8870    81.4400     2.5540  1297.5170     0.0280     7.6670     0.2460   694.3600   -76.6990   133.1320     8.3510     6.6530     7.1300
 2918.5000  1983.8870    79.1540     2.5490  1298.0750     0.0300     7.6670     0.2580   695.1230   -76.7570   138.6450     7.3000     6.3050     6.8700
 2919.0000  1983.8870    77.6060     2.5440  1298.6331     0.0260     7.6670     0.2580   695.8870   -76.8910   141.2750     6.2480     5.9310     6.6100
 2919.5000  1983.8870    77.2100     2.5440  1299.1910     0.0220     7.6670     0.2400   696.6510   -77.0230   134.3530     5.7700     6.0570     6.4420
 2920.0000  1983.8870    78.1430     2.5460  1299.7490     0.0180     7.6670     0.2220   697.4140   -77.1560   128.8410     8.0330     6.1930     6.4420
 2920.5000  1983.8870    79.0340     2.5570  1300.3070     0.0140     7.6670     0.2210   698.1780   -77.2880   123.4010     9.9140     6.3290     6.5100
 2921.0000  1983.8870    79.9240     2.5530  1300.8650     0.0100     7.6670     0.2270   698.9420   -77.4200   122.6920     9.4720     6.4640     6.6170
 2921.5000  1986.6620    80.4330     2.5460  1301.4230     0.0060     7.6670     0.2340   699.7060   -77.5530   124.8000     8.9660     6.6210     6.7240
 2922.0000  1993.1360    80.4330     2.5480  1301.9810     0.0060     7.6670     0.2390   700.4690   -77.6850   126.2340     8.4610     6.6210     6.8310
 2922.5000  1999.6100    79.8820     2.5520  1302.5389     0.0080     7.6670     0.2440   701.2330   -77.8170   127.2020     7.9550     6.6210     6.9380
 2923.0000  2006.0830    79.0230     2.5540  1303.0970     0.0090     7.6670     0.2480   701.9970   -77.9500   125.9080     7.5980     6.6770     7.0450
 2923.5000  2012.5570    78.1640     2.5480  1303.6550     0.0080     7.6670     0.2490   702.7600   -78.0830   124.2630     7.5980     6.7930     7.1520
 2924.0000  2019.0310    77.3050     2.5450  1304.2130     0.0080     7.6670     0.2450   703.5240   -78.2080   122.6070     7.9390     6.9090     7.2590
 2924.5000  2025.5050    76.4050     2.5500  1304.7700     0.0070     7.6670     0.2380   704.2880   -78.5190   121.0890     8.4600     7.0240     7.3660
 2925.0000  2031.9790    76.2030     2.5600  1305.3280     0.0110     7.6670     0.2320   705.0520   -78.5670   121.3070     8.9800     7.1400     7.4730
 2925.5000  2038.4530    76.2030     2.5710  1305.8860     0.0160     7.6670     0.2280   705.8150   -78.2170   122.0460     9.5000     7.2560     7.5800
 2926.0000  2044.3101    76.8030     2.5700  1306.4440     0.0160     7.6670     0.2280   706.5790   -77.8750   123.2030     9.8230     7.3710     7.6870
 2926.5000  2024.1689    77.3760     2.5610  1307.0020     0.0120     7.6670     0.2280   707.3430   -77.6900   124.3540     9.5910     7.5290     7.7940
 2927.0000  2024.1689    77.5130     2.5540  1307.5601     0.0110     7.6670     0.2280   708.1060   -77.7450   124.9550     9.2970     7.5980     7.8820
 2927.5000  2024.1689    77.6130     2.5510  1308.1180     0.0110     7.6670     0.2230   708.8700   -77.7950   123.9750     9.4070     7.5980     7.9550
 2928.0000  2024.1689    78.1500     2.5480  1308.6760     0.0110     7.6670     0.2230   709.6340   -77.8440   122.1170     9.5570     7.4340     7.8530
 2928.5000  2024.1689    78.8550     2.5460  1309.2340     0.0150     7.6670     0.2300   710.3980   -77.6190   122.9100     9.2830     7.2600     7.6700
 2929.0000  2024.1689    79.5600     2.5490  1309.7920     0.0170     7.6670     0.2360   711.1610   -77.4870   124.5820     8.8400     7.0860     7.4880
 2929.5000  2024.1689    80.2650     2.5560  1310.3500     0.0220     7.6670     0.2360   711.9250   -77.5490   126.2650     8.3980     6.9110     7.3050
 2930.0000  2024.1689    80.6340     2.5630  1310.9080     0.0270     7.6670     0.2380   712.6890   -77.6690   127.2220     7.9550     6.7370     7.1230
 2930.5000  2007.6250    79.7510     2.5700  1311.4659     0.0340     7.6670     0.2400   713.4520   -77.7880   127.0020     7.5120     6.5630     6.9410
 2931.0000  1983.8870    78.9440     2.5720  1312.0229     0.0420     7.6670     0.2410   714.2160   -77.9070   125.9720     7.0690     6.5010     6.8060
 2931.5000  1983.8870    78.1370     2.5690  1312.5811     0.0420     7.6670     0.2370   714.9800   -78.0270   124.1160     6.8060     6.5010     6.8060
 2932.0000  1985.4890    77.6130     2.5560  1313.1390     0.0280     7.6670     0.2280   715.7440   -78.1460   122.8400     7.5210     6.5870     6.8500
 2932.5000  1987.8929    77.8680     2.5450  1313.6970     0.0140     7.6670     0.2290   716.5070   -78.2650   122.4800     8.2920     6.7040     6.9720
 2933.0000  1990.2960    78.1500     2.5340  1314.2550     0.0050     7.6670     0.2330   717.2710   -78.3850   122.2220     8.7990     6.8210     7.0940
 2933.5000  1992.6990    78.4190     2.5380  1314.8130     0.0050     7.6670     0.2370   718.0350   -78.5640   122.7130     8.5000     6.9380     7.2170
 2934.0000  1995.1021    78.0430     2.5410  1315.3710     0.0050     7.6670     0.2400   718.7980   -78.8540   124.0770     8.2190     7.0550     7.3390
 2934.5000  1997.5050    77.4790     2.5460  1315.7889     0.0130     7.6670     0.2350   719.5620   -79.1420   126.2930     8.0280     7.1710     7.4610
 2935.0000  1999.9080    76.9150     2.5580  1315.7889     0.0240     7.6670     0.2280   720.3260   -79.4310   128.8980     8.3270     7.2880     7.5840
 2935.5000  2002.3120    76.6060     2.5730  1315.7889     0.0330     7.6670     0.2210   721.0900   -79.7200   131.5330     8.6230     7.4050     7.7060
 2936.0000  2004.7150    76.6900     2.5820  1315.7889     0.0330     7.6670     0.2150   721.8530   -80.0070   133.7230     8.9190     7.4930     7.8200
 2936.5000  2007.1180    76.9840     2.5670  1315.7889     0.0250     7.6670     0.2190   722.6170   -80.1570   129.5520     9.2150     7.5540     7.8840
 2937.0000  2009.5210    77.1100     2.5550  1315.7889     0.0170     7.6670     0.2280   723.3810   -80.0180   125.9040     9.3830     7.6150     7.9480
 2937.5000  2011.9240    76.7890     2.5540  1315.7889     0.0170     7.6670     0.2360   724.1440   -79.9830   126.1320     9.2450     7.6760     8.0120
