~VERSION INFORMATION
 VERS.                2.0:   CWLS LOG ASCII STANDARD - VERSION 2.0
 WRAP.                 NO:   ONE LINE PER DEPTH STEP
~WELL INFORMATION
#MNEM.UNIT      DATA TYPE    INFORMATION
#----------   ------------   ------------------------------
 STRT.F          200.0000:   START DEPTH
 STOP.F         3080.0000:   STOP DEPTH
 STEP.F            0.5000:   STEP LENGTH
 NULL.          -999.2500:   NO VALUE
 COMP.    FENIX & SCISSON:   COMPANY
 WELL. FENIX NPR 3 "AX" #55-33:   WELL
 FLD .        TEAPOT DOME:   FIELD
 LOC .      S33 T38N R78W:   LOCATION
 CNTY.            NATRONA:   COUNTY
 STAT.            WYOMING:   STATE
 CTRY. UNITED STATES OF AMERICA:   COUNTRY
 SRVC.           BIRDWELL:   SERVICE COMPANY
 DATE.        08-FEB-1978:   LOGDATE
 API .     49025105740000:   API NUMBER
~CURVE INFORMATION
#MNEM.UNIT       API CODE    CURVE DESCRIPTION
#----------   ------------   ------------------------------
 DEPT.F                  :   
 CALD.IN     45 280 60 00:   CALIPER FROM DENSITY LOG
 GRD .GAPI   45 310 01 00:   GAMMA RAY FROM DENSITY LOG
 RHOB.G/C3   45 350 01 00:   BULK DENSITY
 CORR.G/C3   45 356 01 00:   DENSITY CORRECTION
 NPOR.DEC    42 890 03 00:   ALPHA PROCESSED NEUTRON POROSITY
 SPR .MV     05 010 01 00:   SPONTANEOUS POTENTIAL
 SN  .OHMM   05 040 16 00:   SHORT NORMAL 16"
 ILD .OHMM   05 120 46 00:   DEEP INDUCTION RESISTIVITY
~PARAMETER INFORMATION
#MNEM.UNIT          VALUE    DESCRIPTION
#----------   ------------   ------------------------------
 EKB .F         5197.0000:   Kelly bushing
 EGL .F         5187.0000:   Ground level
 EDF .F            0.0000:   Drilling floor
 TD  .F         3084.0000:   Total depth
 DATE.        08-FEB-1978:   Date logged
 CLNT.            A2DTECH:   Client Code
 SL  . 2000' FSL & 2310' FEL:   Surface Location
 PD  .                 GL:   Permanent Datum
 EPD .F              5187:   Elevation Permanent Datum
 LMF .                 KB:   Log Measured From
 DMF .                 KB:   Drilling Measured From
 DAPD.F                10:   Feet Above Permanent Datum
 DD  .F              3084:   Depth driller
 DL  .F              3080:   Depth logger
 BLI .F              3074:   Bottom log interval
 TLI .F               200:   Top log interval
 CS1 .IN            8.625:   Casing size
 CBD1.      8.625" @ 229':   Casing driller 1
 CBL1.F               230:   Casing logger 1
 BS1 .IN            7.875:   Bit size
 BSD1.F              3084:   Depth drilled with bit1
 DFT .     LIGNOSULFONATE:   Type fluid in hole
 DFD .                9.2:   Density
 DFV .                 30:   Viscosity
 DFPH.                  9:   pH
 DFL .                  5:   Fluid loss
 MSS .           FLOWLINE:   Source of sample
 RMS .OHMM            1.5:   Rm
 MST .F                62:   Rm Meas. temp.
 RMF .OHMM            1.2:   Rmf
 MFST.F                66:   Rmf Meas. temp.
 RMC .OHMM            2.8:   Rmc
 MCST.F                65:   Rmc Meas. temp.
 MFSS.               MEAS:   Source Rmf.
 RMB .OHMM            .82:   Rm. at BHT
 BHT .F               114:   BHT.
 TCS .HRS               3:   Time Circ. stopped
 MRT .F               114:   Maximum recorded temp.
 LUN .               2958:   Logging unit number
 LUL .               CASP:   Logging unit location
 ENGI.            POINTER:   Recorded By
 WITN.         HARRINGTON:   Witnessed by
 ORIG.           5" PRINT:   Origin of data
 UWI .     49025105740000:   Unique Well ID
 DICO. A2D TECHNOLOGIES, INC.:   Digitizing Company
~OTHER INFORMATION
~A   DEPT       CALD      GRD       RHOB        CORR      NPOR        SPR         SN        ILD   
# ...
 2670.5000     8.5878    80.4708     2.5274     0.1038     0.1782   -46.0214    17.3203    13.1034
 2671.0000     8.5485    80.4748     2.5244     0.1039     0.1734   -46.0214    17.3731    13.3464
 2671.5000     8.5489    80.4789     2.5244     0.1059     0.1682   -46.2201    17.5324    13.5939
 2672.0000     8.5097    79.8876     2.5475     0.1220     0.1573   -46.4187    17.5316    13.8459
 2672.5000     8.4505    73.1453     2.5645     0.1321     0.1485   -46.6174    17.3705    13.9734
 2673.0000     8.4311    72.1572     2.5806     0.1321     0.1413   -46.6174    17.0531    13.8446
 2673.5000     8.4315    72.3597     2.5866     0.1321     0.1413   -46.6174    16.4364    13.3433
 2674.0000     8.4120    78.7132     2.5806     0.1242     0.1437   -46.8161    14.9916    12.7422
 2674.5000     8.4124    83.8771     2.5666     0.1142     0.1634   -46.8161    13.5486    12.1682
 2675.0000     8.4127    86.2606     2.5546     0.1042     0.1778   -46.6174    12.1324    11.1998
 2675.5000     8.4132    86.2630     2.5536     0.1042     0.1862   -46.0214    11.5866    10.5001
 2676.0000     8.4136    86.2687     2.5546     0.1083     0.1882   -45.8227    11.1677     9.6645
 2676.5000     8.4139    85.4782     2.5567     0.1183     0.1882   -45.4254    10.7638     8.8953
 2677.0000     8.3945    83.8956     2.5637     0.1264     0.1874   -45.4254    10.0923     8.4946
 2677.5000     8.3356    83.1060     2.5647     0.1284     0.1898   -45.4254    10.0919     8.1870
 2678.0000     8.3359    82.3163     2.5667     0.1305     0.1894   -45.4254     9.9991     8.1866
 2678.5000     8.3164    81.7251     2.5658     0.1365     0.1870   -45.4254     9.9986     8.1112
 2679.0000     8.3168    81.1331     2.5638     0.1386     0.1858   -45.4254     9.9981     8.1109
 2679.5000     8.3172    80.5426     2.5638     0.1406     0.1762   -45.6240     9.9976     8.1105
 2680.0000     8.3176    80.3482     2.5749     0.1387     0.1742   -45.8227     9.9057     8.1101
 2680.5000     8.2783    82.1381     2.5658     0.1367     0.1742   -45.8227     9.9052     8.1097
 2681.0000     8.3183    83.9247     2.5568     0.1267     0.1742   -45.8227     9.9047     8.1094
 2681.5000     8.3187    88.2983     2.5659     0.1248     0.1734   -45.8227     9.9958     8.1090
 2682.0000     8.3191    92.2698     2.5719     0.1248     0.1750   -45.8227     9.9039     8.1086
 2682.5000     8.3195    90.0904     2.5780     0.1248     0.1870   -45.8227     9.9034     7.9602
 2683.0000     8.3199    87.7133     2.5790     0.1229     0.1886   -45.8227     9.9029     7.8869
 2683.5000     8.3203    87.3205     2.5820     0.1229     0.1894   -45.8227     9.8118     7.8866
 2684.0000     8.3207    87.1261     2.5860     0.1230     0.1934   -45.6240     9.8114     7.8862
 2684.5000     8.3210    87.5262     2.5720     0.1170     0.1946   -45.6240     9.6321     7.8858
 2685.0000     8.3414    88.3239     2.5620     0.0970     0.1926   -45.8227     9.3696     7.8855
 2685.5000     8.3617    89.1217     2.5620     0.0790     0.1894   -46.0214     9.2834     7.8851
 2686.0000     8.3620    88.9265     2.5681     0.0790     0.1866   -46.0214     9.1980     7.8847
 2686.5000     8.3822    88.9305     2.5591     0.0751     0.1854   -46.0214     9.2826     7.8844
 2687.0000     8.3825    89.5306     2.5571     0.0711     0.1858   -46.0214     9.1972     7.8840
 2687.5000     8.4029    90.7252     2.5551     0.0711     0.1878   -46.0214     9.1967     7.8836
 2688.0000     8.4430    91.9181     2.5521     0.0712     0.1914   -45.8227     9.0287     7.7394
 2688.5000     8.4632    89.1459     2.5541     0.0772     0.1922   -45.8227     8.9456     7.5282
 2689.0000     8.4835    88.1578     2.5542     0.0833     0.1926   -45.6240     8.6222     7.3227
 2689.5000     8.5037    89.1539     2.5582     0.0873     0.1951   -45.2267     8.3104     7.1228
 2690.0000     8.5239    94.3162     2.5652     0.1014     0.1983   -45.0280     7.9365     6.9284
 2690.5000     8.5441    96.7013     2.5713     0.1074     0.1983   -45.0280     7.8635     6.7393
 2691.0000     8.6041    96.9022     2.5743     0.1255     0.1983   -45.0280     7.7198     6.4357
 2691.5000     8.6045    92.9393     2.5753     0.1276     0.1983   -45.0280     7.7196     6.2027
 2692.0000     8.5453    91.1576     2.5813     0.1276     0.1983   -45.4254     7.6485     6.1455
 2692.5000     8.5457    91.1616     2.5864     0.1236     0.1991   -45.0280     7.7188     6.1452
 2693.0000     8.5461    91.1656     2.5553     0.1137     0.2003   -45.4254     7.6478     6.1449
 2693.5000     8.5465    91.3681     2.5584     0.1137     0.2043   -45.8227     7.6475     6.1447
 2694.0000     8.5469    90.1816     2.5624     0.1177     0.2099   -46.2201     7.6471     6.1444
 2694.5000     8.5473    88.9951     2.5624     0.1198     0.2171   -46.2201     7.6467     6.1440
 2695.0000     8.5676    87.4117     2.5654     0.1198     0.2183   -46.4187     7.6464     6.0875
 2695.5000     8.5681    88.6071     2.5705     0.1259     0.2139   -46.6174     7.7167     6.0872
 2696.0000     8.5485    90.7930     2.5635     0.1319     0.2051   -46.0214     7.8596     6.0869
 2696.5000     8.5489    90.9955     2.5645     0.1360     0.1923   -46.2201     7.8592     6.0867
 2697.0000     8.5493    90.9987     2.5735     0.1440     0.1927   -46.2201     7.8588     6.0864
 2697.5000     8.5497    91.0027     2.5775     0.1461     0.1931   -45.8227     7.9311     6.0861
 2698.0000     8.5699    90.6099     2.5876     0.1441     0.1955   -45.6240     7.9307     6.0858
 2698.5000     8.5703    90.6139     2.5826     0.1442     0.2019   -45.6240     7.8577     6.1985
 2699.0000     8.5707    92.2054     2.5656     0.1302     0.2031   -45.6240     7.8574     6.2557
 2699.5000     8.5711    93.9952     2.5596     0.1082     0.2051   -45.8227     7.8571     6.3717
 2700.0000     8.5517    94.3945     2.4935     0.0822     0.2055   -45.8227     8.0765     6.4899
 2700.5000     8.5521    89.7851     2.4865     0.0621     0.2023   -45.8227     8.8149     6.8480
 2701.0000     8.5326    88.0533     2.4815     0.0802     0.1951   -45.8291     9.3157     7.2258
 2701.5000     8.5327    82.6983     2.4875     0.1083     0.1879   -46.0313     9.9360     7.6245
 2702.0000     8.5331    79.3282     2.4815     0.1224     0.1739   -46.4322    10.8950     8.0452
 2702.5000     8.5334    80.1249     2.4946     0.1304     0.1711   -46.4358    11.2409     8.6302
 2703.0000     8.5337    81.7152     2.5006     0.1465     0.1719   -46.4393    11.2399     8.9534
 2703.5000     8.5141    81.9167     2.5036     0.1545     0.1795   -46.4429    11.1359     9.2885
 2704.0000     8.4946    81.9197     2.5116     0.1686     0.1820   -46.2478    11.0330     9.3735
 2704.5000     8.4949    81.9227     2.5177     0.1766     0.1843   -46.2514    10.9310     9.3726
 2705.0000     8.4951    82.5210     2.5367     0.1927     0.1952   -46.2549    10.9299     9.3718
 2705.5000     8.4955    82.5240     2.5478     0.1927     0.1996   -46.2578    10.7297     9.2850
 2706.0000     8.4957    84.1138     2.5498     0.1827     0.1992   -46.2614    10.2466     9.1149
 2706.5000     8.4961    85.1095     2.5508     0.1747     0.1924   -46.6623    10.0589     8.9733
 2707.0000     8.4963    89.2782     2.5378     0.1607     0.1932   -47.0633    10.1511     8.7831
 2707.5000     8.5363    87.0991     2.5248     0.1467     0.1932   -47.0669    10.1501     8.7826
 2708.0000     8.4771    84.7223     2.5188     0.1267     0.1932   -47.0704    10.1492     8.7819
 2708.5000     8.4774    84.7241     2.5188     0.1207     0.1936   -47.0740    10.1482     8.7811
 2709.0000     8.5174    85.1240     2.5188     0.1188     0.1932   -47.0776    10.1473     8.7803
 2709.5000     8.5177    85.1270     2.5188     0.1088     0.1912   -46.4851    10.1463     8.7794
 2710.0000     8.5379    86.1221     2.5238     0.1048     0.1912   -45.8925    10.0525     8.7786
 2710.5000     8.5778    87.7125     2.5249     0.1028     0.1908   -45.8954     9.8684     8.4603
