~VERSION INFORMATION
 VERS.                2.0:   CWLS LOG ASCII STANDARD - VERSION 2.0
 WRAP.                 NO:   ONE LINE PER DEPTH STEP
~WELL INFORMATION
#MNEM.UNIT      DATA TYPE    INFORMATION
#----------   ------------   ------------------------------
 STRT.F            0.0000:   START DEPTH
 STOP.F         3504.0000:   STOP DEPTH
 STEP.F            0.5000:   STEP LENGTH
 NULL.          -999.2500:   NO VALUE
 COMP. LAWRENCE-ALLISON AND ASSOCIATES:   COMPANY
 WELL. LAWRENCE "TX" #16-34:   WELL
 FLD .              NPR 3:   FIELD
 LOC .      S34 T39N R78W:   LOCATION
 CNTY.            NATRONA:   COUNTY
 STAT.            WYOMING:   STATE
 CTRY. UNITED STATES OF AMERICA:   COUNTRY
 SRVC.       SCHLUMBERGER:   SERVICE COMPANY
 DATE.        10-APR-1982:   LOGDATE
 API .     49025108970000:   API NUMBER
~CURVE INFORMATION
#MNEM.UNIT       API CODE    CURVE DESCRIPTION
#----------   ------------   ------------------------------
 DEPT.F                  :   
 SPR .MV     07 010 01 00:   SPONTANEOUS POTENTIAL
 ILD .OHMM   07 120 46 00:   DEEP INDUCTION RESISTIVITY
 SFLU.OHMM   07 220 01 00:   SPHERICALLY FOCUSED LOG UNAVERAGED RESISTIVITY
 TENR.LBS    07 635 01 00:   TENSION FROM RESISTIVITY
 ILM .OHMM   07 120 44 00:   INDUCTION LOG MEDIUM RESISTIVITY
 GRD .GAPI   45 310 01 00:   GAMMA RAY FROM DENSITY LOG
 CALD.IN     45 280 60 00:   CALIPER FROM DENSITY LOG
 RHOB.G/C3   45 350 01 00:   BULK DENSITY
 CORR.G/C3   45 356 01 00:   DENSITY CORRECTION
 TEND.LBS    45 635 01 00:   TENSION FROM DENSITY LOG
 NPHI.DEC    42 890 03 00:   NEUTRON POROSITY SANDSTONE
~PARAMETER INFORMATION
#MNEM.UNIT          VALUE    DESCRIPTION
#----------   ------------   ------------------------------
 EKB .F         5149.0000:   Kelly bushing
 EGL .F         5139.0000:   Ground level
 EDF .F            0.0000:   Drilling floor
 TD  .F         3500.0000:   Total depth
 DATE.        10-APR-1982:   Date logged
 CLNT.            A2DTECH:   Client Code
 SL  . 1406' FSL & 423' FWL:   Surface Location
 PD  .                 GL:   Permanent Datum
 EPD .F              5139:   Elevation Permanent Datum
 LMF .                 KB:   Log Measured From
 DMF .                 KB:   Drilling Measured From
 DAPD.F                10:   Feet Above Permanent Datum
 DD  .F              3500:   Depth driller
 DL  .F              3497:   Depth logger
 BLI .F              3491:   Bottom log interval
 TLI .F               658:   Top log interval
 CS1 .IN            9.625:   Casing size
 CBD1.      9.625" @ 632':   Casing driller 1
 CBL1.F               658:   Casing logger 1
 BS1 .IN             8.75:   Bit size
 BSD1.F              3500:   Depth drilled with bit1
 DFT .           SPUD MUD:   Type fluid in hole
 DFD .                  9:   Density
 DFV .                 44:   Viscosity
 DFPH.                 10:   pH
 DFL .                  7:   Fluid loss
 MSS .           FLOWLINE:   Source of sample
 RMS .OHMM              2:   Rm
 MST .F                53:   Rm Meas. temp.
 RMF .OHMM            1.9:   Rmf
 MFST.F                53:   Rmf Meas. temp.
 RMC .OHMM            1.5:   Rmc
 MCST.F                53:   Rmc Meas. temp.
 MFSS.               MEAS:   Source Rmf.
 MCSS.               CALC:   Source Rmc.
 RMB .OHMM              1:   Rm. at BHT
 BHT .F               106:   BHT.
 TCS .HRS            1100:   Time Circ. stopped
 TLAB.HRS            1330:   Time logger at bottom
 MRT .F               106:   Maximum recorded temp.
 LUN .               8151:   Logging unit number
 LUL .                GLT:   Logging unit location
 ENGI.            NEUFFER:   Recorded By
 WITN.           JENNINGS:   Witnessed by
 ORIG.           5" PRINT:   Origin of data
 UWI .     49025108970000:   Unique Well ID
 DICO. A2D TECHNOLOGIES, INC.:   Digitizing Company
~OTHER INFORMATION
~A    DEPT     SPR        ILD       SFLU       TENR        ILM        GRD       CALD       RHOB       CORR       TEND       NPHI   
# ...
 1586.0000    -9.3670     7.3490     8.3550  1111.4910     7.5350    98.4450     9.6070     2.5230     0.0480  1060.0000     0.3030
 1586.5000    -9.3560     7.4040     8.4550  1111.7490     7.6110    98.2610     9.6340     2.5140     0.0370  1060.0000     0.3010
 1587.0000    -9.3450     7.4040     8.5740  1112.0060     7.6110   100.3640     9.6600     2.5120     0.0360  1060.0000     0.3010
 1587.5000    -9.3340     7.3030     8.6580  1112.2640     7.5180   102.5000     9.6860     2.5170     0.0380  1060.0000     0.3060
 1588.0000    -9.3220     7.2020     8.5940  1112.5210     7.4040   104.6050     9.7120     2.5250     0.0430  1060.0000     0.3130
 1588.5000    -9.3110     7.2090     8.3870  1112.7791     7.4100   105.9570     9.7390     2.5330     0.0470  1060.0000     0.3150
 1589.0000    -9.3000     7.2160     8.1800  1113.0360     7.4180   104.7070     9.7650     2.5330     0.0430  1060.0000     0.3140
 1589.5000    -9.2890     7.2230     7.9720  1113.2939     7.4250   100.1270     9.7690     2.5280     0.0350  1060.0000     0.3120
 1590.0000    -9.2770     7.2300     7.7520  1113.5510     7.4320    95.1270     9.7550     2.5280     0.0310  1060.0000     0.3070
 1590.5000    -9.2660     7.2370     7.9680  1113.8090     7.4390    90.5930     9.7400     2.5350     0.0280  1060.0000     0.3020
 1591.0000    -9.2550     7.2440     8.1980  1114.0660     7.4460    92.8460     9.7250     2.5480     0.0380  1060.0000     0.2980
 1591.5000    -9.2440     7.2510     8.3370  1114.3240     7.4540    96.4150     9.7100     2.5620     0.0490  1060.0000     0.3000
 1592.0000    -9.2320     7.2580     8.2460  1114.5820     7.4610    99.1770     9.6990     2.5650     0.0480  1060.0000     0.3030
 1592.5000    -9.2210     7.2680     8.1740  1114.8390     7.4720    98.8540     9.7070     2.5460     0.0390  1060.0000     0.3050
 1593.0000    -9.2100     7.2570     8.1010  1115.0970     7.4600    97.5630     9.7140     2.5250     0.0310  1060.0000     0.3080
 1593.5000    -9.1990     7.2250     8.0430  1115.3540     7.4270    98.2990     9.7220     2.5130     0.0350  1060.0000     0.3070
 1594.0000    -9.1880     7.1930     8.3120  1115.6121     7.3950    99.0710     9.7290     2.5200     0.0410  1060.0000     0.2980
 1594.5000    -9.1760     7.1610     8.5780  1115.8690     7.3620    99.0690     9.7360     2.5300     0.0470  1060.0000     0.2990
 1595.0000    -9.1650     7.1300     8.4740  1116.1270     7.3290    98.4860     9.7550     2.5350     0.0490  1060.0000     0.3030
 1595.5000    -9.1540     7.0980     8.3460  1116.3840     7.2970    97.6780     9.7760     2.5260     0.0510  1060.0000     0.3070
 1596.0000    -9.1430     7.0660     8.2170  1116.6420     7.2640    97.6030     9.7990     2.5140     0.0530  1060.0000     0.3100
 1596.5000    -9.1310     7.0350     8.0890  1116.8990     7.2310    96.2520     9.8620     2.5070     0.0550  1060.0000     0.3130
 1597.0000    -9.1200     7.0030     7.9610  1117.1570     7.1990    96.1610     9.9250     2.5130     0.0710  1060.0000     0.3160
 1597.5000    -9.1090     6.9710     7.8330  1117.4150     7.1660    97.5930     9.9700     2.5360     0.0970  1060.0000     0.3190
 1598.0000    -9.0980     6.9390     7.7040  1117.6720     7.1340    99.0090     9.9390     2.5580     0.1150  1060.0000     0.3190
 1598.5000    -9.0860     6.9080     7.5900  1117.9301     7.1010   100.4050     9.9820     2.5440     0.1050  1060.0000     0.3150
 1599.0000    -9.0750     6.8760     7.4720  1118.1870     7.0680   100.1070    10.0380     2.5180     0.0920  1060.0000     0.3120
 1599.5000    -9.0640     6.8440     7.6310  1118.4449     7.0360    99.6150    10.0050     2.5030     0.0820  1060.0000     0.3110
 1600.0000    -9.0530     6.8150     8.1170  1118.7020     7.0060    99.6620     9.9370     2.4980     0.0760  1060.0000     0.3120
 1600.5000    -9.0410     6.7750     7.9910  1118.9600     6.9640   100.2820     9.8760     2.4910     0.0700  1060.0000     0.3060
 1601.0000    -9.0300     6.7290     7.7390  1119.2170     6.9170   100.8950     9.8940     2.4910     0.0710  1060.0000     0.3110
 1601.5000    -9.0190     6.6840     7.4880  1119.4750     6.8710   101.2630     9.9100     2.5000     0.0850  1060.0000     0.3190
 1602.0000    -9.0080     6.6380     7.0710  1119.7321     6.8240    99.5520     9.9780     2.5200     0.1010  1060.0000     0.3270
 1602.5000    -8.9960     6.5930     7.1980  1119.9900     6.7770    97.8170    10.0340     2.5180     0.0970  1060.0000     0.3350
 1603.0000    -8.9850     6.5470     7.4350  1120.2480     6.7310    97.7590     9.8650     2.5100     0.0950  1060.0000     0.3110
 1603.5000    -8.9740     6.4940     7.7910  1120.5050     6.6760    99.2500     9.8660     2.5000     0.1060  1060.0000     0.3020
 1604.0000    -8.9630     6.3960     7.6830  1120.7629     6.5750   100.7560     9.8970     2.4650     0.1040  1060.0000     0.3030
 1604.5000    -8.9520     6.2980     7.2910  1121.0200     6.4740    99.2940    10.0710     2.4250     0.0810  1060.0000     0.3150
 1605.0000    -8.9400     6.2000     7.1700  1121.2780     6.3740    96.4560    10.1300     2.4420     0.0660  1060.0000     0.3230
 1605.5000    -8.9290     6.0660     7.1290  1121.5350     6.2360    93.5720     9.8500     2.4760     0.0920  1060.0000     0.3170
 1606.0000    -8.9180     5.9050     7.0880  1121.7930     6.0710    94.9300     9.7410     2.5210     0.1230  1060.0000     0.3080
 1606.5000    -8.9060     5.7450     6.7600  1122.0500     5.9060    96.6260     9.8180     2.4940     0.1500  1060.0000     0.3220
 1607.0000    -8.8970     5.6180     5.9370  1122.3080     5.7750    98.3490    10.0820     2.4510     0.1280  1060.0000     0.3440
 1607.5000    -8.9320     5.7360     5.9700  1122.5649     5.8960    99.8520    10.1500     2.4120     0.0860  1060.0000     0.3700
 1608.0000    -8.9690     5.8330     6.0470  1122.8230     5.9960   101.3450    10.0400     2.4100     0.0580  1060.0000     0.3490
 1608.5000    -9.0050     5.9300     6.6040  1123.0811     6.0960   102.7130     9.6600     2.4540     0.0570  1060.0000     0.3150
 1609.0000    -9.0420     6.0270     7.1450  1123.3380     6.1960   100.2420     9.6090     2.4880     0.0800  1060.0000     0.3050
 1609.5000    -9.0780     6.1250     7.4040  1123.5959     6.2960    97.0060     9.6250     2.5030     0.0910  1060.0000     0.3210
 1610.0000    -9.1150     6.2220     7.3560  1123.8530     6.3960    93.8030     9.6580     2.4970     0.0760  1060.0000     0.3360
 1610.5000    -9.1510     6.3390     7.2510  1124.1110     6.5160    91.7220     9.6740     2.4900     0.0530  1060.0000     0.3490
 1611.0000    -9.1880     6.4790     7.1460  1124.3680     6.6610    93.0960     9.6630     2.4990     0.0470  1060.0000     0.3420
 1611.5000    -9.2240     6.6200     7.0710  1124.6260     6.8050    94.9320     9.6510     2.5140     0.0470  1060.0000     0.3340
 1612.0000    -9.2610     6.7600     7.3830  1124.8831     6.9490    94.7630     9.6400     2.5170     0.0410  1060.0000     0.3260
 1612.5000    -9.2970     6.9010     7.6260  1125.1410     7.0940    94.6100     9.6280     2.5080     0.0270  1060.0000     0.3170
 1613.0000    -9.3340     7.0410     7.8690  1125.3979     7.2380    95.6080     9.6100     2.5080     0.0230  1060.0000     0.3090
 1613.5000    -9.3700     7.1820     8.1120  1125.6560     7.3830    96.9270     9.5600     2.5230     0.0340  1060.0000     0.3000
 1614.0000    -9.4070     7.3220     8.3550  1125.9130     7.5270    97.1790     9.5200     2.5400     0.0520  1060.0000     0.2920
 1614.5000    -9.4430     7.4620     8.5060  1126.1710     7.6710    97.3780     9.5210     2.5500     0.0630  1060.0000     0.2980
 1615.0000    -9.4800     7.6110     8.5170  1126.4290     7.8240    97.5430     9.5210     2.5440     0.0610  1060.0000     0.3000
 1615.5000    -9.5160     7.5830     8.5280  1126.6860     7.7950    96.4800     9.5210     2.5400     0.0620  1060.0000     0.2990
 1616.0000    -9.5530     7.5530     8.5400  1126.9440     7.7650    95.3480     9.5220     2.5470     0.0650  1060.0000     0.2970
