~VERSION INFORMATION
 VERS.                2.0:   CWLS LOG ASCII STANDARD - VERSION 2.0
 WRAP.                 NO:   ONE LINE PER DEPTH STEP
~WELL INFORMATION
#MNEM.UNIT      DATA TYPE    INFORMATION
#----------   ------------   ------------------------------
 STRT.F         2200.0000:   START DEPTH
 STOP.F         3200.0000:   STOP DEPTH
 STEP.F            0.5000:   STEP LENGTH
 NULL.          -999.2500:   NO VALUE
 COMP.   LAWRENCE ALLISON:   COMPANY
 WELL. LAWRENCE "X" #18-34:   WELL
 FLD .          NPR NO. 3:   FIELD
 LOC .      S34 T39N R78W:   LOCATION
 CNTY.            NATRONA:   COUNTY
 STAT.            WYOMING:   STATE
 CTRY. UNITED STATES OF AMERICA:   COUNTRY
 SRVC.      DRESSER ATLAS:   SERVICE COMPANY
 DATE.        14-MAY-1986:   LOGDATE
 API .     49025110720000:   API NUMBER
~CURVE INFORMATION
#MNEM.UNIT       API CODE    CURVE DESCRIPTION
#----------   ------------   ------------------------------
 DEPT.F                  :   
 CALD.IN     45 280 60 00:   CALIPER FROM DENSITY LOG
 GRD .GAPI   45 310 01 00:   GAMMA RAY FROM DENSITY LOG
 TEND.LBS    45 635 01 00:   TENSION FORM DENSITY LOG
 CORR.G/C3   45 356 01 00:   DENSITY CORRECTION
 DEN .G/C3   45 350 01 00:   BULK DENSITY
 CNC .DEC    42 890 03 00:   NEUTRON POROSITY SANDSTONE
~PARAMETER INFORMATION
#MNEM.UNIT          VALUE    DESCRIPTION
#----------   ------------   ------------------------------
 EKB .F         5192.0000:   Kelly bushing
 EGL .F         5181.0000:   Ground level
 EDF .F         5189.0000:   Drilling floor
 TD  .F         3195.0000:   Total depth
 CLNT.            A2DTECH:   Client Code
 SL  . 722' FWL & 239' FSL:   Surface Location
 PD  .                 GL:   Permanent Datum
 EPD .F              5181:   Elevation Permanent Datum
 LMF .                 KB:   Log Measured From
 DMF .                 KB:   Drilling Measured From
 DAPD.F                11:   Feet Above Permanent Datum
 DATE.        14-MAY-1986:   Date Logged [DD-MMM-YYYY]
 DD  .F              3195:   Depth driller
 DL  .F              3194:   Depth logger
 BLI .F              3192:   Bottom log interval
 TLI .F                 0:   Top log interval
 CS1 .IN            8.625:   Casing size
 CBD1.      8.625" @ 601':   Casing driller 1
 CBL1.F               596:   Casing logger 1
 BS1 .IN            7.875:   Bit size
 BSD1.F              3195:   Depth drilled with bit1
 DFT .        POLYMER-KCL:   Type fluid in hole
 DFD .                  9:   Density
 DFV .                 35:   Viscosity
 DFPH.                9.5:   pH
 DFL .               16.2:   Fluid loss
 MSS .           FLOWLINE:   Source of sample
 RMS .OHMM          0.378:   Rm
 MST .F                65:   Rm Meas. temp.
 RMF .OHMM          0.306:   Rmf
 MFST.F                65:   Rmf Meas. temp.
 MFSS.               MEAS:   Source Rmf.
 RMC .OHMM          0.472:   Rmc
 MCST.F                65:   Rmc Meas. temp.
 MCSS.               CALC:   Source Rmc.
 RMB .OHMM          0.208:   Rm. at BHT
 BHT .F               118:   BHT.
 TCS .HRS               3:   Time Circ. stopped
 MRT .F               118:   Maximum recorded temp.
 LUN .            HL-6274:   Logging unit number
 LUL .           GILLETTE:   Logging unit location
 ENGI.             RAUTIO:   Recorded By
 WITN.             STRONG:   Witnessed by
 ORIG.           5" PRINT:   Origin of data
 UWI .     49025110720000:   Unique Well ID
 DICO. A2D TECHNOLOGIES, INC.:   Digitizing Company
~OTHER INFORMATION
~A  DEPT        CALD      GRD        TEND        CORR        DEN        CNC 
# ...
 2772.0000     9.1807    98.3763   -62.9128     0.0485     2.5639     0.2245
 2772.5000     9.1659    98.9738   -62.7667     0.0488     2.5661     0.2235
 2773.0000     9.1663   100.4778   -62.6206     0.0333     2.5653     0.2308
 2773.5000     9.1514   101.0739   -62.4745     0.0118     2.5638     0.2409
 2774.0000     9.1215   100.1630   -62.3284     0.0076     2.5608     0.2427
 2774.5000     9.0766   105.5856   -62.1805     0.0166     2.5585     0.2382
 2775.0000     9.0618   107.6913   -54.5113     0.0181     2.5607     0.2339
 2775.5000     9.0621   108.2903   -54.3347     0.0060     2.5623     0.2364
 2776.0000     9.0624   107.6797   -46.6698     0.0014     2.5637     0.2436
 2776.5000     9.0628   106.7689   -46.5237     0.0120     2.5637     0.2467
 2777.0000     9.0631   105.5564   -46.3776     0.0240     2.5636     0.2476
 2777.5000     9.0785   106.4848   -38.7127     0.0242     2.5629     0.2464
 2778.0000     9.0788   112.1798   -38.5714     0.0300     2.5621     0.2452
 2778.5000     9.0639   113.3820   -38.4205     0.0360     2.5651     0.2452
 2779.0000     9.0491   109.1515   -38.2707     0.0451     2.5620     0.2382
 2779.5000     9.0344   101.6042   -38.1203     0.0541     2.5645     0.2198
 2780.0000     9.0357    92.8503   -37.9456     0.0586     2.5695     0.1983
 2780.5000     9.0652    89.4880   -37.7995     0.0374     2.5672     0.2002
 2781.0000     9.0957    89.5204   -37.6533     0.0253     2.5514     0.2120
 2781.5000     9.1261    90.1641   -37.5073     0.0268     2.5333     0.2262
 2782.0000     9.0963    92.8255   -37.3611     0.0237     2.5151     0.2374
 2782.5000     9.0663    94.9313   -37.2150    -0.0005     2.4985     0.2402
 2783.0000     9.0667    97.6404   -29.5488    -0.0126     2.4947     0.2362
 2783.5000     9.0670    99.1443   -29.3985    -0.0005     2.4972     0.2350
 2784.0000     9.0673    99.1370   -29.2213     0.0161     2.5030     0.2323
 2784.5000     9.0676    98.5279   -36.6305     0.0130     2.4954     0.2302
 2785.0000     9.0679    99.2056   -36.4479     0.0054     2.4894     0.2287
 2785.5000     9.0682   100.9295   -43.8571     0.0009     2.4961     0.2302
 2786.0000     9.0685    99.1123   -43.6745     0.0114     2.5165     0.2375
 2786.5000     9.0688    97.8998   -43.5283     0.0265     2.5247     0.2454
 2787.0000     9.0691    98.7990   -43.3823     0.0385     2.5300     0.2490
 2787.5000     9.0694   100.3014   -35.7143     0.0476     2.5277     0.2463
 2788.0000     9.0691   101.2006   -35.5347     0.0415     2.5209     0.2381
 2788.5000     9.0549   100.5571   -35.3886     0.0324     2.5194     0.2306
 2789.0000     9.0401    99.0758   -42.7978     0.0263     2.5284     0.2260
 2789.5000     9.0405    98.4667   -42.6151     0.0217     2.5367     0.2218
 2790.0000     9.0256    99.0642   -42.4691     0.0202     2.5434     0.2197
 2790.5000     9.0260   101.4716   -42.3309     0.0232     2.5472     0.2232
 2791.0000     9.0263   102.3722   -49.6956     0.0277     2.5445     0.2264
 2791.5000     9.0416   101.7616   -49.5489     0.0383     2.5366     0.2255
 2792.0000     9.0419   100.5209   -49.3985     0.0367     2.5283     0.2179
 2792.5000     9.0422    99.6384   -49.2207     0.0292     2.5252     0.2158
 2793.0000     9.0425   101.1394   -49.0746     0.0216     2.5131     0.2173
 2793.5000     9.0428   102.6418   -48.9285     0.0061     2.5033     0.2195
 2794.0000     9.0432   102.6360   -48.7823    -0.0102     2.5010     0.2222
 2794.5000     9.0435   102.6302   -48.6363    -0.0042     2.5131     0.2204
 2795.0000     9.0438   103.5293   -48.4901     0.0139     2.5146     0.2197
 2795.5000     9.0441   104.1268   -55.8647     0.0305     2.5025     0.2240
 2796.0000     9.0293   104.0307   -55.7143     0.0410     2.4911     0.2341
 2796.5000     9.0296   103.8329   -55.5341     0.0350     2.4843     0.2413
 2797.0000     9.0299   104.7291   -47.8691     0.0092     2.4828     0.2337
 2797.5000     9.0452   108.6419   -47.7231    -0.0166     2.4950     0.2244
 2798.0000     9.0456   111.6497   -47.5769    -0.0225     2.5157     0.2165
 2798.5000     9.0459   111.0376   -47.4308     0.0137     2.5219     0.2208
 2799.0000     9.0462   104.5041   -47.2847     0.0091     2.5212     0.2186
 2799.5000     9.0465    95.9349   -47.1386    -0.0121     2.5181     0.2096
 2800.0000     9.0316    90.1946   -46.9925    -0.0242     2.5249     0.1978
 2800.5000     9.0320    84.7560   -46.8421    -0.0031     2.5392     0.1839
 2801.0000     9.0323    80.2223   -46.6637     0.0015     2.5610     0.1745
 2801.5000     9.0326    77.1970   -38.9988     0.0014     2.5778     0.1764
 2802.0000     9.0178    80.2048   -38.5716    -0.0259     2.5807     0.1975
 2802.5000     9.0212    89.8491   -38.0644    -0.0471     2.5678     0.2103
 2803.0000     9.0255    98.8680   -37.5572    -0.0439     2.5458     0.2217
 2803.5000     9.0306   110.0405   -37.0500    -0.0185     2.5391     0.2335
 2804.0000     9.0304   118.4782   -36.5427     0.0042     2.5398     0.2435
 2804.5000     9.0303   126.0109   -36.0644     0.0147     2.5367     0.2518
 2805.0000     9.0302   130.8287   -43.2330     0.0116     2.5345     0.2589
 2805.5000     9.0300   131.7271   -50.3760     0.0071     2.5367     0.2611
 2806.0000     9.0299   129.9062   -50.0000     0.0025     2.5382     0.2529
 2806.5000     9.0297   121.1493   -49.5495     0.0025     2.5376     0.2566
 2807.0000     9.0145   116.9173   -49.1841     0.0210     2.5353     0.2508
 2807.5000     9.0143   122.9395   -56.4291     0.0356     2.5328     0.2385
 2808.0000     9.0142   128.6622   -55.9724     0.0401     2.5283     0.2191
 2808.5000     8.9989   125.3352   -55.6072     0.0309     2.5260     0.2107
 2809.0000     8.9837   114.7684   -55.2418     0.0203     2.5305     0.2073
 2809.5000     8.9685   104.2015   -54.8766     0.0037     2.5320     0.2079
 2810.0000     8.9532    96.0480   -54.5112    -0.0190     2.5305     0.2119
 2810.5000     8.9531    93.9227   -54.1354    -0.0405     2.5320     0.2183
 2811.0000     8.9529    96.1019   -53.6893    -0.0539     2.5334     0.2222
 2811.5000     8.9377    99.0361   -53.3241    -0.0464     2.5364     0.2228
 2812.0000     8.9375   100.8372   -52.9588    -0.0222     2.5409     0.2177
 2812.5000     8.9223   100.5268   -60.1124     0.0019     2.5440     0.2125
 2813.0000     8.9222   100.2164   -59.7470     0.0064     2.5454     0.2080
 2813.5000     8.9069   102.9225   -66.9918     0.0033     2.5469     0.2040
 2814.0000     8.8917   105.0254   -66.5353     0.0108     2.5544     0.1996
 2814.5000     8.8916   104.4060   -66.1655     0.0262     2.5604     0.2044
 2815.0000     8.8914   100.9656   -65.7895     0.0364     2.5627     0.2099
 2815.5000     8.8913    97.7570   -65.3482     0.0348     2.5664     0.2138
 2816.0000     8.8911    97.4488   -57.4640     0.0242     2.5656     0.2226
 2816.5000     8.8758   103.1694   -57.0988     0.0091     2.5594     0.2292
 2817.0000     8.8757   109.1938   -56.7334    -0.0106     2.5498     0.2344
 2817.5000     8.8756   118.2348   -56.3681    -0.0016     2.5467     0.2384
 2818.0000     8.8754   119.4719   -56.0029     0.0256     2.5573     0.2314
 2818.5000     8.8753   110.9760   -55.6375     0.0346     2.5640     0.2148
 2819.0000     8.8751   104.6323   -55.2632     0.0345     2.5753     0.2072
 2819.5000     8.8750   100.4003   -54.8156     0.0299     2.5843     0.2121
 2820.0000     8.8748    98.2800   -62.0606     0.0239     2.5911     0.2242
 2820.5000     8.8898   102.4944   -54.0850     0.0178     2.5880     0.2275
 2821.0000     8.9047   104.2956   -53.7199     0.0132     2.5775     0.2293
 2821.5000     8.9045   105.8295   -53.3545     0.0071     2.5661     0.2321
 2822.0000     8.8742   105.4825   -45.4705    -0.0068     2.5631     0.2348
 2822.5000     8.8590   101.8538   -37.5863    -0.0217     2.5646     0.2291
 2823.0000     8.8437    98.8285   -37.2180    -0.0157     2.5661     0.2236
 2823.5000     8.8436    98.5180   -36.8422     0.0220     2.5774     0.2182
