~VERSION INFORMATION
 VERS.                2.0:   CWLS LOG ASCII STANDARD - VERSION 2.0
 WRAP.                 NO:   ONE LINE PER DEPTH STEP
~WELL INFORMATION
#MNEM.UNIT      DATA TYPE    INFORMATION
#----------   ------------   ------------------------------
 STRT.F         2200.0000:   START DEPTH
 STOP.F         3200.0000:   STOP DEPTH
 STEP.F            0.5000:   STEP LENGTH
 NULL.          -999.2500:   NO VALUE
 COMP.   LAWRENCE ALLISON:   COMPANY
 WELL. LAWRENCE "X" #18-34:   WELL
 FLD .          NPR NO. 3:   FIELD
 LOC .      S34 T39N R78W:   LOCATION
 CNTY.            NATRONA:   COUNTY
 STAT.            WYOMING:   STATE
 CTRY. UNITED STATES OF AMERICA:   COUNTRY
 SRVC.      DRESSER ATLAS:   SERVICE COMPANY
 DATE.        14-MAY-1986:   LOGDATE
 API .     49025110720000:   API NUMBER
~CURVE INFORMATION
#MNEM.UNIT       API CODE    CURVE DESCRIPTION
#----------   ------------   ------------------------------
 DEPT.F                  :   
 CALD.IN     45 280 60 00:   CALIPER FROM DENSITY LOG
 GRD .GAPI   45 310 01 00:   GAMMA RAY FROM DENSITY LOG
 TEND.LBS    45 635 01 00:   TENSION FORM DENSITY LOG
 CORR.G/C3   45 356 01 00:   DENSITY CORRECTION
 DEN .G/C3   45 350 01 00:   BULK DENSITY
 CNC .DEC    42 890 03 00:   NEUTRON POROSITY SANDSTONE
~PARAMETER INFORMATION
#MNEM.UNIT          VALUE    DESCRIPTION
#----------   ------------   ------------------------------
 EKB .F         5192.0000:   Kelly bushing
 EGL .F         5181.0000:   Ground level
 EDF .F         5189.0000:   Drilling floor
 TD  .F         3195.0000:   Total depth
 CLNT.            A2DTECH:   Client Code
 SL  . 722' FWL & 239' FSL:   Surface Location
 PD  .                 GL:   Permanent Datum
 EPD .F              5181:   Elevation Permanent Datum
 LMF .                 KB:   Log Measured From
 DMF .                 KB:   Drilling Measured From
 DAPD.F                11:   Feet Above Permanent Datum
 DATE.        14-MAY-1986:   Date Logged [DD-MMM-YYYY]
 DD  .F              3195:   Depth driller
 DL  .F              3194:   Depth logger
 BLI .F              3192:   Bottom log interval
 TLI .F                 0:   Top log interval
 CS1 .IN            8.625:   Casing size
 CBD1.      8.625" @ 601':   Casing driller 1
 CBL1.F               596:   Casing logger 1
 BS1 .IN            7.875:   Bit size
 BSD1.F              3195:   Depth drilled with bit1
 DFT .        POLYMER-KCL:   Type fluid in hole
 DFD .                  9:   Density
 DFV .                 35:   Viscosity
 DFPH.                9.5:   pH
 DFL .               16.2:   Fluid loss
 MSS .           FLOWLINE:   Source of sample
 RMS .OHMM          0.378:   Rm
 MST .F                65:   Rm Meas. temp.
 RMF .OHMM          0.306:   Rmf
 MFST.F                65:   Rmf Meas. temp.
 MFSS.               MEAS:   Source Rmf.
 RMC .OHMM          0.472:   Rmc
 MCST.F                65:   Rmc Meas. temp.
 MCSS.               CALC:   Source Rmc.
 RMB .OHMM          0.208:   Rm. at BHT
 BHT .F               118:   BHT.
 TCS .HRS               3:   Time Circ. stopped
 MRT .F               118:   Maximum recorded temp.
 LUN .            HL-6274:   Logging unit number
 LUL .           GILLETTE:   Logging unit location
 ENGI.             RAUTIO:   Recorded By
 WITN.             STRONG:   Witnessed by
 ORIG.           5" PRINT:   Origin of data
 UWI .     49025110720000:   Unique Well ID
 DICO. A2D TECHNOLOGIES, INC.:   Digitizing Company
~OTHER INFORMATION
~A  DEPT        CALD      GRD        TEND        CORR        DEN        CNC 
# ...
 2408.0000    11.3394   109.1522    -6.9896     0.0206     2.5075     0.3161
 2408.5000    11.3544   111.2609    -6.8421     0.0309     2.5060     0.3155
 2409.0000    11.3544   111.8996    -6.6917     0.0385     2.5106     0.3112
 2409.5000    11.3695   113.0643    -6.5151     0.0430     2.5173     0.3091
 2410.0000    11.3846   113.3638    -6.3691     0.0318     2.5204     0.3119
 2410.5000    11.3846   112.7568   -13.7784     0.0293     2.5264     0.3088
 2411.0000    11.3846   111.5473   -13.5959     0.0685     2.5414     0.3022
 2411.5000    11.3997   113.0527   -13.4499     0.0866     2.5505     0.3097
 2412.0000    11.3997   114.8597   -13.3039     0.0820     2.5486     0.3367
 2412.5000    11.3997   113.6501   -13.1579     0.0578     2.5459     0.3433
 2413.0000    11.3997   116.3614   -13.0075     0.0623     2.5466     0.3427
 2413.5000    11.4148   119.3751   -12.8294     0.0652     2.5481     0.3393
 2414.0000    11.4449   121.7855   -20.2387     0.0471     2.5338     0.3261
 2414.5000    11.4751   122.6882   -12.5374     0.0425     2.5096     0.2986
 2415.0000    11.4884   121.7796   -12.3914     0.0500     2.5036     0.2916
 2415.5000    11.4844   117.8551   -12.2454     0.0672     2.5126     0.3004
 2416.0000    11.4804   113.5709   -19.6241     0.0846     2.5388     0.3089
 2416.5000    11.4764   110.0054   -15.8616     0.0982     2.5518     0.3119
 2417.0000    11.4751   110.6066   -11.8045     0.0861     2.5533     0.3074
 2417.5000    11.4902   110.9053   -11.6249     0.0830     2.5480     0.2935
 2418.0000    11.4902   113.0133   -11.4789     0.0845     2.5389     0.2929
 2418.5000    11.5053   113.9161   -11.3330     0.0799     2.5329     0.2944
 2419.0000    11.5053   113.0074   -11.1869     0.0584     2.5313     0.2904
 2419.5000    11.5204   111.1946   -11.0410     0.0315     2.5298     0.2856
 2420.0000    11.5354   112.7803   -25.9690     0.0088     2.5129     0.2949
 2420.5000    11.5505   115.1096   -40.8270     0.0027     2.5071     0.3065
 2421.0000    11.5656   115.4090   -32.8553     0.0056     2.5101     0.3222
 2421.5000    11.5807   114.1988   -16.7597     0.0207     2.5146     0.3187
 2422.0000    11.5831   112.2577   -10.2745     0.0403     2.5229     0.3228
 2422.5000    11.5958   109.6329    -2.6097     0.0554     2.5259     0.3346
 2423.0000    11.5958   107.2514     5.0551     0.0644     2.5274     0.3298
 2423.5000    11.6109   110.5667     5.2011     0.0568     2.5259     0.3168
 2424.0000    11.6259   116.2953     5.3471     0.0507     2.5244     0.3134
 2424.5000    11.6259   119.0073     5.4931     0.0461     2.5235     0.3265
 2425.0000    11.6259   119.9601     5.6391     0.0400     2.5175     0.3376
 2425.5000    11.6259   119.6048     5.7895     0.0355     2.5168     0.3293
 2426.0000    11.6109   118.6645    -1.5877     0.0309     2.5228     0.3132
 2426.5000    11.5958   117.4866    -1.4052     0.0216     2.5167     0.3062
 2427.0000    11.5958   115.6738    -1.2592     0.0006     2.5024     0.3177
 2427.5000    11.5807   112.0509    -1.1132    -0.0161     2.4961     0.3298
 2428.0000    11.5656   105.7132    -0.9672    -0.0041     2.5175     0.3186
 2428.5000    11.5505   102.9953    -8.3459    -0.0086     2.5273     0.2736
 2429.0000    11.5336   105.4057    -8.1940    -0.0162     2.5295     0.2687
 2429.5000    11.5204   110.9104    -8.0451    -0.0132     2.5257     0.2787
 2430.0000    11.5204   115.6555    -7.8656     0.0199     2.5196     0.2845
 2430.5000    11.5053   118.3675    -7.7195     0.0550     2.5105     0.2811
 2431.0000    11.4751   120.1746    -7.5736     0.0470     2.4969     0.2917
 2431.5000    11.4600   117.1551    -7.4275     0.0304     2.5060     0.3002
 2432.0000    11.4299   114.4372    -7.2816     0.0092     2.5143     0.3186
 2432.5000    11.4148   116.5459    -7.1355    -0.0029     2.5141     0.3229
 2433.0000    11.4148   119.2689    -6.9896     0.0110     2.5014     0.3062
 2433.5000    11.3997   120.4617    -6.8421     0.0181     2.4901     0.2893
 2434.0000    11.3997   116.5364    -6.6917     0.0135     2.4870     0.2966
 2434.5000    11.4148   118.3435    -6.5151     0.0059     2.4968     0.3114
 2435.0000    11.4148   121.6588    -6.3691    -0.0017     2.5058     0.3181
 2435.5000    11.4148   123.1649    -6.2231    -0.0047     2.5134     0.3132
 2436.0000    11.4148   120.1447    -6.0771    -0.0048     2.5201     0.3032
 2436.5000    11.3846   115.0136    -5.9311     0.0166     2.5278     0.3051
 2437.0000    11.3394   110.7191   -13.3083     0.0299     2.5389     0.3032
 2437.5000    11.2941   106.5605   -13.1579     0.0329     2.5510     0.2924
 2438.0000    11.2640   103.5410   -13.0076     0.0147     2.5600     0.2818
 2438.5000    11.2338   103.2365   -12.8572     0.0101     2.5683     0.2900
 2439.0000    11.2187   103.5352   -12.7068     0.0221     2.5721     0.2930
 2439.5000    11.2187   103.8339   -12.5564     0.0342     2.5720     0.2960
 2440.0000    11.2187   104.7360   -12.3792     0.0372     2.5667     0.2996
 2440.5000    11.2187   109.7089   -12.2333     0.0173     2.5530     0.3362
 2441.0000    11.2187   114.3825   -12.0873     0.0401     2.5386     0.3244
 2441.5000    11.1885   115.8879   -11.9412     0.0536     2.5350     0.3114
 2442.0000    11.1735   112.1447   -11.7953     0.0491     2.5463     0.2987
 2442.5000    11.1584   107.1337   -19.1729     0.0384     2.5621     0.2910
 2443.0000    11.1282   103.5109   -26.5409     0.0339     2.5810     0.2791
 2443.5000    11.0980   102.6037   -26.3910     0.0338     2.5779     0.2758
 2444.0000    11.0538   108.3316   -33.7677     0.0353     2.5657     0.2761
 2444.5000    11.0098   110.4403   -33.5852     0.0383     2.5560     0.2770
 2445.0000    10.9502   108.6274   -40.9580     0.0412     2.5662     0.2797
 2445.5000    10.9198   105.5146   -40.8120     0.0412     2.5824     0.2864
 2446.0000    10.8893   101.6827   -40.6660     0.0411     2.5914     0.2933
 2446.5000    10.8890   101.0772   -40.5200     0.0335     2.5891     0.3004
 2447.0000    10.9038   106.5034   -40.3740     0.0229     2.5763     0.3015
 2447.5000    10.9186   114.3436   -32.7068     0.0229     2.5567     0.3098
 2448.0000    10.9182   117.9606   -32.5267     0.0276     2.5317     0.3167
 2448.5000    10.9179   117.9809   -32.3807     0.0319     2.5234     0.3145
 2449.0000    10.9176   115.2033   -32.2347     0.0469     2.5444     0.3106
 2449.5000    10.9173   112.2196   -32.0887     0.0544     2.5717     0.3003
 2450.0000    10.9020   110.4068   -39.4980     0.0378     2.5777     0.2641
 2450.5000    10.8697   110.1022   -39.3155     0.0075     2.5731     0.2687
 2451.0000    10.8259   110.0993   -39.1696    -0.0167     2.5663     0.2793
 2451.5000    10.7954   110.1479   -44.6874    -0.0166     2.5618     0.2859
 2452.0000    10.7650   110.3710   -40.7703     0.0043     2.5595     0.2775
 2452.5000    10.7345   107.9486   -36.8531     0.0180     2.5603     0.2763
 2453.0000    10.7342   104.5375   -32.9360     0.0118     2.5633     0.2763
 2453.5000    10.7038   100.0858   -29.0189     0.0284     2.5678     0.2748
 2454.0000    10.6884    98.8726   -25.1017     0.0344     2.5693     0.2672
 2454.5000    10.6730   105.1964   -21.1846     0.0343     2.5609     0.2690
 2455.0000    10.6576   105.7932   -17.2675     0.0237     2.5526     0.2745
 2455.5000    10.6422   102.7656    -7.7444     0.0101     2.5458     0.2793
 2456.0000    10.6268   100.9469    -7.5659     0.0176     2.5505     0.2830
 2456.5000    10.6114   103.6530    -7.4202     0.0053     2.5586     0.2818
 2457.0000    10.6111   107.3283    -7.2745    -0.0134     2.5526     0.2815
 2457.5000    10.6108   108.7637   -14.6477    -0.0098     2.5503     0.2775
 2458.0000    10.6106   107.8478   -14.5020     0.0129     2.5488     0.2576
 2458.5000    10.5952   104.5208   -14.3609     0.0068     2.5382     0.2476
 2459.0000    10.5949    94.5572   -21.7295    -0.0008     2.5364     0.2391
 2459.5000    10.5945    88.8169   -21.5789     0.0067     2.5608     0.2406
