~VERSION INFORMATION
 VERS.                2.0:   CWLS LOG ASCII STANDARD - VERSION 2.0
 WRAP.                 NO:   ONE LINE PER DEPTH STEP
~WELL INFORMATION
#MNEM.UNIT      DATA TYPE    INFORMATION
#----------   ------------   ------------------------------
 STRT.F            4.0000:   START DEPTH
 STOP.F         3266.0000:   STOP DEPTH
 STEP.F            0.5000:   STEP LENGTH
 NULL.          -999.2500:   NO VALUE
 COMP. LAWRENCE ALLISON & ASSOSCIATES:   COMPANY
 WELL. LAWRENCE "X" #27-11:   WELL
 FLD .          N.P.R. #3:   FIELD
 LOC .      S11 T38N R78W:   LOCATION
 CNTY.            NATRONA:   COUNTY
 STAT.            WYOMING:   STATE
 CTRY. UNITED STATES OF AMERICA:   COUNTRY
 SRVC.      DRESSER ATLAS:   SERVICE COMPANY
 DATE.        22-AUG-1986:   LOGDATE
 API .     49025111070000:   API NUMBER
~CURVE INFORMATION
#MNEM.UNIT       API CODE    CURVE DESCRIPTION
#----------   ------------   ------------------------------
 DEPT.F                  :   
 SPR .MV     07 010 01 00:   SPONTANEOUS POTENTIAL
 TENR.LBS    06 635 01 00:   TENSION FROM RESISTIVITY
 GRR .GAPI   07 310 01 00:   GAMMA RAY FROM RESISTIVITY
 RILD.OHMM   07 120 46 00:   DEEP INDUCTION RESISTIVITY
 RILM.OHMM   07 120 44 00:   INDUCTION LOG MEDIUM RESISTIVITY
 RFOC.OHMM   07 220 04 00:   RESISTIVITY FOCUSED LOG RES.
 NPHI.DEC    42 890 03 00:   NEUTRON POROSITY SANDSTONE
 CALD.IN     45 280 60 00:   CALIPER FROM DENSITY LOG
 RHOB.G/C3   45 350 01 00:   BULK DENSITY
 CORR.G/C3   45 356 01 00:   DENSITY CORRECTION
 TEND.LBS    45 635 01 00:   TENSION FORM DENSITY LOG
~PARAMETER INFORMATION
#MNEM.UNIT          VALUE    DESCRIPTION
#----------   ------------   ------------------------------
 EKB .F         5206.0000:   Kelly bushing
 EGL .F         5194.0000:   Ground level
 EDF .F         5205.0000:   Drilling floor
 EPD .F         5194.0000:   Permanent datum
 TD  .F         3250.0000:   Total depth
 CLNT.            A2DTECH:   Client Code
 SL  . 1197' FSL & 1088' FWL:   Surface Location
 PD  .                 GL:   Permanent Datum
 DAPD.F                12:   Feet Above Permanent Datum
 DATE.        22-AUG-1986:   Date Logged [DD-MMM-YYYY]
 DD  .F              3250:   Depth driller
 DL  .F              3246:   Depth logger
 BLI .F              3243:   Bottom log interval
 TLI .F               683:   Top log interval
 CS1 .IN            8.625:   Casing size
 CBD1.      8.625" @ 672':   Casing driller 1
 CBL1.F               673:   Casing logger 1
 BS1 .IN            7.875:   Bit size
 BSD1.F              3250:   Depth drilled with bit1
 DFT .            KCL-GEL:   Type fluid in hole
 DFD .                8.9:   Density
 DFV .                 35:   Viscosity
 MSS .               TANK:   Source of sample
 RMS .OHMM           0.31:   Rm
 MST .F                70:   Rm Meas. temp.
 RMF .OHMM           0.29:   Rmf
 MFST.F                67:   Rmf Meas. temp.
 MFSS.               CALC:   Source Rmf.
 RMC .OHMM           0.46:   Rmc
 MCST.F                70:   Rmc Meas. temp.
 MCSS.               CALC:   Source Rmc.
 RMB .OHMM           0.16:   Rm. at BHT
 BHT .F               136:   BHT.
 TCS .HRS               4:   Time Circ. stopped
 MRT .F               136:   Maximum recorded temp.
 LUN .            HL-6426:   Logging unit number
 LUL .          RK. SPGS.:   Logging unit location
 ENGI.               RALL:   Recorded By
 WITN.             STRONG:   Witnessed by
 ORIG.           5" PRINT:   Origin of data
 UWI .     49025111070000:   Unique Well ID
 DICO. A2D TECHNOLOGIES, INC.:   Digitizing Company
~OTHER INFORMATION
~A    DEPT     SPR       TENR         GRR      RILD       RILM       RFOC       NPHI       CALD       RHOB       CORR       TEND   
# ...
 1376.5000   -73.7928   -79.2648   106.7756     8.7646     9.0667     9.7321  -999.2500  -999.2500  -999.2500  -999.2500  -999.2500
 1377.0000   -74.3944   -79.5787   108.5746     8.8248     9.0695     9.7355  -999.2500  -999.2500  -999.2500  -999.2500  -999.2500
 1377.5000   -75.0728   -79.8927   108.5987     8.8233     9.0722     9.6700  -999.2500  -999.2500  -999.2500  -999.2500  -999.2500
 1378.0000   -75.7721   -80.2067   108.6034     8.8221     9.1390     9.6741  -999.2500  -999.2500  -999.2500  -999.2500  -999.2500
 1378.5000   -75.9068   -80.5207   109.0412     8.8209     9.1418     9.7451  -999.2500  -999.2500  -999.2500  -999.2500  -999.2500
 1379.0000   -75.9094   -80.8346   108.8033     8.8197     9.1447     9.8172  -999.2500  -999.2500  -999.2500  -999.2500  -999.2500
 1379.5000   -75.9092   -81.1486   108.1360     8.8186     9.1481     9.8206  -999.2500  -999.2500  -999.2500  -999.2500  -999.2500
 1380.0000   -75.9073   -81.4626   107.8885     8.8174     9.1509     9.8239  -999.2500  -999.2500  -999.2500  -999.2500  -999.2500
 1380.5000   -75.7840   -81.7766   107.1736     8.8161     9.0896     9.7587  -999.2500  -999.2500  -999.2500  -999.2500  -999.2500
 1381.0000   -75.1560   -82.0906   106.6611     8.8147     9.0923     9.6262  -999.2500  -999.2500  -999.2500  -999.2500  -999.2500
 1381.5000   -74.5425   -82.4045   106.3068     8.6306     8.8431     9.4963  -999.2500  -999.2500  -999.2500  -999.2500  -999.2500
 1382.0000   -73.9298   -82.7185   105.0732     8.5695     8.6007     9.4996  -999.2500  -999.2500  -999.2500  -999.2500  -999.2500
 1382.5000   -73.3217   -83.0325   102.8779     8.4328     8.5431     9.3052  -999.2500  -999.2500  -999.2500  -999.2500  -999.2500
 1383.0000   -72.8626   -83.3465   102.4500     8.3309     8.5463     9.1140  -999.2500  -999.2500  -999.2500  -999.2500  -999.2500
 1383.5000   -72.6371   -83.6604   106.0619     8.3298     8.5489     8.9911  -999.2500  -999.2500  -999.2500  -999.2500  -999.2500
 1384.0000   -72.4094   -83.9744   108.7818     8.3286     8.6118     9.0574  -999.2500  -999.2500  -999.2500  -999.2500  -999.2500
 1384.5000   -72.1820   -84.2884   111.6652     8.3275     8.6145     9.1273  -999.2500  -999.2500  -999.2500  -999.2500  -999.2500
 1385.0000   -72.0393   -84.6024   113.5998     8.3261     8.6171     9.4638  -999.2500  -999.2500  -999.2500  -999.2500  -999.2500
 1385.5000   -71.9641   -84.9164   113.4098     8.3836     8.6197     9.1311  -999.2500  -999.2500  -999.2500  -999.2500  -999.2500
 1386.0000   -71.8844   -85.2303   113.0405     8.5002     8.6224     9.0064  -999.2500  -999.2500  -999.2500  -999.2500  -999.2500
 1386.5000   -72.0886   -85.5443   113.5560     8.5586     8.6865     9.2016  -999.2500  -999.2500  -999.2500  -999.2500  -999.2500
 1387.0000   -72.3639   -85.8583   112.3173     8.5576     8.7504     9.4662  -999.2500  -999.2500  -999.2500  -999.2500  -999.2500
 1387.5000   -72.8127   -86.1723   109.1148     8.5898     8.8148     9.6705  -999.2500  -999.2500  -999.2500  -999.2500  -999.2500
 1388.0000   -73.3707   -86.4863   105.8774     8.6756     8.8796     9.7418  -999.2500  -999.2500  -999.2500  -999.2500  -999.2500
 1388.5000   -73.9302   -86.8002   104.4347     8.7965     9.0080     9.6771  -999.2500  -999.2500  -999.2500  -999.2500  -999.2500
 1389.0000   -74.4905   -87.1142   105.2953     8.8570     9.0743     9.6128  -999.2500  -999.2500  -999.2500  -999.2500  -999.2500
 1389.5000   -75.0497   -87.4282   107.1597     9.0431     9.1450     9.6169  -999.2500  -999.2500  -999.2500  -999.2500  -999.2500
 1390.0000   -75.6061   -87.7422   109.3323     9.0419     9.2090     9.7559  -999.2500  -999.2500  -999.2500  -999.2500  -999.2500
 1390.5000   -75.8073   -88.0561   111.6753     9.1679     9.3422     9.8969  -999.2500  -999.2500  -999.2500  -999.2500  -999.2500
 1391.0000   -75.5862   -88.3701   111.3787     9.2956     9.4109    10.1816  -999.2500  -999.2500  -999.2500  -999.2500  -999.2500
 1391.5000   -75.3686   -88.6841   109.6499     9.2944     9.4138    10.4013  -999.2500  -999.2500  -999.2500  -999.2500  -999.2500
 1392.0000   -75.1499   -88.9981   106.9045     9.2931     9.3508    10.5516  -999.2500  -999.2500  -999.2500  -999.2500  -999.2500
 1392.5000   -74.9321   -89.3120   104.6559     9.2918     9.1585    10.4084  -999.2500  -999.2500  -999.2500  -999.2500  -999.2500
 1393.0000   -74.7003   -89.6260   101.2738     9.2256     9.0972    10.2647  -999.2500  -999.2500  -999.2500  -999.2500  -999.2500
 1393.5000   -74.1435   -89.9400    98.6087     9.1601     9.0363    10.0466  -999.2500  -999.2500  -999.2500  -999.2500  -999.2500
 1394.0000   -73.5479   -90.2540    98.4007     9.0318     9.1035     9.9205  -999.2500  -999.2500  -999.2500  -999.2500  -999.2500
 1394.5000   -72.9511   -90.5680   100.3657     9.0305     9.1062     9.8546  -999.2500  -999.2500  -999.2500  -999.2500  -999.2500
 1395.0000   -72.3566   -90.8819   103.0462     9.0293     9.1090     9.7900  -999.2500  -999.2500  -999.2500  -999.2500  -999.2500
 1395.5000   -71.8387   -91.1959   105.4659     9.0281     9.1760     9.7933  -999.2500  -999.2500  -999.2500  -999.2500  -999.2500
 1396.0000   -71.7104   -91.5099   107.2775     9.0269     9.1789     9.7967  -999.2500  -999.2500  -999.2500  -999.2500  -999.2500
 1396.5000   -71.5783   -91.8239   108.5774     9.0256     9.1817     9.8689  -999.2500  -999.2500  -999.2500  -999.2500  -999.2500
 1397.0000   -71.5756   -92.1379   108.6804     9.0241     9.1846    10.0115  -999.2500  -999.2500  -999.2500  -999.2500  -999.2500
 1397.5000   -71.7293   -92.4518   108.6736     9.0229     9.1880    10.0854  -999.2500  -999.2500  -999.2500  -999.2500  -999.2500
 1398.0000   -71.7975   -92.7658   108.7111     9.0852     9.1904    10.0896  -999.2500  -999.2500  -999.2500  -999.2500  -999.2500
 1398.5000   -71.8552   -93.0798   106.6494     9.0838     9.1936    10.0930  -999.2500  -999.2500  -999.2500  -999.2500  -999.2500
 1399.0000   -72.2526   -93.3938   104.4923     9.0825     9.1964    10.1674  -999.2500  -999.2500  -999.2500  -999.2500  -999.2500
 1399.5000   -72.6902   -93.7077   103.9160     9.0812     9.1992     9.9594  -999.2500  -999.2500  -999.2500  -999.2500  -999.2500
 1400.0000   -73.1290   -94.0217   105.4797     9.0800     9.2020     9.7556  -999.2500  -999.2500  -999.2500  -999.2500  -999.2500
 1400.5000   -73.5665   -94.3357   105.3511     9.0787     9.2049     9.8275  -999.2500  -999.2500  -999.2500  -999.2500  -999.2500
 1401.0000   -74.0022   -94.6497   105.6011     9.0772     9.2733     9.9696  -999.2500  -999.2500  -999.2500  -999.2500  -999.2500
 1401.5000   -74.4944   -94.9637   106.5463     9.0760     9.2761    10.1847  -999.2500  -999.2500  -999.2500  -999.2500  -999.2500
 1402.0000   -75.0962   -95.2776   107.0478     9.0748     9.2789    10.1883  -999.2500  -999.2500  -999.2500  -999.2500  -999.2500
 1402.5000   -75.6781   -95.5916   107.0229     9.0736     9.2818     9.9109  -999.2500  -999.2500  -999.2500  -999.2500  -999.2500
 1403.0000   -75.4700   -95.9056   107.8146     9.1359     9.3501     9.8443  -999.2500  -999.2500  -999.2500  -999.2500  -999.2500
 1403.5000   -75.5818   -96.2196   109.2641     9.1347     9.3529     9.8485  -999.2500  -999.2500  -999.2500  -999.2500  -999.2500
 1404.0000   -75.3955   -96.5335   110.7227     9.1335     9.4298     9.7831  -999.2500  -999.2500  -999.2500  -999.2500  -999.2500
 1404.5000   -74.8879   -96.8475   111.4301     9.1963     9.4918     9.7864  -999.2500  -999.2500  -999.2500  -999.2500  -999.2500
 1405.0000   -74.3756   -97.1615   110.0171     9.2595     9.4947     9.9278  -999.2500  -999.2500  -999.2500  -999.2500  -999.2500
 1405.5000   -73.8639   -97.4755   107.7484     9.2579     9.7761    10.0713  -999.2500  -999.2500  -999.2500  -999.2500  -999.2500
 1406.0000   -73.3528   -97.7895   105.2877     9.4528     9.8487    10.2217  -999.2500  -999.2500  -999.2500  -999.2500  -999.2500
 1406.5000   -72.8402   -98.1034   102.5206     9.5181     9.9218    10.5116  -999.2500  -999.2500  -999.2500  -999.2500  -999.2500
