~VERSION INFORMATION
 VERS.                2.0:   CWLS LOG ASCII STANDARD - VERSION 2.0
 WRAP.                 NO:   ONE LINE PER DEPTH STEP
~WELL INFORMATION
#MNEM.UNIT      DATA TYPE    INFORMATION
#----------   ------------   ------------------------------
 STRT.F           80.0000:   START DEPTH
 STOP.F         2730.0000:   STOP DEPTH
 STEP.F            0.5000:   STEP LENGTH
 NULL.          -999.2500:   NO VALUE
 COMP.          U.S. NAVY:   COMPANY
 WELL. US NPR 3 "AX" #57-20:   WELL
 FLD .             TEAPOT:   FIELD
 LOC .      S20 T39N R78W:   LOCATION
 CNTY.            NATRONA:   COUNTY
 STAT.            WYOMING:   STATE
 CTRY. UNITED STATES OF AMERICA:   COUNTRY
 SRVC.       SCHLUMBERGER:   SERVICE COMPANY
 DATE.        31-JUL-1964:   LOGDATE
 API .     49025066320000:   API NUMBER
~CURVE INFORMATION
#MNEM.UNIT       API CODE    CURVE DESCRIPTION
#----------   ------------   ------------------------------
 DEPT.F                  :   
 SPR .MV     01 010 01 00:   SPONTANEOUS POTENTIAL FROM RES.
 LN  .OHMM   01 060 39 00:   LONG NORMAL 39"
 ASN .OHMM   01 041 16 00:   AMPLIFIED SHORT NORMAL 16"
 LAT .OHMM   01 070 00 00:   LATERAL
 GRN .GAPI   35 310 30 00:   GAMMA RAY
 NEUT.NAPI   35 330 01 00:   NEUTRON
~PARAMETER INFORMATION
#MNEM.UNIT          VALUE    DESCRIPTION
#----------   ------------   ------------------------------
 EKB .F         5019.0000:   Kelly bushing
 EGL .F         5011.0000:   Ground level
 TD  .F         2696.0000:   Total depth
 DATE.        31-JUL-1964:   Date logged
 CLNT.            A2DTECH:   Client Code
 PD  .                 GL:   Permanent Datum
 EPD .F              5011:   Elevation Permanent Datum
 LMF .                 KB:   Log Measured From
 DMF .                 KB:   Drilling Measured From
 DAPD.F                 8:   Feet Above Permanent Datum
 DD  .F              2690:   Depth driller
 DL  .F              2696:   Depth logger
 BLI .F              2695:   Bottom log interval
 TLI .F                82:   Top log interval
 CS1 .IN            12.25:   Casing size
 CBD1.       12.25" @ 15':   Casing driller 1
 BS1 .IN               11:   Bit size
 BSD1.F              2690:   Depth drilled with bit1
 DFT .                GEL:   Type fluid in hole
 MSS .           FLOWLINE:   Source of sample
 RMS .OHMM           2.48:   Rm
 MST .F                83:   Rm Meas. temp.
 RMF .OHMM           1.87:   Rmf
 MFST.F                83:   Rmf Meas. temp.
 MFSS.                 FP:   Source Rmf.
 MCSS.                 FP:   Source Rmc.
 TCS .HRS               4:   Time Circ. stopped
 LUN .               3527:   Logging unit number
 LUL .               CSPR:   Logging unit location
 ENGI.            WINKLER:   Recorded By
 WITN.          GORGENSEN:   Witnessed by
 ORIG.         2.5" PRINT:   Origin of data
 UWI .     49025066320000:   Unique Well ID
 DICO.   A2D TECHNOLOGIES:   Digitizing Company
~OTHER INFORMATION
~A   DEPT      SPR         LN        ASN        LAT        GRN       NEUT   
# ...
 2680.0000   -27.9580     4.4940     5.9580     5.1480    84.0200   552.0550
 2680.5000   -27.8890     4.3920     6.2330     5.5390    85.9320   547.5840
 2681.0000   -27.8340     4.6960     6.3070     5.6010    87.5260   550.3090
 2681.5000   -27.7690     4.9740     6.3260     5.5220    89.3830   560.9610
 2682.0000   -27.7100     5.2620     6.3320     5.4570    91.2870   567.8820
 2682.5000   -27.6630     5.5720     6.3440     5.3910    92.4720   565.8060
 2683.0000   -27.8220     5.7600     6.3630     5.3220    91.3930   563.8550
 2683.5000   -27.9900     5.7340     6.4580     5.2590    90.4380   561.4810
 2684.0000   -28.1690     5.7450     6.5890     5.1870    89.2460   560.5270
 2684.5000   -28.3350     5.7410     6.5830     5.1250    89.3680   562.8630
 2685.0000   -28.5130     5.7420     6.4520     5.0690    90.2400   569.6410
 2685.5000   -28.6860     5.7430     6.3760     5.2950    91.2060   568.7760
 2686.0000   -28.7860     5.7410     6.5030     5.5670    92.8690   565.1690
 2686.5000   -28.4600     5.7680     6.6340     5.8290    94.4610   554.9570
 2687.0000   -28.1820     5.8260     6.6620     6.1180    96.1720   545.9000
 2687.5000   -27.8770     5.8830     6.6090     6.2010    96.5310   535.9110
 2688.0000   -27.6150     5.9260     6.5550     6.0740    95.7100   526.8930
 2688.5000   -27.2550     6.0380     6.6080     5.9800    95.5820   517.0810
 2689.0000   -26.9000     6.2560     6.7330     5.8720    94.0090   521.6620
 2689.5000   -26.7640     6.4690     6.8480     5.7710    92.3740   527.9880
 2690.0000   -26.6420     6.5130     6.9670     5.6650    91.0770   534.9050
 2690.5000   -26.5230     6.4560     7.0860     5.5650    90.4590   536.3730
 2691.0000   -26.3950     6.4150     7.2040     5.4580    89.9540   534.5810
 2691.5000   -26.2790     6.3690     7.2840     5.4960    89.9890   533.2430
 2692.0000   -26.1440     6.3250     7.1370     5.5540    90.2810   531.9750
 2692.5000   -26.0680     6.2850     6.9050     5.6140    91.8190   533.0160
 2693.0000   -26.0110     6.2430     6.6940     5.6690    93.6160   534.3950
 2693.5000   -25.9380     6.2030     6.4820     5.7290    95.3280   535.6270
 2694.0000   -25.8680     6.1590     6.2620     5.7860    97.2220   537.0260
 2694.5000   -25.8000     6.1370     6.0560     5.8380    97.8790   540.8150
 2695.0000   -25.7240     6.1400     5.8240  -999.2500    96.6850   552.8350
 2695.5000  -999.2500     6.1380  -999.2500  -999.2500    94.5540   564.3020
 2696.0000  -999.2500  -999.2500  -999.2500  -999.2500    92.3170   572.3770
 2696.5000  -999.2500  -999.2500  -999.2500  -999.2500    90.0860   577.5270
 2697.0000  -999.2500  -999.2500  -999.2500  -999.2500    87.8840   570.3550
 2697.5000  -999.2500  -999.2500  -999.2500  -999.2500    85.5800   572.7710
 2698.0000  -999.2500  -999.2500  -999.2500  -999.2500    84.1620   582.9550
 2698.5000  -999.2500  -999.2500  -999.2500  -999.2500    84.9230   592.9870
 2699.0000  -999.2500  -999.2500  -999.2500  -999.2500    85.6510   608.8470
 2699.5000  -999.2500  -999.2500  -999.2500  -999.2500    86.6540   625.7430
 2700.0000  -999.2500  -999.2500  -999.2500  -999.2500    87.8160   630.2870
 2700.5000  -999.2500  -999.2500  -999.2500  -999.2500    89.0580   625.3000
 2701.0000  -999.2500  -999.2500  -999.2500  -999.2500    90.2460   621.3510
 2701.5000  -999.2500  -999.2500  -999.2500  -999.2500    91.3350   610.9830
 2702.0000  -999.2500  -999.2500  -999.2500  -999.2500    90.7320   597.9280
 2702.5000  -999.2500  -999.2500  -999.2500  -999.2500    90.0580   585.3860
 2703.0000  -999.2500  -999.2500  -999.2500  -999.2500    89.3700   572.3850
 2703.5000  -999.2500  -999.2500  -999.2500  -999.2500    88.7220   559.8940
 2704.0000  -999.2500  -999.2500  -999.2500  -999.2500    88.0490   546.0600
 2704.5000  -999.2500  -999.2500  -999.2500  -999.2500    87.3770   539.5470
 2705.0000  -999.2500  -999.2500  -999.2500  -999.2500    86.7420   536.5210
 2705.5000  -999.2500  -999.2500  -999.2500  -999.2500    86.0000   537.8540
 2706.0000  -999.2500  -999.2500  -999.2500  -999.2500    86.2100   532.2360
 2706.5000  -999.2500  -999.2500  -999.2500  -999.2500    86.8210   528.3110
 2707.0000  -999.2500  -999.2500  -999.2500  -999.2500    88.6180   527.8790
 2707.5000  -999.2500  -999.2500  -999.2500  -999.2500    93.0060   529.9870
 2708.0000  -999.2500  -999.2500  -999.2500  -999.2500    97.4350   542.7430
 2708.5000  -999.2500  -999.2500  -999.2500  -999.2500   101.9270   574.0780
 2709.0000  -999.2500  -999.2500  -999.2500  -999.2500   106.1550   611.1470
 2709.5000  -999.2500  -999.2500  -999.2500  -999.2500   105.5010   648.5630
 2710.0000  -999.2500  -999.2500  -999.2500  -999.2500   101.8640   695.0790
 2710.5000  -999.2500  -999.2500  -999.2500  -999.2500    96.8720   740.4720
 2711.0000  -999.2500  -999.2500  -999.2500  -999.2500    92.5470   827.7190
 2711.5000  -999.2500  -999.2500  -999.2500  -999.2500    88.0450   897.6420
 2712.0000  -999.2500  -999.2500  -999.2500  -999.2500    83.5130  1021.3220
 2712.5000  -999.2500  -999.2500  -999.2500  -999.2500    79.9140  1131.8590
 2713.0000  -999.2500  -999.2500  -999.2500  -999.2500    77.2650  1233.6620
 2713.5000  -999.2500  -999.2500  -999.2500  -999.2500    74.6700  1296.6670
 2714.0000  -999.2500  -999.2500  -999.2500  -999.2500    73.4570  1361.6541
 2714.5000  -999.2500  -999.2500  -999.2500  -999.2500    72.3870  1374.5370
 2715.0000  -999.2500  -999.2500  -999.2500  -999.2500    72.0800  1400.4730
 2715.5000  -999.2500  -999.2500  -999.2500  -999.2500    71.3580  1428.5970
 2716.0000  -999.2500  -999.2500  -999.2500  -999.2500    69.7310  1456.1630
 2716.5000  -999.2500  -999.2500  -999.2500  -999.2500    68.9910  1479.9930
 2717.0000  -999.2500  -999.2500  -999.2500  -999.2500    66.2530  1500.8820
 2717.5000  -999.2500  -999.2500  -999.2500  -999.2500    62.4370  1502.5220
 2718.0000  -999.2500  -999.2500  -999.2500  -999.2500    58.4460  1488.4420
 2718.5000  -999.2500  -999.2500  -999.2500  -999.2500    53.9230  1475.2130
 2719.0000  -999.2500  -999.2500  -999.2500  -999.2500    51.8410  1458.0280
 2719.5000  -999.2500  -999.2500  -999.2500  -999.2500    49.8080  1437.0580
 2720.0000  -999.2500  -999.2500  -999.2500  -999.2500    49.7520  1416.8500
 2720.5000  -999.2500  -999.2500  -999.2500  -999.2500    51.6300  1401.4630
 2721.0000  -999.2500  -999.2500  -999.2500  -999.2500    53.3450  1390.1240
 2721.5000  -999.2500  -999.2500  -999.2500  -999.2500    55.1590  1378.7650
 2722.0000  -999.2500  -999.2500  -999.2500  -999.2500    56.8170  1366.8530
 2722.5000  -999.2500  -999.2500  -999.2500  -999.2500    58.8390  1361.1121
 2723.0000  -999.2500  -999.2500  -999.2500  -999.2500    60.8730  1371.6720
 2723.5000  -999.2500  -999.2500  -999.2500  -999.2500    61.3110  1378.5090
 2724.0000  -999.2500  -999.2500  -999.2500  -999.2500  -999.2500  1372.2640
 2724.5000  -999.2500  -999.2500  -999.2500  -999.2500  -999.2500  1361.8470
 2725.0000  -999.2500  -999.2500  -999.2500  -999.2500  -999.2500  1351.4420
 2725.5000  -999.2500  -999.2500  -999.2500  -999.2500  -999.2500  1349.1750
 2726.0000  -999.2500  -999.2500  -999.2500  -999.2500  -999.2500  1355.5909
 2726.5000  -999.2500  -999.2500  -999.2500  -999.2500  -999.2500  1347.4750
 2727.0000  -999.2500  -999.2500  -999.2500  -999.2500  -999.2500  1344.5081
 2727.5000  -999.2500  -999.2500  -999.2500  -999.2500  -999.2500  1340.2271
 2728.0000  -999.2500  -999.2500  -999.2500  -999.2500  -999.2500  1340.7600
 2728.5000  -999.2500  -999.2500  -999.2500  -999.2500  -999.2500  1342.2390
 2729.0000  -999.2500  -999.2500  -999.2500  -999.2500  -999.2500  1344.0990
 2729.5000  -999.2500  -999.2500  -999.2500  -999.2500  -999.2500  1345.5830
 2730.0000  -999.2500  -999.2500  -999.2500  -999.2500  -999.2500  1347.3300
