~VERSION INFORMATION
 VERS.                2.0:   CWLS LOG ASCII STANDARD - VERSION 2.0
 WRAP.                 NO:   ONE LINE PER DEPTH STEP
~WELL INFORMATION
#MNEM.UNIT      DATA TYPE    INFORMATION
#----------   ------------   ------------------------------
 STRT.F           58.0000:   START DEPTH
 STOP.F         5662.0000:   STOP DEPTH
 STEP.F            0.5000:   STEP LENGTH
 NULL.          -999.2500:   NO VALUE
 COMP. DEPARTMENT OF ENERGY:   COMPANY
 WELL. DEPARTMENT NPR 3 67 "X" #1-10:   WELL
 FLD .              NPR 3:   FIELD
 LOC .      S10 T38N R78W:   LOCATION
 CNTY.            NATRONA:   COUNTY
 STAT.            WYOMING:   STATE
 CTRY. UNITED STATES OF AMERICA:   COUNTRY
 SRVC.       SCHLUMBERGER:   SERVICE COMPANY
 DATE.        05-FEB-2002:   LOGDATE
 API .     49025230400000:   API NUMBER
~CURVE INFORMATION
#MNEM.UNIT       API CODE    CURVE DESCRIPTION
#----------   ------------   ------------------------------
 DEPT.F                  :   
 TEND.LBS    45 635 01 00:   TENSION FROM DENSITY LOG
 PEFZ.B/E    45 358 01 00:   HILT PHOTOELECTRIC FACTOR
 HDRA.G/C3   45 356 01 00:   DELTA RHO HIP TOOL
 NPHI.DEC    42 890 03 00:   NEUTRON POROSITY SANDSTONE
 TENS.LBS    60 635 01 00:   TENSION
 DT  .US/F   60 520 00 00:   DELTA TIME
 TENR.LBS    07 635 01 00:   TENSION FROM RESISTIVITY
 CALR.IN     07 280 01 00:   CALIPER FROM RESISTIVITY
 GRR .GAPI   07 310 01 00:   GAMMA RAY FROM RESISTIVITY
 RXOZ.OHMM   11 270 04 00:   STD. RES. INVADED ZONE RESISTIVITY
 HLLD.OHMM   11 220 10 00:   LATEROLOG DEEP RES.
 HLLS.OHMM   11 220 09 00:   LATEROLOG SHALLOW RES.
 HRLD.OHMM   11 120 46 00:   HIGH RESOULATION DEEP RESISTIVITY
 RHOZ.G/C3   45 350 01 00:   HILT BULK DENSITY
~PARAMETER INFORMATION
#MNEM.UNIT          VALUE    DESCRIPTION
#----------   ------------   ------------------------------
 EKB .F         5205.7000:   Kelly bushing
 EGL .F         5195.7000:   Ground level
 EDF .F            0.0000:   Drilling floor
 EPD .F         5195.7000:   Permanent datum
 TD  .F         5654.0000:   Total depth
 DATE.        05-FEB-2002:   Date logged
 CLNT.            A2DTECH:   Client Code
 SL  . 1503' FEL & 721' FSL:   Surface Location
 PD  .                 GL:   Permanent Datum
 DAPD.F                10:   Feet Above Permanent Datum
 DD  .F              5650:   Depth driller
 DL  .F              5654:   Depth logger
 BLI .F              5646:   Bottom log interval
 TLI .F               499:   Top log interval
 CS1 .IN            9.625:   Casing size
 CBD1.      9.625" @ 505':   Casing driller 1
 CBL1.F               499:   Casing logger 1
 BS1 .IN            8.875:   Bit size
 BSD1.F              5650:   Depth drilled with bit1
 DFT .           GEL/CHEM:   Type fluid in hole
 DFD .                9.2:   Density
 DFV .                 52:   Viscosity
 DFPH.                8.5:   pH
 DFL .                6.8:   Fluid loss
 MSS .           FLOWLINE:   Source of sample
 RMS .OHMM           .954:   Rm
 MST .F                57:   Rm Meas. temp.
 RMF .OHMM           .734:   Rmf
 MFST.F                57:   Rmf Meas. temp.
 MFSS.              PRESS:   Source Rmf.
 RMB .OHMM           .403:   Rm. at BHT
 BHT .F               143:   BHT.
 TLAB.HRS            1208:   Time logger at bottom
 MRT .F               143:   Maximum recorded temp.
 LUN .               2211:   Logging unit number
 LUL .             CASPER:   Logging unit location
 ENGI.           R. SROUR:   Recorded By
 WITN.        M. MILLIKEN:   Witnessed by
 ORIG.           5" PRINT:   Origin of data
 UWI .     49025230400000:   Unique Well ID
 DICO. A2D TECHNOLOGIES, INC.:   Digitizing Company
 RMC .               1.24:   Rmc
 MCST.                 57:   Rmc Meas. temp.
 MCSS.              PRESS:   Source Rmc.
 TCS .                200:   Time Circ. stopped
~OTHER INFORMATION
~A   DEPT     TEND       PEFZ       HDRA       NPHI       TENS         DT       TENR       CALR         GRR      RXOZ       HLLD       HLLS       HRLD       RHOZ   
# ...
 3904.5000  2159.2041     3.7230     0.0050     0.2640  1601.0870    88.3140  2182.8059    10.9840    85.2930     7.3800     6.6740     6.9840     6.7220     2.6250
 3905.0000  2159.2041     3.7450     0.0030     0.2690  1601.4440    90.8960  2186.3379    10.9870    84.5700     7.6310     6.6740     7.0820     6.6740     2.6130
 3905.5000  2159.2041     3.7140     0.0010     0.2480  1599.4969    89.6810  2189.8711    10.9900    81.0630     7.8680     7.0440     7.4570     6.9920     2.6020
 3906.0000  2159.2041     3.6840    -0.0010     0.2240  1597.5500    89.1040  2193.4031    10.9930    76.8320     8.4340     7.3930     7.9190     7.3620     2.6060
 3906.5000  2159.2041     3.6550     0.0010     0.2150  1595.6021    90.4510  2188.7061    10.9960    75.8160     8.8880     7.7890     8.3800     7.7330     2.6180
 3907.0000  2159.2041     3.6450     0.0050     0.2010  1593.6550    90.7020  2175.5181    10.9990    78.3610     9.3610     8.3120     8.7270     8.1030     2.6360
 3907.5000  2159.2041     3.7100     0.0080     0.1980  1591.7080    90.8660  2162.3301    11.0040    81.1850     8.9430     8.2210     8.9430     8.2360     2.6510
 3908.0000  2159.2041     3.6760     0.0080     0.2020  1589.7610    92.5210  2154.9160    11.0480    80.9000     9.2460     7.8850     8.2120     7.7880     2.6510
 3908.5000  2159.2041     3.5820     0.0080     0.2310  1587.8140    95.1390  2163.8811    11.1120    76.2920     9.7990     7.2540     7.6230     7.0860     2.6480
 3909.0000  2159.2041     3.4510     0.0080     0.2270  1585.8669    97.2780  2178.0110    11.1730    74.8060     9.6610     6.2600     7.0500     5.9800     2.6360
 3909.5000  2159.2041     3.3420     0.0090     0.2180  1583.9200    98.0850  2192.1411    11.0450    76.0170     9.1590     6.5880     7.4520     6.2460     2.6290
 3910.0000  2159.2041     3.3130     0.0080     0.2100  1582.0900    99.9340  2194.6379    10.9850    79.0070     8.2770     7.6550     8.6220     6.8590     2.6180
 3910.5000  2159.2041     3.3910     0.0050     0.2130  1578.8000   100.7170  2194.6379    11.0030    81.5140     7.6480     7.3380     7.8280     6.9860     2.6180
 3911.0000  2159.2041     3.5130     0.0030     0.2280  1575.6970    99.6520  2194.6379    11.0090    82.6180     7.1760     6.5800     7.0500     6.2030     2.6250
 3911.5000  2159.2041     3.6360     0.0020     0.2500  1572.5930    95.0390  2202.9790    11.0160    82.1340     6.6130     5.9800     6.4340     5.8720     2.6180
 3912.0000  2159.2041     3.6890     0.0010     0.2800  1569.4900    87.8620  2211.2209    11.0230    81.1230     6.8300     6.0140     6.3750     5.9220     2.6080
 3912.5000  2159.2041     3.6350     0.0030     0.2620  1566.3870    81.0450  2204.5681    11.0300    79.4780     7.1800     6.1380     6.6570     6.0060     2.6000
 3913.0000  2159.2041     3.5810     0.0040     0.2480  1563.2841    76.2690  2188.0830    11.0360    79.9740     6.9520     6.0330     6.5450     6.0900     2.5970
 3913.5000  2159.2041     3.5270     0.0120     0.2580  1582.0900    76.8010  2171.5991    11.0230    83.0430     6.3790     5.7470     6.2230     5.7040     2.6010
 3914.0000  2159.2041     3.4750     0.0140     0.2790  1582.3160    79.8370  2154.9160    11.0010    86.7030     6.2600     5.4570     6.0350     5.4080     2.5970
 3914.5000  2159.2041     3.4430     0.0090     0.2970  1582.5840    85.1750  2164.6870    10.9840    89.3900     6.3750     5.6630     6.3620     5.5550     2.5890
 3915.0000  2159.2041     3.4140     0.0050     0.2820  1582.8510    86.1190  2174.7771    10.9660    87.4960     7.1590     6.2290     6.9200     5.8140     2.5730
 3915.5000  2159.2041     3.4830     0.0000     0.2560  1583.1190    84.8590  2174.7771    10.9410    83.9130     7.8330     6.7950     7.4790     6.4710     2.5640
 3916.0000  2159.2041     3.5550    -0.0020     0.2370  1583.3870    84.2290  2174.7771    10.8990    79.2410     8.8420     8.0390     8.1740     7.2400     2.5610
 3916.5000  2159.2041     3.6270    -0.0020     0.2330  1583.6541    90.1650  2174.7771    10.8560    74.5830     9.2760     8.4970     8.9830     7.6740     2.5670
 3917.0000  2159.2041     3.6990     0.0030     0.2290  1583.9220    99.5360  2174.7771    10.8140    69.4430     7.5850     9.1440     8.5480     7.1350     2.5860
 3917.5000  2159.2041     3.7700     0.0080     0.1970  1584.1899   104.0050  2174.7771    10.7700    62.5710     7.7250    12.6890     8.3880     6.8590     2.6170
 3918.0000  2159.2041     3.8380     0.0080     0.1590  1584.4570   104.9250  2176.5439    10.7210    55.7500    27.5460    15.7000    17.5060    12.5800     2.6450
 3918.5000  2159.2041     3.8690     0.0030     0.1140  1584.7250    93.2790  2181.4900    10.7270    54.2180    23.4330    18.2520    22.5250    16.0580     2.6600
 3919.0000  2159.2041     3.8910     0.0030     0.1090  1584.9930    82.8140  2186.4351    10.7370    58.7240    15.6240    11.9840    17.6130    13.1310     2.6530
 3919.5000  2159.2041     3.8930     0.0030     0.1620  1585.2600    73.5940  2191.3799    10.7400    66.5150    12.2400    10.2870    13.3500     8.7930     2.6380
 3920.0000  2159.2041     3.8120     0.0030     0.1880  1585.5280    69.8010  2192.7620    10.7030    74.0080     9.5370     9.0730    10.1750     8.2640     2.6390
 3920.5000  2159.2041     3.7090     0.0060     0.2110  1585.7960    72.1550  2187.2671    10.6810    79.9460     8.5040     7.9750     9.0250     7.3800     2.6450
 3921.0000  2159.2041     3.6040     0.0080     0.2260  1586.0630    76.4720  2181.7720    10.7610    84.4280     7.4710     6.6740     7.5160     6.6130     2.6490
 3921.5000  2159.2041     3.4860     0.0060     0.2550  1586.3311    80.7140  2176.2771    10.7670    89.3950     6.9220     6.7370     7.5430     5.7130     2.6430
 3922.0000  2159.2041     3.2890     0.0030     0.2730  1586.5990    83.5160  2189.1560    10.6910    94.4500     7.2510     6.7970     7.5790     6.1340     2.6260
 3922.5000  2159.2041     3.1150     0.0040     0.2600  1586.8660    86.3180  2211.1370    10.6730    96.7520     7.2900     6.7130     7.6160     6.3170     2.6140
 3923.0000  2159.2041     3.0680     0.0050     0.2450  1587.1340    91.0950  2233.9619    10.6610    96.8400     7.3280     6.5960     7.6550     6.3960     2.6180
 3923.5000  2159.2041     3.0200     0.0100     0.2410  1587.4020   100.1670  2254.2200    10.6490    95.9590     7.3670     6.4930     7.7160     6.4470     2.6270
 3924.0000  2159.2041     2.9690     0.0140     0.2370  1587.6689   107.7110  2219.5400    10.6380    92.7430     7.4060     6.5670     7.7820     6.4710     2.6300
 3924.5000  2159.2041     2.9890     0.0120     0.2300  1587.9370   105.3610  2181.4990    10.6230    86.3660     7.4480     6.7020     7.8480     6.5570     2.6240
 3925.0000  2159.2041     3.0540     0.0110     0.2030  1588.2050    95.5450  2154.9160    10.5080    77.8530    10.7390     8.8860    11.3970     8.0080     2.6250
 3925.5000  2159.2041     3.1200     0.0110     0.1560  1588.4720    83.0870  2187.5669    10.3730    69.5080    18.2870    15.8220    19.4090    12.7960     2.6410
 3926.0000  2159.2041     3.1220     0.0110     0.0980  1588.7400    73.3390  2214.4990    10.2380    66.9810    25.1380    22.1170    25.3690    18.4200     2.6490
 3926.5000  2159.2041     3.0580     0.0060     0.1020  1589.0081    70.4980  2197.8760    10.1320    65.7260    20.1840    20.3840    20.7450    16.9820     2.6070
 3927.0000  2159.2041     2.9950     0.0000     0.1100  1589.2750    72.7830  2182.6599    10.1350    62.9190    21.7160    18.9320    21.3460    15.7670     2.5680
 3927.5000  2159.2041     2.9320     0.0000     0.1160  1589.5430    75.6630  2178.3069    10.1350    58.3700    20.2910    20.5560    22.7320    18.2520     2.5330
 3928.0000  2159.2041     2.7620     0.0010     0.1180  1589.8110    78.5420  2185.6340    10.1350    54.3530    17.3350    17.1210    20.1690    15.1150     2.5100
 3928.5000  2159.2041     2.5870     0.0020     0.1320  1590.0790    81.4220  2192.9600    10.1340    54.1360    14.0000    13.9410    14.3890    12.4570     2.5100
