~VERSION INFORMATION
 VERS.                2.0:   CWLS LOG ASCII STANDARD - VERSION 2.0
 WRAP.                 NO:   ONE LINE PER DEPTH STEP
~WELL INFORMATION
#MNEM.UNIT      DATA TYPE    INFORMATION
#----------   ------------   ------------------------------
 STRT.F           10.0000:   START DEPTH
 STOP.F         2950.0000:   STOP DEPTH
 STEP.F            0.5000:   STEP LENGTH
 NULL.          -999.2500:   NO VALUE
 COMP.    FENIX & SCISSON:   COMPANY
 WELL.   PENIX SHX #11-23:   WELL
 FLD .  TEAPOT DOME NPR-3:   FIELD
 LOC .      S23 T38N R78W:   LOCATION
 CNTY.            NATRONA:   COUNTY
 STAT.            WYOMING:   STATE
 CTRY. UNITED STATES OF AMERICA:   COUNTRY
 SRVC.           BIRDWELL:   SERVICE COMPANY
 DATE.        19-MAY-1979:   LOGDATE
 API .     49025107790000:   API NUMBER
~CURVE INFORMATION
#MNEM.UNIT       API CODE    CURVE DESCRIPTION
#----------   ------------   ------------------------------
 DEPT.F                  :   
 ILD .OHMM   05 120 46 00:   INDUCTION LOG DEEP
 SN  .OHMM   05 040 16 00:   SHORT NORMAL 16"
 CALD.IN     45 280 60 00:   CALIPER FROM DENSITY LOG
 GRD .GAPI   45 310 01 00:   GAMMA RAY FROM DENSITY LOG
 RHOB.G/C3   45 350 01 00:   BULK DENSITY
 CORR.G/C3   45 356 01 00:   DENSITY CORRECTION
~PARAMETER INFORMATION
#MNEM.UNIT          VALUE    DESCRIPTION
#----------   ------------   ------------------------------
 EKB .F         5275.0000:   Kelly bushing
 EGL .F         5265.0000:   Ground level
 EDF .F            0.0000:   Drilling floor
 TD  .F         2995.0000:   Total depth
 DATE.        19-MAY-1979:   Date logged
 CLNT.            A2DTECH:   Client Code
 SL  . 337' FNL & 237' FWL:   Surface Location
 PD  .                 GL:   Permanent Datum
 EPD .F              5265:   Elevation Permanent Datum
 LMF .                 KB:   Log Measured From
 DMF .                 KB:   Drilling Measured From
 DAPD.F                10:   Feet Above Permanent Datum
 DD  .F              2995:   Depth driller
 DL  .F              2950:   Depth logger
 BLI .F              2944:   Bottom log interval
 TLI .F              1050:   Top log interval
 CS1 .IN            9.625:   Casing size
 CBD1.     9.625" @ 2050':   Casing driller 1
 CBL1.F              1050:   Casing logger 1
 BS1 .IN             8.75:   Bit size
 BSD1.F              2995:   Depth drilled with bit1
 DFT . AIR/FORRATION FLUIDS:   Type fluid in hole
 TCS .HRS              12:   Time Circ. stopped
 LUN .               3029:   Logging unit number
 LUL .             CASPER:   Logging unit location
 ENGI.         B. ROLLINS:   Recorded By
 ORIG.         2.5" PRINT:   Origin of data
 UWI .     49025107790000:   Unique Well ID
 DICO. A2D TECHNOLOGIES, INC.:   Digitizing Company
~OTHER INFORMATION
~A   DEPT      ILD         SN       CALD        GRD       RHOB         CORR 
   10.0000  -999.2500  -999.2500  -999.2500  -999.2500  -999.2500     0.0020
   10.5000  -999.2500  -999.2500  -999.2500  -999.2500  -999.2500     0.0020
   11.0000  -999.2500  -999.2500  -999.2500  -999.2500  -999.2500     0.0020
   11.5000  -999.2500  -999.2500  -999.2500  -999.2500  -999.2500     0.0020
   12.0000  -999.2500  -999.2500  -999.2500  -999.2500  -999.2500     0.0020
   12.5000  -999.2500  -999.2500  -999.2500  -999.2500  -999.2500     0.0020
   13.0000  -999.2500  -999.2500  -999.2500  -999.2500  -999.2500     0.0020
   13.5000  -999.2500  -999.2500  -999.2500  -999.2500  -999.2500     0.0020
   14.0000  -999.2500  -999.2500  -999.2500  -999.2500  -999.2500     0.0020
   14.5000  -999.2500  -999.2500  -999.2500  -999.2500  -999.2500     0.0020
   15.0000  -999.2500  -999.2500  -999.2500  -999.2500  -999.2500     0.0020
   15.5000  -999.2500  -999.2500  -999.2500  -999.2500  -999.2500     0.0000
   16.0000  -999.2500  -999.2500  -999.2500  -999.2500     2.2550    -0.0030
   16.5000  -999.2500  -999.2500  -999.2500  -999.2500     2.2400    -0.0130
   17.0000  -999.2500  -999.2500  -999.2500  -999.2500     2.2250    -0.0310
   17.5000  -999.2500  -999.2500  -999.2500  -999.2500     2.2270    -0.0480
   18.0000  -999.2500  -999.2500  -999.2500  -999.2500     2.2370    -0.0580
   18.5000  -999.2500  -999.2500  -999.2500  -999.2500     2.2590    -0.0480
   19.0000  -999.2500  -999.2500  -999.2500  -999.2500     2.2690    -0.0320
   19.5000  -999.2500  -999.2500  -999.2500  -999.2500     2.2650    -0.0290
   20.0000  -999.2500  -999.2500  -999.2500    79.8800     2.2660    -0.0280
   20.5000  -999.2500  -999.2500    12.3860    79.8800     2.2650    -0.0260
   21.0000  -999.2500  -999.2500    12.3860    79.4820     2.2910    -0.0230
   21.5000  -999.2500  -999.2500    12.3860    80.9560     2.3170     0.0170
   22.0000  -999.2500  -999.2500  -999.2500    80.2790     2.3410     0.0170
   22.5000  -999.2500  -999.2500  -999.2500    81.1020     2.3360     0.0160
   23.0000  -999.2500  -999.2500    12.3810    82.0850     2.3160     0.0060
   23.5000  -999.2500  -999.2500    12.3790    82.4760     2.3140     0.0030
   24.0000  -999.2500  -999.2500    12.3780    82.0370     2.3120    -0.0020
   24.5000  -999.2500  -999.2500    12.3770    78.0590     2.2970    -0.0130
   25.0000  -999.2500  -999.2500    12.3750    79.0430     2.2610    -0.0270
   25.5000  -999.2500  -999.2500    12.3730    79.3230     2.2270    -0.0380
   26.0000  -999.2500  -999.2500    12.3710    77.8720     2.1920    -0.0430
   26.5000  -999.2500  -999.2500    12.3690    75.8350     2.1570    -0.0490
   27.0000  -999.2500  -999.2500    12.3680    73.8760     2.1220    -0.0550
   27.5000  -999.2500  -999.2500    12.3660    72.3870     2.0900    -0.0610
   28.0000  -999.2500  -999.2500    12.3640    73.9310     2.0450    -0.0670
   28.5000  -999.2500  -999.2500    12.3620    75.7540     2.0090    -0.0740
   29.0000  -999.2500  -999.2500    12.3600    77.9050     1.9990    -0.0800
   29.5000  -999.2500  -999.2500    12.3590    80.4340     1.9190    -0.0860
   30.0000  -999.2500  -999.2500    12.3570    79.1780     1.8890    -0.0920
   30.5000  -999.2500  -999.2500    12.3550    75.8860     1.8830    -0.0960
   31.0000  -999.2500  -999.2500    12.3530    78.4870     1.9020    -0.0950
   31.5000  -999.2500  -999.2500    12.3520    79.9120     1.9210    -0.0910
   32.0000  -999.2500  -999.2500    12.3500    79.7470     1.9420    -0.0880
   32.5000  -999.2500  -999.2500    12.3480    79.7510     1.9560    -0.0850
   33.0000  -999.2500  -999.2500    12.3470    81.8370     1.9570    -0.0820
   33.5000  -999.2500  -999.2500    12.3490    81.2540     1.9600    -0.0790
   34.0000  -999.2500  -999.2500    12.3520    79.0320     1.9810    -0.0750
   34.5000  -999.2500  -999.2500    12.3540    76.7590     2.0230    -0.0720
   35.0000  -999.2500  -999.2500    12.3560    75.7370     2.0370    -0.0670
   35.5000  -999.2500  -999.2500    12.3580    74.6980     2.0570    -0.0630
   36.0000  -999.2500  -999.2500    12.3600    74.7360     2.0600    -0.0600
   36.5000  -999.2500  -999.2500    12.3620    73.5690     2.0640    -0.0690
   37.0000  -999.2500  -999.2500    12.3650    75.2930     2.0700    -0.0700
   37.5000  -999.2500  -999.2500    12.3670    77.0520     2.0700    -0.0670
   38.0000  -999.2500  -999.2500    12.3690    76.9020     2.0630    -0.0640
   38.5000  -999.2500  -999.2500    12.3710    74.0530     2.0570    -0.0620
   39.0000  -999.2500  -999.2500    12.3730    74.2710     2.0540    -0.0590
   39.5000  -999.2500  -999.2500    12.3760    74.9960     2.0540    -0.0620
   40.0000  -999.2500  -999.2500    12.3780    75.7870     2.0570    -0.0660
   40.5000  -999.2500  -999.2500    12.3800    75.5500     2.0780    -0.0700
   41.0000  -999.2500  -999.2500    12.3820    73.7040     2.1000    -0.0750
   41.5000  -999.2500  -999.2500    12.3840    74.9700     2.1290    -0.0690
   42.0000  -999.2500  -999.2500    12.3870    74.5080     2.1510    -0.0620
   42.5000  -999.2500  -999.2500    12.3900    74.1700     2.1910    -0.0550
   43.0000  -999.2500  -999.2500    12.3930    73.0570     2.1940    -0.0460
   43.5000  -999.2500  -999.2500    12.3960    75.7620     2.1790    -0.0440
   44.0000  -999.2500  -999.2500    12.3990    81.2720     2.1630    -0.0490
   44.5000  -999.2500  -999.2500    12.4020    85.2350     2.1430    -0.0540
   45.0000  -999.2500  -999.2500    12.4050    85.1250     2.1660    -0.0580
   45.5000  -999.2500  -999.2500    12.4080    85.3610     2.2100    -0.0620
   46.0000  -999.2500  -999.2500    12.4110    88.0760     2.2530    -0.0520
   46.5000  -999.2500  -999.2500    12.4140    89.7870     2.2980    -0.0270
   47.0000  -999.2500  -999.2500    12.4180    86.0380     2.3340     0.0030
   47.5000  -999.2500  -999.2500    12.4200    82.4380     2.3670     0.0540
   48.0000  -999.2500  -999.2500    12.4240    76.2700     2.3950     0.2480
   48.5000  -999.2500  -999.2500    12.4280    70.5250     2.4120     0.2340
   49.0000  -999.2500  -999.2500    12.4550    65.0310     2.1530     0.1380
   49.5000  -999.2500  -999.2500    12.4840    61.1250     1.8290     0.0570
   50.0000  -999.2500  -999.2500    12.5080    58.0630     1.3060    -0.0420
   50.5000  -999.2500  -999.2500    12.5380    58.7470     1.3600     0.0310
   51.0000  -999.2500  -999.2500    12.5650    58.2170     1.4280     0.1270
   51.5000  -999.2500  -999.2500    12.5910    57.1910     1.5230     0.2320
   52.0000  -999.2500  -999.2500    12.6170    56.8320     1.5170     0.2640
   52.5000  -999.2500  -999.2500    12.5410    59.5180     1.2670    -0.1850
   53.0000  -999.2500  -999.2500    12.4330    60.1510     1.1840    -0.1520
   53.5000  -999.2500  -999.2500    12.3080    63.1510     1.2620    -0.0680
   54.0000  -999.2500  -999.2500    12.3110    63.4430     1.3140     0.0010
   54.5000  -999.2500  -999.2500    12.3430    61.9790     1.8230    -0.0530
   55.0000  -999.2500  -999.2500    12.3260    60.6550     2.0520    -0.0920
   55.5000  -999.2500  -999.2500    12.3150    59.4260     2.1550     0.1050
   56.0000  -999.2500  -999.2500    12.3040    61.3080     2.2180     0.3010
   56.5000  -999.2500  -999.2500    12.2930    63.7230     2.2120     0.1120
   57.0000  -999.2500  -999.2500    12.2790    63.9890     2.0620     0.1220
   57.5000  -999.2500  -999.2500    12.2670    63.9770     1.6600     0.1680
   58.0000  -999.2500  -999.2500    12.2360    63.8660     1.1680     0.2060
   58.5000  -999.2500  -999.2500    12.3190    65.0120     1.2020    -0.0410
   59.0000  -999.2500  -999.2500    12.4030    72.0350     1.2870    -0.2030
   59.5000  -999.2500  -999.2500    12.4650    81.4680     1.3730    -0.1040
   60.0000  -999.2500  -999.2500    12.4660    83.3800     2.1090    -0.0250
   60.5000  -999.2500  -999.2500    12.4480    83.4570     2.2080     0.0340
   61.0000  -999.2500  -999.2500    12.4110    83.4930     2.2430     0.0640
   61.5000  -999.2500  -999.2500    12.3790    82.7900     2.2770     0.0920
