~VERSION INFORMATION
 VERS.                2.0:   CWLS LOG ASCII STANDARD - VERSION 2.0
 WRAP.                 NO:   ONE LINE PER DEPTH STEP
~WELL INFORMATION
#MNEM.UNIT      DATA TYPE    INFORMATION
#----------   ------------   ------------------------------
 STRT.F          206.0000:   START DEPTH
 STOP.F         3080.5000:   STOP DEPTH
 STEP.F            0.5000:   STEP LENGTH
 NULL.          -999.2500:   NO VALUE
 COMP.    FENIX & SCISSON:   COMPANY
 WELL.   FENIX "A" #61-28:   WELL
 FLD .           N P R #3:   FIELD
 LOC .      S28 T39N R78W:   LOCATION
 CNTY.            NATRONA:   COUNTY
 STAT.            WYOMING:   STATE
 CTRY. UNITED STATES OF AMERICA:   COUNTRY
 SRVC.        SCHLUMBEGER:   SERVICE COMPANY
 DATE.        16-MAY-1977:   LOGDATE
 API .     49025103680000:   API NUMBER
~CURVE INFORMATION
#MNEM.UNIT       API CODE    CURVE DESCRIPTION
#----------   ------------   ------------------------------
 DEPT.F                  :   
 SPR .MV     07 010 01 00:   SPONTANEOUS POTENTIAL
 LL8 .OHMM   07 220 08 00:   LATEROLOG-8 RES.
 ILM .OHMM   07 120 44 00:   INDUCTION LOG MEDIUM RESISTIVITY
 ILD .OHMM   07 120 46 00:   DEEP INDUCTION RESISTIVITY
 CALD.IN     45 280 60 00:   CALIPER FROM DENSITY LOG
 GRD .GAPI   45 310 01 00:   GAMMA RAY FROM DENSITY LOG
 RHOB.G/C3   45 350 01 00:   BULK DENSITY
 CORR.G/C3   45 356 01 00:   DENSITY CORRECTION
~PARAMETER INFORMATION
#MNEM.UNIT          VALUE    DESCRIPTION
#----------   ------------   ------------------------------
 EKB .F         5019.0000:   Kelly bushing
 EGL .F         5009.0000:   Ground level
 EDF .F            0.0000:   Drilling floor
 TD  .F         3050.0000:   Total depth
 DATE.        16-MAY-1977:   Date logged
 CLNT.            A2DTECH:   Client Code
 SL  . 330' FNL & 1650' FEL:   Surface Location
 PD  .                 GL:   Permanent Datum
 DD  .F              3050:   Depth driller
 DL  .F              3079:   Depth logger
 BLI .F              3072:   Bottom log interval
 CS1 .IN            8.625:   Casing size
 CBD1.      8.625" @ 213':   Casing driller 1
 CBL1.F               213:   Casing logger 1
 BS1 .IN            7.875:   Bit size
 DFT .            KCL-MUD:   Type fluid in hole
 DFD .                9.2:   Density
 DFV .                 32:   Viscosity
 DFPH.                  8:   pH
 DFL .                7.6:   Fluid loss
 MSS .              CIRC.:   Source of sample
 RMS .OHMM          0.128:   Rm
 MST .F                62:   Rm Meas. temp.
 RMF .OHMM          0.126:   Rmf
 MFST.F                62:   Rmf Meas. temp.
 RMC .OHMM          0.192:   Rmc
 MCST.F                62:   Rmc Meas. temp.
 MFSS.               MEAS:   Source Rmf.
 RMB .OHMM           0.07:   Rm. at BHT
 BHT .F               112:   BHT.
 TCS .HRS            0900:   Time Circ. stopped
 MRT .F               112:   Maximum recorded temp.
 LUN .               7711:   Logging unit number
 LUL .               CSPR:   Logging unit location
 ENGI.             SAYLER:   Recorded By
 WITN.         PETTINGILL:   Witnessed by
 ORIG.           5" PRINT:   Origin of data
 UWI .     49025103680000:   Unique Well ID
 DICO. A2D TECHNOLOGIES, INC.:   Digitizing Company
 DAPD.                 10:   Feet Above Permanent Datum
 BSD1.               3050:   Depth drilled with bit1
 MCSS.               CALC:   Source Rmc.
 EPD .F              5009:   Elevation Permanent Datum
 LMF .                 KB:   Log Measured From
 DMF .                 KB:   Drilling Measured From
 TLI .F               213:   Top log interval
 TLAB.               1100:   Time logger at bottom
~OTHER INFORMATION
~A   DEPT      SPR        LL8        ILM        ILD       CALD         GRD      RHOB       CORR   
# ...
 2271.5000   -45.2620    12.3830     9.9100     9.1790     8.4010   141.4220     2.4620     0.0050
 2272.0000   -45.3200    13.3470     9.7090     9.0920     8.4020   145.0710     2.4710     0.0070
 2272.5000   -45.3800    12.6750     9.5080     9.0040     8.4050   147.0570     2.4800     0.0100
 2273.0000   -45.4020    11.6700     9.3070     8.9170     8.4080   144.7790     2.4880     0.0120
 2273.5000   -45.3970    11.0010     9.0720     8.8300     8.4100   141.0690     2.4960     0.0130
 2274.0000   -45.4250    10.5190     9.0850     8.7450     8.4130   135.3430     2.5040     0.0140
 2274.5000   -45.4740     9.9460     9.1150     8.6760     8.4150   129.9940     2.5110     0.0080
 2275.0000   -45.5180     9.9460     9.1440     8.5640     8.4180   128.2720     2.5160     0.0000
 2275.5000   -45.5630    11.3120     9.1740     8.4530     8.4210   129.8740     2.5160     0.0020
 2276.0000   -45.6080    11.0980     9.2040     8.5850     8.4230   131.1850     2.5080     0.0060
 2276.5000   -45.6530    10.5350     9.2410     8.4470     8.4260   131.7180     2.4990     0.0070
 2277.0000   -45.6990     9.9460     9.0850     8.3040     8.4280   130.2270     2.4970     0.0050
 2277.5000   -45.7430    10.6860     8.6470     8.1620     8.4310   125.7730     2.5000     0.0040
 2278.0000   -45.7880    11.5220     8.2100     7.8700     8.4340   119.3000     2.5020     0.0070
 2278.5000   -45.7820    10.9460     7.7720     7.5250     8.4360   113.7860     2.5010     0.0040
 2279.0000   -45.7560     9.8440     7.3340     7.1790     8.4390   111.9040     2.5000     0.0030
 2279.5000   -45.7320     8.7410     6.7600     6.8340     8.4380   112.8740     2.4980     0.0050
 2280.0000   -45.7070     7.6390     6.8860     6.4880     8.4340   116.2150     2.4970     0.0070
 2280.5000   -45.6820     6.5370     7.0370     6.1670     8.4300   120.3570     2.5010     0.0090
 2281.0000   -45.6570     6.0540     7.2080     6.2690     8.4250   124.0920     2.5040     0.0060
 2281.5000   -45.6330     7.6900     7.3800     6.3650     8.4210   125.2210     2.4950     0.0040
 2282.0000   -45.6080     9.6040     7.5520     6.4610     8.4190   122.6050     2.4890     0.0010
 2282.5000   -45.5830    10.7050     7.7230     6.5160     8.4160   118.6640     2.4820    -0.0010
 2283.0000   -45.5580    10.2350     7.8950     6.8570     8.4140   114.7590     2.4810    -0.0020
 2283.5000   -45.5330     9.7750     8.0660     7.1920     8.4120   114.0600     2.4850    -0.0010
 2284.0000   -45.5090     9.5870     8.2380     7.5260     8.4100   114.9230     2.4880    -0.0010
 2284.5000   -45.4840     9.0980     8.5270     7.8600     8.4070   116.1420     2.4920    -0.0010
 2285.0000   -45.4590     8.5850     8.7870     8.1940     8.4050   116.6940     2.4950     0.0000
 2285.5000   -45.4350     9.0510     9.0470     8.3000     8.4030   115.6360     2.4980    -0.0010
 2286.0000   -45.4090    10.3720     9.3070     8.3680     8.4010   112.7620     2.4950    -0.0040
 2286.5000   -45.3990    11.6940     9.5870     8.4360     8.3980   109.5790     2.4890    -0.0060
 2287.0000   -45.4000    12.8650     9.4120     8.5040     8.3960   107.9570     2.4820    -0.0090
 2287.5000   -45.4000    12.0280     9.1340     8.5720     8.3940   107.0990     2.4750    -0.0110
 2288.0000   -45.4010    11.2760     8.9070     8.6400     8.3920   105.7830     2.4700    -0.0120
 2288.5000   -45.3990    10.5240     9.1580     8.7090     8.3890   104.2640     2.4760    -0.0060
 2289.0000   -45.4010     9.7720     9.4670     8.7450     8.3870   104.9290     2.4820    -0.0080
 2289.5000   -45.4060     8.9070     9.7750     8.7450     8.3850   108.4560     2.4890    -0.0110
 2290.0000   -45.4810     9.9080     9.9460     8.7450     8.3830   110.5810     2.4890    -0.0080
 2290.5000   -45.5460    12.1550     9.9460     8.9070     8.3810   109.0720     2.4870    -0.0020
 2291.0000   -45.6150    14.3650     9.9080     8.9650     8.3820   106.4190     2.4820     0.0040
 2291.5000   -45.6820    13.5760     9.8190     9.1020     8.3830   104.0000     2.4680    -0.0010
 2292.0000   -45.7500    12.2840     9.5870     9.2410     8.3840   102.2710     2.4510    -0.0050
 2292.5000   -45.8170    10.9690     9.3910     9.2410     8.3850   102.1880     2.4560     0.0010
 2293.0000   -45.8850    11.4440     9.1940     8.9070     8.3860   102.9530     2.4640     0.0050
 2293.5000   -45.9530    12.3960     8.9980     8.6940     8.3870   103.3550     2.4730     0.0020
 2294.0000   -46.0200    11.4330     8.8010     8.4810     8.3880   103.7870     2.4810     0.0000
 2294.5000   -46.0880     9.8430     8.6040     8.2680     8.3890   109.1030     2.4850     0.0020
 2295.0000   -46.1550     7.9770     8.4070     8.0550     8.3900   115.3240     2.4710     0.0040
 2295.5000   -46.2230     8.6980     8.2100     7.8420     8.3910   121.4150     2.4610     0.0040
 2296.0000   -46.2900    10.1010     8.0130     7.6290     8.3920   128.3080     2.4500     0.0030
 2296.5000   -46.3590    11.9530     7.8160     7.4160     8.3930   126.9880     2.4490     0.0030
 2297.0000   -46.4260    11.5220     7.6190     7.2030     8.3940   124.7340     2.4510     0.0020
 2297.5000   -46.4910    10.4540     7.4220     6.9900     8.3950   122.3730     2.4460     0.0010
 2298.0000   -46.5700     9.2270     7.2260     6.7770     8.3960   121.8590     2.4420    -0.0040
 2298.5000   -46.5430     7.5490     7.0290     6.5640     8.3970   122.6470     2.4370    -0.0090
 2299.0000   -46.3850     7.8310     6.8320     6.3510     8.3980   127.8260     2.4330    -0.0060
 2299.5000   -46.2390     7.6260     6.5160     6.0540     8.3990   136.4160     2.4300     0.0000
 2300.0000   -46.0910     7.1340     6.9170     6.2950     8.4000   145.0430     2.4380     0.0050
 2300.5000   -45.9400     6.6370     7.5770     6.6910     8.4020   150.4260     2.4340     0.0110
 2301.0000   -45.7930    10.4850     8.2370     7.0140     8.4030   150.7630     2.4300     0.0160
 2301.5000   -45.6460    14.3630     8.8970     7.7610     8.4050   153.2010     2.4480     0.0220
 2302.0000   -45.4820    17.5850     9.5570     8.3910     8.4060   150.8170     2.4620     0.0270
 2302.5000   -45.4270    16.3540    10.2170     9.0220     8.4070   146.3450     2.4540     0.0180
 2303.0000   -45.5390    14.7470    10.5100     9.6520     8.4090   147.9910     2.4440     0.0100
 2303.5000   -45.6340    13.1390    10.7050    10.3180     8.4100   150.3020     2.4330     0.0040
 2304.0000   -45.7330    12.4010    10.3900    10.1300     8.4120   150.9530     2.4270     0.0030
 2304.5000   -45.8340    14.1040     9.7650     9.4330     8.4130   155.1450     2.4290     0.0040
 2305.0000   -45.9320    13.8470     9.2780     8.8200     8.4140   158.5340     2.4280     0.0000
 2305.5000   -46.0310    10.8350     8.7540     8.2070     8.4160   157.2100     2.4250    -0.0060
 2306.0000   -46.1300     8.4290     8.2300     7.5940     8.4170   160.6820     2.4230    -0.0030
 2306.5000   -46.2300    10.1240     7.7060     7.0740     8.4190   164.9840     2.4200     0.0010
 2307.0000   -46.3290    11.5220     7.1820     6.5930     8.4200   169.2900     2.4170     0.0050
 2307.5000   -46.4280    10.6820     6.6580     6.1120     8.4170   173.6200     2.4180     0.0080
 2308.0000   -46.5270     7.7060     6.1340     5.6310     8.4120   178.0730     2.4270     0.0090
 2308.5000   -46.6270     5.5400     5.6090     5.1510     8.4080   179.5270     2.4430     0.0110
 2309.0000   -46.7250     5.6250     5.0850     4.6700     8.4030   176.9120     2.4660     0.0120
 2309.5000   -46.8250     5.5190     4.2690     4.1150     8.4220   173.7420     2.4930     0.0160
 2310.0000   -46.9260     5.0960     4.3000     4.0690     8.4630   167.9030     2.5180     0.0160
 2310.5000   -46.9870     4.4290     4.3680     4.0140     8.5040   159.4690     2.5200     0.0080
 2311.0000   -46.9390     4.7050     4.4360     3.9590     8.5450   153.2200     2.5160     0.0010
 2311.5000   -46.8930     5.3500     4.5040     3.8240     8.5870   149.5190     2.5090    -0.0020
