~VERSION INFORMATION
 VERS.                2.0:   CWLS LOG ASCII STANDARD - VERSION 2.0
 WRAP.                 NO:   ONE LINE PER DEPTH STEP
~WELL INFORMATION
#MNEM.UNIT      DATA TYPE    INFORMATION
#----------   ------------   ------------------------------
 STRT.F          197.0000:   START DEPTH
 STOP.F         3074.5000:   STOP DEPTH
 STEP.F            0.5000:   STEP LENGTH
 NULL.          -999.2500:   NO VALUE
 COMP.    FENIX & SCISSON:   COMPANY
 WELL.   FENIX "A" #36-21:   WELL
 FLD .             NPR #3:   FIELD
 LOC .      S21 T39N R78W:   LOCATION
 CNTY.            NATRONA:   COUNTY
 STAT.            WYOMING:   STATE
 CTRY. UNITED STATES OF AMERICA:   COUNTRY
 SRVC.              WELEX:   SERVICE COMPANY
 DATE.        06-JUL-1977:   LOGDATE
 API .     49025103920000:   API NUMBER
~CURVE INFORMATION
#MNEM.UNIT       API CODE    CURVE DESCRIPTION
#----------   ------------   ------------------------------
 DEPT.F                  :   
 CALD.IN     45 280 60 00:   CALIPER FROM DENSITY LOG
 GRD .GAPI   45 310 01 00:   GAMMA RAY FROM DENSITY LOG
 CORR.G/C3   45 356 01 00:   DENSITY CORRECTION
 RHOB.G/C3   45 350 01 00:   BULK DENSITY
 SPR .MV     11 010 01 00:   SPONTANEOUS POTENTIAL FROM RES.
 FORX.OHMM   11 000 00 00:   FORMATION FACTOR
 GURD.OHMM   11 220 05 00:   GUARD LOG RESISTIVITY
 NPHI.DEC    42 890 03 00:   NEUTRON POROSITY SANDSTONE
~PARAMETER INFORMATION
#MNEM.UNIT          VALUE    DESCRIPTION
#----------   ------------   ------------------------------
 EKB .F         4960.0000:   Kelly bushing
 EGL .F         4950.0000:   Ground level
 EDF .F            0.0000:   Drilling floor
 EPD .F         4950.0000:   Permanent datum
 TD  .F         3078.0000:   Total depth
 CLNT.            A2DTECH:   Client Code
 SL  . 1650' FSL & 1650' FWL:   Surface Location
 PD  .                 GL:   Permanent Datum
 DAPD.F                10:   Feet Above Permanent Datum
 DATE.        06-JUL-1977:   Date Logged [DD-MMM-YYYY]
 DD  .F              3066:   Depth driller
 DL  .F              3078:   Depth logger
 BLI .F              3076:   Bottom log interval
 TLI .F               200:   Top log interval
 CS1 .IN            8.625:   Casing size
 BS1 .IN            7.875:   Bit size
 BSD1.F              3066:   Depth drilled with bit1
 DFT .            KCL MUD:   Type fluid in hole
 DFD .                9.2:   Density
 DFV .                 35:   Viscosity
 DFPH.                7.5:   pH
 DFL .                 18:   Fluid loss
 MSS .           FLOWLINE:   Source of sample
 RMS .OHMM            0.9:   Rm
 MST .F                80:   Rm Meas. temp.
 RMF .OHMM           0.81:   Rmf
 MFST.F                80:   Rmf Meas. temp.
 MFSS.               FANN:   Source Rmf.
 RMC .OHMM           1.06:   Rmc
 MCST.F                80:   Rmc Meas. temp.
 MCSS.                KIT:   Source Rmc.
 RMB .OHMM           0.60:   Rm. at BHT
 BHT .F               119:   BHT.
 TCS .HRS               3:   Time Circ. stopped
 MRT .F               119:   Maximum recorded temp.
 LUN .               8611:   Logging unit number
 LUL .             CASPER:   Logging unit location
 ENGI.             C DOAK:   Recorded By
 WITN.         HARRINGTON:   Witnessed by
 ORIG.           5" PRINT:   Origin of data
 UWI .     49025103920000:   Unique Well ID
 DICO. A2D TECHNOLOGIES,INC.:   Digitizing Company
~OTHER INFORMATION
~A   DEPT     CALD         GRD      CORR       RHOB        SPR       FORX       GURD       NPHI   
# ...
 1898.0000     7.6488   112.5335     0.0462     2.4361   -66.2086    11.0606     9.6870     0.2707
 1898.5000     7.6508   113.4562     0.0464     2.4340   -66.1984    11.5262     9.9582     0.2671
 1899.0000     7.6532   114.0839     0.0466     2.4325   -66.1881    11.6047     9.6870     0.2695
 1899.5000     7.6552   114.1216     0.0468     2.4312   -66.0282    11.5231     9.1664     0.2736
 1900.0000     7.6568   115.6316     0.0469     2.4312   -66.0180    11.2081     8.4376     0.2763
 1900.5000     7.6586   114.4912     0.0471     2.4283   -65.8578    10.9787     8.2087     0.2756
 1901.0000     7.6604   112.7530     0.0458     2.4244   -65.6955    11.0546     8.3820     0.2745
 1901.5000     7.6625   110.4248     0.0471     2.4174   -65.3859    11.2081     8.5585     0.2723
 1902.0000     7.6642   106.9167     0.0490     2.4123   -65.2260    11.3637     8.7388     0.2730
 1902.5000     7.6660   102.5236     0.0461     2.4079   -65.0660    11.3637     8.8006     0.2747
 1903.0000     7.6381    99.3104     0.0448     2.4021   -64.9061    11.2081     8.8017     0.2729
 1903.5000     7.6399    97.8643     0.0449     2.3985   -64.7462    10.9033     8.7424     0.2729
 1904.0000     7.6416    97.6039     0.0435     2.4023   -64.7359    10.8284     8.8536     0.2758
 1904.5000     7.6433    99.1184     0.0437     2.4128   -64.4263    13.0437     9.8338     0.2793
 1905.0000     7.6451   100.6250     0.0438     2.4300   -64.4161    12.5152     9.7678     0.2801
 1905.5000     7.6616   102.1316     0.0454     2.4405   -64.4057    12.1748     8.9923     0.2846
 1906.0000     7.6782   102.4504     0.0456     2.4532   -64.5453    12.4292     9.5701     0.2887
 1906.5000     7.6799    99.2451     0.0457     2.4631   -64.6848    13.0437    10.5427     0.2920
 1907.0000     7.6817    96.9169     0.0458     2.4713   -64.9740    13.0437    10.5442     0.2908
 1907.5000     7.6834    96.9486     0.0460     2.4706   -65.5600    12.5123    10.3294     0.2869
 1908.0000     7.6852    98.4552     0.0461     2.4648   -66.1737    11.9905    10.0494     0.2839
 1908.5000     7.6873    99.9618     0.0463     2.4582   -66.7637    11.7623     9.3042     0.2836
 1909.0000     7.6891   100.8791     0.0464     2.4508   -66.7527    11.9256     8.5761     0.2836
 1909.5000     7.6905    98.7463     0.0465     2.4450   -66.7440    11.5215     8.5776     0.2863
 1910.0000     7.6923    96.6960     0.0467     2.4584   -66.7352    10.4615     8.4608     0.2910
 1910.5000     7.6795    94.7868     0.0453     2.4749   -66.7265    10.3182     7.7894     0.2928
 1911.0000     7.6812    93.4985     0.0454     2.4631   -66.7177    10.1070     7.4229     0.2919
 1911.5000     7.6677    92.1953     0.0456     2.4587   -66.7089     9.4337     6.8807     0.2907
 1912.0000     7.6699    91.3420     0.0457     2.4707   -66.8521     9.3045     7.1729     0.2868
 1912.5000     7.6716    90.4808     0.0458     2.4835   -66.8411     9.6975     7.6867     0.2856
 1913.0000     7.6734    89.9292     0.0475     2.4896   -66.9821    10.4619     9.0120     0.2907
 1913.5000     7.6899    89.0771     0.0506     2.4970   -67.1230    10.4615     8.7444     0.2943
 1914.0000     7.6769    89.1092     0.0522     2.4756   -67.4115    10.4615     8.2397     0.2904
 1914.5000     7.6787    89.1405     0.0523     2.4667   -67.7021    10.4615     8.1276     0.2819
 1915.0000     7.6808    88.2872     0.0525     2.4892   -67.8453    10.3182     8.0727     0.2771
 1915.5000     7.6826    88.0239     0.0526     2.5049   -67.8343    10.3182     8.3577     0.2738
 1916.0000     7.6843    88.0635     0.0498     2.5116   -68.1250    10.3896     8.3013     0.2729
 1916.5000     7.6861    88.0952     0.0484     2.4946   -68.1162    10.3182     8.0204     0.2774
 1917.0000     7.7026    88.1269     0.0485     2.4613   -68.2575     9.9686     6.9872     0.2822
 1917.5000     7.6891    88.1586     0.0487     2.4450   -68.3981     9.4337     5.5260     0.2870
 1918.0000     7.6913    87.8874     0.0473     2.4362   -68.3892     9.2406     6.0921     0.2906
 1918.5000     7.6930    86.7470     0.0475     2.4318   -68.3802     9.6975     7.0524     0.2930
 1919.0000     7.6948    85.5988     0.0461     2.4334   -68.3696    10.6194    10.4343     0.2902
 1919.5000     7.6965    85.3355     0.0462     2.4381   -68.3609    11.4057    10.0122     0.2893
 1920.0000     7.6834    86.8500     0.0464     2.4455   -68.6515    12.1748     8.7220     0.2905
 1920.5000     7.6852    88.6516     0.0465     2.4538   -68.9422    11.8436     7.7571     0.2968
 1921.0000     7.6870    90.7482     0.0466     2.4688   -68.9334    10.3182     8.2556     0.3010
 1921.5000     7.6739    92.8447     0.0483     2.4815   -68.6253    12.3438     9.1576     0.3016
 1922.0000     7.6761    93.1635     0.0514     2.4823   -68.3171    13.0437     9.9500     0.3016
 1922.5000     7.6926    89.9583     0.0530     2.4787   -68.3083    13.0437    10.5906     0.3013
 1923.0000     7.6944    88.5150     0.0531     2.4862   -68.4493    13.5946    10.2900     0.2994
 1923.5000     7.6961    88.5467     0.0518     2.4804   -68.5902    12.6889     9.6166     0.2937
 1924.0000     7.6978    89.7583     0.0504     2.4686   -68.5793    12.3438     9.2276     0.2886
 1924.5000     7.7144    91.6018     0.0476     2.4575   -68.5705    11.5154     8.5539     0.2826
 1925.0000     7.7161    93.0678     0.0462     2.4480   -68.5618    11.0169     8.3794     0.2763
 1925.5000     7.7179    93.6961     0.0448     2.4406   -68.5530    10.0376     9.4245     0.2742
 1926.0000     7.7196    93.1378     0.0450     2.4492   -68.3946    12.6889     9.1690     0.2735
 1926.5000     7.7214    91.9896     0.0451     2.4594   -68.3858    11.0546     8.3830     0.2756
 1927.0000     7.7231    90.2513     0.0467     2.4677   -68.3771    11.4423     8.9835     0.2777
 1927.5000     7.7249    89.1031     0.0484     2.4804   -68.3683    13.1339     9.7631     0.2811
 1928.0000     7.7118    88.5448     0.0515     2.4946   -68.3593    12.6889    10.2455     0.2844
 1928.5000     7.6987    88.2815     0.0531     2.5022   -68.4983    12.6889    10.1067     0.2881
 1929.0000     7.7009    88.9031     0.0532     2.4837   -68.4895    12.7767    10.0382     0.2920
 1929.5000     7.7024    89.8310     0.0534     2.4696   -68.4808    12.9541     9.7664     0.2972
 1930.0000     7.7044    90.4425     0.0535     2.4623   -68.4720    11.7356     9.4363     0.2990
 1930.5000     7.7061    90.7760     0.0521     2.4631   -68.4633    11.2081     8.6871     0.2993
 1931.0000     7.7077    90.5048     0.0508     2.4677   -68.4545    11.2081     8.1649     0.3002
 1931.5000     7.7096    90.5444     0.0495     2.4655   -68.4458    10.9033     7.8888     0.3010
 1932.0000     7.7114    90.2732     0.0496     2.4512   -68.4370    10.3896     7.7817     0.3013
 1932.5000     7.6983    90.0099     0.0482     2.4390   -68.4281     9.9001     7.5161     0.3019
 1933.0000     7.7001    89.4595     0.0468     2.4242   -68.5692     9.6309     7.3149     0.3064
 1933.5000     7.6870    89.1962     0.0440     2.4132   -68.5583     9.7646     7.3668     0.3049
 1934.0000     7.6888    88.9322     0.0427     2.4110   -68.3998    10.0376     7.6266     0.2998
 1934.5000     7.6905    88.3735     0.0428     2.4201   -68.2413    10.4615     7.9502     0.2974
 1935.0000     7.6923    88.0826     0.0414     2.4291   -68.0829    10.3182     8.6381     0.2992
 1935.5000     7.6941    87.8480     0.0401     2.4351   -68.0741    10.9119     8.5798     0.3109
 1936.0000     7.6962    89.3625     0.0402     2.4389   -68.0654    10.7958     8.1761     0.3155
 1936.5000     7.6976    92.9340     0.0403     2.4427   -68.0566    10.3182     7.7378     0.3165
 1937.0000     7.6994    95.0306     0.0405     2.4399   -68.1976    10.0376     7.4762     0.3130
 1937.5000     7.7014    96.2422     0.0406     2.4348   -68.3385    10.7540     7.9065     0.3055
 1938.0000     7.7030    95.9710     0.0408     2.4264   -68.4794    11.0546     7.7948     0.2976
