~VERSION INFORMATION
 VERS.                2.0:   CWLS LOG ASCII STANDARD - VERSION 2.0
 WRAP.                 NO:   ONE LINE PER DEPTH STEP
~WELL INFORMATION
#MNEM.UNIT      DATA TYPE    INFORMATION
#----------   ------------   ------------------------------
 STRT.F          250.5000:   START DEPTH
 STOP.F         2849.5000:   STOP DEPTH
 STEP.F            0.5000:   STEP LENGTH
 NULL.          -999.2500:   NO VALUE
 COMP. FENIX & SCISSON U.S. NAVY:   COMPANY
 WELL.   FENIX "A" #25-21:   WELL
 FLD .           N P R #3:   FIELD
 LOC .      S21 T39N R78W:   LOCATION
 CNTY.            NATRONA:   COUNTY
 STAT.            WYOMING:   STATE
 CTRY. UNITED STATES OF AMERICA:   COUNTRY
 SRVC.       SCHLUMBERGER:   SERVICE COMPANY
 DATE.        14-MAR-1977:   LOGDATE
 API .     49025103140000:   API NUMBER
~CURVE INFORMATION
#MNEM.UNIT       API CODE    CURVE DESCRIPTION
#----------   ------------   ------------------------------
 DEPT.F                  :   
 CALD.IN     45 280 60 00:   CALIPER FROM DENSITY LOG
 GRD .GAPI   45 310 01 00:   GAMMA RAY FROM DENSITY LOG
 RHOB.G/C3   45 350 01 00:   BULK DENSITY
 CORR.G/C3   45 356 01 00:   DENSITY CORRECTION
 SPR .MV     07 010 01 00:   SPONTANEOUS POTENTIAL
 LL8 .OHMM   07 220 08 00:   LATEROLOG-8 RES.
 ILM .OHMM   07 120 44 00:   INDUCTION LOG MEDIUM RESISTIVITY
 ILD .OHMM   07 120 46 00:   DEEP INDUCTION RESISTIVITY
~PARAMETER INFORMATION
#MNEM.UNIT          VALUE    DESCRIPTION
#----------   ------------   ------------------------------
 EKB .F         4963.0000:   Kelly bushing
 EGL .F         4953.0000:   Ground level
 EDF .F            0.0000:   Drilling floor
 TD  .F         2848.0000:   Total depth
 DATE.        14-MAR-1977:   Date logged
 CLNT.            A2DTECH:   Client Code
 SL  . 990' FWL & 2310' FSL:   Surface Location
 PD  .                 GL:   Permanent Datum
 DD  .F              2847:   Depth driller
 DL  .F              2848:   Depth logger
 BLI .F              2842:   Bottom log interval
 CS1 .IN            8.625:   Casing size
 CBD1.      8.625" @ 259':   Casing driller 1
 CBL1.F               261:   Casing logger 1
 BS1 .IN            7.875:   Bit size
 DFT .                KCL:   Type fluid in hole
 DFD .                9.2:   Density
 DFV .                 37:   Viscosity
 DFPH.                8.5:   pH
 DFL .                8.6:   Fluid loss
 MSS .           FLOWLINE:   Source of sample
 RMS .OHMM          0.226:   Rm
 MST .F                72:   Rm Meas. temp.
 RMF .OHMM          0.190:   Rmf
 MFST.F                72:   Rmf Meas. temp.
 MFSS.               MEAS:   Source Rmf.
 RMB .OHMM           .139:   Rm. at BHT
 BHT .F               117:   BHT.
 TCS .HRS            1800:   Time Circ. stopped
 MRT .F               117:   Maximum recorded temp.
 LUN .               5642:   Logging unit number
 LUL .               CSPR:   Logging unit location
 ENGI.         JIM MARTIN:   Recorded By
 WITN.               JAPP:   Witnessed by
 ORIG.           5" PRINT:   Origin of data
 UWI .     49025103140000:   Unique Well ID
 DICO. A2D TECHNOLOGIES, INC.:   Digitizing Company
 DAPD.                 10:   Feet Above Permanent Datum
 BSD1.               2847:   Depth drilled with bit1
 EPD .               4953:   Elevation Permanent Datum
 LMF .                 KB:   Log Measured From
 DMF .                 KB:   Drilling Measured From
 TLI .                261:   Top log interval
 TLAB.               2400:   Time logger at bottom
~OTHER INFORMATION
~A   DEPT     CALD         GRD      RHOB       CORR        SPR        LL8        ILM        ILD   
# ...
 1789.5000     8.9900   161.0780     2.4730     0.0120   -60.1730    10.2020     9.6680     9.2700
 1790.0000     8.9900   162.1660     2.4590     0.0030   -60.1120    10.2890     9.6510     9.2380
 1790.5000     8.9890   158.0080     2.4560     0.0030   -60.2030    10.3760     9.5860     9.1490
 1791.0000     8.9890   153.6140     2.4720     0.0020   -60.3480    10.4630     9.5210     9.0400
 1791.5000     8.9880   155.1020     2.4650     0.0050   -60.4950    10.5510     9.4550     8.9820
 1792.0000     8.9880   162.9500     2.4540     0.0090   -60.6430    10.6000     9.4050     8.9820
 1792.5000     8.9870   171.7690     2.4620     0.0130   -60.7900     9.8480     9.4050     9.1490
 1793.0000     8.9870   180.6130     2.4730     0.0180   -60.9360    10.0320     9.3190     9.1970
 1793.5000     8.9860   186.6760     2.4710     0.0190   -61.0830    10.2120     9.3860     9.2550
 1794.0000     8.9860   187.2550     2.4470     0.0100   -61.2340    10.3930     9.4690     9.3140
 1794.5000     8.9850   182.8670     2.4290     0.0000   -61.1120    10.5030     9.5510     9.3720
 1795.0000     8.9850   176.0500     2.4420    -0.0050   -60.8340    10.4070     9.6340     9.4310
 1795.5000     8.9850   170.2110     2.4560     0.0050   -60.5550    10.4070     9.7170     9.4900
 1796.0000     8.9840   172.9160     2.4630     0.0100   -60.3630    10.8780     9.7990     9.5480
 1796.5000     8.9840   173.9770     2.4560     0.0030   -60.1950    11.9470     9.8820     9.6070
 1797.0000     8.9830   168.1300     2.4490    -0.0060   -60.0270    11.5880     9.9650     9.6680
 1797.5000     8.9830   164.6740     2.4490    -0.0060   -59.8590    11.1130    10.0480     9.7290
 1798.0000     8.9820   163.3430     2.4410     0.0010   -59.6910    10.7970    10.1300     9.8400
 1798.5000     8.9820   161.7590     2.4190     0.0070   -59.5230    11.2790    10.2130     9.9500
 1799.0000     8.9810   157.9980     2.4030     0.0120   -59.3510    11.7040    10.2960    10.0610
 1799.5000     8.9810   153.8900     2.4080     0.0000   -59.2740    12.1690    10.3780    10.1720
 1800.0000     8.9800   149.7510     2.4170     0.0050   -59.2250    11.9410    10.4610    10.2830
 1800.5000     8.9750   145.1430     2.4260     0.0110   -59.1770    11.6220    10.5030    10.4070
 1801.0000     8.9690   140.6120     2.4350     0.0050   -59.1290    11.7400    10.2080    10.1390
 1801.5000     8.9630   136.0910     2.4440     0.0010   -59.0820    12.1700     9.8750     9.7480
 1802.0000     8.9570   131.5560     2.4540     0.0080   -59.0340    13.0980     9.5420     9.3570
 1802.5000     8.9510   126.9310     2.4630     0.0220   -58.9820    10.1210     9.2090     8.9820
 1803.0000     8.9450   124.2870     2.4610     0.0110   -58.9290     7.2690     8.8180     9.3120
 1803.5000     8.9380   124.2490     2.4570     0.0160   -58.3290     8.5340     9.1770     9.7010
 1804.0000     8.9320   132.4700     2.4600     0.0260   -57.6150    11.5380     9.6210    10.0900
 1804.5000     8.9260   141.3850     2.4670     0.0270   -56.9490    13.0240    10.0650    10.4790
 1805.0000     8.9200   145.5850     2.4720     0.0200   -56.5960    13.4650    10.5090    10.9780
 1805.5000     8.9140   151.1740     2.4620     0.0270   -56.7260    13.7260    10.9700    11.9740
 1806.0000     8.9080   166.6750     2.4450     0.0160   -56.5240    13.7880    11.9900    12.9700
 1806.5000     8.9020   184.5990     2.4280     0.0090   -56.3080    13.8350    13.0090    13.9660
 1807.0000     8.9000   190.8550     2.4150     0.0070   -56.0950    13.5970    14.0990    14.6270
 1807.5000     8.8990   192.4850     2.4280     0.0040   -55.8940    13.3840    13.9460    14.4300
 1808.0000     8.8970   184.9740     2.4460     0.0150   -55.8940    13.1710    13.6570    14.0540
 1808.5000     8.8960   172.6240     2.4590     0.0270   -55.6610    12.9780    13.3670    13.7150
 1809.0000     8.8950   157.9620     2.4440     0.0220   -55.3670    12.6250    13.2190    13.7150
 1809.5000     8.8930   143.3240     2.4280     0.0160   -55.3890    14.3100    13.4000    14.0990
 1810.0000     8.8920   132.9760     2.4240     0.0190   -56.2940    15.6190    13.5890    13.9520
 1810.5000     8.8910   128.7360     2.4220     0.0060   -55.9930    16.3350    13.4170    13.7320
 1811.0000     8.8890   134.7330     2.4210     0.0020   -55.5930    15.8570    13.1540    13.5120
 1811.5000     8.8880   142.7030     2.4350     0.0210   -55.2010    14.7730    12.8920    13.3420
 1812.0000     8.8870   144.9030     2.4240     0.0310   -55.2490    13.6890    12.6290    13.0380
 1812.5000     8.8860   133.9980     2.4080     0.0210   -55.3620    12.6050    12.3660    12.7460
 1813.0000     8.8840   124.7090     2.4330     0.0390   -55.4760    11.9470    12.1030    12.4540
 1813.5000     8.8830   121.1810     2.4170     0.0210   -55.4270    13.4650    11.8410    12.1610
 1814.0000     8.8820   122.1040     2.4090     0.0140   -55.1620    13.0020    11.5780    11.8690
 1814.5000     8.8800   137.2370     2.4130     0.0020   -54.9890    12.4030    11.4100    11.6220
 1815.0000     8.8790   149.9440     2.4060     0.0020   -55.2250    11.8030    11.6370    11.7290
 1815.5000     8.8780   152.1530     2.4040    -0.0010   -55.4530    11.2040    11.8600    12.0150
 1816.0000     8.8760   148.9370     2.4080     0.0030   -55.6740    10.7970    12.0840    12.4020
 1816.5000     8.8750   143.9800     2.4020     0.0060   -55.8970    14.0710    12.3070    12.7900
 1817.0000     8.8740   139.3030     2.4100     0.0010   -55.8120    15.5950    12.5090    13.1770
 1817.5000     8.8720   137.3160     2.4240     0.0060   -55.6580    16.0370    12.3140    12.9340
 1818.0000     8.8710   137.0230     2.4380     0.0130   -55.6920    14.9910    12.0310    12.6140
 1818.5000     8.8700   138.6870     2.4460     0.0180   -56.2030    14.0230    11.7480    12.2940
 1819.0000     8.8690   152.2360     2.4490     0.0170   -56.6930    13.0980    11.4650    11.9740
 1819.5000     8.8670   151.8200     2.4460     0.0170   -56.9650    10.0030    11.2020    11.7290
 1820.0000     8.8660   156.2100     2.4140     0.0000   -57.0360     8.9000    11.0090    11.5000
 1820.5000     8.8650   151.2870     2.4180    -0.0040   -57.1070    11.7550    10.8970    11.2770
 1821.0000     8.8630   145.3200     2.4290     0.0030   -57.1770    14.0990    10.9970    11.0990
 1821.5000     8.8620   134.2520     2.4410     0.0090   -57.2470    14.0990    11.2100    11.4550
 1822.0000     8.8610   128.8450     2.4510     0.0160   -57.3170    12.9420    11.4230    12.2810
 1822.5000     8.8610   129.1940     2.4660     0.0180   -57.3270    11.7290    11.5150    11.8220
 1823.0000     8.8600   130.7580     2.4480     0.0140   -57.3270    12.5250    11.5150    11.6220
 1823.5000     8.8600   133.4990     2.4610     0.0190   -57.3270    13.2190    11.4750    12.1690
 1824.0000     8.8590   125.6310     2.4790     0.0280   -57.3270    12.5620    11.4010    12.0300
 1824.5000     8.8590   118.0830     2.4890     0.0270   -57.3270    12.0710    11.3270    11.8370
 1825.0000     8.8580   118.8220     2.4780     0.0210   -57.3270    11.6220    11.4100    12.0000
 1825.5000     8.8580   120.4000     2.4750     0.0150   -57.3270    11.5150    11.3050    12.3220
 1826.0000     8.8570   121.9600     2.4660     0.0200   -57.3270    11.5150    11.6160    12.6430
 1826.5000     8.8570   123.6040     2.4630     0.0280   -57.3230    12.0410    12.0450    12.9650
 1827.0000     8.8560   125.4640     2.4780     0.0350   -57.4570    12.6420    12.6250    13.2860
 1827.5000     8.8560   128.0850     2.4580     0.0190   -57.6230    13.2190    12.5090    13.4650
 1828.0000     8.8560   130.9220     2.4310    -0.0030   -57.7920    12.9030    12.3450    13.1880
 1828.5000     8.8550   134.1630     2.4310    -0.0040   -57.9600    12.6000    12.0860    12.9230
 1829.0000     8.8550   134.6330     2.4420     0.0010   -58.1280    12.2960    11.8280    12.6570
 1829.5000     8.8540   133.1520     2.4580     0.0110   -58.2960    11.9930    11.5690    12.2810
