~VERSION INFORMATION
 VERS.                2.0:   CWLS LOG ASCII STANDARD - VERSION 2.0
 WRAP.                 NO:   ONE LINE PER DEPTH STEP
~WELL INFORMATION
#MNEM.UNIT      DATA TYPE    INFORMATION
#----------   ------------   ------------------------------
 STRT.F           30.0000:   START DEPTH
 STOP.F         3240.0000:   STOP DEPTH
 STEP.F            0.5000:   STEP LENGTH
 NULL.          -999.2500:   NO VALUE
 COMP. LAWRENCE-ALLISON ASSOCIATES WES:   COMPANY
 WELL. LAWRENCE "AX" #87AX28:   WELL
 FLD .   TEAPOT N.P.R. #3:   FIELD
 LOC .      S28 T39N R78W:   LOCATION
 CNTY.            NATRONA:   COUNTY
 STAT.            WYOMING:   STATE
 CTRY. UNITED STATES OF AMERICA:   COUNTRY
 SRVC.       SCHLUMBERGER:   SERVICE COMPANY
 DATE.        28-MAY-1982:   LOGDATE
 API .     49025108860000:   API NUMBER
~CURVE INFORMATION
#MNEM.UNIT       API CODE    CURVE DESCRIPTION
#----------   ------------   ------------------------------
 DEPT.F                  :   
 TENR.LBS    07 635 01 00:   TENSION FROM RESISTIVITY
 GRR .GAPI   07 310 01 00:   GAMMA RAY FROM RESISTIVITY
 SPR .MV     07 010 01 00:   SPONTANEOUS POTENTIAL FROM RES.
 ILD .OHMM   07 120 46 00:   DEEP INDUCTION RESISTIVITY
 ILM .OHMM   07 120 44 00:   INDUCTION LOG MEDIUM RESISTIVITY
 SFL .OHMM   07 220 01 00:   SHALLOW FOCUSED LOG RESISITIVITY
 TEND.LBS    45 635 01 00:   TENSION FORM DENSITY LOG
 NPHI.DEC    42 890 03 00:   NEUTRON POROSITY SANDSTONE
 CALD.IN     45 280 60 00:   CALIPER FROM DENSITY LOG
 CORR.G/C3   45 356 01 00:   DENSITY CORRECTION
 RHOB.G/C3   45 350 01 00:   BULK DENSITY
~PARAMETER INFORMATION
#MNEM.UNIT          VALUE    DESCRIPTION
#----------   ------------   ------------------------------
 EKB .F         5070.0000:   Kelly bushing
 EGL .F         5060.0000:   Ground level
 TD  .F         3220.0000:   Total depth
 CLNT.            A2DTECH:   Client Code
 SL  . 1341' FSL & 162' FEL:   Surface Location
 PD  .                 GL:   Permanent Datum
 EPD .F              5060:   Elevation Permanent Datum
 LMF .                 KB:   Log Measured From
 DMF .                 KB:   Drilling Measured From
 DAPD.F                10:   Feet Above Permanent Datum
 DATE.        28-MAY-1982:   Date Logged [DD-MMM-YYYY]
 DD  .F              3220:   Depth driller
 DL  .F              3215:   Depth logger
 BLI .F              3212:   Bottom log interval
 TLI .F               489:   Top log interval
 CS1 .IN            9.625:   Casing size
 CBD1.      9.625" @ 461':   Casing driller 1
 CBL1.F               489:   Casing logger 1
 BS1 .IN            9.750:   Bit size
 BSD1.F              3220:   Depth drilled with bit1
 DFT .          POLY./KCL:   Type fluid in hole
 DFD .                8.8:   Density
 DFV .                 44:   Viscosity
 DFPH.                7.0:   pH
 DFL .                8.0:   Fluid loss
 MSS .           MUD TANK:   Source of sample
 RMS .OHMM          0.778:   Rm
 MST .F                65:   Rm Meas. temp.
 RMF .OHMM          0.710:   Rmf
 MFST.F                67:   Rmf Meas. temp.
 MFSS.               MEAS:   Source Rmf.
 RMB .OHMM          0.447:   Rm. at BHT
 BHT .F               118:   BHT.
 TCS .HRS            2000:   Time Circ. stopped
 TLAB.HRS            2430:   Time logger at bottom
 MRT .F               118:   Maximum recorded temp.
 LUN .               8043:   Logging unit number
 LUL .               CSPR:   Logging unit location
 ENGI.             DENNIS:   Recorded By
 WITN.             STRONG:   Witnessed by
 ORIG.           5" PRINT:   Origin of data
 UWI .     49025108860000:   Unique Well ID
 DICO. A2D TECHNOLOGIES, INC.:   Digitizing Company
~OTHER INFORMATION
~A   DEPT     TENR         GRR       SPR        ILD        ILM        SFL       TEND       NPHI       CALD       CORR       RHOB   
# ...
 2622.5000  1387.4614    84.0256   -25.3139    11.9175    11.1089    14.0001  1604.1520    -0.1674    12.0781     0.0004     2.4234
 2623.0000  1387.4614    86.9976   -25.4581    11.7566    10.7273    14.0106  1604.3694    -0.1666    12.0631    -0.0019     2.4471
 2623.5000  1387.4614    89.0729   -25.6024    11.5979    10.5076    13.2439  1604.5868    -0.1607    12.0481    -0.0018     2.4611
 2624.0000  1387.4614    90.2307   -25.5913    11.5252    10.3659    12.2543  1604.8041    -0.1541    12.0330     0.0014     2.4697
 2624.5000  1387.4614    89.0949   -25.4293    11.4512    10.3731    11.6659  1605.0215    -0.1517    12.0180     0.0046     2.4721
 2625.0000  1387.4614    84.0601   -25.2673    11.3776    10.3802    11.4151  1605.2389    -0.1539    12.0184     0.0071     2.4667
 2625.5000  1387.4614    77.6491   -24.9521    11.4690    10.4618    11.3557  1605.4563    -0.1564    12.0034     0.0079     2.4400
 2626.0000  1387.4614    72.4807   -24.6369    11.5591    10.5456    11.9480  1605.6737    -0.1567    12.0037     0.0064     2.4305
 2626.5000  1387.4614    71.0198   -24.4747    11.6500    10.6405    12.4795  1605.8910    -0.1555    11.9886     0.0041     2.4352
 2627.0000  1387.4614    74.4740   -24.3107    11.7415    10.7884    12.1378  1606.1084    -0.1568    11.9737     0.0058     2.4454
 2627.5000  1387.4614    78.3841   -24.4549    11.8338    10.9508    12.1470  1606.3258    -0.1663    11.9740     0.0113     2.4601
 2628.0000  1387.4614    80.6887   -24.7524    11.9271    11.1466    12.4324  1606.5432    -0.1740    11.9743     0.0114     2.4726
 2628.5000  1387.4614    81.3878   -25.2029    11.9371    11.3638    12.8817  1606.7606    -0.1734    11.9746     0.0052     2.4624
 2629.0000  1387.4614    78.7761   -25.5025    11.9453    11.5351    12.6162  1606.9779    -0.1710    11.9749     0.0030     2.4565
 2629.5000  1387.4614    74.0732   -25.7979    12.0392    11.6274    12.5360  1607.1953    -0.1707    11.9752     0.0116     2.4628
 2630.0000  1387.4614    72.9374   -26.1052    12.1338    11.6354    12.6376  1607.4127    -0.1717    11.9755     0.0273     2.4760
 2630.5000  1387.4614    73.1778   -26.6966    11.8003    11.4786    12.8288  1607.6301    -0.1727    11.9758     0.0266     2.4862
 2631.0000  1387.4614    74.5650   -27.1471    11.3133    11.1636    12.8384  1607.8475    -0.1776    11.9761     0.0227     2.4871
 2631.5000  1387.4614    77.5577   -27.5976    10.8363    10.7801    12.2250  1608.0648    -0.1886    11.9764     0.0150     2.4863
 2632.0000  1387.4614    80.5700   -28.0504    10.3265    10.1895    11.6387  1608.2822    -0.1923    11.9614     0.0089     2.4918
 2632.5000  1387.4614    83.5458   -28.5009     9.7599     9.6941    10.7690  1608.4996    -0.1856    11.9464     0.0027     2.4965
 2633.0000  1387.4614    85.3917   -28.7963     9.3571     9.1704     9.8233  1608.7170    -0.1674    11.9161    -0.0003     2.4912
 2633.5000  1387.4614    86.0908   -29.1005     9.0351     8.9172     9.1543  1608.9344    -0.1610    11.8857    -0.0010     2.4796
 2634.0000  1387.4614    87.4780   -29.5418     8.7868     8.6123     9.0315  1609.1517    -0.1613    11.8401    -0.0002     2.4789
 2634.5000  1387.4614    90.0120   -29.6883     8.4840     8.3165     9.2354  1609.3691    -0.1629    11.8097     0.0008     2.4830
 2635.0000  1387.4614    94.6102   -29.6772     8.1259     7.9738     9.3085  1609.5865    -0.1632    11.7795     0.0031     2.4961
 2635.5000  1387.4614    97.4022   -29.6683     7.9121     7.7549     9.3804  1609.8040    -0.1541    11.7645     0.0048     2.5086
 2636.0000  1387.4614    96.8623   -29.6595     7.8040     7.5905     9.0604  1610.0214    -0.1426    11.7341     0.0064     2.5195
 2636.5000  1387.4614    92.7368   -29.6506     7.6438     7.2843     8.3238  1610.2386    -0.1377    11.7038     0.0065     2.5273
 2637.0000  1387.4614    91.3678   -29.6417     7.5407     7.2363     7.9716  1610.4561    -0.1368    11.6888     0.0065     2.5235
 2637.5000  1387.4614    91.1474   -29.6325     7.4933     7.2943     7.7091  1610.6735    -0.1479    11.6738     0.0051     2.5182
 2638.0000  1387.4614    90.0081   -29.6217     7.5524     7.2993     7.8257  1610.8909    -0.1601    11.6588     0.0036     2.5152
 2638.5000  1387.4614    88.4094   -29.6129     7.6209     7.3566     8.2912  1611.1083    -0.1647    11.6285     0.0037     2.5129
 2639.0000  1387.4614    87.7296   -29.6040     7.7832     7.4143     8.5986  1611.3256    -0.1657    11.5981     0.0037     2.5099
 2639.5000  1387.4614    88.8897   -29.4420     7.8444     7.5261     8.9173  1611.5430    -0.1651    11.5679     0.0038     2.5053
 2640.0000  1387.4614    93.0337   -29.4334     7.9060     7.5863     9.1169  1611.7604    -0.1615    11.5222     0.0039     2.5008
 2640.5000  1387.4614    96.7183   -29.3471     7.9682     7.7006     8.5584  1611.9778    -0.1504    11.4153     0.0032     2.4900
 2641.0000  1387.4614    98.5652   -29.2395     8.0308     7.7059     8.6261  1612.1952    -0.1420    11.3084     0.0025     2.4808
 2641.5000  1387.4614    98.1151   -29.0980     8.0364     7.7663     8.8823  1612.4125    -0.1393    11.2168     0.0041     2.4793
 2642.0000  1387.4614    96.2867   -29.0891     8.0433     7.8833     9.0812  1612.6299    -0.1394    11.1381     0.0050     2.4856
 2642.5000  1387.4614    89.4047   -29.2333     8.0488     7.8887     9.0880  1612.8473    -0.1394    11.0644     0.0066     2.4911
 2643.0000  1387.4614    89.4448   -29.2245     8.1121     7.9508     9.0950  1613.0647    -0.1388    11.0319     0.0067     2.4927
 2643.5000  1387.4614    92.4117   -29.2156     8.1177     7.8996     9.1686  1613.2821    -0.1352    10.9883     0.0060     2.4936
 2644.0000  1387.4614    95.4072   -29.2067     8.1233     7.8489     9.1755  1613.4994    -0.1260    10.9733     0.0045     2.4944
 2644.5000  1387.4614    97.7136   -29.5041     8.0136     7.7985     9.1824  1613.7168    -0.1189    10.9584     0.0062     2.4968
 2645.0000  1387.4614    95.8851   -29.6484     7.9621     7.6947     9.1893  1613.9342    -0.1170    10.9587     0.0101     2.5000
 2645.5000  1387.4614    94.9733   -30.0967     7.7987     7.5910     9.1307  1614.1516    -0.1241    10.9436     0.0203     2.5094
 2646.0000  1387.4614    95.2145   -30.3963     7.5857     7.4352     8.9445  1614.3690    -0.1327    10.9593     0.0274     2.5257
 2646.5000  1387.4614    99.6496   -30.8446     7.3772     7.2755     8.6394  1614.5863    -0.1336    10.9596     0.0299     2.5250
 2647.0000  1387.4614   102.3564   -31.1420     7.1744     7.0845     8.1086  1614.8037    -0.1245    10.9752     0.0212     2.5096
 2647.5000  1387.4614   103.7439   -31.2864     6.9772     6.8411     7.5564  1615.0211    -0.1096    10.9755     0.0113     2.4973
 2648.0000  1387.4614   100.7669   -31.2772     6.7855     6.6534     7.2959  1615.2385    -0.1000    10.9758     0.0052     2.5005
 2648.5000  1387.4614    97.7900   -31.4217     6.6432     6.5171     7.3028  1615.4559    -0.0956    10.9608     0.0029     2.5114
 2649.0000  1387.4614    98.2587   -31.4106     6.4187     6.4292     7.1534  1615.6732    -0.0905    10.9611     0.0030     2.5116
 2649.5000  1387.4614   100.7947   -31.4017     6.2870     6.3417     6.8118  1615.8906    -0.0901    10.9461     0.0030     2.5100
 2650.0000  1387.4614   105.6279   -31.3928     6.1580     6.2499     6.6253  1616.1080    -0.0945    10.9541     0.0023     2.5062
 2650.5000  1387.4614   107.9345   -31.5371     6.0738     6.0864     6.5824  1616.3254    -0.1110    10.9540    -0.0011     2.5032
 2651.0000  1387.4614   106.1081   -31.5282     5.9918     5.9618     6.8278  1616.5428    -0.1163    10.9538    -0.0026     2.4986
 2651.5000  1387.4614   103.8203   -31.5191     5.8282     5.7570     7.0306  1616.7601    -0.1152    10.9537    -0.0033     2.4925
 2652.0000  1387.4614   101.9919   -31.6636     5.6615     5.5197     7.1356  1616.9775    -0.0961    10.9535    -0.0095     2.4794
 2652.5000  1387.4602   102.2309   -31.6525     5.3963     5.3301     6.6985  1617.1949    -0.0737    10.9228    -0.0125     2.4779
