~VERSION INFORMATION
 VERS.                2.0:   CWLS LOG ASCII STANDARD - VERSION 2.0
 WRAP.                 NO:   ONE LINE PER DEPTH STEP
~WELL INFORMATION
#MNEM.UNIT      DATA TYPE    INFORMATION
#----------   ------------   ------------------------------
 STRT.F           34.0000:   START DEPTH
 STOP.F         2909.0000:   STOP DEPTH
 STEP.F            0.5000:   STEP LENGTH
 NULL.          -999.2500:   NO VALUE
 COMP.   TESORO PETROLEUM:   COMPANY
 WELL. TESORO NPR "A" #3-28:   WELL
 FLD .             TEAPOT:   FIELD
 LOC .      S28 T39N R78W:   LOCATION
 CNTY.            NATRONA:   COUNTY
 STAT.            WYOMING:   STATE
 CTRY. UNITED STATES OF AMERICA:   COUNTRY
 SRVC.              WELEX:   SERVICE COMPANY
 DATE.        22-JUL-1968:   LOGDATE
 API .     49025102620000:   API NUMBER
~CURVE INFORMATION
#MNEM.UNIT       API CODE    CURVE DESCRIPTION
#----------   ------------   ------------------------------
 DEPT.F                  :   
 GRD .GAPI   45 310 01 00:   GAMMA RAY FROM DENSITY LOG
 SPR .MV     05 010 01 00:   SPONTANEOUS POTENTIAL FROM RES.
 ASN .OHMM   05 041 16 00:   AMPLIFIED SHORT NORMAL 16"
 ILD .OHMM   05 120 46 00:   INDUCTION LOG DEEP
~PARAMETER INFORMATION
#MNEM.UNIT          VALUE    DESCRIPTION
#----------   ------------   ------------------------------
 EKB .F         5050.0000:   Kelly bushing
 EGL .F         5039.0000:   Ground level
 EDF .F            0.0000:   Drilling floor
 EPD .F         5039.0000:   Permanent datum
 TD  .F         2906.0000:   Total depth
 CLNT.            A2DTECH:   Client Code
 DATE.       22-JULY-1968:   Date Logged [DD-MMM-YYYY]
 DD  .F              2906:   Depth driller
 DL  .F              2906:   Depth logger
 BLI .F              2901:   Bottom log interval
 TLI .F               356:   Top log interval
 CS1 .              10.75:   Casing size
 CBD1.      10.75" @ 356':   Casing driller 1
 CBL1.IN              356:   Casing logger 1
 BS1 .IN                9:   Bit size
 DFT .     WATER BASE MUD:   Type fluid in hole
 DFD .                9.6:   Density
 DFV .                 60:   Viscosity
 DFPH.                9.0:   pH
 DFL .                  6:   Fluid loss
 MSS .               CTRC:   Source of sample
 RMS .OHMM            2.1:   Rm
 MST .F                74:   Rm Meas. temp.
 RMF .OHMM            1.6:   Rmf
 MFST.F                71:   Rmf Meas. temp.
 MFSS.               MEAS:   Source Rmf.
 RMC .OHMM            3.0:   Rmc
 MCST.F                66:   Rmc Meas. temp.
 RMB .OHMM            1.3:   Rm. at BHT
 BHT .F               120:   BHT.
 MRT .F               120:   Maximum recorded temp.
 LUN .               6869:   Logging unit number
 ORIG.         2.5" PRINT:   Origin of data
 UWI .     49025102620000:   Unique Well ID
 DICO. A2D TECHNOLOGIES, INC.:   Digitizing Company
 LUL .          NEWCASTLE:   Logging unit location
~OTHER INFORMATION
~A   DEPT      GRD        SPR         ASN         ILD 
# ...
 1859.0000    88.9826   -31.0909    13.8758    11.0769
 1859.5000    88.2323   -31.0941    13.8752    10.9169
 1860.0000    85.9773   -31.0888    13.8746    10.7569
 1860.5000    85.2268   -31.0268    13.8740    10.5969
 1861.0000    85.2290   -30.9647    13.6931    10.5946
 1861.5000    84.8547   -30.9026    13.3672    10.5923
 1862.0000    83.3522   -30.8406    13.2451    10.4322
 1862.5000    83.7410   -30.7785    13.3033    10.5878
 1863.0000    83.2285   -30.7164    13.4712    10.6309
 1863.5000    79.9192   -30.6544    13.6390    10.7410
 1864.0000    80.1254   -30.5923    13.7128    10.8959
 1864.5000    81.2023   -30.5302    13.7121    10.9779
 1865.0000    82.4731   -30.4682    13.5548    11.0489
 1865.5000    83.6468   -30.4061    13.7109    11.0462
 1866.0000    84.1743   -30.3440    13.8671    11.2019
 1866.5000    82.6283   -30.2820    13.8665    11.1994
 1867.0000    81.2874   -30.2199    14.1793    11.3549
 1867.5000    82.2470   -30.2038    14.1787    11.3486
 1868.0000    83.3776   -30.0355    14.1780    11.1925
 1868.5000    84.1320   -29.8965    14.1774    11.1901
 1869.0000    84.2188   -29.9001    14.1768    11.0300
 1869.5000    82.2551   -29.9031    14.0195    10.9721
 1870.0000    84.1380   -29.9062    14.0189    10.7992
 1870.5000    86.3971   -29.9092    13.8614    10.6262
 1871.0000    85.6428   -29.9038    13.7040    10.5469
 1871.5000    83.3232   -29.2882    13.7034    10.5446
 1872.0000    81.0032   -29.2916    13.7028    10.5423
 1872.5000    79.1258   -29.6081    13.7022    10.5400
 1873.0000    77.9562   -29.9248    13.8583    10.6956
 1873.5000    77.0049   -30.0616    13.8617    11.0095
 1874.0000    76.6308   -30.4033    14.1706    11.1641
 1874.5000    76.1045   -30.5618    14.3267    11.3196
 1875.0000    75.3326   -30.8782    14.3260    11.1593
 1875.5000    75.9004   -30.8813    14.1177    11.1569
 1876.0000    76.8568   -30.5708    13.8546    11.0894
 1876.5000    77.3943   -29.9468    13.7794    10.9164
 1877.0000    78.5249   -29.3229    13.6104    10.7434
 1877.5000    80.0316   -29.0124    13.2256    10.5162
 1878.0000    83.7954   -29.3291    12.9115    10.5139
 1878.5000    87.1830   -29.4034    12.5974    10.3539
 1879.0000    86.8089   -29.6489    12.5968    10.1939
 1879.5000    84.9300   -29.6521    12.5962    10.1916
 1880.0000    83.0236   -29.6552    12.5956    10.1893
 1880.5000    81.4776   -29.6583    12.5950    10.1869
 1881.0000    79.9318   -29.6620    12.5944    10.1845
 1881.5000    78.8407   -29.6650    12.5937    10.1822
 1882.0000    79.5988   -29.6680    12.5931    10.1798
 1882.5000    82.2987   -29.6710    12.5925    10.1774
 1883.0000    83.2073   -29.9875    12.5919    10.1751
 1883.5000    84.8549   -30.3125    12.6735    10.1723
 1884.0000    87.2030   -30.6207    12.7473    10.1700
 1884.5000    87.5842   -30.9373    12.7466    10.1678
 1885.0000    87.2100   -31.0240    12.9027    10.1655
 1885.5000    89.0933   -31.2570    12.9021    10.3209
 1886.0000    87.9668   -31.2602    12.9015    10.3186
 1886.5000    87.8872   -31.2634    12.9009    10.3163
 1887.0000    89.0994   -31.2671    12.9003    10.3470
 1887.5000    90.9823   -30.9561    12.8997    10.4696
 1888.0000    92.4891   -30.6458    12.8990    10.4669
 1888.5000    89.0957   -30.6492    12.8984    10.4645
 1889.0000    87.9790   -30.6522    12.8978    10.4622
 1889.5000    87.5570   -30.6552    12.8972    10.4593
 1890.0000    86.3392   -30.6792    12.8966    10.4571
 1890.5000    84.6109   -31.2884    12.8959    10.2971
 1891.0000    82.3826   -31.9895    13.0520    10.1371
 1891.5000    79.0142   -32.5486    13.2081     9.9771
 1892.0000    76.1101   -32.8646    13.2075     9.8171
 1892.5000    77.4400   -32.2623    13.0501     9.7976
 1893.0000    79.1894   -31.4463    12.8928     9.4969
 1893.5000    84.2770   -30.3673    12.7315     9.4945
 1894.0000    88.7527   -30.0565    12.5624     9.4921
 1894.5000    91.7642   -29.4329    12.4206     9.4897
 1895.0000    94.7756   -29.7494    12.4200     9.4874
 1895.5000    96.2823   -30.3794    12.4703     9.4846
 1896.0000    92.1464   -31.0177    12.5757     9.6400
 1896.5000    88.0105   -31.3595    12.7317     9.7955
 1897.0000    86.1317   -31.9561    12.8877     9.7932
 1897.5000    84.2355   -31.8756    13.0439     9.9488
 1898.0000    83.4637   -31.5402    13.0432    10.1041
 1898.5000    83.0679   -31.2048    13.0426    10.1156
 1899.0000    82.6722   -30.5559    13.1987    10.2573
 1899.5000    81.9003   -29.4646    13.0414    10.0970
 1900.0000    83.2605   -29.1541    13.0408    10.0946
 1900.5000    84.6412   -29.4706    13.0401    10.0268
 1901.0000    82.2569   -29.7871    13.0395     9.9322
 1901.5000    80.8840   -30.1036    12.8787     9.9298
 1902.0000    81.2623   -30.7336    12.8464     9.9271
 1902.5000    80.8886   -31.0712    12.8142     9.9248
 1903.0000    80.1383   -31.3667    12.7819     9.9832
 1903.5000    79.7641   -31.3699    12.7496    10.0498
 1904.0000    79.6879   -31.3731    12.7173    10.1164
 1904.5000    81.2729   -31.6891    12.6851    10.1831
 1905.0000    84.2843   -30.6344    12.6528    10.2524
 1905.5000    86.6224   -30.1291    12.6205    10.2524
 1906.0000    87.7272   -30.1322    12.5882    10.2524
 1906.5000    89.2594   -30.1352    12.5560    10.2524
 1907.0000    90.1725   -30.1383    12.5326    10.2524
 1907.5000    92.1079   -30.7683    12.6888    10.2524
 1908.0000    92.9154   -31.0848    12.6883    10.2524
 1908.5000    92.1082   -31.4014    12.6879    10.2524
 1909.0000    89.9060   -31.4044    12.6874    10.2524
 1909.5000    86.5204   -31.0940    12.6870    10.2524
 1910.0000    82.7586   -30.7835    12.6865    10.2524
 1910.5000    83.1348   -30.4731    12.6811    10.2524
 1911.0000    85.0157   -30.7899    12.5289    10.2524
 1911.5000    85.3919   -30.7931    12.5031    10.2524
 1912.0000    83.4482   -31.1097    12.3712    10.2524
 1912.5000    81.8886   -31.2304    12.2139    10.0946
 1913.0000    80.8777   -31.4294    12.0567    10.0946
 1913.5000    81.9710   -31.4326    12.0563    10.0946
 1914.0000    83.9342   -31.4357    12.0558    10.0946
 1914.5000    86.8181   -31.4395    12.0553    10.0946
 1915.0000    91.0661   -31.4425    12.0548    10.0946
 1915.5000    89.9060   -31.4456    11.8976    10.0946
 1916.0000    88.7774   -31.1352    11.8971    10.0946
 1916.5000    88.7774   -30.8247    11.8967    10.0946
 1917.0000    86.8966   -30.5143    11.8962    10.0447
 1917.5000    83.5110   -30.2038    12.0525     9.9369
 1918.0000    85.3919   -30.2069    12.0520     9.9369
 1918.5000    85.0039   -30.2101    12.0516     9.7792
 1919.0000    83.8871   -30.2131    12.0511     9.7792
 1919.5000    87.2297   -30.2163    12.0506     9.7792
 1920.0000    90.0941   -30.2821    12.0501     9.6215
 1920.5000    91.5321   -30.6160    12.0497     9.6215
 1921.0000    92.3119   -30.8527    11.8925     9.6215
 1921.5000    94.7490   -30.8558    11.8920     9.6215
 1922.0000    98.4170   -30.7273    11.8915     9.6215
 1922.5000   100.8150   -30.5486    11.8910     9.6215
 1923.0000   100.4389   -30.5517    12.0474     9.6215
 1923.5000   100.0627   -30.7383    12.2035     9.6215
 1924.0000   101.1912   -31.1855    12.5166     9.7792
 1924.5000   103.4483   -31.8155    12.6729     9.7792
 1925.0000   101.1912   -32.1320    12.9859     9.7792
 1925.5000    96.5987   -32.1351    13.1422     9.7792
 1926.0000    94.4201   -31.8247    13.1417     9.8370
 1926.5000    95.5486   -31.5142    13.1412    10.0039
 1927.0000    94.3888   -31.2038    13.1408    10.1709
 1927.5000    90.8932   -30.5799    13.1403    10.1669
 1928.0000    88.9342   -30.2695    13.1398    10.0946
 1928.5000    91.3947   -30.2727    13.1393    10.0946
 1929.0000    91.1521   -30.2759    13.1389    10.0946
 1929.5000    89.1536   -30.2790    13.1384    10.2524
 1930.0000    88.4013   -30.2822    13.1379    10.2524
 1930.5000    88.0251   -29.9712    13.1374    10.4101
 1931.0000    87.6489   -30.2884    13.1369    10.4101
 1931.5000    86.1442   -30.2915    13.1365    10.2511
