~VERSION INFORMATION
 VERS.                2.0:   CWLS LOG ASCII STANDARD - VERSION 2.0
 WRAP.                 NO:   ONE LINE PER DEPTH STEP
~WELL INFORMATION
#MNEM.UNIT      DATA TYPE    INFORMATION
#----------   ------------   ------------------------------
 STRT.F            8.0000:   START DEPTH
 STOP.F         3021.0000:   STOP DEPTH
 STEP.F            0.5000:   STEP LENGTH
 NULL.          -999.2500:   NO VALUE
 COMP. LAWRENCE ALLISON & ASSOCIATES W:   COMPANY
 WELL. LAWRENCE ALLISON #68-28:   WELL
 FLD .              NPR 3:   FIELD
 LOC .      S28 T39N R78W:   LOCATION
 CNTY.            NATRONA:   COUNTY
 STAT.            WYOMING:   STATE
 CTRY. UNITED STATES OF AMERICA:   COUNTRY
 SRVC.      DRESSER ATLAS:   SERVICE COMPANY
 DATE.        19-DEC-1986:   LOGDATE
 API .     49025111580000:   API NUMBER
~CURVE INFORMATION
#MNEM.UNIT       API CODE    CURVE DESCRIPTION
#----------   ------------   ------------------------------
 DEPT.F                  :   
 SPR .MV     07 010 01 00:   SPONTANEOUS POTENTIAL
 TENR.LBS    07 635 01 00:   TENSION FROM RESISTIVITY
 RILD.OHMM   07 120 46 00:   DEEP INDUCTION RESISTIVITY
 RILM.OHMM   07 120 44 00:   INDUCTION LOG MEDIUM RESISTIVITY
 RFOC.OHMM   07 220 04 00:   RESISTIVITY FOCUSED LOG RES.
 CALD.IN     45 280 60 00:   CALIPER FROM DENSITY LOG
 CORR.G/C3   45 356 01 00:   DENSITY CORRECTION
 RHOB.G/C3   45 350 01 00:   BULK DENSITY
 CNC .DEC    42 890 03 00:   NEUTRON POROSITY SANDSTONE
 GRR .GAPI   07 310 01 00:   GAMMA RAY FROM RESISTIVITY
~PARAMETER INFORMATION
#MNEM.UNIT          VALUE    DESCRIPTION
#----------   ------------   ------------------------------
 EKB .F         5106.0000:   Kelly bushing
 EGL .F         5094.0000:   Ground level
 EDF .F            0.0000:   Drilling floor
 EPD .F         5094.0000:   Permanent datum
 TD  .F         3010.0000:   Total depth
 CLNT.            A2DTECH:   Client Code
 SL  . 1559'EL & 533' FSL:   Surface Location
 DATE.        19-DEC-1986:   Date Logged [DD-MMM-YYYY]
 DD  .F              3003:   Depth driller
 DL  .F              3010:   Depth logger
 BLI .F              3007:   Bottom log interval
 TLI .F                 0:   Top log interval
 CS1 .              8.625:   Casing size
 CBD1.      8.625" @ 389':   Casing driller 1
 CBL1.IN              405:   Casing logger 1
 BS1 .IN            7.875:   Bit size
 BSD1.F              3003:   Depth drilled with bit1
 DFT .        KCL POLYMER:   Type fluid in hole
 DFD .                9.0:   Density
 DFV .                 42:   Viscosity
 DFPH.                9.3:   pH
 DFL .                8.8:   Fluid loss
 MSS .           FLOWLINE:   Source of sample
 RMS .OHMM          0.484:   Rm
 MST .F                68:   Rm Meas. temp.
 RMF .OHMM          0.392:   Rmf
 MFST.F                68:   Rmf Meas. temp.
 MFSS.               MEAS:   Source Rmf.
 RMC .OHMM          0.605:   Rmc
 MCST.F                68:   Rmc Meas. temp.
 MCSS.               CALC:   Source Rmc.
 RMB .OHMM          0.269:   Rm. at BHT
 BHT .F               122:   BHT.
 TCS .HRS             3.5:   Time Circ. stopped
 MRT .F               122:   Maximum recorded temp.
 LUN .            HL-6274:   Logging unit number
 LUL .           GILLETTE:   Logging unit location
 ENGI.             RAUTIO:   Recorded By
 WITN.             STRONG:   Witnessed by
 ORIG.        2" 5" PRINT:   Origin of data
 UWI .     49025111580000:   Unique Well ID
 DICO. A2D TECHNOLOGIES, INC.:   Digitizing Company
~OTHER INFORMATION
~A    DEPT     SPR       TENR       RILD       RILM       RFOC       CALD       CORR       RHOB        CNC        GRR   
# ...
  410.0000   -40.0928   -58.0313    11.7684    10.9779     8.5948  -999.2500  -999.2500  -999.2500  -999.2500    96.5579
  410.5000   -43.9854   -49.6231    10.9339    10.8215     8.9168  -999.2500  -999.2500  -999.2500  -999.2500    99.3005
  411.0000   -46.9419   -49.0153    11.5838    13.4323     9.2508  -999.2500  -999.2500  -999.2500  -999.2500   102.0431
  411.5000   -47.8703   -48.4075    11.6684    15.7392     9.3248  -999.2500  -999.2500  -999.2500  -999.2500   102.3787
  412.0000   -48.1747   -47.7997    12.0105    16.0838     9.2651  -999.2500  -999.2500  -999.2500  -999.2500    94.4777
  412.5000   -47.9979   -47.1919    13.0023    13.0536     9.1395  -999.2500  -999.2500  -999.2500  -999.2500    92.3969
  413.0000   -47.4507   -46.5679    14.1779    11.3852     9.0789  -999.2500  -999.2500  -999.2500  -999.2500    93.3820
  413.5000   -45.0298   -45.8243    14.6991    10.3684     8.9487  -999.2500  -999.2500  -999.2500  -999.2500    95.2182
  414.0000   -42.8381   -45.2165    14.8079     9.7859     8.7121  -999.2500  -999.2500  -999.2500  -999.2500    95.5380
  414.5000   -41.8945   -52.5609    13.7412     9.5021     8.5941  -999.2500  -999.2500  -999.2500  -999.2500    95.2595
  415.0000   -42.5109   -59.7534    11.1803     9.3088     8.4777  -999.2500  -999.2500  -999.2500  -999.2500    95.8932
  415.5000   -43.4393   -66.9459    10.3289     9.1765     8.4218  -999.2500  -999.2500  -999.2500  -999.2500    97.7295
  416.0000   -44.2117   -66.1862    10.0361     8.9810     8.3678  -999.2500  -999.2500  -999.2500  -999.2500    98.9615
  416.5000   -44.8281   -65.5783     9.8222     8.8532     8.3157  -999.2500  -999.2500  -999.2500  -999.2500   100.1936
  417.0000   -45.6005   -57.1702     9.5437     8.7271     8.3221  -999.2500  -999.2500  -999.2500  -999.2500   101.4460
  417.5000   -45.9049   -48.7520     9.2732     8.6029     8.2095  -999.2500  -999.2500  -999.2500  -999.2500   103.3132
  418.0000   -46.0533   -55.9546     9.0103     8.4806     8.0999  -999.2500  -999.2500  -999.2500  -999.2500   102.3850
  418.5000   -46.0438   -55.1948     8.8182     8.4204     7.9902  -999.2500  -999.2500  -999.2500  -999.2500    98.4811
  419.0000   -46.0362   -54.5870     8.6269     8.3601     7.8820  -999.2500  -999.2500  -999.2500  -999.2500    97.8945
  419.5000   -45.8726   -53.9792     8.3856     8.1764     7.7738  -999.2500  -999.2500  -999.2500  -999.2500    99.1325
  420.0000   -45.7089   -53.3713     8.1480     8.0083     7.7239  -999.2500  -999.2500  -999.2500  -999.2500   102.7814
  420.5000   -45.3893   -60.7158     8.0899     8.1250     7.7873  -999.2500  -999.2500  -999.2500  -999.2500   103.1012
  421.0000   -44.7577   -67.9083     8.1491     8.2434     7.7932  -999.2500  -999.2500  -999.2500  -999.2500    97.3905
  421.5000   -43.9700   -67.1485     8.2087     8.3636     7.9134  -999.2500  -999.2500  -999.2500  -999.2500    94.9970
  422.0000   -43.3384   -66.5366     8.2686     8.4247     8.0336  -999.2500  -999.2500  -999.2500  -999.2500   100.2774
  422.5000   -42.8601   -65.9127     8.4499     8.4253     8.0411  -999.2500  -999.2500  -999.2500  -999.2500   103.8067
  423.0000   -42.3869   -65.1731     8.5116     8.4258     8.0473  -999.2500  -999.2500  -999.2500  -999.2500   102.3246
  423.5000   -42.0656   -64.5653     8.4511     8.3660     8.0535  -999.2500  -999.2500  -999.2500  -999.2500    99.6291
  424.0000   -42.2159   -63.9575     8.4517     8.3065     8.0597  -999.2500  -999.2500  -999.2500  -999.2500    97.8400
  424.5000   -42.5203   -63.3497     8.4525     8.2475     8.0659  -999.2500  -999.2500  -999.2500  -999.2500    98.7699
  425.0000   -42.9788   -62.7419     8.4530     8.1204     7.9567  -999.2500  -999.2500  -999.2500  -999.2500   100.6062
  425.5000   -43.5952   -62.1340     8.5148     7.9571     7.8488  -999.2500  -999.2500  -999.2500  -999.2500   100.9319
  426.0000   -44.3676   -61.5262     8.4541     7.8439     7.6835  -999.2500  -999.2500  -999.2500  -999.2500    99.7470
  426.5000   -45.7640   -60.9184     8.3941     7.7322     7.4746  -999.2500  -999.2500  -999.2500  -999.2500    97.6558
  427.0000   -48.2525   -60.2964     8.2150     7.6772     7.4818  -999.2500  -999.2500  -999.2500  -999.2500    97.0751
  427.5000   -50.8970   -59.5508     7.9250     7.6778     7.5417  -999.2500  -999.2500  -999.2500  -999.2500    97.4018
  428.0000   -52.9549   -58.9430     7.8121     7.6784     7.5475  -999.2500  -999.2500  -999.2500  -999.2500    98.0345
  428.5000   -54.0019   -58.3352     7.7565     7.7344     7.5533  -999.2500  -999.2500  -999.2500  -999.2500    98.6623
  429.0000   -53.9924   -57.7274     7.7014     7.6795     7.6137  -999.2500  -999.2500  -999.2500  -999.2500    99.5923
  429.5000   -53.6727   -57.1195     7.6466     7.5702     7.5106  -999.2500  -999.2500  -999.2500  -999.2500   104.4497
  430.0000   -53.1971   -56.5117     7.5378     7.5164     7.4625  -999.2500  -999.2500  -999.2500  -999.2500   106.2860
  430.5000   -53.0354   -55.9039     7.3771     7.3563     7.4682  -999.2500  -999.2500  -999.2500  -999.2500   103.5905
  431.0000   -53.4939   -55.2961     7.1680     7.1480     7.2632  -999.2500  -999.2500  -999.2500  -999.2500   101.1972
  431.5000   -54.7343   -54.6802     6.9648     6.9456     7.0624  -999.2500  -999.2500  -999.2500  -999.2500   100.9083
  432.0000   -55.8188   -61.8808     6.6705     6.7004     6.8658  -999.2500  -999.2500  -999.2500  -999.2500   102.4732
  432.5000   -56.7472   -61.1210     6.3887     6.3715     6.6773  -999.2500  -999.2500  -999.2500  -999.2500   104.0885
  433.0000   -57.6828   -60.5132     6.0713     6.0587     6.4461  -999.2500  -999.2500  -999.2500  -999.2500   105.2249
  433.5000   -58.4701   -59.9054     5.6350     5.5176     6.2229  -999.2500  -999.2500  -999.2500  -999.2500   104.0400
  434.0000   -59.2185   -59.2976     5.1850     5.2091     6.0946  -999.2500  -999.2500  -999.2500  -999.2500    99.8340
  434.5000   -59.6808   -58.6898     5.0379     5.0614     6.1457  -999.2500  -999.2500  -999.2500  -999.2500    91.3983
  435.0000   -59.6713   -65.8822     4.9305     5.0767     6.3356  -999.2500  -999.2500  -999.2500  -999.2500    90.2076
  435.5000   -59.0397   -65.2744     5.6545     5.8888     6.6135  -999.2500  -999.2500  -999.2500  -999.2500    95.6751
  436.0000   -58.4080   -64.6666     6.3460     6.5139     6.9109  -999.2500  -999.2500  -999.2500  -999.2500   100.5325
  436.5000   -57.7764   -71.8591     6.8208     7.0008     7.2738  -999.2500  -999.2500  -999.2500  -999.2500   103.8794
  437.0000   -56.6767   -71.0993     7.2261     7.3633     7.6008  -999.2500  -999.2500  -999.2500  -999.2500   104.5076
  437.5000   -55.5771   -78.4438     7.6555     7.6889     7.8855  -999.2500  -999.2500  -999.2500  -999.2500   102.9206
  438.0000   -54.7894   -77.6840     8.0646     7.8574     8.1809  -999.2500  -999.2500  -999.2500  -999.2500    99.1221
  438.5000   -54.9719   -77.0762     8.4695     8.0295     8.4264  -999.2500  -999.2500  -999.2500  -999.2500    99.7500
  439.0000   -56.3323   -84.4206     8.4092     8.2055     8.6235  -999.2500  -999.2500  -999.2500  -999.2500   100.9820
  439.5000   -58.5088   -91.4612     8.2299     8.3853     8.9416  -999.2500  -999.2500  -999.2500  -999.2500   100.0992
  440.0000   -59.5951   -90.8534     8.1715     8.5690     9.1439  -999.2500  -999.2500  -999.2500  -999.2500    96.7996
  440.5000   -59.2736   -82.4453     8.1133     8.6315     9.2153  -999.2500  -999.2500  -999.2500  -999.2500    95.6147
  441.0000   -58.3300   -81.8253     8.0556     8.6947     9.0923  -999.2500  -999.2500  -999.2500  -999.2500    95.6382
  441.5000   -56.4503   -81.0776     8.0563     8.7581     9.0323  -999.2500  -999.2500  -999.2500  -999.2500    96.2661
  442.0000   -53.3225   -80.4699     8.1151     8.6957     8.9100  -999.2500  -999.2500  -999.2500  -999.2500    98.2029
  442.5000   -49.4148   -79.8620     8.1744     8.6341     8.7909  -999.2500  -999.2500  -999.2500  -999.2500   102.1550
  443.0000   -48.4711   -87.2065     8.1163     8.6347     8.7979  -999.2500  -999.2500  -999.2500  -999.2500   102.9892
