~VERSION INFORMATION
 VERS.                2.0:   CWLS LOG ASCII STANDARD - VERSION 2.0
 WRAP.                 NO:   ONE LINE PER DEPTH STEP
~WELL INFORMATION
#MNEM.UNIT      DATA TYPE    INFORMATION
#----------   ------------   ------------------------------
 STRT.F          388.0000:   START DEPTH
 STOP.F         3166.0000:   STOP DEPTH
 STEP.F            0.5000:   STEP LENGTH
 NULL.          -999.2500:   NO VALUE
 COMP.    PENIX & SCISSON:   COMPANY
 WELL. PENIX NPR 3 "AX" #34-28:   WELL
 FLD .                NPR:   FIELD
 LOC .      S28 T39N R78W:   LOCATION
 CNTY.            NATRONA:   COUNTY
 STAT.            WYOMING:   STATE
 CTRY. UNITED STATES OF AMERICA:   COUNTRY
 SRVC.              WELEX:   SERVICE COMPANY
 DATE.        15-DEC-1978:   LOGDATE
 API .     49025107950000:   API NUMBER
~CURVE INFORMATION
#MNEM.UNIT       API CODE    CURVE DESCRIPTION
#----------   ------------   ------------------------------
 DEPT.F                  :   
 CALD.IN     45 280 60 00:   CALIPER FROM DENSITY LOG
 GRD .GAPI   45 310 01 00:   GAMMA RAY FROM DENSITY LOG
 RHOB.G/C3   45 350 01 00:   BULK DENSITY
 CORR.G/C3   45 356 01 00:   DENSITY CORRECTION
 NPHI.DEC    42 890 03 00:   NEUTRON POROSITY SANDSTONE
 SPR .MV     07 010 01 00:   SPONTANEOUS POTENTIAL
 SGRD.OHMM   07 220 05 00:   SHALLOW GUARD
 ILD .OHMM   07 120 46 00:   DEEP INDUCTION RESISTIVITY
 ILM .OHMM   07 120 44 00:   INDUCTION LOG MEDIUM RESISTIVITY
 TENR.LBS    07 635 01 00:   TENSION FROM RESISTIVITY
~PARAMETER INFORMATION
#MNEM.UNIT          VALUE    DESCRIPTION
#----------   ------------   ------------------------------
 EKB .F         5039.0000:   Kelly bushing
 EGL .F         5029.0000:   Ground level
 EDF .F            0.0000:   Drilling floor
 TD  .F         3159.0000:   Total depth
 DATE.        15-DEC-1978:   Date logged
 CLNT.            A2DTECH:   Client Code
 SL  . 2434' FNL & 1651' FWL:   Surface Location
 PD  .                 GL:   Permanent Datum
 EPD .F              5029:   Elevation Permanent Datum
 LMF .                 KB:   Log Measured From
 DMF .                 KB:   Drilling Measured From
 DAPD.F                10:   Feet Above Permanent Datum
 DD  .F              3155:   Depth driller
 DL  .F              3159:   Depth logger
 BLI .F              3157:   Bottom log interval
 TLI .F               350:   Top log interval
 CS1 .IN            8.625:   Casing size
 CBD1.      8.625" @ 383':   Casing driller 1
 CBL1.F               398:   Casing logger 1
 BS1 .IN            7.875:   Bit size
 BSD1.F              3155:   Depth drilled with bit1
 DFT .           CHEM/GEL:   Type fluid in hole
 DFD .                8.5:   Density
 DFV .                 55:   Viscosity
 DFPH.                 10:   pH
 DFL .               10.8:   Fluid loss
 MSS .           FLOWLINE:   Source of sample
 RMS .OHMM           1.65:   Rm
 MST .F                65:   Rm Meas. temp.
 RMF .OHMM           1.32:   Rmf
 MFST.F                65:   Rmf Meas. temp.
 RMC .OHMM           1.98:   Rmc
 MCST.F                65:   Rmc Meas. temp.
 MFSS.               CALC:   Source Rmf.
 RMB .OHMM              1:   Rm. at BHT
 BHT .F               107:   BHT.
 TCS .HRS               8:   Time Circ. stopped
 MRT .F               107:   Maximum recorded temp.
 LUN .               1892:   Logging unit number
 LUL .             CASPER:   Logging unit location
 ENGI.               REIN:   Recorded By
 WITN.              AMEND:   Witnessed by
 ORIG.           5" PRINT:   Origin of data
 UWI .     49025107950000:   Unique Well ID
 DICO. A2D TECHNOLOGIES, INC.:   Digitizing Company
~OTHER INFORMATION
~A   DEPT     CALD         GRD      RHOB       CORR       NPHI        SPR       SGRD        ILD        ILM       TENR   
# ...
 2599.0000     8.6890   131.7543     2.4996     0.0251     0.1787   -59.2545     6.2935     4.1646     4.8284  1789.6198
 2599.5000     8.6675   129.3105     2.4975     0.0290     0.1714   -59.2559     6.4112     4.1645     4.8283  1789.8112
 2600.0000     8.6463   133.3357     2.4934     0.0533     0.1629   -59.2573     6.4110     4.1643     4.8280  1790.0027
 2600.5000     8.5941   120.7753     2.4910     0.0718     0.1585   -59.2588     7.1004     4.3520     5.0403  1790.2115
 2601.0000     8.5432   120.3591     2.4862     0.0815     0.1585   -59.4586     7.3690     4.5279     5.2392  1810.4346
 2601.5000     8.4573    97.3104     2.4822     0.0813     0.1577   -59.6598     8.5499     4.6996     5.4329  1810.5349
 2602.0000     8.3593    90.0163     2.4740     0.0812     0.1577   -59.8610    10.5868     5.3041     6.1140  1810.6353
 2602.5000     8.2775    84.3385     2.4810     0.0831     0.1625   -59.8610    12.1697     5.6086     6.4564  1790.5529
 2603.0000     8.1956    77.8528     2.4890     0.0769     0.1658   -59.8610    12.6300     6.0987     7.0065  1790.6132
 2603.5000     8.1776    73.7914     2.4799     0.0667     0.1662   -59.8610    12.7474     6.8833     7.8850  1810.9362
 2604.0000     8.1736    77.8110     2.4748     0.0584     0.1666   -59.6598    14.2501     7.3467     8.4027  1811.0366
 2604.5000     8.1723   115.3530     2.4828     0.0644     0.1670   -59.4586    13.2288     8.2918     9.4562  1790.9141
 2605.0000     8.1713   118.5725     2.4969     0.0704     0.1666   -59.4586    11.5071     9.0162    10.2617  1791.0144
 2605.5000     8.1705   115.3105     2.5029     0.0683     0.1658   -59.2573    10.4855     9.0158    10.2613  1811.3376
 2606.0000     8.2501   119.7420     2.4988     0.0397     0.1585   -59.0561    10.1025     8.6857     9.8944  1791.2151
 2606.5000     8.2692   120.5287     2.4907     0.0234     0.1593   -58.6537     9.8243     8.3677     9.5407  1791.3154
 2607.0000     8.3494   118.0833     2.4956     0.0151     0.1618   -58.4525    10.0078     8.0614     9.1996  1791.4156
 2607.5000     8.3884   123.7182     2.5027     0.0231     0.1634   -58.4525    10.1012     7.9123     9.0335  1811.7589
 2608.0000     8.3874   126.1210     2.5066     0.0230     0.1638   -58.8549     9.7320     7.8386     8.9514  1791.6365
 2608.5000     8.3867   132.1554     2.5106     0.0249     0.1646   -58.6537     9.2038     7.7657     8.8701  1791.7368
 2609.0000     8.3853   132.5423     2.5065     0.0228     0.1654   -59.0561     8.8676     7.6220     8.7098  1812.0599
 2609.5000     8.3843   127.2646     2.5065     0.0186     0.1662   -59.0561     8.6233     7.4809     8.5524  1812.1603
 2610.0000     8.3833   137.7471     2.4963     0.0043     0.1658   -58.6537     8.6020     7.3426     8.3981  1792.0378
 2610.5000     8.3418   135.3016     2.4751    -0.0060     0.1646   -59.0561     8.4429     7.0081     8.0245  1792.1381
 2611.0000     8.3610   135.2802     2.4891     0.0041     0.1618   -59.0561     8.2099     6.8148     7.8083  1812.4612
 2611.5000     8.3608   142.1264     2.5012     0.0141     0.1614   -59.2573     8.1334     6.6266     7.5979  1792.3187
 2612.0000     8.3589   149.7805     2.5021     0.0384     0.1630   -59.0561     8.0577     6.4438     7.3932  1792.4189
 2612.5000     8.3377   153.3946     2.5091     0.0321     0.1659   -58.8549     7.9826     6.2660     7.1940  1792.5194
 2613.0000     8.3367   156.6048     2.5000     0.0239     0.1687   -59.0561     7.8349     6.0930     7.0001  1792.6198
 2613.5000     8.3163   157.7950     2.4828     0.0136     0.1703   -59.0561     7.5481     5.8699     6.7498  1772.5173
 2614.0000     8.3348   150.0980     2.4737     0.0095     0.1675   -59.0561     7.0714     5.7614     6.6279  1772.5977
 2614.5000     8.3134   144.8250     2.4907     0.0154     0.1663   -58.4525     6.7066     5.7077     6.3234  1772.6779
 2615.0000     8.3122   143.5916     2.4967     0.0153     0.1663   -58.4525     6.8322     5.6021     6.2646  1813.2639
 2615.5000     8.3115   146.3891     2.4987     0.0071     0.1675   -59.0561     8.0756     5.4985     6.2062  1813.3643
 2616.0000     8.3103   142.7406     2.5047    -0.0052     0.1691   -58.8549     8.3813     5.3968     6.2060  1813.4645
 2616.5000     8.3295   143.5270     2.5046    -0.0053     0.1659   -59.2573     7.4964     5.3464     6.1480  1813.5649
 2617.0000     8.3087   145.9291     2.5026    -0.0075     0.1627   -59.0561     7.8526     5.3964     6.0908  1813.6652
 2617.5000     8.2668   146.7154     2.4974    -0.0178     0.1599   -59.2573     7.7796     5.4975     6.2050  1813.7655
 2618.0000     8.2658   139.8270     2.5004    -0.0097     0.1570   -59.4586     7.7794     5.4973     6.2049  1793.6431
 2618.5000     8.2446   136.1702     2.5034    -0.0058     0.1579   -59.2573     7.8515     5.4971     6.1469  1793.7434
 2619.0000     8.2640   133.3213     2.5043    -0.0018     0.1655   -59.2573     8.0731     5.4967     6.0898  1793.8438
 2619.5000     8.2627   135.3194     2.5103     0.0041     0.1668   -59.2573     8.1481     5.4964     6.0895  1814.1669
 2620.0000     8.2617   139.7410     2.5204     0.0061     0.1660   -59.0561     7.9977     5.4962     6.0891  1814.2672
 2620.5000     8.2405   140.5273     2.5264     0.0100     0.1627   -59.0561     7.4936     5.3445     6.0324  1814.3876
 2621.0000     8.2798   161.5046     2.5334     0.0160     0.1571   -59.0561     6.8921     5.3443     5.9762  1814.4879
 2621.5000     8.2796   165.9301     2.5364     0.0179     0.1506   -59.0561     6.8280     5.3441     5.9205  1814.5883
 2622.0000     8.3382   146.9209     2.5373     0.0137     0.1470   -59.0561     6.9557     5.2942     5.9755  1794.4658
 2622.5000     8.3373   136.3895     2.5443     0.0177     0.1518   -59.2573     7.2188     5.2941     5.9754  1794.5660
 2623.0000     8.2755   140.4198     2.5503     0.0236     0.1502   -59.2573     7.5619     5.2447     5.9752  1794.6664
 2623.5000     8.2341   148.0678     2.5573     0.0296     0.1450   -59.2573     7.9212     5.2444     5.9748  1794.7668
 2624.0000     8.2333   152.0937     2.5734     0.0417     0.1381   -59.2573     8.0693     5.3428     6.1438  1794.8671
 2624.5000     8.2321   130.6623     2.5683     0.0375     0.1373   -59.2573     8.4527     5.5453     6.4965  1794.9674
 2625.0000     8.2310   121.3519     2.5612     0.0293     0.1478   -59.2573     8.9995     5.8094     6.9338  1815.2905
 2625.5000     8.2300   116.8880     2.5460     0.0150     0.1495   -59.2573     9.4280     6.0296     7.1967  1815.3909
 2626.0000     8.2290   115.6552     2.5358     0.0087     0.1571   -59.2573     9.8770     6.2002     7.5393  1795.2684
 2626.5000     8.2481   120.4802     2.5378     0.0066     0.1596   -59.4586     9.9688     6.4351     7.7527  1795.3687
 2627.0000     8.2269   126.1044     2.5387     0.0024     0.1652   -59.4586     9.8760     6.8046     7.8247  1795.4691
 2627.5000     8.2461   120.8415     2.5488    -0.0038     0.1660   -59.6598     9.6034     7.1286     7.8976  1795.5695
 2628.0000     8.2249   119.2048     2.5538    -0.0019     0.1661   -59.4586     9.2519     7.1950     7.8972  1795.6697
 2628.5000     8.2243   124.0296     2.5588     0.0041     0.1653   -59.2573     8.9341     7.1948     7.8968  1815.9929
 2629.0000     8.2430   125.6236     2.5637     0.0121     0.1560   -59.6598     8.7693     7.1277     7.8965  1816.0931
 2629.5000     8.2622   128.8287     2.5677     0.0100     0.1507   -59.4586     8.8506     7.0613     7.8963  1816.1935
 2630.0000     8.2614   119.9273     2.5495    -0.0084     0.1487   -59.6598     9.0163     7.0609     8.0834  1816.2938
 2630.5000     8.3207   115.8678     2.5323    -0.0288     0.1483   -59.4586     9.1849     6.9951     8.0099  1796.1714
 2631.0000     8.3197   125.1302     2.5252    -0.0310     0.1503   -59.4586     9.2702     6.9949     8.0097  1816.4945
 2631.5000     8.3193   125.9165     2.5150    -0.0453     0.1544   -59.2573     9.5319     6.9945     8.0093  1816.5948
 2632.0000     8.3178   123.0684     2.5180    -0.0434     0.1572   -59.4586     9.4433     6.9942     8.0089  1816.6952
