~VERSION INFORMATION
 VERS.                2.0:   CWLS LOG ASCII STANDARD - VERSION 2.0
 WRAP.                 NO:   ONE LINE PER DEPTH STEP
~WELL INFORMATION
#MNEM.UNIT      DATA TYPE    INFORMATION
#----------   ------------   ------------------------------
 STRT.F          200.0000:   START DEPTH
 STOP.F         3209.0000:   STOP DEPTH
 STEP.F            0.5000:   STEP LENGTH
 NULL.          -999.2500:   NO VALUE
 COMP.    FENIX & SCISSON:   COMPANY
 WELL. FENIX & SCISSON "AX" #88-3:   WELL
 FLD .             NPR #3:   FIELD
 LOC .       S3 T38N R78W:   LOCATION
 CNTY.            NATRONA:   COUNTY
 STAT.            WYOMING:   STATE
 CTRY. UNITED STATES OF AMERICA:   COUNTRY
 SRVC.              WELEX:   SERVICE COMPANY
 DATE.        27-JUL-1977:   LOGDATE
 API .     49025104060000:   API NUMBER
~CURVE INFORMATION
#MNEM.UNIT       API CODE    CURVE DESCRIPTION
#----------   ------------   ------------------------------
 DEPT.F                  :   
 CALD.IN     45 280 60 00:   CALIPER FROM DENSITY LOG
 GRD .GAPI   45 310 01 00:   GAMMA RAY FROM DENSITY LOG
 RHOB.G/C3   45 350 01 00:   BULK DENSITY
 CORR.G/C3   45 356 01 00:   DENSITY CORRECTION
 NPHI.DEC    42 890 03 00:   NEUTRON POROSITY SANDSTONE
 SPR .MV     07 010 01 00:   SPONTANEOUS POTENTIAL
 SGRD.OHMM   07 220 05 00:   GUARD LOG RESISTIVITY
 FORX.OHMM   07 000 00 00:   
~PARAMETER INFORMATION
#MNEM.UNIT          VALUE    DESCRIPTION
#----------   ------------   ------------------------------
 EKB .F         5134.0000:   Kelly bushing
 EGL .F         5124.0000:   Ground level
 EDF .F            0.0000:   Drilling floor
 TD  .F         3211.0000:   Total depth
 CLNT.            A2DTECH:   Client Code
 SL  . 230' FSL & 380' FEL:   Surface Location
 PD  .                 GL:   Permanent Datum
 EPD .F              5124:   Elevation Permanent Datum
 LMF .                 KB:   Log Measured From
 DMF .                 KB:   Drilling Measured From
 DAPD.F                10:   Feet Above Permanent Datum
 DATE.        27-JUL-1977:   Date Logged [DD-MMM-YYYY]
 DD  .F              3200:   Depth driller
 DL  .F              3211:   Depth logger
 BLI .F              3210:   Bottom log interval
 TLI .F               200:   Top log interval
 CS1 .IN            8.625:   Casing size
 CBD1.      8.625" @ 218':   Casing driller 1
 CBL1.F               218:   Casing logger 1
 BS1 .IN            7.875:   Bit size
 BSD1.F              3200:   Depth drilled with bit1
 DFT .            KCL MUD:   Type fluid in hole
 DFD .                9.2:   Density
 DFV .                 36:   Viscosity
 DFPH.                9.5:   pH
 DFL .                9.6:   Fluid loss
 MSS .           FLOWLINE:   Source of sample
 RMS .OHMM           0.61:   Rm
 MST .F                85:   Rm Meas. temp.
 RMF .OHMM           0.53:   Rmf
 MFST.F                85:   Rmf Meas. temp.
 MFSS.               FANN:   Source Rmf.
 RMC .OHMM           0.48:   Rmc
 MCST.F                85:   Rmc Meas. temp.
 MCSS.                KIT:   Source Rmc.
 RMB .OHMM           0.42:   Rm. at BHT
 BHT .F               122:   BHT.
 TCS .HRS             2.5:   Time Circ. stopped
 MRT .F               122:   Maximum recorded temp.
 LUN .               8611:   Logging unit number
 LUL .             CASPER:   Logging unit location
 ENGI.            C. DOAK:   Recorded By
 WITN.      E. HARRINGTON:   Witnessed by
 ORIG.      2.5" 5" PRINT:   Origin of data
 UWI .     49025104060000:   Unique Well ID
 DICO. A2D TECHNOLOGIES, INC.:   Digitizing Company
~OTHER INFORMATION
~A   DEPT       CALD       GRD        RHOB      CORR        NPHI       SPR      SGRD         FORX 
# ...
 2184.5000     9.3531   120.9728     2.4919     0.0834     0.3415   -69.0267     5.0812     9.1380
 2185.0000     9.3551   120.1130     2.4971     0.0836     0.3427   -69.0208     4.8852     9.9455
 2185.5000     9.3423   120.2412     2.4934     0.0855     0.3412   -68.7181     4.7803     9.2216
 2186.0000     9.3447   121.4647     2.4853     0.0884     0.3368   -68.7122     4.8512     8.0827
 2186.5000     9.3465   122.9845     2.4807     0.0889     0.3315   -68.7051     5.1571     9.0415
 2187.0000     9.3486   124.5043     2.4741     0.0911     0.3261   -68.7003     4.9510    10.5529
 2187.5000     9.3507   126.3371     2.4641     0.0929     0.3214   -68.6936     4.3189     9.2340
 2188.0000     9.3528   127.8499     2.4558     0.0936     0.3156   -68.3912     3.9254     6.6696
 2188.5000     9.3545   129.3697     2.4537     0.0938     0.3108   -68.3854     4.1474     6.9448
 2189.0000     9.3421   131.1858     2.4607     0.0925     0.3145   -68.3796     4.3223     7.8810
 2189.5000     9.3293   130.3353     2.4733     0.0926     0.3168   -68.3739     4.2647     9.9218
 2190.0000     9.3314   128.5958     2.4824     0.0928     0.3192   -68.3680     4.1507     8.3305
 2190.5000     9.3334   126.5601     2.4899     0.0945     0.3216   -68.3620     4.0387     6.0830
 2191.0000     9.3355   123.9840     2.4885     0.0947     0.3169   -68.3561     3.9317     8.4510
 2191.5000     9.3378   120.9872     2.4786     0.0931     0.3134   -68.6457     3.9461    10.3801
 2192.0000     9.3397   118.5837     2.4678     0.0906     0.3169   -68.6400     4.3229     5.6863
 2192.5000     9.3420   115.1674     2.4649     0.0898     0.3227   -68.9318     5.2365     5.5807
 2193.0000     9.3438   111.9465     2.4819     0.0864     0.3324   -68.9252     6.2303     6.7057
 2193.5000     9.3459   110.5033     2.4980     0.0851     0.3335   -69.2166     6.2696    11.5966
 2194.0000     9.3481   112.9120     2.4966     0.0845     0.3289   -69.2104     6.0707    11.2360
 2194.5000     9.3501   115.6170     2.4869     0.0855     0.3155   -69.2047     5.8698     9.5810
 2195.0000     9.3522   117.4332     2.4759     0.0857     0.3097   -69.1988     5.5873    10.6931
 2195.5000     9.3215   117.7678     2.4700     0.0873     0.3079   -69.1929     5.9194     9.0767
 2196.0000     9.2819   116.5434     2.4693     0.0883     0.3073   -68.8902     6.2641    13.0014
 2196.5000     9.2692   114.2985     2.4812     0.0907     0.3098   -68.8843     5.7853    13.5076
 2197.0000     9.2865   113.4383     2.4927     0.0923     0.3153   -68.8783     5.4041    11.7940
 2197.5000     9.3034   113.1804     2.5018     0.0925     0.3200   -68.8724     5.2596     8.5834
 2198.0000     9.3203   114.4135     2.5116     0.0942     0.3224   -68.8665     5.1895     8.9496
 2198.5000     9.3372   116.2296     2.5146     0.0944     0.3230   -68.8605     5.2624    10.2956
 2199.0000     9.3540   117.1568     2.5012     0.0961     0.3218   -68.8546     6.3755    11.9923
 2199.5000     9.3709   117.7877     2.4917     0.0962     0.3147   -68.8475     5.7946    10.1556
 2200.0000     9.3730   117.4975     2.4828     0.0964     0.3084   -68.8418     3.3989     4.4085
 2200.5000     9.3601   115.5036     2.4739     0.0944     0.3012   -68.8360     5.4380     7.9435
 2201.0000     9.3478   113.4679     2.4712     0.0925     0.2979   -68.8303     5.9773     9.8913
 2201.5000     9.3201   112.9041     2.4682     0.0906     0.2939   -68.8245     6.4396    10.7413
 2202.0000     9.3068   113.3333     2.4623     0.0887     0.2869   -68.8070     7.1245    14.9227
 2202.5000     9.2945   114.4718     2.4572     0.0869     0.2928   -68.7881     5.8634     9.5029
 2203.0000     9.2840   116.5842     2.4533     0.0827     0.2963   -68.7692     5.8054     8.9997
 2203.5000     9.2722   118.6966     2.4521     0.0829     0.3000   -68.7503     5.8101     9.5363
 2204.0000     9.2603   120.5399     2.4565     0.0846     0.3018   -68.7315     5.5221    11.4641
 2204.5000     9.2485   122.0421     2.4658     0.0908     0.3040   -68.7126     4.4062     7.5410
 2205.0000     9.2366   123.5620     2.4681     0.1015     0.3064   -68.6937     4.0488     6.4892
 2205.5000     9.2639   123.8870     2.4584     0.1077     0.3087   -68.6748     4.0207     6.4914
 2206.0000     9.2942   120.0831     2.4482     0.1094     0.3105   -68.6560     3.7372     9.5259
 2206.5000     9.3317   116.2695     2.4386     0.1007     0.3111   -68.6371     2.6325     5.8221
 2207.0000     9.3427   112.1597     2.4257     0.0949     0.3105   -68.6182     3.9703     5.1492
 2207.5000     9.3821   108.9420     2.4567     0.0935     0.3097   -68.5993     5.1511     5.4407
 2208.0000     9.3914   106.3137     2.4927     0.0983     0.3077   -68.5805     5.6709    13.0674
 2208.5000     9.4084   103.3890     2.5108     0.1058     0.3031   -68.5616     6.0745     7.7710
 2209.0000     9.4106   103.4274     2.5295     0.1091     0.2912   -68.5460     6.9677    10.9687
 2209.5000     9.4085   108.6208     2.5326     0.1109     0.2831   -68.5460     5.9960    13.6287
 2210.0000     9.3996   115.3655     2.5242     0.1051     0.2796   -68.5460     3.0674     5.5329
 2210.5000     9.4021   118.0609     2.5119     0.0996     0.2808   -68.5460     2.6037     3.3078
 2211.0000     9.4039   113.3892     2.5031     0.0931     0.2892   -68.5460     2.4649     3.1116
 2211.5000     9.4208   109.8509     2.4997     0.0908     0.2944   -68.5460     2.4001     6.8076
 2212.0000     9.4082   107.2225     2.4965     0.0871     0.2962   -68.5460     2.5317    11.4882
 2212.5000     9.4101   105.6543     2.4944     0.0867     0.2962   -68.5460     3.4085    14.1005
 2213.0000     9.4122   105.8177     2.4915     0.0869     0.2944   -68.5460     4.0969    13.3134
 2213.5000     9.4143   109.2057     2.4856     0.0872     0.2878   -68.5460     3.1919     5.4712
 2214.0000     9.4163   114.4966     2.4798     0.0873     0.2778   -68.5460     3.0756     6.4210
 2214.5000     9.4186   116.9244     2.4744     0.0891     0.2724   -68.5460     3.6436     7.5980
 2215.0000     9.4205   119.9066     2.4673     0.0898     0.2718   -68.5460     3.1818     6.9301
 2215.5000     9.4226   122.0190     2.4622     0.0909     0.2875   -68.5460     2.5657     4.0579
 2216.0000     9.4250   123.2425     2.4607     0.0912     0.2992   -68.5099     2.5255     4.3965
 2216.5000     9.4267   124.1697     2.4668     0.0899     0.3028   -68.3771     2.9168     5.4002
 2217.0000     9.4291   124.3457     2.4901     0.0878     0.3065   -68.2444     3.9568     8.9632
 2217.5000     9.4309   124.9438     2.4895     0.0833     0.3126   -68.1116     3.3017     4.6486
 2218.0000     9.4330   125.4795     2.4787     0.0786     0.3209   -67.9788     3.4887     4.4434
 2218.5000     9.4355   125.6837     2.4680     0.0763     0.3327   -67.8461     4.3441     5.7904
 2219.0000     9.4371   125.8524     2.4621     0.0725     0.3380   -67.7133     4.9829     8.9753
 2219.5000     9.4392   126.5025     2.4722     0.0702     0.3381   -67.8307     4.4069     9.4105
 2220.0000     9.4413   126.8180     2.4952     0.0674     0.3350   -67.7905     4.1167     8.1608
 2220.5000     9.4434   126.8563     2.4864     0.0691     0.3291   -67.7504     4.3499     7.6236
 2221.0000     9.4455   123.9317     2.4802     0.0708     0.3238   -67.7103     4.9217     7.5225
 2221.5000     9.4475   120.3946     2.4815     0.0726     0.3214   -67.6699     5.8056     8.5932
 2222.0000     9.4496   117.6954     2.4905     0.0787     0.3188   -67.6216     6.7545    11.5056
 2222.5000     9.4520   115.6707     2.5018     0.0838     0.3121   -67.5627     7.0322    11.0464
 2223.0000     9.4538   113.7243     2.5126     0.0887     0.3049   -67.5036     6.9388    12.8266
 2223.5000     9.4559   111.6885     2.5176     0.0928     0.2997   -67.4443     6.9231    13.0267
 2224.0000     9.4579   110.8284     2.5050     0.0960     0.2922   -67.3852     6.8491     9.8771
 2224.5000     9.4603   112.0615     2.4932     0.0894     0.2866   -67.3260     7.0979    10.6735
