~VERSION INFORMATION
 VERS.                2.0:   CWLS LOG ASCII STANDARD - VERSION 2.0
 WRAP.                 NO:   ONE LINE PER DEPTH STEP
~WELL INFORMATION
#MNEM.UNIT      DATA TYPE    INFORMATION
#----------   ------------   ------------------------------
 STRT.F            0.0000:   START DEPTH
 STOP.F         1165.5000:   STOP DEPTH
 STEP.F            0.5000:   STEP LENGTH
 NULL.          -999.2500:   NO VALUE
 COMP.   JOHN BROWN E & C:   COMPANY
 WELL. BROWN NPR 3 "X" 1 #63-14:   WELL
 FLD .                NPR:   FIELD
 LOC .      S14 T38N R78W:   LOCATION
 CNTY.            NATRONA:   COUNTY
 STAT.            WYOMING:   STATE
 CTRY. UNITED STATES OF AMERICA:   COUNTRY
 SRVC.     ATLAS WIRELINE:   SERVICE COMPANY
 DATE.        15-JAN-1992:   LOGDATE
 API .     49025224960000:   API NUMBER
~CURVE INFORMATION
#MNEM.UNIT       API CODE    CURVE DESCRIPTION
#----------   ------------   ------------------------------
 DEPT.F                  :   
 GRR .GAPI   07 310 01 00:   GAMMA RAY FROM RESISTIVITY
 RILD.OHMM   07 120 46 00:   INDUCTION LOG DEEP RESISTIVITY
 RILM.OHMM   07 120 44 00:   INDUCTION LOG MEDIUM RESISTIVITY
 TENR.LBS    07 635 01 00:   TENSION
~PARAMETER INFORMATION
#MNEM.UNIT          VALUE    DESCRIPTION
#----------   ------------   ------------------------------
 EKB .F         5270.0000:   Kelly bushing
 EGL .F         5260.0000:   Ground level
 EDF .F         5269.0000:   Drilling floor
 TD  .F         1160.0000:   Total depth
 DATE.        15-JAN-1992:   Date logged
 CLNT.            A2DTECH:   Client Code
 SL  . 1893' FNL & 1971' FEL:   Surface Location
 PD  .                 GL:   Permanent Datum
 EPD .F              5260:   Elevation Permanent Datum
 LMF .                 KB:   Log Measured From
 DMF .                 KB:   Drilling Measured From
 DAPD.F                10:   Feet Above Permanent Datum
 DD  .F              1160:   Depth driller
 DL  .F              1158:   Depth logger
 BLI .F              1150:   Bottom log interval
 CS1 .IN            9.625:   Casing size
 CBD1.       9.625" @ 50':   Casing driller 1
 CBL1.F                48:   Casing logger 1
 BS1 .IN             8.75:   Bit size
 BSD1.F              1160:   Depth drilled with bit1
 DFT .                AIR:   Type fluid in hole
 MRT .F                90:   Maximum recorded temp.
 LUN .            HL-6274:   Logging unit number
 LUL .             CASPER:   Logging unit location
 ENGI.             RAUTIO:   Recorded By
 WITN.        GARY STRONG:   Witnessed by
 ORIG.           5" PRINT:   Origin of data
 UWI .     49025224960000:   Unique Well ID
 DICO. A2D TECHNOLOGIES, INC.:   Digitizing Company
 TLI .F                 0:   Top log interval
~OTHER INFORMATION
~A    DEPT      GRR      RILD       RILM       TENR   
# ...
 1095.0000   145.6540     7.4130     7.6230   194.7340
 1095.5000   146.2710     7.8990     8.1820   195.1990
 1096.0000   146.6210     8.3850     8.7420   195.6630
 1096.5000   142.8240     8.7740     8.9240   196.1270
 1097.0000   141.3500     8.8360     8.9890   196.5920
 1097.5000   142.1790     8.8980     9.0660   197.0560
 1098.0000   143.3180     8.9600     9.1440   197.5210
 1098.5000   147.0960     9.0220     9.2210   197.9850
 1099.0000   146.5380     9.0910     9.2620   198.9270
 1099.5000   145.9080     9.0560     9.1500   200.1000
 1100.0000   145.9740     9.0160     9.1210   201.2720
 1100.5000   146.7700     8.9760     9.0910   202.4450
 1101.0000   147.5700     8.9360     9.0620   203.6180
 1101.5000   148.3630     8.8960     9.0320   204.7910
 1102.0000   147.9670     8.8560     9.0080   205.9640
 1102.5000   145.8060     8.8160     8.9470   207.1370
 1103.0000   144.5010     8.7760     8.8690   208.3100
 1103.5000   144.8830     8.7130     8.7900   209.4830
 1104.0000   145.2530     8.5960     8.7080   210.6560
 1104.5000   145.5070     8.4800     8.6220   211.8290
 1105.0000   143.7130     8.3630     8.5370   213.0020
 1105.5000   141.4380     8.2470     8.4520   214.1750
 1106.0000   138.5830     8.0800     8.2280   215.3480
 1106.5000   140.6110     7.9110     8.0590   216.5200
 1107.0000   143.1670     7.9110     8.0590   217.6930
 1107.5000   145.7610     7.9110     8.0590   218.8660
 1108.0000   148.9980     7.9110     8.0590   220.0390
 1108.5000   152.5350     7.9110     8.0660   221.2120
 1109.0000   155.4240     7.9110     8.0730   222.3850
 1109.5000   152.1520     7.9110     8.0810   223.5580
 1110.0000   148.1460     7.9110     8.0880   224.7310
 1110.5000   144.1590     7.9110     8.0960   225.9040
 1111.0000   140.8690     7.9110     8.1030   227.0770
 1111.5000   138.4550     7.9110     8.1110   228.2500
 1112.0000   138.5300     7.9110     8.1180   229.4230
 1112.5000   141.4350     7.9110     8.1260   230.5950
 1113.0000   143.7230     7.9110     8.1340   231.7680
 1113.5000   141.0300     7.9110     8.1550   232.9410
 1114.0000   138.1260     7.9110     8.1770   234.1140
 1114.5000   138.7030     7.9110     8.2000   235.2870
 1115.0000   140.2200     7.9110     8.2100   236.4600
 1115.5000   141.7650     7.9110     8.1740   237.6330
 1116.0000   143.3310     7.9110     8.1480   238.8060
 1116.5000   143.0570     7.9110     8.1220   239.9790
 1117.0000   142.4060     7.9110     8.0960   241.1520
 1117.5000   141.7650     7.9110     8.0700   242.3250
 1118.0000   142.1990     7.9110     8.0440   243.4980
 1118.5000   146.8450     7.9100     8.0180   244.6710
 1119.0000   149.8180     7.9100     7.9840   245.8430
 1119.5000   146.9130     7.9340     8.0470   247.0160
 1120.0000   143.3490     8.0060     8.1700   248.1890
 1120.5000   140.2700     8.0780     8.2920   249.6260
 1121.0000   141.1980     8.1510     8.4140   251.1530
 1121.5000   142.7050     8.2100     8.4880   252.6800
 1122.0000   144.2500     8.2140     8.5680   254.2070
 1122.5000   145.0580     8.2210     8.5990   255.7340
 1123.0000   140.9000     8.2270     8.5990   257.2610
 1123.5000   136.6500     8.2330     8.5990   258.7880
 1124.0000   133.5140     8.2390     8.5990   260.3150
 1124.5000   134.1190     8.2450     8.5990   261.8430
 1125.0000   137.8960     8.2520     8.5990   263.3700
 1125.5000   141.1860     8.2580     8.5990   264.8970
 1126.0000   140.5550     8.2640     8.5990   266.4240
 1126.5000   138.3860     8.2700     8.5990   267.9510
 1127.0000   139.3250     8.2760     8.6000   269.4780
 1127.5000   140.2370     8.2820     8.5970   271.0050
 1128.0000   138.7510     8.3630     8.5930   272.5320
 1128.5000   136.7300     8.3930     8.6890   274.0590
 1129.0000   135.6930     8.4230     8.7480   275.5870
 1129.5000   138.7600     8.4540     8.7830   277.1140
 1130.0000   140.7180     8.4840     8.8180   278.6410
 1130.5000   138.7580     8.5140     8.8520   280.1680
 1131.0000   136.8110     8.5440     8.8870   281.6950
 1131.5000   134.8290     8.5740     8.9250   283.2220
 1132.0000   134.2710     8.6040     8.9240   284.7490
 1132.5000   134.3540     8.6340     8.9240   286.2760
 1133.0000   135.6740     8.6640     8.9240   287.8030
 1133.5000   136.5970     8.6940     8.9240   289.3310
 1134.0000   135.4100     8.7240     8.9240   290.8580
 1134.5000   134.2490     8.7550     8.9240   292.3850
 1135.0000   133.1720     8.7670     8.9240   293.9120
 1135.5000   133.5130     8.7760     8.9250   295.4390
 1136.0000   133.9000     8.7840     8.9360   296.9660
 1136.5000   134.2560     8.7930     8.9600   298.4930
 1137.0000   135.4650     8.8010     8.9850   300.0200
 1137.5000   136.8360     8.8090     9.0100   301.5470
 1138.0000   136.3190     8.8180     9.0350   303.0750
 1138.5000   135.1430     8.8260     9.0600   304.6020
 1139.0000   134.0290     8.8350     9.0850   306.1290
 1139.5000   136.4310     8.8650     9.1520   307.6560
 1140.0000   139.4520     9.0090     9.3210   309.1830
 1140.5000   138.4790     9.1520     9.4890   310.7100
 1141.0000   136.5950     9.2960     9.6850   312.2370
 1141.5000   135.3660     9.4350     9.8830   313.7640
 1142.0000   135.5780     9.4550     9.8910   315.2910
 1142.5000   120.9290     9.4740     9.9040   316.8180
 1143.0000  -999.2500     9.4940     9.9170   318.3460
 1143.5000  -999.2500     9.5130     9.9300   319.8730
 1144.0000  -999.2500     9.6100     9.9430   321.4000
 1144.5000  -999.2500     9.6200     9.9560   322.9270
 1145.0000  -999.2500     9.6450     9.9680   324.4540
 1145.5000  -999.2500     9.6630     9.9810   325.9810
 1146.0000  -999.2500     9.6800     9.9940   327.5080
 1146.5000  -999.2500     9.6980    10.0070   329.0530
 1147.0000  -999.2500     9.7160    10.0200   329.5580
 1147.5000  -999.2500     9.7330    10.0330   330.1950
 1148.0000  -999.2500     9.7510    10.0460   330.8320
 1148.5000  -999.2500     9.7680    10.0590   331.4700
 1149.0000  -999.2500     9.7860  -999.2500   332.1070
 1149.5000  -999.2500  -999.2500  -999.2500   332.7440
 1150.0000  -999.2500  -999.2500  -999.2500   333.3820
 1150.5000  -999.2500  -999.2500  -999.2500   334.0190
 1151.0000  -999.2500  -999.2500  -999.2500   334.6560
 1151.5000  -999.2500  -999.2500  -999.2500   335.2940
 1152.0000  -999.2500  -999.2500  -999.2500   335.9310
 1152.5000  -999.2500  -999.2500  -999.2500   336.5680
 1153.0000  -999.2500  -999.2500  -999.2500   337.2060
 1153.5000  -999.2500  -999.2500  -999.2500   337.8430
 1154.0000  -999.2500  -999.2500  -999.2500   338.4800
 1154.5000  -999.2500  -999.2500  -999.2500   339.1240
 1155.0000  -999.2500  -999.2500  -999.2500   269.8890
 1155.5000  -999.2500  -999.2500  -999.2500   204.9350
 1156.0000  -999.2500  -999.2500  -999.2500    92.3250
 1156.5000  -999.2500  -999.2500  -999.2500   -20.2850
 1157.0000  -999.2500  -999.2500  -999.2500   -87.5290
 1157.5000  -999.2500  -999.2500  -999.2500   -96.0050
 1158.0000  -999.2500  -999.2500  -999.2500  -104.4810
 1158.5000  -999.2500  -999.2500  -999.2500  -112.9570
 1159.0000  -999.2500  -999.2500  -999.2500  -121.4330
 1159.5000  -999.2500  -999.2500  -999.2500  -124.1190
 1160.0000  -999.2500  -999.2500  -999.2500  -136.6590
 1160.5000  -999.2500  -999.2500  -999.2500  -148.1740
 1161.0000  -999.2500  -999.2500  -999.2500  -159.6890
 1161.5000  -999.2500  -999.2500  -999.2500  -171.2030
 1162.0000  -999.2500  -999.2500  -999.2500  -182.7180
 1162.5000  -999.2500  -999.2500  -999.2500  -194.2320
 1163.0000  -999.2500  -999.2500  -999.2500  -205.7470
 1163.5000  -999.2500  -999.2500  -999.2500  -217.2610
 1164.0000  -999.2500  -999.2500  -999.2500  -228.7760
 1164.5000  -999.2500  -999.2500  -999.2500  -240.2910
 1165.0000  -999.2500  -999.2500  -999.2500  -244.9650
 1165.5000  -999.2500  -999.2500  -999.2500  -244.9650
