~VERSION INFORMATION
 VERS.                2.0:   CWLS LOG ASCII STANDARD - VERSION 2.0
 WRAP.                 NO:   ONE LINE PER DEPTH STEP
~WELL INFORMATION
#MNEM.UNIT      DATA TYPE    INFORMATION
#----------   ------------   ------------------------------
 STRT.F          205.0000:   START DEPTH
 STOP.F         3171.5000:   STOP DEPTH
 STEP.F            0.5000:   STEP LENGTH
 NULL.          -999.2500:   NO VALUE
 COMP.    FENIX & SCISSON:   COMPANY
 WELL. FENIX & SCISSON  "AX" #27-28:   WELL
 FLD .              NPR 3:   FIELD
 LOC .      S28 T39N R78W:   LOCATION
 CNTY.            NATRONA:   COUNTY
 STAT.            WYOMING:   STATE
 CTRY. UNITED STATES OF AMERICA:   COUNTRY
 SRVC.       SCHLUMBERGER:   SERVICE COMPANY
 DATE.        30-MAY-1977:   LOGDATE
 API .     49025103870000:   API NUMBER
~CURVE INFORMATION
#MNEM.UNIT       API CODE    CURVE DESCRIPTION
#----------   ------------   ------------------------------
 DEPT.F                  :   
 NPHI.DEC    42 890 03 00:   NEUTRON POROSITY SANDSTONE
 CALD.IN     45 280 60 00:   CALIPER FROM DENSITY LOG
 GRD .GAPI   45 310 01 00:   GAMMA RAY FROM DENSITY LOG
 RHOB.G/C3   45 350 01 00:   BULK DENSITY
 CORR.G/C3   45 356 01 00:   DENSITY CORRECTION
 SPR .MV     11 010 01 00:   SPONTANEOUS POTENTIAL
 MSFL.OHMM   11 270 04 00:   MICRO SPHERICALLY FOCUSED RES.
 LLD .OHMM   11 220 10 00:   LATEROLOG LOG DEEP
 LLS .OHMM   11 220 09 00:   LATEROLOG LOG SHALLOW
~PARAMETER INFORMATION
#MNEM.UNIT          VALUE    DESCRIPTION
#----------   ------------   ------------------------------
 EKB .F         5094.0000:   Kelly bushing
 EGL .F         5084.0000:   Ground level
 EDF .F            0.0000:   Drilling floor
 EPD .F            0.0000:   Permanent datum
 TD  .F         3169.0000:   Total depth
 DATE.        30-MAY-1977:   Date logged
 CLNT.            A2DTECH:   Client Code
 SL  . 1266' FSL & 871' FWL:   Surface Location
 PD  .                 GL:   Permanent Datum
 DD  .F              3163:   Depth driller
 DL  .F              3169:   Depth logger
 BLI .F              3168:   Bottom log interval
 CS1 .IN            8.625:   Casing size
 CBD1.      8.625" @ 210':   Casing driller 1
 CBL1.F               219:   Casing logger 1
 BS1 .IN            7.875:   Bit size
 DFT .           SALT/MUD:   Type fluid in hole
 DFD .                8.9:   Density
 DFV .                 32:   Viscosity
 DFPH.                8.5:   pH
 DFL .                5.8:   Fluid loss
 MSS .                PIT:   Source of sample
 RMS .OHMM           .194:   Rm
 MST .F                65:   Rm Meas. temp.
 RMF .OHMM           .165:   Rmf
 MFST.F                65:   Rmf Meas. temp.
 MFSS.               MEAS:   Source Rmf.
 RMB .OHMM           .107:   Rm. at BHT
 BHT .F               118:   BHT.
 MRT .F               118:   Maximum recorded temp.
 LUN .               5642:   Logging unit number
 LUL .               CSPR:   Logging unit location
 ENGI.             MARTIN:   Recorded By
 WITN.         PETTINGILL:   Witnessed by
 ORIG.           5" PRINT:   Origin of data
 UWI .     49025103870000:   Unique Well ID
 DICO. A2D TECHNOLOGIES, INC.:   Digitizing Company
 DAPD.F                10:   Feet Above Permanent Datum
 BSD1.F              3163:   Depth drilled with bit1
 TLI .F               219:   Top log interval
 TLAB.HRS            0930:   Time logger at bottom
~OTHER INFORMATION
~A   DEPT     NPHI         CALD      GRD         RHOB      CORR       SPR       MSFL        LLD        LLS   
  205.0000  -999.2500     8.2091   101.9528     2.3037    -0.1565  -999.2500  -999.2500  -999.2500  -999.2500
  205.5000     0.4986     8.2090   102.3479     2.3021    -0.1625  -999.2500  -999.2500  -999.2500  -999.2500
  206.0000     0.5211     8.2088   103.9367     2.2977    -0.1655  -999.2500  -999.2500  -999.2500  -999.2500
  206.5000     0.5315     8.2071   101.1440     2.2957    -0.1495  -999.2500  -999.2500  -999.2500  -999.2500
  207.0000     0.5470     8.2053    99.5464     2.2648    -0.1655  -999.2500  -999.2500  -999.2500  -999.2500
  207.5000     0.5569     8.2035    97.5497     2.2548    -0.1725  -999.2500  -999.2500  -999.2500  -999.2500
  208.0000     0.5652     8.2017    97.9465     2.2767    -0.1655  -999.2500  -999.2500  -999.2500  -999.2500
  208.5000     0.5616     8.1999   101.9042     2.2747    -0.1715  -999.2500  -999.2500  -999.2500  -999.2500
  209.0000     0.5508     8.1981   103.5143     2.2737    -0.1625  -999.2500  -999.2500  -999.2500  -999.2500
  209.5000     0.5414     8.1964   101.5184     2.2857    -0.1476  -999.2500  -999.2500  -999.2500  -999.2500
  210.0000     0.5303     8.1946   103.9047     2.3036    -0.1615  -999.2500  -999.2500  -999.2500  -999.2500
  210.5000     0.5201     8.1928   105.0959     2.3175    -0.1406  -999.2500  -999.2500  -999.2500  -999.2500
  211.0000     0.5236     8.1910   103.0999     2.3145    -0.1626  -999.2500  -999.2500  -999.2500  -999.2500
  211.5000     0.5293     8.1892   100.3072     2.3135    -0.1566  -999.2500  -999.2500  -999.2500  -999.2500
  212.0000     0.5197     8.1874    97.5145     2.3075    -0.1975  -999.2500  -999.2500  -999.2500  -999.2500
  212.5000     0.5052     8.1863    98.3073     2.3005    -0.1945  -999.2500  -999.2500  -999.2500  -999.2500
  213.0000     0.4962     8.2060    98.7041     2.3304    -0.1726  -999.2500  -999.2500  -999.2500  -999.2500
  213.5000     0.5049     8.2058   100.7515     2.3334    -0.1706  -999.2500  -999.2500  -999.2500  -999.2500
  214.0000     0.5222     8.2057   103.0752     2.3105    -0.1586  -999.2500  -999.2500  -999.2500  -999.2500
  214.5000     0.5135     8.2055   103.0720     2.3005    -0.1756  -999.2500  -999.2500  -999.2500  -999.2500
  215.0000     0.5026     8.2053   103.0680     2.2806    -0.1686  -999.2500  -999.2500  -999.2500  -999.2500
  215.5000     0.4879     8.2051   104.2591     2.2796    -0.1686  -999.2500  -999.2500  -999.2500  -999.2500
  216.0000     0.4759     8.2048   106.6455     2.2826    -0.1477   -36.5196  -999.2500  -999.2500  -999.2500
  216.5000     0.4687     8.2047   106.6415     2.2945    -0.1577   -34.1539  -999.2500  -999.2500  -999.2500
  217.0000     0.4692     8.2045   106.2391     2.3084    -0.1667   -31.5915  -999.2500  -999.2500  -999.2500
  217.5000     0.4722     8.2043   106.6343     2.2985    -0.1657   -29.6227  -999.2500  -999.2500  -999.2500
  218.0000     0.4817     8.2041   107.8254     2.2895    -0.1806   -28.6386  -999.2500  -999.2500  -999.2500
  218.5000     0.5029     8.2039   110.6101     2.2825    -0.1518   -36.3134     3.5243     0.5955  -999.2500
  219.0000     0.5242     8.2235   116.1836     2.2835    -0.1119   -43.9882     4.4729     0.9336  -999.2500
  219.5000     0.5289     8.4225   126.1417     2.5893     0.2237   -58.2321     6.0365     0.9423     1.0275
  220.0000     0.5103     8.6414   133.3062     2.6062     0.2227   -70.8584     5.9818     2.0938     8.3432
  220.5000     0.4850     8.8405   135.6934     2.3681     0.2227   -77.5660     5.2634     3.9439     8.9783
  221.0000     0.4433     9.0923   136.8845     2.3552     0.1888   -85.8524     4.4649     4.2445     9.0614
  221.5000     0.4125     9.3977   137.6773     2.3402     0.1819   -91.5754     4.4246     4.0446     7.9705
  222.0000     0.3936     9.4972   138.4709     2.3492     0.2207   -95.3251     4.4246     4.0077     7.3396
  222.5000     0.4040     9.8158   144.0459     2.3810     0.1742   -97.6948     4.5478     3.8796     6.8837
  223.0000     0.4163    10.8714   148.8210     2.4069     0.1276   -98.8806     4.8486     3.7590     6.6975
  223.5000     0.4177    11.1700   149.6138     2.3103     0.0991  -100.4609     5.2167     3.6908     6.8843
  224.0000     0.4174    11.2296   149.6098     2.3770     0.0782  -102.5859     5.7507     3.6573     7.0120
  224.5000     0.4185    11.0104   151.1993     2.4467     0.1270  -105.0025     6.3395     3.6241     7.5459
  225.0000     0.4152     9.7948   154.3848     2.4836     0.1439  -107.9633     6.7396     3.6242     7.7568
  225.5000     0.4161     9.3763   159.1615     2.4885     0.1419  -110.1352     7.3853     3.6914     7.7571
  226.0000     0.4202     9.1969   163.1397     2.4487     0.0841  -112.1104     7.6868     3.6915     7.5470
  226.5000     0.4229     9.1966   163.1358     2.4576     0.0612  -114.0847     7.8293     3.6917     7.4784
  227.0000     0.4180     9.1566   163.1326     2.4347     0.0293  -115.6654     8.0480     3.6581     7.4106
  227.5000     0.4111     9.1564   163.1294     2.4317     0.0483  -117.2452     8.1225     3.6248     7.3433
  228.0000     0.4015     9.1761   162.9494     2.4447     0.0333  -118.8260     8.1229     3.5919     7.2765
  228.5000     0.3951     9.1759   162.7694     2.4556     0.0532  -121.5901     7.9029     3.6669     7.1446
  229.0000     0.3909     9.1956   162.5894     2.4616     0.0423  -123.3681     7.6888     3.8393     6.9511
  229.5000     0.3953     9.2353   162.4094     2.4616     0.0452  -123.5663     7.3446     4.9193     6.6399
  230.0000     0.4046     9.2351   161.9126     2.4586     0.0731  -124.7662     6.5796     2.5404     5.3777
  230.5000     0.4313     9.2349   161.5102     2.4536     0.0821  -125.9662     6.0587     2.3999     5.6302
  231.0000     0.4644     9.2348   161.1078     2.4416     0.1020  -126.9275     6.4606     3.4003     5.7873
  231.5000     0.4695     9.2545   160.3071     2.4456     0.0890  -126.9300     7.3459     2.7092     6.2282
  232.0000     0.4308     9.2742   159.1079     2.4107     0.0382  -127.1297     8.3525     3.5357     6.8265
  232.5000     0.3708     9.2740   157.1120     2.4277     0.0322  -127.7243     8.8254     4.7868     7.5515
  233.0000     0.3600     9.3137   155.5144     2.4735     0.0790  -128.3185     9.1554     6.5814     7.8338
  233.5000     0.3552     9.3135   156.7056     2.4804     0.0491  -128.5182     9.3253     6.9539     7.8343
  234.0000     0.3593     9.3332   158.6935     2.4485     0.0431  -128.7179     9.5859     7.1482     7.6221
  234.5000     0.3641     9.3330   156.3008     2.4714     0.0700  -128.9176     9.6747     7.2143     7.4838
  235.0000     0.3616     9.3527   153.9073     2.4874     0.0650  -129.1173     9.8987     7.2147     7.4842
  235.5000     0.3574     9.3525   150.3154     2.4774     0.0491  -129.1198    10.0361     7.0838     7.6424
  236.0000     0.3520     9.3523   151.5066     2.5092     0.0600  -129.3195    10.1300     7.0407     7.5538
  236.5000     0.3534     9.3720   150.7058     2.4784     0.0730  -129.5192    10.1306     7.0408     7.5542
  237.0000     0.3561     9.3718   148.3115     2.4873     0.0471  -129.5217     9.8163     7.0412     7.5545
  237.5000     0.3440     9.4113   147.1123     2.4883     0.0510  -129.5241     9.3779     7.0416     7.5062
  238.0000     0.3548     9.4112   146.3115     2.4803     0.0580  -129.5266     8.5119     7.0419     7.5065
  238.5000     0.3691     9.4110   147.9011     2.5002     0.0700  -129.5291     8.2057     6.9779     7.4390
  239.0000     0.3938     9.4108   151.4842     2.5162     0.0789  -129.7288     8.2060     6.6042     7.0451
  239.5000     0.4027     9.4106   157.4528     2.5012     0.0739  -129.9285     8.2064     6.7269     7.1744
  240.0000     0.4095     9.3905   160.2391     2.4813     0.0460  -130.1282     8.3587     6.9189     7.3768
  240.5000     0.4124     9.3703   162.2279     2.4653     0.0530  -130.5251     8.5139     7.1742     7.6459
  241.0000     0.3998     9.3502   160.2311     2.4564     0.0490  -130.7248     8.5139     7.1743     7.6461
