~VERSION INFORMATION
 VERS.                2.0:   CWLS LOG ASCII STANDARD - VERSION 2.0
 WRAP.                 NO:   ONE LINE PER DEPTH STEP
~WELL INFORMATION
#MNEM.UNIT      DATA TYPE    INFORMATION
#----------   ------------   ------------------------------
 STRT.F            5.0000:   START DEPTH
 STOP.F         5604.0000:   STOP DEPTH
 STEP.F            0.5000:   STEP LENGTH
 NULL.          -999.2500:   NO VALUE
 COMP.   LAWRENCE ALLISON:   COMPANY
 WELL. LAWRENCE 62 TPX #10-10:   WELL
 FLD .           NPR NO 3:   FIELD
 LOC .      S10 T38N R78W:   LOCATION
 CNTY.            NATRONA:   COUNTY
 STAT.            WYOMING:   STATE
 CTRY. UNITED STATES OF AMERICA:   COUNTRY
 SRVC.      DRESSER ATLAS:   SERVICE COMPANY
 DATE.        08-NOV-1985:   LOGDATE
 API .     49025110490000:   API NUMBER
~CURVE INFORMATION
#MNEM.UNIT       API CODE    CURVE DESCRIPTION
#----------   ------------   ------------------------------
 DEPT.F                  :   
 TEND.LBS    45 635 01 00:   TENSION FORM DENSITY LOG
 CNC .DEC    42 890 03 00:   NEUTRON POROSITY SANDSTONE
 CORR.G/C3   45 356 01 00:   DENSITY CORRECTION
 RHOB.G/C3   45 350 01 00:   BULK DENSITY
 TENR.LBS    11 635 01 00:   TENSION FROM RESISTIVITY
 GRR .GAPI   11 310 01 00:   GAMMA RAY FROM RESISTIVITY
 SPR .MV     11 010 01 00:   SPONTANEOUS POTENTIAL FROM RES.
 CALR.IN     11 280 01 00:   CALIPER FROM RESISTIVITY
 RD  .OHMM   11 220 10 00:   RESISTIVITY DEEP
 RS  .OHMM   11 220 09 00:   RESISTIVITY SHALLOW
 RMLL.OHMM   11 270 04 00:   MICRO LATEROLOG
 TENS.LBS    60 635 01 00:   TENSION FROM SONIC
 DT  .US/F   60 520 00 00:   DELTA TIME
~PARAMETER INFORMATION
#MNEM.UNIT          VALUE    DESCRIPTION
#----------   ------------   ------------------------------
 EKB .F         5167.0000:   Kelly bushing
 EGL .F         5155.0000:   Ground level
 EDF .F            0.0000:   Drilling floor
 TD  .F         5600.0000:   Total depth
 CLNT.            A2DTECH:   Client Code
 PD  .                 GL:   Permanent Datum
 EPD .F              5155:   Elevation Permanent Datum
 LMF .                 KB:   Log Measured From
 DMF .                 KB:   Drilling Measured From
 DAPD.F                12:   Feet Above Permanent Datum
 DATE.        08-NOV-1985:   Date Logged [DD-MMM-YYYY]
 DD  .F              5600:   Depth driller
 DL  .F              5600:   Depth logger
 BLI .F              5597:   Bottom log interval
 TLI .F               467:   Top log interval
 CS1 .IN            9.625:   Casing size
 CBD1.      9.625" @ 467':   Casing driller 1
 CBL1.F               465:   Casing logger 1
 BS1 .IN             8.75:   Bit size
 BSD1.F              5600:   Depth drilled with bit1
 DFT .        KCL POLYMER:   Type fluid in hole
 DFD .                9.2:   Density
 DFV .                 38:   Viscosity
 DFPH.                8.5:   pH
 DFL .                8.6:   Fluid loss
 MSS .           FLOWLINE:   Source of sample
 RMS .OHMM           0.28:   Rm
 MST .F                75:   Rm Meas. temp.
 RMF .OHMM           0.21:   Rmf
 MFST.F                75:   Rmf Meas. temp.
 MFSS.               CALC:   Source Rmf.
 RMC .OHMM           0.35:   Rmc
 MCST.F                75:   Rmc Meas. temp.
 MCSS.               CALC:   Source Rmc.
 RMB .OHMM           0.13:   Rm. at BHT
 BHT .F               168:   BHT.
 TCS .HRS               7:   Time Circ. stopped
 MRT .F               168:   Maximum recorded temp.
 LUN .               6274:   Logging unit number
 LUL .               GLTE:   Logging unit location
 ENGI.               MACK:   Recorded By
 WITN.             STRONG:   Witnessed by
 ORIG.      2.5" 5" PRINT:   Origin of data
 UWI .     49025110490000:   Unique Well ID
 DICO. A2D TECHNOLOGIES, INC.:   Digitizing Company
~OTHER INFORMATION
~A  DEPTH     TEND        CNC       CORR       RHOB       TENR        GRR        SPR       CALR         RD         RS       RMLL       TENS         DT
# ...
 5569.0000   230.0744     0.0579     0.0642     2.5162   284.6483    19.4996   -30.6850     8.9516   744.3362   325.0232    26.9810   286.0640    59.8704
 5569.5000   245.0913     0.0580     0.0499     2.5310   291.4477    19.5058   -30.6641     8.9692   755.5351   322.7683    27.7717   293.4756    59.5669
 5570.0000   245.4883     0.0585     0.0206     2.5579   297.6721    19.5120   -30.7984     8.9869   756.3229   320.5291    35.4537   293.4022    59.2634
 5570.5000   245.8853     0.0586     0.0206     2.5706   304.1851    19.5181   -30.7724     9.0046   746.6332   320.5291    50.5807   300.8321    58.8097
 5571.0000   246.2823     0.0597     0.0265     2.5742   303.1017    19.5243   -30.7515     9.0223   742.2316   320.5291    79.5320   308.2437    58.3559
 5571.5000   232.0499     0.0605     0.0352     2.5742   309.6456    19.5304   -30.7924     9.0249   732.9367   320.5291   101.5315   308.1519    58.0525
 5572.0000   232.4560     0.0621     0.0382     2.5568   308.5477    19.5366   -30.8606     8.9970   738.8076   322.7683   136.0743   315.5634    57.9744
 5572.5000   247.4820     0.0693     0.0440     2.5309   315.1052    19.5428   -30.8389     8.9847   739.5712   325.0232   103.1789   315.4900    58.1968
 5573.0000   247.8882     0.0774     0.0469     2.5226   321.3550    19.5396   -30.8180     8.9723   745.4952   325.0232    66.2228   322.9042    58.7287
 5573.5000   248.2943     0.0793     0.0528     2.5081   320.3026    19.5263   -30.7972     8.9600   740.9085   322.7683    39.6513   330.3144    59.4848
 5574.0000   248.7004     0.0781     0.0586     2.4978   326.8156    19.5130   -30.7763     8.9784   736.5398   322.7683    23.2519   330.2395    60.2584
 5574.5000   245.7215     0.0761     0.0557     2.4978   325.7632    19.4997   -30.7555     8.9810   737.4912   322.7683    19.5615   330.1647    61.1144
 5575.0000   234.8376     0.0758     0.0591     2.4978   332.5382    19.4865   -30.7346     8.9987   732.9537   320.5291    22.5077   330.0898    61.4127
 5575.5000   235.2989     0.0793     0.0692     2.5125   331.2238    19.4732   -30.7136     9.0314   733.8998   320.5291    29.7491   337.5045    61.1836
 5576.0000   235.7050     0.0865     0.0872     2.5756   337.7357    19.4599   -30.6929     9.0641   734.6584   318.3055    43.9422   352.3827    60.3542
 5576.5000   236.1111     0.0960     0.0995     2.6975   336.6843    19.4466   -30.8220     9.1867   735.4171   318.3055    52.3329   352.3092    58.5481
 5577.0000   243.2873     0.1015     0.0955     2.7680   343.4593    19.4333   -30.8006     9.2193   741.3078   316.0972    75.7063   359.7393    55.9266
 5577.5000   251.5433     0.1080     0.0883     2.7739   349.9713    19.4200   -30.7796     9.2070   742.0741   316.0972   133.6143   359.6475    52.8403
 5578.0000   251.9494     0.1112     0.0805     2.7708   356.4842    19.4067   -30.7586     9.1947   737.6985   316.0972   566.5997   359.5740    50.1997
 5578.5000   267.0543     0.1112     0.0819     2.7673   355.1687    19.3934   -30.7376     9.1973   743.6075   316.0972  1987.5813   367.0039    48.4687
 5579.0000   296.6911     0.1100     0.0789     2.7587   361.9437    19.3801   -30.7125     9.2001   744.3754   316.0972   482.5453   374.4155    48.3906
 5579.5000   326.3278     0.1073     0.0848     2.7527   368.4566    19.3668   -30.6917     9.1878   750.3387   318.3055   247.9840   374.3237    48.9136
 5580.0000   341.3443     0.1049     0.0994     2.7474   374.9686    19.3509   -30.6708     9.1754   751.1135   318.3055   522.0076   381.7365    48.6751
 5580.5000   356.3612     0.1026     0.1111     2.7512   373.6541    19.3534   -30.6500     9.1631   751.8892   318.3055  1219.4929   381.6617  -999.2500
 5581.0000   371.3781     0.1014     0.0906     2.7756   372.6017    19.3565   -30.6291     9.1508   747.4444   318.3055  -999.2500   381.5868  -999.2500
 5581.5000   357.1552     0.1032     0.0730     2.8097   379.1136    19.3597   -30.6083     9.1385   743.0447   318.3055  -999.2500   389.0000  -999.2500
 5582.0000   357.5522     0.1055     0.0554     2.8084   378.0623    19.3628   -30.5874     9.1262   738.6680   318.3055  -999.2500   388.9082  -999.2500
 5582.5000   357.9488     0.1091     0.0613     2.8001   377.0099    19.3659   -30.5666     9.1289   739.4406   316.0972  -999.2500   396.3198  -999.2500
 5583.0000   358.3498     0.1151     0.0730     2.7687   375.9586    19.3691   -30.5457     9.1084   734.6472   314.5739  -999.2500   403.7497  -999.2500
 5583.5000   373.3757     0.1204     0.0729     2.7225   390.0348    19.3722   -30.7116     9.1043   730.7373   311.7265  -999.2500   411.1613  -999.2500
 5584.0000   373.7815     0.1293     0.0671     2.7107   388.9824    19.3754   -30.8091     9.0899   736.6212   311.7265  -999.2500   411.0695  -999.2500
 5584.5000   374.1876     0.1305     0.0703     2.7122   403.1010    19.3785   -30.7830     9.0772   737.5421   311.7265  -999.2500   418.4995  -999.2500
 5585.0000   374.5937     0.1266     0.0763     2.7137   402.0072    19.3817   -30.9173     9.0523   733.0043   311.7265  -999.2500   418.4077  -999.2500
 5585.5000   374.9998     0.1188     0.0855     2.7137   400.9548    19.3848   -30.8913     9.0557   733.9504   311.7265  -999.2500   418.3342  -999.2500
 5586.0000   390.0258     0.1149     0.1197     2.7135   407.4885    19.3879   -30.8704     9.0427   734.7090   311.7265  -999.2500   425.7458  -999.2500
 5586.5000   390.4320     0.1133     0.0887     2.7181   413.9941    19.3911   -30.9995     9.0461   735.4678   311.7265  -999.2500   425.6724  -999.2500
 5587.0000   405.4580     0.1143     0.0816     2.7298   428.0569    19.3942   -30.9805     9.0333   736.2273   311.7265  -999.2500   433.0840  -999.2500
 5587.5000   405.8641     0.1164     0.1029     2.7489   427.0046    19.3974   -30.9578     9.0364   736.9883   311.7265  -999.2500   441.1202  -999.2500
 5588.0000   406.2702     0.1198     0.1066     2.7458   433.5165    19.4005   -31.0921     9.0391   737.7494   311.7265  -999.2500   455.3922  -999.2500
 5588.5000   406.6763     0.1168     0.1006     2.7416   440.0294    19.4037   -31.0675     9.0414   738.5112   311.7265   246.0175   462.8037  -999.2500
 5589.0000   407.0825     0.1161     0.0962     2.7460   446.5414    19.4068   -31.0452     9.0441   739.2739   311.7265    80.6878   455.2269  -999.2500
 5589.5000   422.1838     0.1151     0.0962     2.7456   453.0543    19.4099   -30.8756     9.0472   740.0381   313.9042    50.2623   447.6684  -999.2500
 5590.0000   422.5808     0.1160     0.0962     2.7411   451.9666    19.4131   -30.8535     9.0498   740.8023   313.9042    73.7282   447.5950  -999.2500
 5590.5000   437.5977     0.1157     0.0962     2.7361   450.9495    19.4173   -30.8327     9.0369   741.5673   313.9042   108.1495   469.9766  -999.2500
 5591.0000   467.2341     0.1176     0.0962     2.7313   458.8368    19.4220   -30.8118     9.0245   742.3331   311.7265    96.2100   492.3583  -999.2500
 5591.5000   482.2509     0.0925     0.0961     2.7347   471.2755    19.4267   -30.9415     9.0279   743.1005   311.7265    75.5297   499.7882  -999.2500
 5592.0000   497.2678     0.0034     0.1020     2.7386   478.0506    19.4313   -30.7701     9.0156   743.8678   309.5639    69.0655   484.7264  -999.2500
 5592.5000   526.9046    -0.0032     0.1225     2.7332   476.7361    19.4360   -30.8992     9.0183   749.8262   309.5639   105.6504   492.1380  -999.2500
 5593.0000   527.3016     0.0058     0.1371     2.7151   475.6837    19.4406   -30.8783     9.0053   750.6013   305.2836   171.9930   507.0359  -999.2500
 5593.5000   542.3181     0.2929     0.1312     2.7093   474.6324    19.4453   -30.8575     9.0086   746.1481   301.0625   145.7441   521.9312  -999.2500
 5594.0000   557.3425  -999.2500     0.1254     2.7151   481.4074    19.4500   -30.8366     9.0113   741.7554   296.8997    96.8479   499.4012  -999.2500
 5594.5000   573.5966  -999.2500     0.1358     2.7269   495.2205    19.4546   -30.9657     9.0202   742.5418   294.8399    80.3528   499.3264  -999.2500
