~VERSION INFORMATION
 VERS.                2.0:   CWLS LOG ASCII STANDARD - VERSION 2.0
 WRAP.                 NO:   ONE LINE PER DEPTH STEP
~WELL INFORMATION
#MNEM.UNIT      DATA TYPE    INFORMATION
#----------   ------------   ------------------------------
 STRT.F          210.0000:   START DEPTH
 STOP.F         2998.0000:   STOP DEPTH
 STEP.F            0.5000:   STEP LENGTH
 NULL.          -999.2500:   NO VALUE
 COMP.    FENIX & SCISSON:   COMPANY
 WELL. FENIX & SCISSON "A" #41-28:   WELL
 FLD .          N.P.R. #3:   FIELD
 LOC .      S28 T39N R78W:   LOCATION
 CNTY.            NATRONA:   COUNTY
 STAT.            WYOMING:   STATE
 CTRY. UNITED STATES OF AMERICA:   COUNTRY
 SRVC.       SCHLUMBERGER:   SERVICE COMPANY
 DATE.        08-MAY-1977:   LOGDATE
 API .     49025103670000:   API NUMBER
~CURVE INFORMATION
#MNEM.UNIT       API CODE    CURVE DESCRIPTION
#----------   ------------   ------------------------------
 DEPT.F                  :   
 CALD.IN     45 280 60 00:   CALIPER FROM DENSITY LOG
 GRD .GAPI   45 310 01 00:   GAMMA RAY FROM DENSITY LOG
 CORR.G/C3   45 356 01 00:   DENSITY CORRECTION
 RHOB.G/C3   45 350 01 00:   BULK DENSITY
 SPR .MV     07 010 01 00:   SPONTANEOUS POTENTIAL
 LL8 .OHMM   07 220 08 00:   LATEROLOG-8 RES.
 ILM .OHMM   07 120 44 00:   INDUCTION LOG MEDIUM RESISTIVITY
 ILD .OHMM   07 120 46 00:   DEEP INDUCTION RESISTIVITY
~PARAMETER INFORMATION
#MNEM.UNIT          VALUE    DESCRIPTION
#----------   ------------   ------------------------------
 EKB .F         5012.0000:   Kelly bushing
 EGL .F         5002.0000:   Ground level
 TD  .F         3000.0000:   Total depth
 CLNT.            A2DTECH:   Client Code
 SL  . 330' FNL & 2310' FWL:   Surface Location
 DATE.        08-MAY-1977:   Date Logged [DD-MMM-YYYY]
 DD  .F              3000:   Depth driller
 DL  .F              2999:   Depth logger
 BLI .F              2993:   Bottom log interval
 TLI .F               222:   Top log interval
 CS1 .              8.625:   Casing size
 CBD1.      8.625" @ 112':   Casing driller 1
 CBL1.IN              222:   Casing logger 1
 BS1 .IN            7.875:   Bit size
 BSD1.F              3000:   Depth drilled with bit1
 DFT .                KCL:   Type fluid in hole
 DFD .                8.8:   Density
 DFV .                 32:   Viscosity
 DFPH.                8.0:   pH
 DFL .                8.8:   Fluid loss
 MSS .           FLOWLINE:   Source of sample
 RMS .OHMM          0.124:   Rm
 MST .F                80:   Rm Meas. temp.
 RMF .OHMM          0.117:   Rmf
 MFST.F                80:   Rmf Meas. temp.
 MFSS.               MEAS:   Source Rmf.
 RMB .OHMM         0.0886:   Rm. at BHT
 BHT .F               112:   BHT.
 TCS .HRS            0200:   Time Circ. stopped
 TLAB.HRS            0515:   Time logger at bottom
 MRT .F               112:   Maximum recorded temp.
 LUN .               5642:   Logging unit number
 LUL .               CSPR:   Logging unit location
 ENGI.            MARATIN:   Recorded By
 WITN.         PETTINGILL:   Witnessed by
 ORIG.      2.5" 5" PRINT:   Origin of data
 UWI .     49025103670000:   Unique Well ID
 DICO. A2D TECHNOLOGIES, INC.:   Digitizing Company
 PD  .                 GL:   Permanent Datum
 EPD .               5002:   Elevation Permanent Datum
 LMF .                 KB:   Log Measured From
 DMF .                 KB:   Drilling Measured From
 DAPD.                 10:   Feet Above Permanent Datum
~OTHER INFORMATION
~A   DEPT     CALD         GRD      CORR       RHOB        SPR        LL8        ILM        ILD   
# ...
 2964.0000     7.6524   127.4992     0.1412     2.4533    10.3827     5.2623     4.7820     4.0991
 2964.5000     7.7290   129.3205     0.1369     2.4459    11.6680     5.0606     4.6479     4.0986
 2965.0000     7.8206   128.1479     0.1257     2.4543    13.5342     4.8669     4.5824     4.0980
 2965.5000     7.8673   127.1249     0.1220     2.4663    15.3754     4.8674     4.5179     4.0975
 2966.0000     7.8841   126.2496     0.1280     2.4828    16.9569     5.2467     4.3912     4.1014
 2966.5000     7.8554   124.6278     0.1319     2.5054    18.5462     6.0014     4.3293     4.1533
 2967.0000     7.8423   122.5570     0.1311     2.4935    20.6512     6.0855     4.3296     4.1600
 2967.5000     7.8291   120.9352     0.1252     2.4898    21.8952     6.2411     4.2686     4.2187
 2968.0000     7.8313   120.6545     0.1245     2.4884    23.1404     6.0964     4.2689     4.1993
 2968.5000     7.8331   123.0809     0.1291     2.4893    24.3350     5.1541     4.2692     4.1398
 2969.0000     7.8349   122.6568     0.1366     2.4931    24.9577     4.5978     4.2695     3.9700
 2969.5000     7.8212   120.2865     0.1344     2.5022    25.8894     4.6341     4.2698     3.9137
 2970.0000     7.7935   121.3594     0.1255     2.4671    26.5739     4.9657     4.2097     3.8583
 2970.5000     7.7802   125.4262     0.1217     2.4724    27.1353     5.1485     4.1504     3.8036
 2971.0000     7.7521   126.6488     0.1241     2.4778    27.6883     5.0649     4.0919     3.7659
 2971.5000     7.7539   127.1228     0.1324     2.4711    27.6158     4.8470     4.0343     3.7654
 2972.0000     7.7407   125.6508     0.1384     2.4847    26.9175     4.6121     3.9775     3.7649
 2972.5000     7.7425   126.2745     0.1392     2.4877    25.4298     4.9557     3.9777     3.7644
 2973.0000     7.7293   127.0418     0.1355     2.4856    21.7933     5.0109     3.9780     3.7639
 2973.5000     7.7311   126.3244     0.1296     2.4722    19.3096     4.6255     3.9783     3.7411
 2974.0000     7.7329   126.1935     0.1251     2.4641    16.8250     4.8514     3.9786     3.7346
 2974.5000     7.7348   127.2725     0.1237     2.4724    14.8469     5.1677     3.9789     3.7377
 2975.0000     7.7515   129.2436     0.1268     2.4874    13.7089     5.2971     3.9228     3.7102
 2975.5000     7.7686   130.6159     0.1305     2.4793    12.3646     5.0935     3.8676     3.7097
 2976.0000     7.7405   132.1378     0.1374     2.4749    11.2346     4.5748     3.8671     3.6309
 2976.5000     7.6973   132.3125     0.1451     2.4713     9.9975     4.2828     3.8123     3.4819
 2977.0000     7.6542   131.8883     0.1471     2.4684     8.9498     4.1345     3.7050     3.3581
 2977.5000     7.6560   131.3124     0.1426     2.4625     7.8317     4.2324     3.6525     3.2293
 2978.0000     7.6423   129.2415     0.1329     2.4558     7.2119     4.5543     3.5497     3.1410
 2978.5000     7.6446   128.3683     0.1271     2.4432     6.4603     4.1668     3.4994     3.1405
 2979.0000     7.6463   128.2435     0.1249     2.4246     5.9722     3.9559     3.4498     3.1401
 2979.5000     7.6631   129.1667     0.1305     2.4098     6.5293     3.9951     3.4009     3.1397
 2980.0000     7.6649   129.7904     0.1394     2.4211     8.9908     4.1506     3.3526     3.1392
 2980.5000     7.6966   118.8872     0.1445     2.4406    11.4957     4.2530     3.3085     3.0958
 2981.0000     7.7283    92.2655     0.1391     2.4549    12.7480     4.0119     3.2619     3.0953
 2981.5000     7.7301  -999.2500     0.1289     2.4654    13.2145     3.9030     3.2582     3.0949
 2982.0000     7.7319  -999.2500     0.1306     2.4685    13.2036     3.8629     3.1665     3.0102
 2982.5000     7.7182  -999.2500     0.1418     2.4701    12.4358     3.8633     3.0774     2.9278
 2983.0000     7.6756  -999.2500     0.1493     2.4702    11.3385     3.8107     2.9953     2.8477
 2983.5000     7.6619  -999.2500     0.1509     2.4703     8.3082     3.8112     2.9531     2.8082
 2984.0000     7.6491  -999.2500     0.1456     2.4689     3.6494     3.8116     2.9534     2.8079
 2984.5000     7.6210  -999.2500     0.1270     2.4675     4.5072     3.8119     2.9536     2.8075
 2985.0000     7.6228  -999.2500     0.1247     2.4466     6.4564     3.9157     2.9538     2.8071
 2985.5000     7.6246  -999.2500     0.1369     2.4400     8.9432     3.6977     2.9122     2.7682
 2986.0000     7.6264  -999.2500     0.1414     2.4378    10.4504     3.3455     2.9064     2.7289
 2986.5000     7.6131  -999.2500     0.1288     2.4342     9.3369     3.3932     2.8245     2.6552
 2987.0000     7.5843  -999.2500     0.1370     2.4201     8.6016     3.4909     2.7513     2.6184
 2987.5000     7.5706  -999.2500     0.1460     2.4149     8.1920     3.5072     2.7062     2.5762
 2988.0000     7.5270  -999.2500     0.1446     2.4180     9.2465     3.2495     2.6301     2.5077
 2988.5000     7.4982  -999.2500     0.1491     2.4338    14.0654     3.0686     2.5928     2.4049
 2989.0000     7.4574  -999.2500     0.1551     2.4354    19.4851     3.0682     2.5560     2.3758
 2989.5000     7.3997  -999.2500     0.1522     2.4340    22.2390     3.1566     2.5197     2.3755
 2990.0000     7.3412  -999.2500     0.1515     2.4281    24.1048     3.2476     2.4911     2.3884
 2990.5000     7.2237  -999.2500     0.1522     2.4140    25.2256     3.3893     2.4912     2.4489
 2991.0000     7.1057  -999.2500     0.1591     2.4021    26.1613     3.3888     2.4914     2.4834
 2991.5000     6.9727  -999.2500     0.1606     2.3910    27.1343     3.3403     2.4916     2.5090
 2992.0000     6.7500  -999.2500     0.1577     2.3814    27.8930     3.1998     2.5275     2.5086
 2992.5000     6.6470  -999.2500     0.1562     2.3703    28.6602     3.1539     2.5277     2.4974
 2993.0000     6.6333  -999.2500     0.1585     2.3606    29.6084     3.1988     2.5280     2.4735
 2993.5000     6.6355  -999.2500     0.1646     2.3480  -999.2500  -999.2500  -999.2500  -999.2500
 2994.0000     6.6373  -999.2500     0.1676     2.3339  -999.2500  -999.2500  -999.2500  -999.2500
 2994.5000     6.6556  -999.2500     0.1610     2.3198  -999.2500  -999.2500  -999.2500  -999.2500
 2995.0000     6.6690  -999.2500     0.1595     2.3102  -999.2500  -999.2500  -999.2500  -999.2500
 2995.5000  -999.2500  -999.2500     0.1647     2.2916  -999.2500  -999.2500  -999.2500  -999.2500
 2996.0000  -999.2500  -999.2500     0.1656     2.2760  -999.2500  -999.2500  -999.2500  -999.2500
 2996.5000  -999.2500  -999.2500     0.1604     2.2536  -999.2500  -999.2500  -999.2500  -999.2500
 2997.0000  -999.2500  -999.2500     0.1642     2.2261  -999.2500  -999.2500  -999.2500  -999.2500
 2997.5000  -999.2500  -999.2500     0.1695     2.1574  -999.2500  -999.2500  -999.2500  -999.2500
 2998.0000  -999.2500  -999.2500     0.1620     2.1149  -999.2500  -999.2500  -999.2500  -999.2500
