~VERSION INFORMATION
 VERS.                2.0:   CWLS LOG ASCII STANDARD - VERSION 2.0
 WRAP.                 NO:   ONE LINE PER DEPTH STEP
~WELL INFORMATION
#MNEM.UNIT      DATA TYPE    INFORMATION
#----------   ------------   ------------------------------
 STRT.F          212.0000:   START DEPTH
 STOP.F         2806.0000:   STOP DEPTH
 STEP.F            0.5000:   STEP LENGTH
 NULL.          -999.2500:   NO VALUE
 COMP.    FENIX & SCISSON:   COMPANY
 WELL.    FENIX AX #12-21:   WELL
 FLD .        TEAPOT DOME:   FIELD
 LOC .      S21 T39N R78W:   LOCATION
 CNTY.            NATRONA:   COUNTY
 STAT.            WYOMING:   STATE
 CTRY. UNITED STATES OF AMERICA:   COUNTRY
 SRVC.           BIRDWELL:   SERVICE COMPANY
 DATE.        14-AUG-1973:   LOGDATE
 API .     49025106930000:   API NUMBER
~CURVE INFORMATION
#MNEM.UNIT       API CODE    CURVE DESCRIPTION
#----------   ------------   ------------------------------
 DEPT.F                  :   
 SN  .OHMM   05 040 16 00:   SHORT NORMAL 16"
 ILD .OHMM   05 120 46 00:   INDUCTION LOG DEEP RESISTIVITY
 RHOB.G/C3   45 350 01 00:   BULK DENSITY
 CORR.G/C3   45 356 01 00:   DENSITY CORRECTION
 GRD .GAPI   45 310 01 00:   GAMMA RAY FROM DENSITY LOG
 CALD.IN     45 280 60 00:   CALIPER FROM DENSITY LOG
 SPR .MV     05 010 01 00:   SPONTANEOUS POTENTIAL
~PARAMETER INFORMATION
#MNEM.UNIT          VALUE    DESCRIPTION
#----------   ------------   ------------------------------
 EKB .F         4998.0000:   Kelly bushing
 EGL .F         4988.0000:   Ground level
 EDF .F            0.0000:   Drilling floor
 EPD .F         4988.0000:   Permanent datum
 TD  .F         2809.0000:   Total depth
 DATE.        14-AUG-1973:   Date logged
 CLNT.            A2DTECH:   Client Code
 SL  . 1300' FNL & 300' FWL:   Surface Location
 PD  .                 GL:   Permanent Datum
 DD  .F              2800:   Depth driller
 DL  .F              2809:   Depth logger
 BLI .F              2803:   Bottom log interval
 TLI .F               235:   Top log interval
 CS1 .IN            8.625:   Casing size
 BS1 .IN            7.875:   Bit size
 BSD1.F              2800:   Depth drilled with bit1
 DFT .                GEL:   Type fluid in hole
 DFD .                9.7:   Density
 DFV .                 34:   Viscosity
 DFPH.                 12:   pH
 MSS .           FLOWLINE:   Source of sample
 RMS .OHMM            .15:   Rm
 MST .F                57:   Rm Meas. temp.
 RMF .OHMM            .95:   Rmf
 MFST.F                69:   Rmf Meas. temp.
 RMC .OHMM            1.5:   Rmc
 MCST.F                78:   Rmc Meas. temp.
 MFSS.               MEAS:   Source Rmf.
 RMB .OHMM            .87:   Rm. at BHT
 BHT .F               115:   BHT.
 TCS .HRS               3:   Time Circ. stopped
 MRT .F               115:   Maximum recorded temp.
 LUN .               3006:   Logging unit number
 LUL .               CASP:   Logging unit location
 ENGI.             MILLER:   Recorded By
 WITN.           MCGINLEY:   Witnessed by
 UWI .     49025106930000:   Unique Well ID
 DICO. A2D TECHNOLOGIES, INC.:   Digitizing Company
 ORIG.           5" PRINT:   Origin of data
~OTHER INFORMATION
~A   DEPT       SN        ILD       RHOB       CORR         GRD      CALD        SPR   
# ...
 1895.5000     8.4050     6.0820     2.4900     0.0160    70.6910     8.2810   -12.0470
 1896.0000     8.4670     6.0060     2.4930     0.0220    73.6130     8.2850   -12.0980
 1896.5000     8.5460     5.8970     2.4940     0.0230    75.1380     8.2890   -12.1480
 1897.0000     8.4910     5.7890     2.4920     0.0250    76.6820     8.2930   -12.1180
 1897.5000     8.3150     5.6610     2.4900     0.0270    78.2270     8.2970   -12.0780
 1898.0000     8.0490     5.5250     2.4950     0.0290    79.3630     8.3020   -12.0370
 1898.5000     7.6720     5.3890     2.5030     0.0280    79.5880     8.3060   -11.9970
 1899.0000     7.2950     5.2540     2.5020     0.0270    74.7780     8.3100   -11.9560
 1899.5000     6.9180     5.1180     2.4950     0.0280    71.3660     8.3140   -11.9160
 1900.0000     6.6780     4.9690     2.4890     0.0300    72.6920     8.3180   -11.8750
 1900.5000     6.5760     4.9850     2.4860     0.0320    77.6500     8.3220   -11.8350
 1901.0000     6.5460     5.0040     2.4840     0.0340    82.6440     8.3270   -11.7940
 1901.5000     6.7370     5.0220     2.4820     0.0360    88.0250     8.3310   -11.7640
 1902.0000     6.9440     5.0410     2.4870     0.0390    91.7000     8.3350   -11.8000
 1902.5000     7.2430     5.0590     2.4940     0.0430    90.7360     8.3600   -11.8370
 1903.0000     7.2100     5.0780     2.4980     0.0340    87.7700     8.4890   -11.8740
 1903.5000     7.1520     5.0960     2.4840     0.0230    80.9460     8.4340   -11.9110
 1904.0000     7.0930     5.1150     2.4780     0.0230    79.1680     8.3700   -11.9480
 1904.5000     7.0340     5.1330     2.4740     0.0230    82.5340     8.3170   -11.9640
 1905.0000     6.9760     5.1520     2.4700     0.0230    86.1460     8.3190   -11.9730
 1905.5000     6.9180     5.1700     2.4680     0.0240    87.2830     8.3190   -11.9830
 1906.0000     7.0180     5.1890     2.4660     0.0310    87.0570     8.3190   -11.9930
 1906.5000     7.1170     5.2070     2.4720     0.0370    86.9620     8.3190   -12.0020
 1907.0000     7.2160     5.2260     2.4830     0.0440    87.2930     8.3180   -12.0120
 1907.5000     7.3100     5.2500     2.4950     0.0490    87.1320     8.3180   -12.0210
 1908.0000     7.3900     5.2160     2.4940     0.0470    84.0070     8.2630   -12.0310
 1908.5000     7.4450     5.1620     2.4860     0.0410    80.9370     8.4050   -12.0400
 1909.0000     7.3240     5.1090     2.4770     0.0410    79.3380     8.3030   -12.0500
 1909.5000     7.1660     5.0560     2.4870     0.0480    79.1060     8.3140   -12.0600
 1910.0000     6.8980     5.0020     2.5020     0.0580    80.1110     8.3280   -12.0690
 1910.5000     6.6070     4.9490     2.5170     0.0650    80.9950     8.3420   -12.0790
 1911.0000     6.6070     4.8850     2.5310     0.0730    80.7690     8.3560   -12.0880
 1911.5000     6.6070     4.7660     2.5460     0.0790    79.7720     8.3690   -12.0980
 1912.0000     6.6070     4.6160     2.5490     0.0790    76.2250     8.3870   -12.1080
 1912.5000     6.6070     4.6210     2.5470     0.0790    72.3190     8.4130   -12.1170
 1913.0000     6.6070     4.6270     2.5460     0.0790    72.4920     8.4090   -12.1270
 1913.5000     6.5780     4.6330     2.5390     0.0760    72.6810     8.3980   -12.1360
 1914.0000     6.4530     4.6390     2.5300     0.0720    72.1750     8.3880   -12.1460
 1914.5000     6.2520     4.6460     2.5210     0.0680    72.6570     8.3780   -12.1540
 1915.0000     6.2710     4.6520     2.5110     0.0640    74.1450     8.3670   -12.1450
 1915.5000     6.2860     4.6590     2.5010     0.0650    76.9770     8.3590   -12.1360
 1916.0000     6.3100     4.6410     2.5000     0.0680    81.4900     8.3730   -12.1260
 1916.5000     6.2740     4.6190     2.5020     0.0710    84.8140     8.3880   -12.1160
 1917.0000     6.1900     4.5970     2.5040     0.0640    87.8570     8.4010   -12.1070
 1917.5000     6.1060     4.5760     2.4870     0.0550    90.8600     8.4180   -12.0970
 1918.0000     6.0270     4.5540     2.4710     0.0480    93.9440     8.5690   -12.0880
 1918.5000     6.0390     4.5320     2.4720     0.0470    98.7400     8.4720   -12.0780
 1919.0000     6.0510     4.5100     2.4730     0.0460   103.0970     8.3950   -12.0690
 1919.5000     6.0620     4.4880     2.4750     0.0460   100.1070     8.5570   -12.0590
 1920.0000     6.0740     4.4660     2.4760     0.0500    95.9260     8.4320   -12.0490
 1920.5000     6.0820     4.4440     2.4790     0.0540    95.6070     8.4630   -12.0400
 1921.0000     5.9920     4.4220     2.4820     0.0580    96.2040     8.4690   -12.0300
 1921.5000     5.9230     4.4010     2.4840     0.0610    96.8520     8.4630   -12.0210
 1922.0000     5.8540     4.3790     2.4860     0.0610    98.3340     8.4880   -12.0110
 1922.5000     5.8040     4.3670     2.4820     0.0510   103.0720     8.5960   -12.0020
 1923.0000     5.7890     4.3610     2.4710     0.0430   103.7710     8.4980   -11.9920
 1923.5000     5.7740     4.3560     2.4770     0.0430   102.6950     8.4060   -11.9820
 1924.0000     5.7560     4.3500     2.4830     0.0430   100.7230     8.3500   -11.9730
 1924.5000     5.8320     4.3450     2.4870     0.0420    98.5480     8.4060   -11.9630
 1925.0000     5.9300     4.3400     2.4880     0.0390   102.3710     8.4580   -11.9560
 1925.5000     6.0270     4.3340     2.4810     0.0370   109.0400     8.4800   -11.9570
 1926.0000     6.0270     4.3290     2.4670     0.0350   107.6880     8.4210   -11.9570
 1926.5000     6.0270     4.4210     2.4680     0.0370   105.5990     8.3640   -11.9570
 1927.0000     6.0270     4.5200     2.4730     0.0460   105.1080     8.3380   -11.9570
 1927.5000     6.0270     4.6410     2.4790     0.0610   104.5890     8.3400   -11.9570
 1928.0000     6.0270     4.7620     2.4860     0.0650   100.5890     8.3590   -11.9570
 1928.5000     6.5190     4.8840     2.4950     0.0610    96.5530     8.6450   -11.9570
 1929.0000     7.0460     5.0540     2.4920     0.0560    97.4590     8.3250   -11.9570
 1929.5000     7.4800     5.2490     2.4850     0.0440    98.2730     8.4060   -11.9570
 1930.0000     7.8830     5.4430     2.4740     0.0370   101.1180     8.7290   -11.9570
 1930.5000     8.1810     5.6380     2.4630     0.0330   104.4790     8.3570   -11.9570
 1931.0000     8.2410     5.8080     2.4570     0.0250   104.8390     8.3470   -11.9570
 1931.5000     8.3020     5.8020     2.4560     0.0250   106.5670     8.6420   -11.9570
 1932.0000     8.3900     5.7950     2.4620     0.0250   109.8890     8.2790   -11.9570
 1932.5000     8.3750     5.7890     2.4670     0.0250   112.4390     8.3600   -11.9570
 1933.0000     8.3460     5.7820     2.4650     0.0250   112.7540     8.3470   -11.9560
 1933.5000     8.3180     5.7760     2.4620     0.0250   109.2350     8.3200   -11.9560
 1934.0000     8.2890     5.7690     2.4590     0.0240   103.1650     8.2870   -11.9390
 1934.5000     8.2610     5.7620     2.4560     0.0220   105.7730     8.2990   -11.8990
 1935.0000     8.2380     5.7570     2.4540     0.0210   109.5960     8.3250   -11.8590
 1935.5000     8.3200     5.7850     2.4510     0.0190   113.5110     8.3490   -11.8200
 1936.0000     8.3880     5.8140     2.4380     0.0180   114.9130     8.3820   -11.7810
 1936.5000     8.4560     5.8430     2.4420     0.0180   113.0180     8.5360   -11.8460
 1937.0000     8.8620     5.8720     2.4510     0.0230   108.6900     8.3700   -12.0270
 1937.5000     9.0470     5.9010     2.4580     0.0270   107.5820     8.3200   -12.2080
 1938.0000     9.0730     5.9580     2.4520     0.0280   107.2240     8.5590   -12.3890
 1938.5000     9.0980     6.1180     2.4470     0.0290   107.2650     8.3690   -12.5490
 1939.0000     9.1240     6.1810     2.4570     0.0330   105.9340     8.2700   -12.6110
 1939.5000     9.1500     6.2290     2.4630     0.0380   104.5010     8.2470   -12.6770
 1940.0000     9.1750     6.2770     2.4630     0.0370   104.7810     8.2710   -12.7430
 1940.5000     9.2140     6.3260     2.4630     0.0350   105.1710     8.3150   -12.8100
