~VERSION INFORMATION
 VERS.                2.0:   CWLS LOG ASCII STANDARD - VERSION 2.0
 WRAP.                 NO:   ONE LINE PER DEPTH STEP
~WELL INFORMATION
#MNEM.UNIT      DATA TYPE    INFORMATION
#----------   ------------   ------------------------------
 STRT.F          210.0000:   START DEPTH
 STOP.F         3128.0000:   STOP DEPTH
 STEP.F            0.5000:   STEP LENGTH
 NULL.          -999.2500:   NO VALUE
 COMP.    PENIX & SCISSON:   COMPANY
 WELL. FENIX NPR 3 "A" #14-27:   WELL
 FLD .                NPR:   FIELD
 LOC .      S27 T39N R78W:   LOCATION
 CNTY.            NATRONA:   COUNTY
 STAT.            WYOMING:   STATE
 CTRY. UNITED STATES OF AMERICA:   COUNTRY
 SRVC.      DRESSER ATLAS:   SERVICE COMPANY
 DATE.        31-AUG-1977:   LOGDATE
 API .     49025104280000:   API NUMBER
~CURVE INFORMATION
#MNEM.UNIT       API CODE    CURVE DESCRIPTION
#----------   ------------   ------------------------------
 DEPT.F                  :   
 GRD .GAPI   45 310 01 00:   GAMMA RAY FROM DENSITY LOG
 CALD.IN     45 280 60 00:   CALIPER FROM DENSITY LOG
 RHOB.G/C3   45 350 01 00:   BULK DENSITY
 CORR.G/C3   45 356 01 00:   DENSITY CORRECTION
 NPHI.DEC    42 890 03 00:   NEUTRON POROSITY SANDSTONE
 SPR .MV     11 010 01 00:   SPONTANEOUS POTENTIAL
 RXO .OHMM   11 220 01 00:   FLUSHED ZONE RESISTIVITY
 LLD .OHMM   11 220 10 00:   LATEROLOG LOG DEEP
 LLS .OHMM   11 220 09 00:   LATEROLOG LOG SHALLOW
 TENR.LBS    11 635 01 00:   TENSION FROM RESISTIVITY
 TEND.LBS    45 635 01 00:   TENSION FROM DENSITY LOG
~PARAMETER INFORMATION
#MNEM.UNIT          VALUE    DESCRIPTION
#----------   ------------   ------------------------------
 EKB .F         5046.0000:   Kelly bushing
 EGL .F         5036.0000:   Ground level
 TD  .F         3111.0000:   Total depth
 DATE.        31-AUG-1977:   Date logged
 CLNT.            A2DTECH:   Client Code
 SL  . 2310' FNL & 330' FWL:   Surface Location
 PD  .                 GL:   Permanent Datum
 EPD .F              5036:   Elevation Permanent Datum
 LMF .                 KB:   Log Measured From
 DMF .                 KB:   Drilling Measured From
 DAPD.F                10:   Feet Above Permanent Datum
 DD  .F              3109:   Depth driller
 DL  .F              3111:   Depth logger
 BLI .F              3109:   Bottom log interval
 TLI .F               217:   Top log interval
 CS1 .IN             8.75:   Casing size
 CBD1.       8.75" @ 215':   Casing driller 1
 CBL1.F               217:   Casing logger 1
 BS1 .IN            7.875:   Bit size
 BSD1.F              3109:   Depth drilled with bit1
 DFT .                GEL:   Type fluid in hole
 DFD .                8.8:   Density
 DFV .                 35:   Viscosity
 DFPH.                 10:   pH
 DFL .                8.8:   Fluid loss
 MSS .                PIT:   Source of sample
 RMS .OHMM            .36:   Rm
 MST .F                67:   Rm Meas. temp.
 RMF .OHMM            .24:   Rmf
 MFST.F                67:   Rmf Meas. temp.
 RMC .OHMM            .51:   Rmc
 MCST.F                67:   Rmc Meas. temp.
 MFSS.               MEAS:   Source Rmf.
 MCSS.               CALC:   Source Rmc.
 RMB .OHMM            .20:   Rm. at BHT
 BHT .F               121:   BHT.
 TCS .HRS               5:   Time Circ. stopped
 MRT .F               121:   Maximum recorded temp.
 LUN .               6080:   Logging unit number
 LUL .              WLSTN:   Logging unit location
 ENGI.               BALL:   Recorded By
 WITN.         PETTINGILL:   Witnessed by
 ORIG.      2.5" 5" PRINT:   Origin of data
 UWI .     49025104280000:   Unique Well ID
 DICO. A2D TECHNOLOGIES, INC.:   Digitizing Company
~OTHER INFORMATION
~A   DEPT      GRD         CALD     RHOB       CORR       NPHI        SPR        RXO        LLD        LLS        TENR      TEND   
# ...
 2894.0000   119.7979     8.6558     2.4984     0.0003     0.2775   -33.1814     5.6072     5.9040     6.0318    94.7326    91.0062
 2894.5000   119.0076     8.6362     2.5184     0.0083     0.2759   -33.1654     5.6068     6.0124     6.0313    94.7800    98.9114
 2895.0000   117.4235     8.6364     2.5353     0.0143     0.2779   -33.1493     5.5048     6.1226     6.0307    86.9067    86.9488
 2895.5000   115.4426     8.6366     2.5403     0.0183     0.2791   -34.1365     5.5042     6.1222     6.0302    86.9383    98.8340
 2896.0000   112.6680     8.6567     2.5393     0.0203     0.2787   -34.1365     5.5036     6.2343     6.0294    86.9700    82.8913
 2896.5000   113.4655     8.6570     2.5363     0.0183     0.2771   -34.1365     5.5032     6.3386     6.0289    87.0174    94.7766
 2897.0000   114.6598     8.6374     2.5283     0.0123     0.2720   -34.1365     5.5028     6.3479     6.1391    87.0490    90.7734
 2897.5000   114.2666     8.6575     2.5323     0.0124     0.2692   -34.1365     5.5024     6.4646     6.1389    87.0806    98.6791
 2898.0000   112.6828     8.6577     2.5413     0.0164     0.2668   -34.0968     5.6029     6.4642     6.1382    87.1122    90.6958
 2898.5000   111.8928     8.6580     2.5413     0.0184     0.2652   -34.0571     5.6025     6.4635     6.2508    87.1597   102.5817
 2899.0000   112.2934     8.6582     2.5353     0.0084     0.2613   -34.0174     5.8104     6.5819     6.2502    87.2071    86.6380
 2899.5000   113.0909     8.6783     2.5323     0.0025     0.2573   -33.9777     5.8790     6.8263     6.4821    87.2387   102.5043
 2900.0000   114.6817     8.6785     2.5323     0.0025     0.2506   -33.9380     6.0977     7.3429     6.7224    87.2703    86.5526
 2900.5000   114.6868     8.6788     2.5239    -0.0011     0.2522   -33.8983     6.3144     7.6057     7.6513    87.3295    93.5536
 2901.0000   114.2951     8.6790     2.5224    -0.0014     0.2522   -33.8611     6.6805     7.7557     7.9221    87.3762    94.3965
 2901.5000   113.9033     8.6991     2.5215     0.0006     0.2462   -33.8238     7.2311     7.7319     8.0677    87.3942    94.2690
 2902.0000   115.0990     8.6993     2.5075     0.0007     0.2443   -33.7866     7.2308     7.4542     7.6376    87.4403    82.2961
 2902.5000   116.6916     8.6995     2.5046    -0.0033     0.2490   -33.7494     7.2306     7.3190     7.3636    87.4710    86.1490
 2903.0000   116.6967     8.6997     2.5135    -0.0012     0.2526   -33.7121     6.8450     6.9283     6.9708    87.5325   102.0224
 2903.5000   116.7019     8.7198     2.5265     0.0028     0.2526   -33.6749     5.8077     6.4396     6.4797    87.5730    85.9896
 2904.0000   117.1039     8.7796     2.5325     0.0008     0.2526   -33.6376     5.8076     6.3229     6.3625    87.6094    85.9577
 2904.5000   116.3153     8.7600     2.5246    -0.0031     0.2526   -33.6004     6.0233     6.2081     6.2470    87.6247    93.7908
 2905.0000   114.3360     8.7403     2.5156    -0.0031     0.2502   -33.5631     6.0231     6.2080     6.5578    87.7016    97.7234
 2905.5000   113.9443     8.7406     2.5136    -0.0030     0.2458   -33.5259     6.0229     6.2077     6.4388    87.7170    93.6315
 2906.0000   112.3618     8.7606     2.5186    -0.0010     0.2415   -33.4886     6.0228     6.2075     6.4386    87.7477   101.5602
 2906.5000   111.9700     8.8005     2.5246     0.0030     0.2387   -33.4514     6.0225     6.4383     6.5570    87.7785   109.3934
 2907.0000   112.7689     8.8206     2.5296     0.0090     0.2364   -33.4141     6.0223     6.6778     6.5569    87.8399   113.3418
 2907.5000   113.5678     8.8407     2.5505     0.0190     0.2356   -33.3769     6.0221     6.9260     6.6775    87.8707   105.2537
 2908.0000   115.5575     8.8409     2.5496     0.0250     0.2348   -33.3542     5.9130     7.0536     6.8004    87.9168   113.1665
 2908.5000   115.9595     8.8213     2.5416     0.0191     0.2348   -33.3558     5.9127     7.3158     6.8002    87.9321   109.0746
 2909.0000   115.5677     8.8414     2.5377     0.0132     0.2348   -33.2375     6.2062     7.4505     6.8000    87.9936   109.0427
 2909.5000   114.3821     8.8416     2.5257     0.0112     0.2360   -33.2641     6.2060     7.3153     6.6766    88.0243   108.9152
 2910.0000   113.9903     8.8418     2.5128     0.0013     0.2395   -33.2908     6.3203     7.0526     6.6764    88.0705    92.9143
 2910.5000   112.0108     8.8421     2.4979    -0.0026     0.2395   -33.3175     6.4366     6.9246     6.6761    88.1012   108.7559
 2911.0000   110.0312     8.8423     2.5119    -0.0066     0.2360   -33.3441     6.1317     6.9244     6.6759    88.1319   104.7437
 2911.5000   109.2424     8.8425     2.5358     0.0153     0.2300   -33.3708     6.2444     7.0518     6.9241    88.1627   104.6162
 2912.0000   109.2475     8.8427     2.5348     0.0114     0.2284   -33.3974     6.3591     7.0516     6.9239    88.2087   100.6040
 2912.5000   110.8403     8.8430     2.5259     0.0095     0.2277   -32.9650     6.4760     7.3137     7.0513    88.2702   108.4371
 2913.0000   114.0210     8.8432     2.5169     0.0095     0.2273   -32.9666     6.4758     7.3135     7.0511    88.3103   100.4605
 2913.5000   118.3925     8.8434     2.5020     0.0075     0.2245   -32.9677     6.4756     7.3132     6.9231    88.3163   104.2974
 2914.0000   120.7794     8.8436     2.4821     0.0076     0.2253   -32.9682     6.2433     7.0505     6.7976    88.3778    84.3639
 2914.5000   121.1816     8.8438     2.4832     0.0096     0.2427   -32.9704     6.0192     6.6743     6.2428    88.4085   120.7444
 2915.0000   121.9807     8.8441     2.4732     0.0156     0.2502   -32.9720     5.8033     5.4767     6.0188    88.4546   104.7856
 2915.5000   122.3828     8.8443     2.4543     0.0196     0.2530   -32.9730     5.4940     5.1846     5.2011    88.4853   100.7055
 2916.0000   124.3719     8.8445     2.4066    -0.0002     0.2549   -32.9746     4.9240     4.4798     4.6615    88.5314    88.7185
 2916.5000   127.1559     8.7852     2.3977    -0.0022     0.2553   -33.3770     4.2550     4.1642     3.8136    88.5775   100.5849
 2917.0000   130.3370     8.7854     2.3887    -0.0001     0.2589   -33.3786     3.2360     2.8902     3.1774    96.5421    80.6309
 2917.5000   139.8698     8.7658     2.4345     0.0099     0.2755   -33.3797     2.2878     2.8901     2.9002    96.5728    96.4808
 2918.0000   145.0349     8.7660     2.4783     0.0179     0.2798   -32.9800     1.6775     2.7864     2.6960    96.6341   100.4161
 2918.5000   150.5982     8.7662     2.5231     0.0079     0.2814   -32.9810     1.8716     2.7863     2.7961   104.1612    92.3768
 2919.0000   143.0608     8.7665     2.5520     0.0179     0.2731   -32.7821     2.3726     3.0526     3.2951   104.2127   104.2911
 2919.5000   139.0973     8.7667     2.5570     0.0200     0.2510   -32.3824     4.4936     3.4059     3.9547   104.2643    88.2728
 2920.0000   125.2076     8.7669     2.5500     0.0240     0.2363   -32.3840     5.0134     4.9972     5.9079   104.3158   100.1750
 2920.5000   114.4947     8.7672     2.5262     0.0041     0.2387   -31.9838     5.2953     5.3757     6.3552   104.3674    80.1855
 2921.0000   112.1178     8.7475     2.5143     0.0002     0.2395   -31.1829     5.4920     5.6781     6.4720   104.4189   112.0168
 2921.5000   111.3289     8.7676     2.5023    -0.0057     0.2383   -31.1845     5.4919     5.6780     6.3548   104.4704    92.0154
 2922.0000   109.7459     8.8075     2.5024    -0.0097     0.2344   -31.1856     5.4916     6.2204     6.3545   104.5220   103.9293
 2922.5000   109.3540     8.7482     2.5094    -0.0037     0.2320   -31.1873     5.4915     6.4516     6.5905   104.5735    83.9282
 2923.0000   109.7561     8.7484     2.5372     0.0003     0.2304   -31.1887     5.4912     6.8145     6.3541   104.6251   103.8208
 2923.5000   109.7611     8.7487     2.5422     0.0123     0.2265   -31.1900     5.4911     6.8143     6.3539   104.6766    87.7911
 2924.0000   108.9721     8.7489     2.5422     0.0124     0.2265   -31.5923     5.4910     6.6908     6.0152   104.7281    99.7049
