~VERSION INFORMATION
 VERS.                2.0:   CWLS LOG ASCII STANDARD - VERSION 2.0
 WRAP.                 NO:   ONE LINE PER DEPTH STEP
~WELL INFORMATION
#MNEM.UNIT      DATA TYPE    INFORMATION
#----------   ------------   ------------------------------
 STRT.F           14.0000:   START DEPTH
 STOP.F         3246.0000:   STOP DEPTH
 STEP.F            0.5000:   STEP LENGTH
 NULL.          -999.2500:   NO VALUE
 COMP.   LAWRENCE ALLISON:   COMPANY
 WELL. LAWRENCE "34X" #11:   WELL
 FLD .             N.P.R.:   FIELD
 LOC .      S34 T38N R78W:   LOCATION
 CNTY.            NATRONA:   COUNTY
 STAT.            WYOMING:   STATE
 CTRY. UNITED STATES OF AMERICA:   COUNTRY
 SRVC.      DRESSER ATLAS:   SERVICE COMPANY
 DATE.        02-MAY-1985:   LOGDATE
 API .     49025110530001:   API NUMBER
~CURVE INFORMATION
#MNEM.UNIT       API CODE    CURVE DESCRIPTION
#----------   ------------   ------------------------------
 DEPT.F                  :   
 CNC .DEC    42 890 03 00:   NEUTRON POROSITY
 CALD.IN     45 280 60 00:   CALIPER FROM DENSITY LOG
 CORR.G/C3   45 356 01 00:   DENSITY CORRECTION
 RHOB.G/C3   45 350 01 00:   BULK DENSITY
 GRR .GAPI   07 310 01 00:   GAMMA RAY FROM RESISTIVITY
 SPR .MV     07 010 01 00:   SPONTANEOUS POTENTIAL FROM RES.
 TENR.LBS    06 635 01 00:   TENSION FROM RESISTIVITY
 RILD.OHMM   07 120 46 00:   DEEP INDUCTION RESISTIVITY
 RILM.OHMM   07 120 44 00:   INDUCTION LOG MEDIUM RESISTIVITY
 RFOC.OHMM   07 220 04 00:   RESISTIVITY FOCUSED LOG RES.
~PARAMETER INFORMATION
#MNEM.UNIT          VALUE    DESCRIPTION
#----------   ------------   ------------------------------
 EKB .F         5099.0000:   Kelly bushing
 TD  .F         3239.0000:   Total depth
 CLNT.            A2DTECH:   Client Code
 PD  .                 GL:   Permanent Datum
 EPD .F              5087:   Elevation Permanent Datum
 LMF .                 KB:   Log Measured From
 DMF .                 KB:   Drilling Measured From
 DAPD.F                12:   Feet Above Permanent Datum
 DATE.        02-MAY-1985:   Date Logged [DD-MMM-YYYY]
 DD  .F              3239:   Depth driller
 DL  .F              3242:   Depth logger
 BLI .F              3294:   Bottom log interval
 CS1 .IN            8.625:   Casing size
 CBD1.      8.625" @ 487':   Casing driller 1
 CBL1.F               487:   Casing logger 1
 BS1 .IN            7.875:   Bit size
 BSD1.F              3239:   Depth drilled with bit1
 DFT .            KCL GEL:   Type fluid in hole
 DFD .                9.1:   Density
 DFV .                 35:   Viscosity
 DFPH.                  8:   pH
 DFL .                9.8:   Fluid loss
 MSS .           FLOWLINE:   Source of sample
 RMS .OHMM           0.27:   Rm
 MST .F                68:   Rm Meas. temp.
 RMF .OHMM           0.20:   Rmf
 MFST.F                68:   Rmf Meas. temp.
 MFSS.               MEAS:   Source Rmf.
 RMC .OHMM           0.34:   Rmc
 MCST.F                68:   Rmc Meas. temp.
 MCSS.               CALC:   Source Rmc.
 RMB .OHMM           0.15:   Rm. at BHT
 BHT .F               126:   BHT.
 TCS .HRS               3:   Time Circ. stopped
 MRT .F               126:   Maximum recorded temp.
 LUN .               6274:   Logging unit number
 LUL .               GLTE:   Logging unit location
 ENGI.       MACK/EDWARDS:   Recorded By
 WITN.             STRONG:   Witnessed by
 ORIG.           5" PRINT:   Origin of data
 UWI .     49025110260000:   Unique Well ID
 DICO. A2D TECHNOLOGIES, INC.:   Digitizing Company
~OTHER INFORMATION
~A   DEPT      CNC       CALD       CORR       RHOB        GRR        SPR       TENR       RILD       RILM       RFOC   
# ...
 2124.5000  -999.2500  -999.2500  -999.2500  -999.2500    95.8825   -63.3073   -76.5392     5.3206     5.0153     5.3265
 2125.0000  -999.2500  -999.2500  -999.2500  -999.2500    92.9969   -63.2834   -70.4730     5.1822     5.0212     5.7968
 2125.5000  -999.2500  -999.2500  -999.2500  -999.2500    91.0082   -63.2596   -64.0324     5.1879     5.0270     6.2201
 2126.0000  -999.2500  -999.2500  -999.2500  -999.2500    90.5817   -62.9363   -58.3208     5.3028     5.1031     6.0579
 2126.5000  -999.2500  -999.2500  -999.2500  -999.2500    91.9635   -62.6130   -59.8712     5.4960     5.1802     5.8594
 2127.0000  -999.2500  -999.2500  -999.2500  -999.2500    94.0275   -62.1189   -61.4222     5.7758     5.2946     5.9075
 2127.5000  -999.2500  -999.2500  -999.2500  -999.2500    93.3745   -61.8108   -63.2098     5.9919     5.4174     6.1658
 2128.0000  -999.2500  -999.2500  -999.2500  -999.2500    90.7132   -61.9366   -64.7079     6.2492     5.5725     6.5361
 2128.5000  -999.2500  -999.2500  -999.2500  -999.2500    89.6214   -62.0684   -58.6424     6.3435     5.6568     6.6704
 2129.0000  -999.2500  -999.2500  -999.2500  -999.2500    89.1948   -62.3380   -60.1405     6.3947     5.7027     6.4092
 2129.5000  -999.2500  -999.2500  -999.2500  -999.2500    90.8009   -62.9129   -61.6385     6.4463     5.8292     6.5068
 2130.0000  -999.2500  -999.2500  -999.2500  -999.2500    92.6238   -63.1886   -63.1616     6.4534     5.8765     6.6979
 2130.5000  -999.2500  -999.2500  -999.2500  -999.2500    91.7222   -63.3142   -65.0098     6.5055     5.9654     6.9425
 2131.0000  -999.2500  -999.2500  -999.2500  -999.2500    90.8885   -63.2844   -66.5078     6.5128     6.0979     7.1464
 2131.5000  -999.2500  -999.2500  -999.2500  -999.2500    91.5977   -63.2642   -60.0673     6.5671     6.0627     7.3059
 2132.0000  -999.2500  -999.2500  -999.2500  -999.2500    92.0754   -63.2367   -61.8006     6.5271     6.0279     7.3680
 2132.5000  -999.2500  -999.2500  -999.2500  -999.2500    92.5530   -63.2128   -63.4385     6.3573     5.9127     7.2258
 2133.0000  -999.2500  -999.2500  -999.2500  -999.2500    89.6674   -63.1889   -64.9365     6.1901     5.6789     6.9889
 2133.5000  -999.2500  -999.2500  -999.2500  -999.2500    87.2303   -63.1650   -58.8703     6.0274     5.5303     6.7598
 2134.0000  -999.2500  -999.2500  -999.2500  -999.2500    85.6729   -63.1407   -60.7435     5.7481     5.2386     6.5836
 2134.5000  -999.2500  -999.2500  -999.2500  -999.2500    83.9328   -62.9616   -62.2415     5.5110     4.7243     6.2798
 2135.0000  -999.2500  -999.2500  -999.2500  -999.2500    82.6167   -62.9377   -63.7396     5.3023     4.5420     5.8382
 2135.5000  -999.2500  -999.2500  -999.2500  -999.2500    80.8522   -62.7642   -57.2990     5.2700     4.6750     5.1889
 2136.0000  -999.2500  -999.2500  -999.2500  -999.2500    80.4257   -62.7403   -59.1722     5.2773     4.8788     5.0520
 2136.5000  -999.2500  -999.2500  -999.2500  -999.2500    84.0497   -62.7164   -60.6703     5.3199     5.0565     5.3480
 2137.0000  -999.2500  -999.2500  -999.2500  -999.2500    86.7695   -62.8428   -62.1782     5.4377     5.1686     6.2354
 2137.5000  -999.2500  -999.2500  -999.2500  -999.2500    87.4906   -62.8181   -63.7293     5.5968     4.9987     6.9261
 2138.0000  -999.2500  -999.2500  -999.2500  -999.2500    87.9563   -62.7885   -57.6009     5.8010     4.8679     6.9349
 2138.5000  -999.2500  -999.2500  -999.2500  -999.2500    90.0035   -62.7647   -44.3447     5.6891     4.8414     6.6082
 2139.0000  -999.2500  -999.2500  -999.2500  -999.2500    89.3601   -62.8964   -45.8428     5.2771     4.7805     6.3564
 2139.5000  -999.2500  -999.2500  -999.2500  -999.2500    88.4851   -63.4654   -47.3416     5.0325     4.5283     6.0636
 2140.0000  -999.2500  -999.2500  -999.2500  -999.2500    90.5396   -63.5912   -48.8397     4.9003     4.2895     5.7047
 2140.5000  -999.2500  -999.2500  -999.2500  -999.2500    90.3446   -63.5673   -50.3400     4.8047     4.0632     5.1488
 2141.0000  -999.2500  -999.2500  -999.2500  -999.2500    88.7287   -63.3937   -51.8914     4.7598     3.9569     4.8440
 2141.5000  -999.2500  -999.2500  -999.2500  -999.2500    85.7018   -63.3469   -53.7090     4.6835     3.9917     4.5890
 2142.0000  -999.2500  -999.2500  -999.2500  -999.2500    83.9300   -63.1946   -55.2071     4.5617     4.0787     4.8244
 2142.5000  -999.2500  -999.2500  -999.2500  -999.2500    83.9665   -63.1699   -56.7051     4.4418     4.1118     5.0353
 2143.0000  -999.2500  -999.2500  -999.2500  -999.2500    84.2200   -63.1426   -58.2039     4.3250     4.1440     5.1832
 2143.5000  -999.2500  -999.2500  -999.2500  -999.2500    84.4734   -63.2744   -59.7020     4.2406     4.0918     5.2621
 2144.0000  -999.2500  -999.2500  -999.2500  -999.2500    86.0721   -63.3952   -61.2001     4.1867     3.9859     5.2688
 2144.5000  -999.2500  -999.2500  -999.2500  -999.2500    87.2435   -63.5202   -55.1338     4.1037     3.8283     5.2391
 2145.0000  -999.2500  -999.2500  -999.2500  -999.2500    89.0527   -63.7956   -57.0070     4.0250     3.6749     5.0657
 2145.5000  -999.2500  -999.2500  -999.2500  -999.2500    90.6514   -64.2149   -58.5051     4.0016     3.6056     4.6710
 2146.0000  -999.2500  -999.2500  -999.2500  -999.2500    91.5775   -64.7898   -60.0031     3.9520     3.6866     4.0724
 2146.5000  -999.2500  -999.2500  -999.2500  -999.2500    92.0552   -64.9216   -61.5020     3.9279     3.7423     4.1059
 2147.0000  -999.2500  -999.2500  -999.2500  -999.2500    91.8602   -64.5923   -63.0000     3.9333     3.8253     4.2265
 2147.5000  -999.2500  -999.2500  -999.2500  -999.2500    90.5441   -64.4188   -56.9338     3.9377     3.8832     4.5351
 2148.0000  -999.2500  -999.2500  -999.2500  -999.2500    89.2280   -64.2452   -58.4319     3.9695     3.9419     5.0375
 2148.5000  -999.2500  -999.2500  -999.2500  -999.2500    89.0330   -63.9087   -45.1764     4.0305     4.0015     5.6007
 2149.0000  -999.2500  -999.2500  -999.2500  -999.2500    89.2938   -63.5927   -46.6745     4.0913     3.7915     5.5274
 2149.5000  -999.2500  -999.2500  -999.2500  -999.2500    89.3230   -63.4191   -40.2339     4.1530     3.8223     4.8191
 2150.0000  -999.2500  -999.2500  -999.2500  -999.2500    87.3343   -63.2455   -42.1063     4.2745     3.9342     4.2308
 2150.5000  -999.2500  -999.2500  -999.2500  -999.2500    84.4487   -63.2216   -43.6052     4.4303     4.1343     4.3550
 2151.0000  -999.2500  -999.2500  -999.2500  -999.2500    82.6842   -63.1978   -45.1032     4.5599     4.2849     5.0078
 2151.5000  -999.2500  -999.2500  -999.2500  -999.2500    81.5713   -63.3241   -46.6339     4.6970     4.4717     5.6793
 2152.0000  -999.2500  -999.2500  -999.2500  -999.2500    81.3974   -63.4494   -48.4744     4.8657     4.6669     5.8462
 2152.5000  -999.2500  -999.2500  -999.2500  -999.2500    81.4339   -63.4196   -49.9725     5.0429     4.6736     5.8960
 2153.0000  -999.2500  -999.2500  -999.2500  -999.2500    81.4631   -63.3957   -51.4706     5.1190     4.6454     6.0273
 2153.5000  -999.2500  -999.2500  -999.2500  -999.2500    81.4923   -63.5275   -52.9686     5.1603     4.7171     6.0769
 2154.0000  -999.2500  -999.2500  -999.2500  -999.2500    81.9700   -63.6533   -54.4675     5.0949     4.7554     5.8777
 2154.5000  -999.2500  -999.2500  -999.2500  -999.2500    84.0171   -63.7732   -55.9655     4.9955     4.7940     5.5298
 2155.0000  -999.2500  -999.2500  -999.2500  -999.2500    82.8148   -63.7493   -57.4886     4.9277     4.6364     5.6140
 2155.5000  -999.2500  -999.2500  -999.2500  -999.2500    80.0470   -63.7253   -59.3368     4.8359     4.4477     5.9042
 2156.0000  -999.2500  -999.2500  -999.2500  -999.2500    79.8447   -63.7006   -52.8962     4.8763     4.0478     6.2028
 2156.5000  -999.2500  -999.2500  -999.2500  -999.2500    80.5539   -63.5220   -54.7686     4.8816     4.1375     5.2968
 2157.0000  -999.2500  -999.2500  -999.2500  -999.2500    81.0315   -63.4981   -56.2667     4.9553     4.6918     4.9148
 2157.5000  -999.2500  -999.2500  -999.2500  -999.2500    81.7334   -63.3246   -57.7655     5.0301     4.8292     4.7194
