~VERSION INFORMATION
 VERS.                2.0:   CWLS LOG ASCII STANDARD - VERSION 2.0
 WRAP.                 NO:   ONE LINE PER DEPTH STEP
~WELL INFORMATION
#MNEM.UNIT      DATA TYPE    INFORMATION
#----------   ------------   ------------------------------
 STRT.F            0.0000:   START DEPTH
 STOP.F         3110.5000:   STOP DEPTH
 STEP.F            0.5000:   STEP LENGTH
 NULL.          -999.2500:   NO VALUE
 COMP. LAWRENCE  ALLISON AND ASSOCIATES:   COMPANY
 WELL. LAWRENCE NPR 3 "X" #72-15:   WELL
 FLD .                NPR:   FIELD
 LOC .      S15 T38N R78W:   LOCATION
 CNTY.            NATRONA:   COUNTY
 STAT.            WYOMING:   STATE
 CTRY. UNITED STATES OF AMERICA:   COUNTRY
 SRVC.           WIRELINE:   SERVICE COMPANY
 DATE.        16-JAN-1988:   LOGDATE
 API .     49025111930000:   API NUMBER
~CURVE INFORMATION
#MNEM.UNIT       API CODE    CURVE DESCRIPTION
#----------   ------------   ------------------------------
 DEPT.F                  :   
 TENR.LBS    07 635 01 00:   TENSION FROM RESISTIVITY
 GRR .GAPI   07 310 01 00:   GAMMA RAY FROM RESISTIVITY
 SPR .MV     07 010 01 00:   SPONTANEOUS POTENTIAL
 RFOC.OHMM   07 220 04 00:   RESISTIVITY FOCUSED LOG RES.
 RILD.OHMM   07 120 46 00:   DEEP INDUCTION RESISTIVITY
 RILM.OHMM   07 120 44 00:   INDUCTION LOG MEDIUM RESISTIVITY
 TEND.LBS    45 635 01 00:   TENSION FROM DENSITY LOG
 RHOB.G/C3   45 350 01 00:   BULK DENSITY
 CORR.G/C3   45 356 01 00:   DENSITY CORRECTION
 CNC .DEC    42 890 03 00:   NEUTRON PORISITY SANDSTONE
 CALR.IN     07 280 01 00:   CALIPER FROM RESISTIVITY
~PARAMETER INFORMATION
#MNEM.UNIT          VALUE    DESCRIPTION
#----------   ------------   ------------------------------
 EKB .F         5240.0000:   Kelly bushing
 EGL .F         5229.0000:   Ground level
 EDF .F            0.0000:   Drilling floor
 TD  .F         3090.0000:   Total depth
 DATE.        16-JAN-1988:   Date logged
 CLNT.            A2DTECH:   Client Code
 SL  . 814' FNL & 1208' FEL:   Surface Location
 PD  .                 GL:   Permanent Datum
 DD  .F              3085:   Depth driller
 DL  .F              3090:   Depth logger
 BLI .F              3089:   Bottom log interval
 CS1 .IN            8.625:   Casing size
 CBD1.      8.625" @ 610':   Casing driller 1
 CBL1.F               613:   Casing logger 1
 BS1 .IN            7.875:   Bit size
 DFT .            KCL/GEL:   Type fluid in hole
 DFD .                8.8:   Density
 DFV .                 40:   Viscosity
 DFPH.                8.5:   pH
 DFL .                 10:   Fluid loss
 MSS .           FLOWLINE:   Source of sample
 RMS .OHMM           .543:   Rm
 MST .F                65:   Rm Meas. temp.
 RMF .OHMM           .349:   Rmf
 MFST.F                65:   Rmf Meas. temp.
 RMC .OHMM           .557:   Rmc
 MCST.F                65:   Rmc Meas. temp.
 MFSS.               CALC:   Source Rmf.
 RMB .OHMM           .258:   Rm. at BHT
 BHT .F               114:   BHT.
 TCS .HRS               5:   Time Circ. stopped
 MRT .F               114:   Maximum recorded temp.
 LUN .            HL-6321:   Logging unit number
 LUL .           GILLETTE:   Logging unit location
 ENGI.               CAIN:   Recorded By
 WITN.             STRONG:   Witnessed by
 ORIG.           5" PRINT:   Origin of data
 UWI .     49025111930000:   Unique Well ID
 DICO. A2D TECHNOLOGIES, INC.:   Digitizing Company
 DAPD.F                11:   Feet Above Permanent Datum
 BSD1.F              3085:   Depth drilled with bit1
 MCSS.               CALC:   Source Rmc.
 EPD .F              5229:   Elevation Permanent Datum
 LMF .                 KB:   Log Measured From
 DMF .                 KB:   Drilling Measured From
~OTHER INFORMATION
~A    DEPT    TENR         GRR       SPR       RFOC       RILD       RILM       TEND       RHOB       CORR        CNC       CALR   
# ...
 2897.5000   -44.7950   113.8830   -49.1210     5.7610     4.8550     5.0340   -81.5310     2.5050     0.0430     0.2960     9.0780
 2898.0000   -44.7950   111.7690   -49.0130     5.9030     4.9000     5.0600   -83.6600     2.4970     0.1180     0.2950     9.0720
 2898.5000   -44.7950   111.5640   -48.9040     6.0680     4.9440     5.0860   -81.1620     2.5010     0.1570     0.2940     9.0660
 2899.0000   -44.7950   111.3950   -48.7950     6.2330     4.9880     5.1100   -74.7740     2.5230     0.1120     0.2960     9.0610
 2899.5000   -44.7950   111.5240   -48.6870     6.3170     5.0320     5.2030   -68.3850     2.5440     0.0320     0.2940     9.0550
 2900.0000   -49.1640   111.7610   -48.5780     6.3170     5.1020     5.2880   -63.8830     2.5520     0.0240     0.2910     9.0490
 2900.5000   -54.9030   111.9990   -48.4710     6.3170     5.2340     5.3740   -63.8830     2.5530     0.0190     0.2820     9.0430
 2901.0000   -55.8510   112.2390   -48.3630     6.3170     5.3660     5.4590   -67.8420     2.5520     0.0160     0.2710     9.0380
 2901.5000   -56.7990   112.5100   -48.4930     6.3510     5.4970     5.5850   -73.3560     2.5510     0.0180     0.2610     9.0320
 2902.0000   -57.7470   111.5170   -48.8510     6.6560     5.6290     5.7490   -78.8710     2.5450     0.0200     0.2510     9.0260
 2902.5000   -58.6950   110.0770   -49.0690     6.8640     5.7600     5.9130   -84.3850     2.5370     0.0230     0.2520     9.0200
 2903.0000   -59.6440   109.1110   -48.9190     6.7890     5.8920     6.0760   -89.8990     2.5300     0.0250     0.2530     9.0150
 2903.5000   -60.5920   108.6070   -48.7790     6.7320     6.0330     6.2400   -95.4130     2.5300     0.0310     0.2510     9.0090
 2904.0000   -61.5400   108.1250   -49.0780     6.6760     6.1350     6.3760  -100.9270     2.5330     0.0370     0.2440     9.0030
 2904.5000   -62.4880   108.2270   -49.7000     6.6150     6.2450     6.3760  -101.4180     2.5390     0.0400     0.2390     8.9970
 2905.0000   -63.4360   109.9240   -49.7030     6.7950     6.3170     6.3760   -89.2740     2.5440     0.0360     0.2330     8.9920
 2905.5000   -64.3840   111.3170   -49.7010     6.9860     6.1230     6.3760   -77.1290     2.5500     0.0310     0.2300     8.9860
 2906.0000   -57.9580   111.0580   -49.7010     7.1880     5.9520     6.2410   -64.9850     2.5670     0.0260     0.2310     8.9800
 2906.5000   -54.8050   110.7870   -49.7010     7.1880     5.7810     6.0600   -53.8230     2.5740     0.0250     0.2410     8.9740
 2907.0000   -54.8050   110.8380   -49.7010     6.9440     5.6110     5.8800   -53.8230     2.5620     0.0250     0.2390     8.9690
 2907.5000   -54.8050   113.0720   -49.6980     6.6930     5.3150     5.6990   -54.7730     2.5600     0.0250     0.2370     8.9610
 2908.0000   -54.8050   116.0310   -49.6990     6.3870     4.7950     5.3000   -56.6620     2.5580     0.0270     0.2360     9.0020
 2908.5000   -54.8050   118.8880   -49.2700     6.0810     4.2750     4.8330   -58.5510     2.5410     0.0310     0.2550     9.0490
 2909.0000   -54.8050   120.1610   -48.9060     5.7750     3.7560     4.3660   -60.4400     2.5110     0.0340     0.2720     9.0970
 2909.5000   -54.8050   123.3490   -48.9040     5.4690     3.3630     3.8980   -62.3300     2.4690     0.1150     0.2900     9.1450
 2910.0000   -54.8050   132.2900   -48.8290     4.6790     3.0640     3.4310   -64.2190     2.4340     0.2160     0.3190     9.1930
 2910.5000   -54.8050   141.8470   -48.5660     3.7490     2.8590     2.9940   -66.1080     2.3830     0.3180     0.3230     9.2410
 2911.0000   -54.8050   151.2320   -48.3210     2.9390     2.8330     2.9390   -67.9970     2.3500     0.3940     0.2980     9.2910
 2911.5000   -54.8050   146.3560   -48.5830     2.9120     2.9740     3.1260   -69.8860     2.3970     0.3850     0.2780     9.3390
 2912.0000   -54.8050   129.4280   -48.8810     3.9730     3.1520     3.3940   -71.7750     2.4530     0.2570     0.2700     8.9800
 2912.5000   -54.8050   112.1550   -49.1770     4.9880     3.3310     3.6620   -73.6640     2.4880     0.1260     0.2590     9.0010
 2913.0000   -54.8050   104.2330   -49.4730     6.0040     3.5940     3.9940   -75.5530     2.5220     0.0260     0.2410     9.0120
 2913.5000   -54.8050   103.3320   -49.7700     6.2020     3.9840     4.5770   -77.4420     2.5550     0.0200     0.2350     9.0240
 2914.0000   -54.8050   103.6890   -49.9800     6.1700     4.5830     5.1600   -79.3320     2.5530     0.0250     0.2310     9.0360
 2914.5000   -54.8050   103.4940   -50.1220     6.1450     5.2320     5.5010   -81.2210     2.5500     0.0270     0.2310     9.0490
 2915.0000   -54.8050   103.2950   -50.2620     6.3260     5.5380     5.5010   -83.1100     2.5530     0.0280     0.2320     9.0620
 2915.5000   -54.8050   103.0860   -50.4710     6.5550     5.7610     5.5010   -84.0040     2.5670     0.0300     0.2320     9.0600
 2916.0000   -54.8050   103.7610   -50.6950     6.5140     5.7320     5.5010   -72.4270     2.5730     0.0310     0.2320     9.0580
 2916.5000   -54.8050   105.6900   -50.9210     6.3330     5.7050     5.5010   -56.7330     2.5670     0.0310     0.2380     9.0550
 2917.0000   -53.5210   108.7770   -51.1460     6.1530     5.6770     5.4190   -43.7630     2.5610     0.0340     0.2440     9.0530
 2917.5000   -50.5650   111.8840   -51.3720     5.9720     5.6560     5.3200   -44.3000     2.5570     0.0440     0.2480     9.0500
 2918.0000   -47.6090   113.0150   -51.5990     5.7920     5.5990     5.2050   -44.9890     2.5520     0.0500     0.2490     9.0480
 2918.5000   -44.6530   113.6400   -51.8720     5.6040     5.5440     5.2160   -45.6780     2.5480     0.0400     0.2380     9.0450
 2919.0000   -41.6980   114.1720   -52.1810     5.6040     5.4900     5.2340   -46.3670     2.5440     0.0310     0.2280     9.0430
 2919.5000   -38.7420   114.0900   -52.4720     5.7040     5.4350     5.2540   -47.0570     2.5440     0.0310     0.2260     9.0400
 2920.0000   -35.7860   112.2080   -52.1450     5.9250     5.3810     5.2100   -47.7460     2.5530     0.0310     0.2330     9.0380
 2920.5000   -35.1460   110.5780   -51.7860     6.1450     5.2520     5.1160   -48.4350     2.5630     0.0310     0.2390     9.0350
 2921.0000   -35.6920   111.4730   -51.4280     6.1150     5.0390     5.0210   -49.1240     2.5640     0.0310     0.2450     9.0330
 2921.5000   -36.2380   114.3810   -51.0720     6.0500     4.7000     4.8260   -49.8140     2.5680     0.0290     0.2480     9.0300
 2922.0000   -36.7850   117.3380   -50.7160     5.9850     4.2210     4.5180   -50.5030     2.5710     0.0270     0.2520     9.0280
 2922.5000   -37.3310   121.7700   -50.4000     5.4750     3.8400     4.2100   -51.1920     2.5580     0.0290     0.2580     9.0250
 2923.0000   -37.8770   129.2910   -50.1510     4.9030     3.5610     3.9020   -51.8820     2.5270     0.0390     0.2680     9.0230
 2923.5000   -38.4230   137.0170   -49.9020     4.3380     3.2840     3.5940   -52.5710     2.4930     0.1020     0.2770     9.0200
 2924.0000   -38.9690   144.6050   -49.6530     3.7730     3.1230     3.2860   -53.2600     2.4770     0.2060     0.2870     9.0180
 2924.5000   -39.5160   146.9520   -49.4810     3.5340     3.0210     3.1930   -53.8230     2.4610     0.2710     0.2890     9.0160
 2925.0000   -40.0620   147.1430   -49.3740     3.6000     3.0800     3.1930   -53.9880     2.4680     0.2410     0.2800     9.0130
 2925.5000   -40.6080   143.7020   -49.4730     3.9420     3.1450     3.4720   -54.4060     2.4840     0.1900     0.2710     9.0110
 2926.0000   -41.1540   138.2280   -49.9010     4.3430     3.3880     3.8270   -54.8240     2.5140     0.2100     0.2650     9.0080
 2926.5000   -41.7000   129.5820   -50.3140     4.8330     3.7730     4.1830   -55.2420     2.5520     0.2290     0.2600     9.0060
 2927.0000   -42.2470   121.1180   -50.8420     5.3220     4.1580     4.5380   -55.6600     2.5790     0.1000     0.2520     9.0030
 2927.5000   -42.7930   116.0340   -51.2030     5.8140     4.5430     4.8930   -56.0780     2.5960     0.0570     0.2430     9.0050
