~VERSION INFORMATION
 VERS.                2.0:   CWLS LOG ASCII STANDARD - VERSION 2.0
 WRAP.                 NO:   ONE LINE PER DEPTH STEP
~WELL INFORMATION
#MNEM.UNIT      DATA TYPE    INFORMATION
#----------   ------------   ------------------------------
 STRT.F          517.0000:   START DEPTH
 STOP.F         3222.0000:   STOP DEPTH
 STEP.F            0.5000:   STEP LENGTH
 NULL.          -999.2500:   NO VALUE
 COMP.    FENIX & SCISSON:   COMPANY
 WELL.  FENIX "TX" #53-33:   WELL
 FLD .             NPR #3:   FIELD
 LOC .      S33 T39N R78W:   LOCATION
 CNTY.            NATRONA:   COUNTY
 STAT.            WYOMING:   STATE
 CTRY. UNITED STATES OF AMERICA:   COUNTRY
 SRVC.              WELEX:   SERVICE COMPANY
 DATE.        24-AUG-1980:   LOGDATE
 API .     49025108460000:   API NUMBER
~CURVE INFORMATION
#MNEM.UNIT       API CODE    CURVE DESCRIPTION
#----------   ------------   ------------------------------
 DEPT.F                  :   
 CALD.IN     45 280 60 00:   CALIPER FROM DENSITY LOG
 GRD .GAPI   45 310 01 00:   GAMMA RAY FROM DENSITY LOG
 CORR.G/C3   45 356 01 00:   DENSITY CORRECTION
 RHOB.G/C3   45 350 01 00:   BULK DENSITY
 SPR .MV     07 010 01 00:   SPONTANEOUS POTENTIAL
 ILD .OHMM   07 120 46 00:   DEEP INDUCTION RESISTIVITY
 ILM .OHMM   07 120 44 00:   INDUCTION LOG MEDIUM RESISTIVITY
 SGRD.OHMM   07 220 05 00:   SHALLOW SHORT GUARD RESISTIVITY
~PARAMETER INFORMATION
#MNEM.UNIT          VALUE    DESCRIPTION
#----------   ------------   ------------------------------
 EKB .F         5173.0000:   Kelly bushing
 EGL .F         5163.0000:   Ground level
 EDF .F            0.0000:   Drilling floor
 EPD .F            0.0000:   Permanent datum
 TD  .F         3224.0000:   Total depth
 CLNT.            A2DTECH:   Client Code
 SL  . 1650' FNL & 2500' FEL:   Surface Location
 PD  .                 GL:   Permanent Datum
 DAPD.F                10:   Feet Above Permanent Datum
 DATE.        24-AUG-1980:   Date Logged [DD-MMM-YYYY]
 DD  .F              3190:   Depth driller
 DL  .F              3224:   Depth logger
 BLI .F              3222:   Bottom log interval
 TLI .F               528:   Top log interval
 CS1 .IN            8.625:   Casing size
 CBD1.      8.625" @ 532':   Casing driller 1
 CBL1.F               528:   Casing logger 1
 BS1 .IN            7.875:   Bit size
 BSD1.F              3190:   Depth drilled with bit1
 DFT .     WATER BASE MUD:   Type fluid in hole
 DFD .                8.8:   Density
 DFV .                 45:   Viscosity
 DFL .                9.4:   Fluid loss
 MSS .            MUD PIT:   Source of sample
 RMS .OHMM           2.10:   Rm
 MST .F                65:   Rm Meas. temp.
 RMF .OHMM           1.68:   Rmf
 MFST.F                65:   Rmf Meas. temp.
 MFSS.               CALC:   Source Rmf.
 RMC .OHMM           2.52:   Rmc
 MCST.F                65:   Rmc Meas. temp.
 MCSS.               CALC:   Source Rmc.
 RMB .OHMM           1.14:   Rm. at BHT
 BHT .F               120:   BHT.
 TCS .HRS               3:   Time Circ. stopped
 MRT .F               120:   Maximum recorded temp.
 LUN .               1892:   Logging unit number
 LUL .             CASPER:   Logging unit location
 ENGI.           WACHTEIL:   Recorded By
 ORIG.         2.5" PRINT:   Origin of data
 UWI .     49025108460000:   Unique Well ID
 DICO. A2D TECHNOLOGIES, INC.:   Digitizing Company
~OTHER INFORMATION
~A   DEPT     CALD         GRD      CORR       RHOB        SPR        ILD        ILM       SGRD   
# ...
  679.0000    11.3334   100.5448     0.0772     2.4998   -27.1251     6.4587     5.3784     6.4047
  679.5000    11.3012   100.9932     0.0711     2.4936   -26.8421     6.4545     5.3755     6.4011
  680.0000    11.2869    99.6395     0.0770     2.4830   -26.8468     6.5406     5.3726     6.4867
  680.5000    11.2559   100.0877     0.0834     2.4921   -26.4675     6.5367     5.4447     6.4826
  681.0000    11.2855   101.4369     0.0890     2.5164   -26.2545     6.6239     5.6744     6.4788
  681.5000    11.3149   101.4339     0.0719     2.5114   -26.2598     6.6194     5.8370     6.5661
  682.0000    11.3443   100.0601     0.0690     2.4972   -26.2643     6.6153     5.9215     6.5615
  682.5000    11.3436    99.1367     0.0784     2.4819   -26.2697     6.6112     5.9862     6.6490
  683.0000    11.3731    97.8243     0.0977     2.4716   -26.2740     6.6070     5.9002     6.6446
  683.5000    11.3587    99.9509     0.1037     2.4754   -26.2783     6.6029     5.8158     6.6408
  684.0000    11.3112   101.4237     0.1006     2.4934   -26.2827     6.5982     5.8126     6.6371
  684.5000    11.2500    99.0466     0.0975     2.4782   -26.2870     6.5942     5.6844     6.6333
  685.0000    11.1878    99.3094     0.1005     2.4736   -26.2913     6.5903     5.5693     6.5279
  685.5000    11.0974    99.6153     0.1044     2.4920   -26.5961     6.5863     5.4143     6.2685
  686.0000    11.0967    98.7958     0.1063     2.5113   -26.6427     6.4918     5.3370     6.2648
  686.5000    11.0959    97.6051     0.1063     2.5175   -26.9054     6.3986     5.3341     6.2322
  687.0000    11.1255    97.3559     0.1032     2.5182   -26.9099     6.3946     5.4056     6.1714
  687.5000    11.1549    98.0481     0.1061     2.5079   -26.9144     6.3027     5.5576     6.1678
  688.0000    11.1452    99.2312     0.1092     2.4931   -27.0551     6.2988     5.6289     6.0787
  688.5000    11.0929   100.5018     0.0813     2.4992   -27.0641     6.2083     5.3820     6.0753
  689.0000    11.0807    98.6978     0.0750     2.5052   -26.9279     6.2044     5.2993     6.1569
  689.5000    11.0310    97.7947     0.0696     2.5082   -26.6328     6.1998     5.2178     6.1531
  690.0000    11.0000    99.5943     0.0739     2.5097   -26.3363     6.1960     5.1685     6.2354
  690.5000    10.9838   100.9435     0.0845     2.5112   -25.7406     6.1072     5.2750     6.2317
  691.0000    10.9683   100.4908     0.0875     2.5081   -25.7449     6.1035     5.6095     6.2281
  691.5000    10.9674    99.5877     0.0904     2.5036   -25.7493     6.0999     5.7640     6.2244
  692.0000    10.9968    98.6846     0.0873     2.4898   -25.4531     6.0962     5.8416     6.2207
  692.5000    10.9961    97.7815     0.0812     2.4745   -25.5305     6.0924     5.9198     6.2171
  693.0000    10.9954    96.4114     0.0878     2.4685   -26.1641     6.1738     5.9164     6.2134
  693.5000    10.9946    95.4880     0.0972     2.4694   -26.3679     6.1697     5.8319     6.2091
  694.0000    11.0242    94.5645     0.0962     2.4876   -26.5145     6.1658     5.6648     6.2056
  694.5000    11.0234    94.0144     0.0869     2.4991   -26.3769     6.2479     5.5884     6.2021
  695.0000    11.0528    93.1682     0.0778     2.5003   -26.3820     6.2440     5.5085     6.1986
  695.5000    11.0823    92.8133     0.0777     2.5018   -26.3863     6.3272     5.4297     6.2816
  696.0000    11.0816    94.1625     0.0807     2.5022   -26.3906     6.3226     5.3520     6.2779
  696.5000    11.0808    92.6502     0.0809     2.5033   -26.6952     6.3188     5.3491     6.1879
  697.0000    11.0801    92.3559     0.0866     2.5047   -26.6997     6.3150     5.3461     6.1842
  697.5000    11.0793    93.6526     0.0947     2.5093   -26.7042     6.3113     5.4926     6.1806
  698.0000    11.0786    95.7358     0.1075     2.5070   -26.7087     6.3075     5.5667     6.1770
  698.5000    11.0778    94.5728     0.1195     2.5022   -26.7132     6.4808     5.7196     6.2697
  699.0000    11.0845    93.6292     0.1104     2.4874   -26.7177     6.6740     5.8771     6.5205
  699.5000    11.1066    92.3442     0.0952     2.4924   -26.7222     6.8651     6.2086     6.9841
  700.0000    11.1057    91.8915     0.0861     2.4985   -26.7274     7.1602     6.5587     7.6908
  700.5000    11.1164    90.9884     0.0928     2.5000   -26.7317     7.4083     6.9361     8.0126
  701.0000    11.1344    90.5358     0.1026     2.5197   -26.4357     7.7357     7.0215     8.1198
  701.5000    11.1337    90.5336     0.1123     2.5261   -26.7403     8.0119     7.1385     8.2284
  702.0000    11.1482    90.5314     0.1251     2.5322   -26.7307     8.3939     7.3754     8.2466
  702.5000    11.1458    90.5292     0.1341     2.5375   -26.4486     8.5065     7.8515     8.3674
  703.0000    11.0708    90.5270     0.1340     2.5349   -26.7538     8.7396     8.4985     8.5630
  703.5000    11.0701    89.6238     0.1218     2.5245   -26.7583     8.8561     8.9420     8.7345
  704.0000    11.0694    88.6967     0.1096     2.5109   -26.7628     8.9743     9.2305     9.0392
  704.5000    11.0384    87.3671     0.1005     2.5018   -26.7673     9.1044     9.4848     9.2867
  705.0000    11.0377    87.4175     0.0914     2.5290   -26.7726     9.2363     9.6125     9.5422
  705.5000    11.0369    88.7867     0.0851     2.5304   -26.7769     9.3701     9.6068     9.5368
  706.0000    11.0362    89.6128     0.0941     2.5304   -26.7812     9.4628     9.7356     9.6645
  706.5000    11.0657    89.6104     0.0910     2.5364   -26.7855     9.4560     9.7303     9.7984
  707.0000    11.0649    89.7417     0.0848     2.5425   -26.7898     9.4501     9.7249     9.9246
  707.5000    11.0944    90.5071     0.0787     2.5483   -26.8219     9.4430     9.7196    10.0574
  708.0000    11.0937    91.7538     0.0756     2.5392   -27.0991     9.4374     9.6803    10.0509
  708.5000    11.1231    92.5600     0.0725     2.5214   -27.1036     9.4317     9.5753    10.0449
  709.0000    11.0921    91.6578     0.0724     2.5140   -26.8070     9.4261     9.5700    10.0390
  709.5000    11.0914    89.2973     0.0753     2.5120   -26.8123     9.4205     9.5647    10.0320
  710.0000    11.0604    89.8048     0.0843     2.5104   -26.8168     9.4148     9.4848    10.0263
  710.5000    11.0597    90.1643     0.0993     2.5065   -26.8220     9.4090     9.4218     9.8829
  711.0000    11.0589    89.8587     0.0995     2.5028   -26.5260     9.4031     9.2872     9.8773
  711.5000    11.0582    88.5984     0.0840     2.4937   -26.5303     9.3972     9.2823     9.7360
  712.0000    11.0574    88.0661     0.0718     2.4846   -26.8349     9.3914     9.1497     9.5895
  712.5000    11.0566    88.9828     0.0657     2.4785   -26.8393     9.3769     9.1448     9.4589
  713.0000    11.0559    88.2669     0.0749     2.4905   -26.8028     9.3280     9.1399     9.4534
  713.5000    11.0551    86.4478     0.0806     2.5057   -26.5476     9.2791     9.1286     9.4478
  714.0000    11.0709    85.5295     0.0881     2.5171   -26.5526     9.2301     9.1120     9.3124
  714.5000    11.1017    86.8635     0.1090     2.5301   -26.5571     9.1812     9.0955     9.3069
  715.0000    11.1434    88.6479     0.1243     2.5311   -26.5616     9.1323     9.0789     9.1725
  715.5000    11.1730    89.0811     0.1316     2.5215   -26.5669     9.0833     9.0623     9.1673
  716.0000    11.1721    88.1622     0.1195     2.5090   -26.5712     9.0344     9.0457     9.1621
  716.5000    11.2017    86.7290     0.1194     2.4935   -26.5755     8.9855     9.0292     9.1570
  717.0000    11.1706    86.3243     0.1193     2.4811   -26.5798     8.9365     9.0126     9.1518
  717.5000    11.1699    86.4377     0.1112     2.4901   -26.5841     8.7813     8.9960     9.1465
  718.0000    11.1691    86.7419     0.0988     2.5097   -26.5886     8.7750     8.9794     9.1411
  718.5000    11.1684    86.2703     0.0793     2.5202   -26.5931     8.7685     8.9628     9.1358
  719.0000    11.1677    86.4850     0.0791     2.5322   -26.5976     8.7618     8.9463     9.1304
