~VERSION INFORMATION
 VERS.                2.0:   CWLS LOG ASCII STANDARD - VERSION 2.0
 WRAP.                 NO:   ONE LINE PER DEPTH STEP
~WELL INFORMATION
#MNEM.UNIT      DATA TYPE    INFORMATION
#----------   ------------   ------------------------------
 STRT.F            0.0000:   START DEPTH
 STOP.F         3982.0000:   STOP DEPTH
 STEP.F            0.5000:   STEP LENGTH
 NULL.          -999.2500:   NO VALUE
 COMP.   LAWRENCE ALLISON:   COMPANY
 WELL. LAWRENCE NPR 3 "LX" #61-10:   WELL
 FLD .                NPR:   FIELD
 LOC .      S10 T38N R78W:   LOCATION
 CNTY.            NATRONA:   COUNTY
 STAT.            WYOMING:   STATE
 CTRY. UNITED STATES OF AMERICA:   COUNTRY
 SRVC.      DRESSER ATLAS:   SERVICE COMPANY
 DATE.        14-APR-1983:   LOGDATE
 API .     49025109180000:   API NUMBER
~CURVE INFORMATION
#MNEM.UNIT       API CODE    CURVE DESCRIPTION
#----------   ------------   ------------------------------
 DEPT.F                  :   
 CALD.IN     45 280 60 00:   CALIPER FROM DENSITY LOG
 RHOB.G/C3   45 350 01 00:   BULK DENSITY
 DRHO.G/C3   45 356 01 00:   DENSITY CORRECTION
 TEND.LBS    45 635 01 00:   TENSION FROM DENSITY LOG
 CNC .DEC    42 890 03 00:   NEUTRON PORISITY SANDSTONE
 GRR .GAPI   07 310 01 00:   GAMMA RAY FROM RESISTIVITY
 SPR .MV     07 010 01 00:   SPONTANEOUS POTENTIAL
 ILD .OHMM   07 120 46 00:   DEEP INDUCTION RESISTIVITY
 ILM .OHMM   07 120 44 00:   INDUCTION LOG MEDIUM RESISTIVITY
 SFL .OHMM   07 220 01 00:   SHALLOW FOCUSED LOG RESISTIVITY
 TENS.LBS    60 635 01 00:   TENSION FROM SONIC LOG
 DT  .US/F   60 520 00 00:   DELTA TIME
 TENR.LBS    07 635 01 00:   TENSION FROM RESISTIVITY
~PARAMETER INFORMATION
#MNEM.UNIT          VALUE    DESCRIPTION
#----------   ------------   ------------------------------
 EKB .F         5164.0000:   Kelly bushing
 EGL .F         5154.0000:   Ground level
 EDF .F            0.0000:   Drilling floor
 TD  .F         3985.0000:   Total depth
 DATE.        14-APR-1983:   Date logged
 CLNT.            A2DTECH:   Client Code
 SL  . 138' FNL & 1331' FEL:   Surface Location
 PD  .                 GL:   Permanent Datum
 EPD .F              5154:   Elevation Permanent Datum
 LMF .                 KB:   Log Measured From
 DMF .                 KB:   Drilling Measured From
 DD  .F              3985:   Depth driller
 DL  .F              3948:   Depth logger
 BLI .F              3945:   Bottom log interval
 CS1 .IN            8.625:   Casing size
 CBD1.      8.625" @ 442':   Casing driller 1
 CBL1.F               453:   Casing logger 1
 BS1 .IN            7.875:   Bit size
 DFT .                KCI:   Type fluid in hole
 DFD .                8.9:   Density
 DFV .                 40:   Viscosity
 DFPH.                8.5:   pH
 DFL .                 10:   Fluid loss
 MSS .           FLOWLINE:   Source of sample
 RMS .OHMM           0.38:   Rm
 MST .F                68:   Rm Meas. temp.
 RMF .OHMM           0.30:   Rmf
 MFST.F                68:   Rmf Meas. temp.
 RMC .OHMM           0.49:   Rmc
 MCST.F                68:   Rmc Meas. temp.
 MFSS.               MEAS:   Source Rmf.
 RMB .OHMM           0.22:   Rm. at BHT
 BHT .F               122:   BHT.
 TCS .HRS               4:   Time Circ. stopped
 MRT .F               122:   Maximum recorded temp.
 LUN .               6764:   Logging unit number
 LUL .              WLSTN:   Logging unit location
 ENGI.            QUICKEL:   Recorded By
 WITN.           JENNINGS:   Witnessed by
 ORIG.           5" PRINT:   Origin of data
 UWI .     49025109180000:   Unique Well ID
 DICO. A2D TECHNOLOGIES, INC.:   Digitizing Company
 DAPD.                 10:   Feet Above Permanent Datum
 BSD1.               3985:   Depth drilled with bit1
 MCSS.               CALC:   Source Rmc.
~OTHER INFORMATION
~A    DEPT    CALD       RHOB       DRHO       TEND        CNC         GRR       SPR        ILD        ILM        SFL       TENS         DT       TENR   
# ...
 1378.0000     8.0300     2.5650     0.0640   -73.5170     0.2690   110.5490   -41.6950     7.5270     7.1270     7.3160  -999.2500  -999.2500   -57.0000
 1378.5000     8.0300     2.5510     0.0480   -74.4130     0.2770   107.6710   -41.6280     7.5150     7.1270     6.9980  -999.2500  -999.2500   -56.8490
 1379.0000     8.0300     2.5550     0.0490   -75.3090     0.2890   105.3050   -41.8700     7.4980     7.1270     6.9620  -999.2500  -999.2500   -56.7390
 1379.5000     8.0300     2.5610     0.0560   -76.2060     0.2980   103.1930   -42.1180     7.4820     7.1740     6.9660  -999.2500  -999.2500   -56.3270
 1380.0000     8.0300     2.5650     0.0640   -77.1020     0.2910   102.9180   -42.3560     7.4650     7.2330     7.0440  -999.2500  -999.2500   -56.0040
 1380.5000     8.0300     2.5590     0.0710   -77.9990     0.2850   102.8390   -42.5680     7.4990     7.2910     7.1220  -999.2500  -999.2500   -55.6810
 1381.0000     8.0300     2.5490     0.0640   -78.8950     0.2910   101.5740   -42.5160     7.5630     7.3300     7.2000  -999.2500  -999.2500   -55.3580
 1381.5000     8.0300     2.5400     0.0510   -79.7920     0.3030   101.9830   -42.3750     7.6260     7.3440     7.2580  -999.2500  -999.2500   -55.0350
 1382.0000     8.0300     2.5420     0.0390   -80.6880     0.3140   102.8470   -42.2870     7.6900     7.3580     7.2380  -999.2500  -999.2500   -54.7120
 1382.5000     8.0300     2.5550     0.0420   -81.5840     0.3230   102.9160   -42.1980     7.7360     7.3710     7.2220  -999.2500  -999.2500   -54.3900
 1383.0000     8.0300     2.5570     0.0600   -82.4810     0.3010   103.4580   -42.1880     7.7150     7.3850     7.2060  -999.2500  -999.2500   -54.0670
 1383.5000     8.0300     2.5410     0.0780   -83.3770     0.2900   103.0360   -42.1970     7.6990     7.3840     7.1920  -999.2500  -999.2500   -53.7440
 1384.0000     8.0300     2.5140     0.0780   -84.2740     0.2870   103.1800   -42.1940     7.6830     7.3680     7.5270  -999.2500  -999.2500   -53.4210
 1384.5000     8.0300     2.4900     0.0550   -85.1700     0.2880   105.4770   -42.1930     7.6660     7.3530     7.5270  -999.2500  -999.2500   -53.0980
 1385.0000     8.0300     2.4890     0.0310   -84.5400     0.2910   106.1160   -42.0970     7.6390     7.3380     7.4970  -999.2500  -999.2500   -52.7750
 1385.5000     8.0300     2.4890     0.0080   -82.0910     0.2980   104.9410   -41.9490     7.6100     7.3240     7.4640  -999.2500  -999.2500   -52.4520
 1386.0000     8.0300     2.4940     0.0030   -79.6420     0.3010   104.8110   -41.7770     7.5800     7.3240     7.4320  -999.2500  -999.2500   -52.1290
 1386.5000     8.0300     2.5000     0.0160   -77.1940     0.2900   105.5000   -41.6040     7.5510     7.3240     7.3920  -999.2500  -999.2500   -51.8060
 1387.0000     8.0300     2.5050     0.0160   -74.7450     0.2800   106.3490   -41.5110     7.5270     7.3240     7.2060  -999.2500  -999.2500   -51.4830
 1387.5000     8.0300     2.5110     0.0020   -72.2960     0.2800   105.7520   -41.3900     7.4510     7.2980     7.0620  -999.2500  -999.2500   -51.1610
 1388.0000     8.0300     2.5180    -0.0010   -69.8470     0.2850   103.7000   -41.2900     7.3870     7.2540     7.0620  -999.2500  -999.2500   -50.8380
 1388.5000     8.0300     2.5240     0.0320   -67.3990     0.2950   103.8830   -41.2110     7.3240     7.2100     7.0620  -999.2500  -999.2500   -50.5150
 1389.0000     8.0300     2.5210     0.0420   -65.9850     0.3100   105.9860   -40.9300     7.3000     7.1660     7.0620  -999.2500  -999.2500   -50.1920
 1389.5000     8.0300     2.5150     0.0410   -66.7580     0.3140   107.3330   -40.8420     7.2760     7.1210     7.0330  -999.2500  -999.2500   -49.8690
 1390.0000     8.0300     2.5030     0.0270   -67.5300     0.3020   108.4900   -41.2460     7.2580     7.0770     6.9870  -999.2500  -999.2500   -49.5460
 1390.5000     8.0300     2.5050     0.0130   -68.3020     0.2840   108.1670   -41.6810     7.3290     7.1150     6.9350  -999.2500  -999.2500   -49.2230
 1391.0000     8.0300     2.5120     0.0080   -69.0740     0.2740   104.9850   -42.0040     7.3920     7.1940     7.0400  -999.2500  -999.2500   -48.9000
 1391.5000     8.0300     2.5210     0.0340   -69.8470     0.2720   102.6470   -42.3330     7.2580     7.2740     7.1610  -999.2500  -999.2500   -48.5770
 1392.0000     8.0300     2.5240     0.0620   -70.6190     0.2700   102.9270   -42.6150     7.3500     7.3530     7.2810  -999.2500  -999.2500   -48.2540
 1392.5000     8.0300     2.5190     0.0590   -71.3910     0.2670   103.6860   -42.8450     7.4220     7.4040     7.4020  -999.2500  -999.2500   -47.9320
 1393.0000     8.0300     2.5150     0.0530   -72.1640     0.2670   104.2620   -42.7960     7.4930     7.4290     7.5990  -999.2500  -999.2500   -47.6090
 1393.5000     8.0300     2.5160     0.0470   -72.9360     0.2750   103.9660   -42.3670     7.5640     7.4590     7.8780  -999.2500  -999.2500   -47.2860
 1394.0000     8.0300     2.5170     0.0350   -73.7080     0.2770   102.7420   -42.0160     7.4780     7.2120     7.8070  -999.2500  -999.2500   -46.9630
 1394.5000     8.0300     2.5160     0.0220   -74.4810     0.2730   102.8600   -42.0480     7.2620     6.8720     7.4190  -999.2500  -999.2500   -47.1800
 1395.0000     8.0300     2.5080     0.0110   -75.2530     0.2690   105.1110   -42.1780     7.0950     6.7420     7.0820  -999.2500  -999.2500   -47.7810
 1395.5000     8.0300     2.5020     0.0040   -76.2980     0.2720   108.2720   -42.1780     7.0090     6.6070     6.8090  -999.2500  -999.2500   -48.3830
 1396.0000     8.0300     2.5040     0.0010   -77.7120     0.2830   111.2580   -42.2010     6.9220     6.4470     6.7170  -999.2500  -999.2500   -48.9840
 1396.5000     8.0300     2.5380     0.0190   -79.1260     0.2940   113.4290   -42.2050     6.8830     6.5220     6.6260  -999.2500  -999.2500   -49.5860
 1397.0000     8.0300     2.5570     0.0600   -80.5400     0.3000   113.1870   -42.1610     6.9090     6.6440     6.5640  -999.2500  -999.2500   -50.1870
 1397.5000     8.0300     2.5460     0.0910   -81.9540     0.3080   110.1430   -42.2500     6.9350     6.7660     6.5060  -999.2500  -999.2500   -50.7890
 1398.0000     8.0300     2.5230     0.0800   -83.3680     0.3080   106.7620   -42.1250     7.0700     6.9150     6.7960  -999.2500  -999.2500   -51.3900
 1398.5000     8.0300     2.5170     0.0550   -84.7820     0.3000   104.2590   -41.6710     7.1920     7.0790     7.0620  -999.2500  -999.2500   -51.9920
 1399.0000     8.0300     2.5140     0.0640   -86.1960     0.2840   102.3320   -41.4930     7.5960     7.2420     7.2580  -999.2500  -999.2500   -52.5930
 1399.5000     8.0300     2.5070     0.0730   -87.6100     0.2760   101.5710   -41.5430     7.8070     7.3920     7.0620  -999.2500  -999.2500   -53.1940
 1400.0000     8.0300     2.5020     0.0690   -89.0240     0.2810   103.6020   -41.4490     7.8070     7.3920     7.1760  -999.2500  -999.2500   -53.7960
 1400.5000     8.0300     2.5050     0.0280   -90.4380     0.2890   107.9680   -41.3920     7.8070     7.3920     7.1760  -999.2500  -999.2500   -54.3970
 1401.0000     8.0300     2.5170     0.0290   -91.8520     0.2980   112.0870   -41.3820     7.8070     7.3920     7.0140  -999.2500  -999.2500   -54.9990
 1401.5000     8.0300     2.5290     0.0320   -93.2660     0.2980   114.7980   -41.2520     7.8070     7.3920     7.0180  -999.2500  -999.2500   -55.6000
 1402.0000     8.0300     2.5420     0.0390   -94.6800     0.2970   112.9950   -41.2220     7.8070     7.4270     7.1270  -999.2500  -999.2500   -56.2020
 1402.5000     8.0300     2.5500     0.0540   -91.6330     0.2940   107.2910   -41.4200     7.8280     7.4760     7.5270  -999.2500  -999.2500   -56.8030
 1403.0000     8.0300     2.5400     0.0670   -79.8220     0.2920   105.8380   -41.6490     7.8680     7.5270     7.7350  -999.2500  -999.2500   -57.4050
 1403.5000     8.0300     2.5260     0.0580   -68.0100     0.2850   108.9710   -41.9210     7.9080     7.5600     7.8070  -999.2500  -999.2500   -58.0060
