~VERSION INFORMATION
 VERS.                2.0:   CWLS LOG ASCII STANDARD - VERSION 2.0
 WRAP.                 NO:   ONE LINE PER DEPTH STEP
~WELL INFORMATION
#MNEM.UNIT      DATA TYPE    INFORMATION
#----------   ------------   ------------------------------
 STRT.F          508.0000:   START DEPTH
 STOP.F         3170.0000:   STOP DEPTH
 STEP.F            0.5000:   STEP LENGTH
 NULL.          -999.2500:   NO VALUE
 COMP. FENIX & SCISSON - U.S. NAVY:   COMPANY
 WELL. FENIX NPR-3 "A" #58-34:   WELL
 FLD .                NPR:   FIELD
 LOC .      S34 T39N R78W:   LOCATION
 CNTY.            NATRONA:   COUNTY
 STAT.            WYOMING:   STATE
 CTRY. UNITED STATES OF AMERICA:   COUNTRY
 SRVC.       SCHLUMBERGER:   SERVICE COMPANY
 DATE.        15-MAR-1977:   LOGDATE
 API .     49025103180000:   API NUMBER
~CURVE INFORMATION
#MNEM.UNIT       API CODE    CURVE DESCRIPTION
#----------   ------------   ------------------------------
 DEPT.F                  :   
 CALD.IN     45 280 60 00:   CALIPER FROM DENSITY LOG
 GRD .GAPI   45 310 01 00:   GAMMA RAY FROM DENSITY LOG
 RHOB.G/C3   45 350 01 00:   BULK DENSITY
 CORR.G/C3   45 356 01 00:   DENSITY CORRECTION
 SPR .MV     07 010 01 00:   SPONTANEOUS POTENTIAL
 LL8 .OHMM   07 220 08 00:   LATEROLOG-8 RES.
 ILD .OHMM   07 120 46 00:   DEEP INDUCTION RESISTIVITY
 ILM .OHMM   07 120 44 00:   INDUCTION LOG MEDIUM RESISTIVITY
~PARAMETER INFORMATION
#MNEM.UNIT          VALUE    DESCRIPTION
#----------   ------------   ------------------------------
 EKB .F         5129.0000:   Kelly bushing
 EGL .F         5117.0000:   Ground level
 EDF .F            0.0000:   Drilling floor
 EPD .F            0.0000:   Permanent datum
 TD  .F         3170.0000:   Total depth
 DATE.        15-MAR-1977:   Date logged
 CLNT.            A2DTECH:   Client Code
 SL  . 2310' FEL & 330' FSL:   Surface Location
 PD  .                 GL:   Permanent Datum
 DAPD.F                12:   Feet Above Permanent Datum
 DD  .F              3170:   Depth driller
 DL  .F              3170:   Depth logger
 BLI .F              3169:   Bottom log interval
 TLI .F               508:   Top log interval
 CS1 .IN            8.625:   Casing size
 CBD1.      8.625" @ 524':   Casing driller 1
 CBL1.F               522:   Casing logger 1
 BS1 .IN            7.875:   Bit size
 BSD1.F              3170:   Depth drilled with bit1
 DFT .                KCL:   Type fluid in hole
 DFD .                9.2:   Density
 DFV .                 36:   Viscosity
 DFPH.                  9:   pH
 DFL .                  9:   Fluid loss
 MSS .                PIT:   Source of sample
 RMS .OHMM             .3:   Rm
 MST .F                58:   Rm Meas. temp.
 RMF .OHMM            .29:   Rmf
 MFST.F                58:   Rmf Meas. temp.
 MFSS.               MEAS:   Source Rmf.
 RMB .OHMM            .15:   Rm. at BHT
 BHT .F               120:   BHT.
 TCS .HRS               6:   Time Circ. stopped
 MRT .F               120:   Maximum recorded temp.
 LUN .               7711:   Logging unit number
 LUL .               CSPR:   Logging unit location
 ENGI.             SAYLER:   Recorded By
 WITN.               JAPP:   Witnessed by
 ORIG.           5" PRINT:   Origin of data
 UWI .     49025103180000:   Unique Well ID
 DICO. A2D TECHNOLOGIES, INC.:   Digitizing Company
~OTHER INFORMATION
~A   DEPT       CALD       GRD      RHOB        CORR       SPR        LL8        ILD        ILM   
# ...
 2249.5000     8.1627   210.5136     2.5240     0.0065   -55.0594     7.1320     5.0507     5.3853
 2250.0000     8.1629   210.9120     2.5060     0.0025   -55.0660     7.1293     4.9554     5.1889
 2250.5000     8.1630   188.4358     2.4960     0.0065   -54.8877     6.5625     4.8382     5.0682
 2251.0000     8.1632   182.1472     2.4870     0.0105   -54.6415     6.3235     4.7292     4.9978
 2251.5000     8.1238   180.1638     2.4860     0.0135   -54.7908     6.2063     4.6841     5.0421
 2252.0000     8.1041   184.3338     2.4710     0.0115   -54.5794     6.2040     4.6824     5.1338
 2252.5000     8.1440   183.5413     2.4800     0.0135   -54.5883     6.5525     4.7239     5.3734
 2253.0000     8.1640   182.3528     2.4920     0.0155   -54.3769     6.6703     4.7661     5.6242
 2253.5000     8.1444   182.7516     2.5020     0.0175   -54.6060     6.7318     4.8528     5.7793
 2254.0000     8.1446   184.5394     2.5080     0.0115   -54.6149     8.1559     4.9867     6.0491
 2254.5000     8.1448   190.6920     2.4810     0.0105   -54.6237     8.0059     5.1717     6.2734
 2255.0000     8.1647   195.8530     2.4719     0.0065   -54.6326     7.9299     5.4630     6.5061
 2255.5000     8.1452   198.0376     2.4769     0.0095   -54.6415     8.0000     5.7180     6.6249
 2256.0000     8.1454   198.4364     2.4899     0.0155   -55.0908     8.6058     5.9300     6.7453
 2256.5000     8.1456   197.2479     2.4779     0.0145   -55.5401     9.2574     6.1499     6.8051
 2257.0000     8.1656   195.0672     2.4769     0.0135   -55.7692     8.9207     6.2618     6.8011
 2257.5000     8.1460   183.5612     2.4819     0.0125   -55.9982     8.5178     6.3761     6.7997
 2258.0000     8.1462   171.2618     2.4849     0.0095   -56.0071     8.5146     6.3140     6.7354
 2258.5000     8.1662   168.6844     2.4879     0.0095   -55.7957     9.2444     6.4303     6.5496
 2259.0000     8.1664   167.8927     2.4899     0.0085   -55.3642     9.4988     6.3108     6.4279
 2259.5000     8.1666   169.8792     2.4879     0.0105   -55.1528     9.2376     6.1935     6.3084
 2260.0000     8.1668   180.9928     2.4959     0.0145   -54.9414     8.8197     6.0783     6.1912
 2260.5000     8.2068   183.5731     2.5009     0.0185   -54.7301     7.9705     5.8566     6.0761
 2261.0000     8.2068   186.5514     2.4999     0.0195   -54.5187     8.0410     5.7478     6.0182
 2261.5000     8.1873   188.7360     2.4929     0.0195   -54.3074     8.2622     5.6409     5.9609
 2262.0000     8.1875   189.9285     2.4739     0.0125   -53.6556     7.9617     5.5872     5.8501
 2262.5000     8.1877   189.5336     2.4639     0.0065   -53.4442     7.1294     5.5340     5.8480
 2263.0000     8.1879   188.1467     2.4619     0.0054   -53.4531     7.1268     5.5831     5.8998
 2263.5000     8.1881   187.7518     2.4619     0.0054   -53.4619     8.4033     5.5818     6.0071
 2264.0000     8.1883   190.7301     2.4609     0.0054   -53.0303     8.8754     5.6825     6.1728
 2264.5000     8.2083   190.3353     2.4528     0.0115   -52.8172     9.1195     5.8933     6.4018
 2265.0000     8.2084   189.3451     2.4478     0.0155   -52.6059     8.7879     6.0559     6.6392
 2265.5000     8.1888   188.3550     2.4448     0.0165   -52.3945     8.7044     6.5708     6.8854
 2266.0000     8.1890   187.3649     2.4398     0.0074   -52.8438     9.1094     6.7574     7.2067
 2266.5000     8.2090   187.1685     2.4378     0.0104   -52.6324    10.1653     7.0080     7.4061
 2267.0000     8.1894   187.5673     2.4458     0.0104   -52.4211    10.2552     6.9429     7.7518
 2267.5000     8.1896   187.7669     2.4628     0.0144   -52.2097    10.1578     7.4007     8.1885
 2268.0000     8.1898   184.3965     2.4608     0.0114   -51.9984     9.8785     7.7460     8.4922
 2268.5000     8.1900   183.6048     2.4658     0.0134   -52.0072     9.4324     8.1075     8.7265
 2269.0000     8.2101   180.2340     2.4828     0.0335   -51.8774     8.9241     8.3312     9.1337
 2269.5000     8.2103   178.6487     2.4878     0.0335   -51.8845     8.5995     8.6402     9.4725
 2270.0000     8.2104   179.4443     2.4868     0.0355   -51.8881     9.3359     8.9606     9.8238
 2270.5000     8.1710   181.6297     2.4768     0.0225   -51.9022    10.7094     9.2079    10.2830
 2271.0000     8.1712   180.6388     2.4618     0.0064   -51.9111    12.1719     9.2895    10.0904
 2271.5000     8.1714   180.0455     2.4548     0.0054   -51.9200    12.5068     9.2861     9.9972
 2272.0000     8.1716   179.4523     2.4578     0.0054   -51.6288    12.0519     8.7843     9.2684
 2272.5000     8.1519   180.6448     2.4608     0.0054   -51.8579    11.1953     8.0835     8.5928
 2273.0000     8.1720   183.8211     2.4618     0.0004   -52.0870    10.2106     7.4387     7.9664
 2273.5000     8.1523   185.0140     2.4627     0.0004   -52.5363     9.5722     6.9723     7.3856
 2274.0000     8.1525   182.8330     2.4667     0.0054   -52.1047     9.1399     6.5352     6.7170
 2274.5000     8.1726   181.6448     2.4517     0.0044   -52.3338     7.6050     6.1821     6.3550
 2275.0000     8.1727   178.4721     2.4577     0.0054   -52.5629     6.6848     6.1798     6.4706
 2275.5000     8.1730   178.0772     2.4727     0.0124   -52.7920     6.9974     6.0094     6.7106
 2276.0000     8.1732   179.0713     2.5027     0.0194   -53.0210     8.6372     5.8437     6.9594
 2276.5000     8.1535   175.3033     2.5067     0.0194   -53.0299     9.2071     5.8415     6.8932
 2277.0000     8.1537   171.3373     2.4977     0.0154   -52.8185     9.4604     5.8394     6.5207
 2277.5000     8.1539   171.5377     2.4967     0.0124   -52.6072     9.2003     5.8372     6.2829
 2278.0000     8.1541   173.1266     2.4977     0.0064   -52.8363     8.8656     5.7816     6.0537
 2278.5000     8.1345   181.2638     2.5017     0.0064   -53.0654     8.2355     5.5708     5.8329
 2279.0000     8.1347   187.0196     2.5087     0.0094   -53.3760     8.0085     5.3181     5.6202
 2279.5000     8.1349   189.2042     2.5157     0.0114   -53.6033     7.5078     5.1714     5.4152
 2280.0000     8.1351   190.3967     2.5297     0.0224   -54.0526     6.8474     4.9372     5.2177
 2280.5000     8.1353   191.5900     2.5277     0.0204   -54.2817     5.9653     4.7571     5.1203
 2281.0000     8.1355   188.2181     2.5207     0.0164   -54.2906     5.6958     4.6161     5.1188
 2281.5000     8.1555   181.6726     2.5117     0.0154   -54.4399     5.9065     4.5400     5.1169
 2282.0000     8.1557   174.9283     2.5227     0.0154   -54.8892     6.7131     4.4967     5.0682
 2282.5000     8.1559   171.9543     2.5137     0.0144   -54.6778     6.9613     4.4539     5.0663
 2283.0000     8.1561   171.3611     2.5107     0.0134   -54.6867     6.7699     4.4934     5.0644
 2283.5000     8.1563   171.1642     2.5077     0.0114   -54.4753     6.5237     4.4924     5.0162
 2284.0000     8.1565   173.1504     2.5057     0.0164   -54.1235     6.7032     4.4901     4.8779
 2284.5000     8.1369   176.9224     2.5057     0.0184   -54.1306     6.8876     4.4473     4.7434
 2285.0000     8.1371   181.2896     2.4946     0.0144   -53.9192     6.3396     4.3647     4.5700
 2285.5000     8.1373   184.0691     2.4836     0.0164   -53.4877     5.7292     4.3231     4.5269
 2286.0000     8.1375   187.8423     2.4986     0.0244   -53.0561     5.6230     4.1657     4.6518
 2286.5000     8.1377   186.8509     2.4956     0.0214   -52.8447     5.6210     4.2804     4.7364
 2287.0000     8.1180   186.2577     2.4946     0.0194   -52.8536     5.5168     4.2800     4.8671
 2287.5000     8.1182   186.0612     2.4996     0.0164   -53.0827     5.5148     4.3170     4.9102
 2288.0000     8.1184   185.4680     2.5056     0.0133   -53.0915     6.5528     4.3154     4.9084
 2288.5000     8.1186   182.0968     2.4986     0.0123   -53.1004     7.9531     4.3145     4.8172
 2289.0000     8.1188   181.1071     2.4896     0.0123   -53.1092     7.7344     4.3923     4.7713
 2289.5000     8.1190   181.9023     2.4886     0.0143   -53.3383     6.4953     4.5135     4.7259
