~VERSION INFORMATION
 VERS.                2.0:   CWLS LOG ASCII STANDARD - VERSION 2.0
 WRAP.                 NO:   ONE LINE PER DEPTH STEP
~WELL INFORMATION
#MNEM.UNIT      DATA TYPE    INFORMATION
#----------   ------------   ------------------------------
 STRT.F          210.0000:   START DEPTH
 STOP.F         3128.0000:   STOP DEPTH
 STEP.F            0.5000:   STEP LENGTH
 NULL.          -999.2500:   NO VALUE
 COMP.    PENIX & SCISSON:   COMPANY
 WELL. FENIX NPR 3 "A" #14-27:   WELL
 FLD .                NPR:   FIELD
 LOC .      S27 T39N R78W:   LOCATION
 CNTY.            NATRONA:   COUNTY
 STAT.            WYOMING:   STATE
 CTRY. UNITED STATES OF AMERICA:   COUNTRY
 SRVC.      DRESSER ATLAS:   SERVICE COMPANY
 DATE.        31-AUG-1977:   LOGDATE
 API .     49025104280000:   API NUMBER
~CURVE INFORMATION
#MNEM.UNIT       API CODE    CURVE DESCRIPTION
#----------   ------------   ------------------------------
 DEPT.F                  :   
 GRD .GAPI   45 310 01 00:   GAMMA RAY FROM DENSITY LOG
 CALD.IN     45 280 60 00:   CALIPER FROM DENSITY LOG
 RHOB.G/C3   45 350 01 00:   BULK DENSITY
 CORR.G/C3   45 356 01 00:   DENSITY CORRECTION
 NPHI.DEC    42 890 03 00:   NEUTRON POROSITY SANDSTONE
 SPR .MV     11 010 01 00:   SPONTANEOUS POTENTIAL
 RXO .OHMM   11 220 01 00:   FLUSHED ZONE RESISTIVITY
 LLD .OHMM   11 220 10 00:   LATEROLOG LOG DEEP
 LLS .OHMM   11 220 09 00:   LATEROLOG LOG SHALLOW
 TENR.LBS    11 635 01 00:   TENSION FROM RESISTIVITY
 TEND.LBS    45 635 01 00:   TENSION FROM DENSITY LOG
~PARAMETER INFORMATION
#MNEM.UNIT          VALUE    DESCRIPTION
#----------   ------------   ------------------------------
 EKB .F         5046.0000:   Kelly bushing
 EGL .F         5036.0000:   Ground level
 TD  .F         3111.0000:   Total depth
 DATE.        31-AUG-1977:   Date logged
 CLNT.            A2DTECH:   Client Code
 SL  . 2310' FNL & 330' FWL:   Surface Location
 PD  .                 GL:   Permanent Datum
 EPD .F              5036:   Elevation Permanent Datum
 LMF .                 KB:   Log Measured From
 DMF .                 KB:   Drilling Measured From
 DAPD.F                10:   Feet Above Permanent Datum
 DD  .F              3109:   Depth driller
 DL  .F              3111:   Depth logger
 BLI .F              3109:   Bottom log interval
 TLI .F               217:   Top log interval
 CS1 .IN             8.75:   Casing size
 CBD1.       8.75" @ 215':   Casing driller 1
 CBL1.F               217:   Casing logger 1
 BS1 .IN            7.875:   Bit size
 BSD1.F              3109:   Depth drilled with bit1
 DFT .                GEL:   Type fluid in hole
 DFD .                8.8:   Density
 DFV .                 35:   Viscosity
 DFPH.                 10:   pH
 DFL .                8.8:   Fluid loss
 MSS .                PIT:   Source of sample
 RMS .OHMM            .36:   Rm
 MST .F                67:   Rm Meas. temp.
 RMF .OHMM            .24:   Rmf
 MFST.F                67:   Rmf Meas. temp.
 RMC .OHMM            .51:   Rmc
 MCST.F                67:   Rmc Meas. temp.
 MFSS.               MEAS:   Source Rmf.
 MCSS.               CALC:   Source Rmc.
 RMB .OHMM            .20:   Rm. at BHT
 BHT .F               121:   BHT.
 TCS .HRS               5:   Time Circ. stopped
 MRT .F               121:   Maximum recorded temp.
 LUN .               6080:   Logging unit number
 LUL .              WLSTN:   Logging unit location
 ENGI.               BALL:   Recorded By
 WITN.         PETTINGILL:   Witnessed by
 ORIG.      2.5" 5" PRINT:   Origin of data
 UWI .     49025104280000:   Unique Well ID
 DICO. A2D TECHNOLOGIES, INC.:   Digitizing Company
~OTHER INFORMATION
~A   DEPT      GRD         CALD     RHOB       CORR       NPHI        SPR        RXO        LLD        LLS        TENR      TEND   
# ...
  972.5000    87.3753    10.9060     2.3160    -0.0319     0.2775   -31.0000     6.2801     8.5440     7.9645    97.5623    95.8558
  973.0000    87.7710    10.4643     2.3360    -0.0259     0.2767   -30.6000     6.2803     8.5442     7.9648    97.3853    91.9714
  973.5000    87.7687    10.1297     2.3788    -0.0239     0.2767   -29.8000     6.1667     8.5446     7.8209    97.2084    88.1340
  974.0000    87.7665    10.0102     2.4217    -0.0055     0.2771   -30.2000     5.9456     8.3900     7.6794    97.0314    88.2278
  974.5000    88.1622     9.9504     2.4536     0.0100     0.2775   -30.2000     5.6284     8.3903     7.2699    96.8545    76.3177
  975.0000    87.3640     9.9105     2.4766     0.0179     0.2791   -30.2000     5.5266     8.2385     7.1384    96.6775    88.4623
  975.5000    86.5657     9.9103     2.4915     0.0259     0.2807   -30.2000     5.5268     8.3910     7.0093    96.5006    84.6626
  976.0000    86.5634     9.9102     2.4975     0.0339     0.2890   -30.2000     5.8017     8.2391     6.8826    96.3236    84.7194
  976.5000    85.7651     9.9101     2.5045     0.0398     0.2945   -30.2000     5.8018     8.0900     6.8829    96.1467    88.7202
  977.0000    85.3648     9.9100     2.5085     0.0438     0.2961   -30.2000     5.5935     7.6583     6.8831    95.9697    88.9312
  977.5000    85.7605     9.9895     2.5045     0.0413     0.2973   -30.2000     5.3925     7.6587     6.8834    95.7928    89.0679
  978.0000    85.7582    10.0889     2.4986     0.0373     0.2969   -30.6000     4.9212     7.6589     6.8835    95.6158    85.1888
  978.5000    86.5520    10.2082     2.4950     0.0333     0.2938   -30.6000     4.9213     7.6592     7.1401    95.4389    85.2123
  979.0000    86.5497    10.2080     2.4980     0.0287     0.2866   -30.6000     5.1050     7.8008     7.1403    95.2619    89.4001
  979.5000    85.7513    10.1482     2.5040     0.0240     0.2847   -30.2000     5.4929     7.8009     7.4067    95.0850    85.4469
  980.0000    85.3510    10.0685     2.5090     0.0194     0.2898   -30.2000     5.6979     8.0921     7.4069    94.9080    85.6580
  980.5000    84.1544    10.0087     2.5100     0.0148     0.2942   -29.8000     5.8034     8.0922     7.5439    94.7311    85.7049
  981.0000    83.3559     9.9887     2.5086     0.0102     0.2930   -29.8000     5.9107     8.2421     7.5441    94.5541    93.8450
  981.5000    82.5574    10.0482     2.5036     0.0056     0.2780   -29.4000     6.1314     8.2422     7.6836    94.3772    89.9860
  982.0000    80.9626    10.0282     2.4947     0.0010     0.2736   -29.4000     6.2448     8.5500     7.6838    94.2002    86.1271
  982.5000    80.5621    10.0082     2.4827    -0.0036     0.2712   -29.4000     6.3604     8.5503     7.8260    94.0233    94.1025
  983.0000    80.5596    10.0280     2.4837    -0.0069     0.2669   -29.8000     6.3607     8.7085     7.9707    93.8463    98.2889
  983.5000    80.5572    10.0279     2.4867    -0.0050     0.2649   -30.2000     6.3609     8.8696     7.9708    93.6694   110.3327
  984.0000    82.5455    10.0476     2.4867     0.0029     0.2677   -30.2000     6.3611     8.8700     8.1184    93.4924    90.5717
  984.5000    81.3487    10.0674     2.4997     0.0088     0.2669   -30.6000     6.3613     8.8702     8.2684    93.3155    94.2849
  985.0000    80.9482    10.0474     2.5037     0.0088     0.2642   -30.6000     6.3616     8.8706     8.2688    93.1385   110.6589
  985.5000    81.3440    10.0672     2.5047     0.0068     0.2602   -30.6000     6.3617     9.0348     8.2691    92.9616    98.8733
  986.0000    82.1379    10.0671     2.5047     0.0027     0.2677   -30.6000     6.2466     9.0351     8.2694    92.7846   106.9402
  986.5000    85.7192    10.0670     2.4987     0.0027     0.2737   -30.6000     6.2468     9.0354     8.2697    92.6077    99.1070
  987.0000    87.3101    10.1266     2.4888     0.0007     0.2804   -30.2000     6.1337     9.0358     8.2700    92.4307    99.2005
  987.5000    88.9006    10.1265     2.4788    -0.0053     0.2765   -30.2000     6.1339     9.0360     8.2703    92.2538    95.3660
  988.0000    88.5001    10.1462     2.4778    -0.0054     0.2697   -30.2000     6.1341     9.0365     8.2706    92.0768    95.4830
  988.5000    87.7015    10.1859     2.4778    -0.0054     0.2642   -30.2000     6.1343     9.0368     8.2709    91.8999    95.6000
  989.0000    84.5130    10.1659     2.4798    -0.0055     0.2614   -30.6000     6.1345     9.0371     8.2712    91.7229    95.6701
  989.5000    84.5107    10.1658     2.4778    -0.0075     0.2690   -30.6000     6.1347     9.0375     7.9747    91.5460    95.8338
  990.0000    84.9071    10.1544     2.4769    -0.0075     0.2714   -30.6000     6.1349     9.0375     7.9748    91.3690    95.9507
  990.5000    83.7096    10.1431     2.4719    -0.0096     0.2710   -31.0000     6.1351     9.0379     7.9750    91.1921    88.1197
  991.0000    82.9107    10.1317     2.4709    -0.0116     0.2725   -31.0000     6.1354     9.0383     7.9753    91.0151    88.2135
  991.5000    82.1119    10.1204     2.4799    -0.0117     0.2741   -31.4000     6.1355     8.5560     7.9756    90.8382    88.3540
  992.0000    83.3048    10.1054     2.4899    -0.0057     0.2698   -31.0000     6.0626     8.5563     7.9759    90.6612    88.4477
  992.5000    84.8955    10.1054     2.4949    -0.0018     0.2643   -31.0000     6.0627     8.5566     7.9760    90.4843    88.5648
  993.0000    86.0880    10.1052     2.4989    -0.0019     0.2603   -31.0000     5.9531     8.5570     7.8319    90.3073    88.6820
  993.5000    86.0857    10.0852     2.5039     0.0041     0.2556   -31.0000     5.9533     8.5573     7.6903    90.1304    96.6529
  994.0000    86.4817    10.0851     2.5059     0.0060     0.2556   -31.0000     5.9535     8.5576     7.5511    89.9534    92.8894
  994.5000    87.2761    10.0850     2.5119     0.0119     0.2568   -30.6000     5.9537     8.5580     7.4147    89.7765    93.0063
  995.0000    87.2738    10.0848     2.5109     0.0139     0.2607   -30.2000     5.7401     8.2507     7.4148    89.5995    89.1504
  995.5000    84.8816    10.0847     2.5149     0.0138     0.2639   -30.2000     5.7403     8.2510     7.4152    89.4226    89.2675
  996.0000    84.4810    10.0647     2.5189     0.0118     0.2639   -30.2000     5.7404     8.2513     7.4154    89.2456   105.2752
  996.5000    86.0720    10.0447     2.5110     0.0078     0.2619   -30.6000     5.7407     8.2516     7.4156    89.0687    89.5016
  997.0000    87.2648    10.0246     2.5060     0.0097     0.2651   -30.6000     5.7408     8.2519     7.6922    88.8917    89.5953
  997.5000    88.4576    10.0046     2.5060     0.0116     0.2651   -31.0000     5.9549     8.4044     7.6924    88.7148   101.6527
  998.0000    89.2521    10.0045     2.5120     0.0176     0.2616   -31.0000     5.9551     8.5601     7.8348    88.5378    97.7972
  998.5000    88.8515     9.9645     2.5179     0.0235     0.2568   -31.0000     6.2912     8.5605     7.9797    88.3609    85.9978
  999.0000    88.4508     9.9047     2.5199     0.0254     0.2548   -31.0000     6.1775     8.5608     7.9798    88.1839    98.0308
  999.5000    88.4486     9.9045     2.5100     0.0293     0.2564   -31.0000     6.1776     8.5611     7.9803    88.0070    94.1757
 1000.0000    89.2432     9.8845     2.5070     0.0333     0.2568   -31.0000     5.9559     8.5614     7.9804    87.8300    98.2643
 1000.5000    88.8400     9.8045     2.5130     0.0427     0.2652   -31.0000     5.7098     8.3178     7.7229    87.6531    98.3919
 1001.0000    88.0383     9.7844     2.5050     0.0471     0.2711   -30.5931     5.6397     8.2563     7.4199    87.4345    94.3394
 1001.5000    86.4400     9.8240     2.4780     0.0471     0.2758   -30.5884     5.6405     7.5727     7.2864    87.2160    94.3638
 1002.0000    84.4433    10.0230     2.4351     0.0432     0.2810   -30.7852     5.6417     7.3999     7.0262    86.9975    94.3800
 1002.5000    83.6417    10.1223     2.3283     0.0292     0.2865   -30.7804     5.6426     7.6780     7.0278    86.7789    90.4322
