~VERSION INFORMATION
 VERS.                2.0:   CWLS LOG ASCII STANDARD - VERSION 2.0
 WRAP.                 NO:   ONE LINE PER DEPTH STEP
~WELL INFORMATION
#MNEM.UNIT      DATA TYPE    INFORMATION
#----------   ------------   ------------------------------
 STRT.F          448.5000:   START DEPTH
 STOP.F         4490.5000:   STOP DEPTH
 STEP.F            0.5000:   STEP LENGTH
 NULL.          -999.2500:   NO VALUE
 COMP.  FENIX AND SCISSON:   COMPANY
 WELL. FENIX AND SCISSON NPR 3 #11-10:   WELL
 FLD .              NPR-3:   FIELD
 LOC .      S10 T38N R78W:   LOCATION
 CNTY.            NATRONA:   COUNTY
 STAT.            WYOMING:   STATE
 CTRY. UNITED STATES OF AMERICA:   COUNTRY
 SRVC.              WELEX:   SERVICE COMPANY
 DATE.        22-DEC-1978:   LOGDATE
 API .     49025107450000:   API NUMBER
~CURVE INFORMATION
#MNEM.UNIT       API CODE    CURVE DESCRIPTION
#----------   ------------   ------------------------------
 DEPT.F                  :   
 SPR .MV     07 010 01 00:   SPONTANEOUS POTENTIAL
 ILM .OHMM   07 120 44 00:   INDUCTION LOG MEDIUM
 ILD .OHMM   07 120 46 00:   DEEP RESISTIVITY
 SGRD.OHMM   07 220 01 00:   SHALLOW SHORT GUARD RESISTIVITY
 TENR.LBS    07 635 01 00:   TENSION FROM RESISTIVITY
 NPHI.DEC    42 890 03 00:   NEUTRON POROSITY SANDSTONE
 CALD.IN     45 280 60 00:   CALIPER FROM DENSITY LOG
 GRD .GAPI   45 310 01 00:   GAMMA RAY FROM DENSITY LOG
 RHOB.G/C3   45 350 01 00:   BULK DENSITY
 DRHO.G/C3   45 356 01 00:   DENSITY CORRECTION
 TEND.LBS    45 635 01 00:   TENSION FROM DENSITY
~PARAMETER INFORMATION
#MNEM.UNIT          VALUE    DESCRIPTION
#----------   ------------   ------------------------------
 EKB .F         5275.0000:   Kelly bushing
 EGL .F         5265.0000:   Ground level
 EDF .F            0.0000:   Drilling floor
 EPD .F         5265.0000:   Permanent datum
 TD  .F         4500.0000:   Total depth
 DATE.        22-DEC-1978:   Date logged
 CLNT.            A2DTECH:   Client Code
 SL  . 300' FNL & 500' FWL:   Surface Location
 DD  .F              4500:   Depth driller
 DL  .F              4481:   Depth logger
 BLI .F              4479:   Bottom log interval
 TLI .F               450:   Top log interval
 CS1 .IN            8.625:   Casing size
 CBD1.      8.625" @ 500':   Casing driller 1
 CBL1.F               473:   Casing logger 1
 BS1 .IN            7.875:   Bit size
 BSD1.F              4500:   Depth drilled with bit1
 DFT .               LSND:   Type fluid in hole
 DFD .                8.7:   Density
 DFV .                 49:   Viscosity
 DFPH.               11.0:   pH
 DFL .                7.6:   Fluid loss
 MSS .           FLOWLINE:   Source of sample
 RMS .OHMM            1.1:   Rm
 MST .F                86:   Rm Meas. temp.
 RMF .OHMM           0.73:   Rmf
 MFST.F                86:   Rmf Meas. temp.
 RMC .OHMM           1.68:   Rmc
 MCST.F                86:   Rmc Meas. temp.
 MFSS.               CALC:   Source Rmf.
 MCSS.               CALC:   Source Rmc.
 RMB .OHMM           0.72:   Rm. at BHT
 BHT .F               130:   BHT.
 TCS .HRS             3.5:   Time Circ. stopped
 MRT .F               130:   Maximum recorded temp.
 LUN .               9685:   Logging unit number
 LUL .             CASPER:   Logging unit location
 ENGI.            BENTSEN:   Recorded By
 WITN.           DINSMORE:   Witnessed by
 ORIG.           5" PRINT:   Origin of data
 UWI .     49025107450000:   Unique Well ID
 DICO. A2D TECHNOLOGIES, INC.:   Digitizing Company
~OTHER INFORMATION
~A  DEPTH      SPR        ILM        ILD       SGRD       TENR       NPHI       CALD        GRD       RHOB       DRHO       TEND
# ...
 3376.5000   -57.2889     4.1454     4.0494     4.4424  1394.4667     0.2172    10.0327   102.0651     2.4438     0.0337  1734.3354
 3377.0000   -57.2363     4.2072     4.1697     4.5400  1394.9236     0.2158    10.0425   103.7168     2.4409     0.0361  1740.0300
 3377.5000   -57.0685     4.2698     4.2620     4.5443  1395.3805     0.2147    10.0446   104.9665     2.4384     0.0394  1738.2441
 3378.0000   -56.9482     4.3335     4.3243     5.1878  1395.8374     0.2141    10.0467   105.3398     2.4372     0.0433  1736.7314
 3378.5000   -56.9333     4.3376     4.3553     5.9635  1396.2943     0.2139    10.0487   105.2109     2.4388     0.0465  1750.0750
 3379.0000   -56.9185     4.3417     4.3598     5.7264  1396.7512     0.2170    10.0512   104.6713     2.4449     0.0572  1748.4258
 3379.5000   -56.9037     4.3147     4.3513     5.0920  1397.2081     0.2220    10.0532   104.1971     2.4503     0.0800  1746.6088
 3380.0000   -56.8889     4.2856     4.3089     4.8594  1397.6652     0.2250    10.0551   104.3443     2.4285     0.0922  1759.9117
 3380.5000   -56.8095     4.2322     4.2966     5.0006  1398.1221     0.2259    10.0571   104.8458     2.4233     0.0833  1758.4706
 3381.0000   -56.7111     4.2061     4.2492     4.8345  1398.5790     0.2263    10.0746   105.4941     2.4166     0.0730  1756.7932
 3381.5000   -56.7774     4.1801     4.2233     4.5513  1399.0359     0.2261    10.0925   106.3933     2.4205     0.0777  1754.9731
 3382.0000   -56.8296     4.1543     4.1866     4.3809  1399.4928     0.2257    10.1128   107.5441     2.4281     0.0959  1753.2838
 3382.5000   -56.8148     4.1286     4.1553     4.3385  1399.9497     0.2250    10.1465   109.1620     2.4327     0.1217  1751.8741
 3383.0000   -56.8000     4.1031     4.1467     4.5352  1400.4066     0.2243    10.1758   110.3050     2.4350     0.1339  1749.9049
 3383.5000   -56.7852     4.0876     4.1214     4.8853  1400.8636     0.2243    10.1989   111.2244     2.4366     0.1446  1763.5981
 3384.0000   -56.6652     4.0700     4.0963     4.9911  1401.3206     0.2243    10.2326   111.9210     2.4367     0.1614  1761.7789
 3384.5000   -56.6074     4.0276     4.0714     4.7744  1401.7775     0.2254    10.2520   111.9872     2.4382     0.1721  1759.9590
 3385.0000   -56.5926     4.0028     4.0303     4.4994  1402.2344     0.2269    10.2541   112.5558     2.4436     0.1748  1758.6597
 3385.5000   -56.4269     3.9780     3.9773     4.5083  1402.6913     0.2289    10.2562   113.3428     2.4504     0.1770  1771.9641
 3386.0000   -56.4125     3.9535     3.9425     4.7573  1403.1482     0.2322    10.2582   113.1864     2.4490     0.1817  1770.0137
 3386.5000   -56.3982     3.9291     3.9001     4.6225  1403.6052     0.2357    10.2603   112.6509     2.4370     0.1939  1768.6653
 3387.0000   -56.3826     3.9048     3.8678     4.2273  1404.0621     0.2390    10.2628   112.7065     2.4326     0.2152  1766.8944
 3387.5000   -56.3695     3.8635     3.8443     4.2644  1404.5190     0.2420    10.2648   113.5152     2.4319     0.2304  1780.0677
 3388.0000   -56.3551     3.8121     3.8209     4.6036  1404.9760     0.2444    10.2964   114.7290     2.4260     0.2366  1794.0205
 3388.5000   -56.3407     3.7615     3.7673     4.4394  1405.4329     0.2452    10.3727   115.2921     2.4223     0.2248  1791.9409
 3389.0000   -56.3259     3.7115     3.7451     3.9871  1405.8898     0.2435    10.4825   115.3189     2.4208     0.2144  1790.1217
 3389.5000   -56.3111     3.6525     3.6974     3.9741  1406.3467     0.2418    10.5793   115.3457     2.4217     0.2041  1788.5621
 3390.0000   -56.2977     3.6058     3.6503     4.3504  1406.8037     0.2434    10.6662   115.8868     2.4248     0.1937  1787.0024
 3390.5000   -56.4315     3.5596     3.6288     4.3554  1407.2606     0.2468    10.6930   116.7450     2.4294     0.1833  1785.1832
 3391.0000   -56.4148     3.5140     3.5825     4.2071  1407.7175     0.2511    10.6908   116.7703     2.4339     0.1775  1783.8082
 3391.5000   -56.4293     3.5173     3.5361     4.0679  1408.1744     0.2567    10.6771   115.9014     2.4355     0.1807  1782.0640
 3392.0000   -56.5333     3.4723     3.4896     3.9606  1408.6313     0.2609    10.6633   115.2443     2.4251     0.1944  1780.2448
 3392.5000   -56.5185     3.4756     3.4436     3.8829  1409.0883     0.2630    10.6496   114.3556     2.4063     0.1961  1778.8608
 3393.0000   -56.5037     3.4311     3.4010     3.7805  1409.5452     0.2640    10.6440   113.9382     2.3861     0.1933  1777.1255
 3393.5000   -56.4889     3.4343     3.3803     3.7321  1410.0022     0.2620    10.6461   113.7670     2.3636     0.1904  1775.3063
 3394.0000   -56.4741     3.3877     3.3634     3.7099  1410.4591     0.2600    10.6680   113.9149     2.3456     0.1921  1773.9128
 3394.5000   -56.4593     3.3668     3.3625     3.7708  1410.9160     0.2627    10.7016   114.4165     2.3457     0.1908  1772.1869
 3395.0000   -56.4444     3.3508     3.3420     3.9100  1411.3729     0.2670    10.7121   115.0895     2.3427     0.1850  1770.3677
 3395.5000   -56.4296     3.3484     3.3281     4.0148  1411.8298     0.2707    10.7290   115.6677     2.3097     0.1686  1768.9653
 3396.0000   -56.4874     3.3277     3.3243     3.9797  1412.2867     0.2741    10.7161   115.3546     2.2955     0.1462  1767.2484
 3396.5000   -56.5481     3.3072     3.3041     3.9085  1412.7438     0.2768    10.6734   114.5424     2.2940     0.1132  1765.4292
 3397.0000   -56.5333     3.2787     3.2753     3.8733  1413.2007     0.2783    10.6284   113.7609     2.2956     0.0923  1764.0181
 3397.5000   -56.5185     3.2440     3.2322     3.8011  1413.6576     0.2792    10.5674   113.5395     2.3010     0.0789  1762.3107
 3398.0000   -56.4119     3.2143     3.1995     3.7508  1414.1145     0.2795    10.5063   114.2399     2.3093     0.0550  1760.4907
 3398.5000   -56.3407     3.1716     3.1800     3.7012  1414.5714     0.2796    10.4350   115.6097     2.3200     0.0416  1758.9319
 3399.0000   -56.3259     3.1295     3.1495     3.6697  1415.0283     0.2802    10.2962   115.8586     2.3245     0.0403  1757.1118
 3399.5000   -56.3111     3.0879     3.1080     3.6541  1415.4852     0.2812    10.1299   116.3309     2.3276     0.0465  1755.5522
 3400.0000   -56.2458     3.0589     3.0635     3.5988  1415.9054     0.2829    10.0963   117.6975     2.3300     0.0542  1756.1884
 3400.5000   -56.1615     3.0394     3.0165     3.5338  1415.5757     0.2846    10.1053   118.6278     2.3353     0.0605  1763.2620
 3401.0000   -56.0772     3.0199     2.9830     3.4643  1415.2706     0.2849    10.1123   119.5582     2.3338     0.0637  1770.3356
 3401.5000   -55.9929     3.0008     2.9543     3.3780  1414.9656     0.2839    10.1143   119.8380     2.3308     0.0654  1777.4092
 3402.0000   -55.9289     2.9821     2.9154     3.3430  1414.6605     0.2826    10.1162   120.0992     2.3293     0.0641  1784.4828
 3402.5000   -55.9111     2.9517     2.8770     3.3640  1414.3553     0.2832    10.1181   120.8074     2.3362     0.0523  1774.8462
 3403.0000   -55.9513     2.9125     2.8392     3.3983  1414.0503     0.2846    10.1201   122.4099     2.3550     0.0464  1773.3131
 3403.5000   -56.0873     2.8609     2.8018     3.3141  1413.7452     0.2858    10.1220   124.0149     2.3799     0.0452  1771.5142
 3404.0000   -56.1541     2.8160     2.7649     3.2818  1413.4401     0.2879    10.1132   123.8717     2.3912     0.0409  1769.5133
 3404.5000   -56.2110     2.7785     2.7285     3.4140  1413.1350     0.2918    10.1110   122.2944     2.4063     0.0395  1767.8291
 3405.0000   -56.2667     2.7416     2.7206     3.5025  1412.8300     0.3046    10.1132   120.0676     2.4199     0.0382  1766.1168
 3405.5000   -56.3347     2.7346     2.6941     3.4171  1412.5249     0.3042    10.1001   118.2722     2.4350     0.0400  1764.3177
 3406.0000   -56.3793     2.7187     2.6708     3.1863  1412.2197     0.3022    10.1019   117.0089     2.4553     0.0447  1777.5116
 3406.5000   -56.4584     2.7974     2.6734     2.9475  1411.9147     0.3003    10.1039   116.8715     2.4621     0.0509  1775.6646
