~VERSION INFORMATION
 VERS.                2.0:   CWLS LOG ASCII STANDARD - VERSION 2.0
 WRAP.                 NO:   ONE LINE PER DEPTH STEP
~WELL INFORMATION
#MNEM.UNIT      DATA TYPE    INFORMATION
#----------   ------------   ------------------------------
 STRT.F          205.0000:   START DEPTH
 STOP.F         3171.5000:   STOP DEPTH
 STEP.F            0.5000:   STEP LENGTH
 NULL.          -999.2500:   NO VALUE
 COMP.    FENIX & SCISSON:   COMPANY
 WELL. FENIX & SCISSON  "AX" #27-28:   WELL
 FLD .              NPR 3:   FIELD
 LOC .      S28 T39N R78W:   LOCATION
 CNTY.            NATRONA:   COUNTY
 STAT.            WYOMING:   STATE
 CTRY. UNITED STATES OF AMERICA:   COUNTRY
 SRVC.       SCHLUMBERGER:   SERVICE COMPANY
 DATE.        30-MAY-1977:   LOGDATE
 API .     49025103870000:   API NUMBER
~CURVE INFORMATION
#MNEM.UNIT       API CODE    CURVE DESCRIPTION
#----------   ------------   ------------------------------
 DEPT.F                  :   
 NPHI.DEC    42 890 03 00:   NEUTRON POROSITY SANDSTONE
 CALD.IN     45 280 60 00:   CALIPER FROM DENSITY LOG
 GRD .GAPI   45 310 01 00:   GAMMA RAY FROM DENSITY LOG
 RHOB.G/C3   45 350 01 00:   BULK DENSITY
 CORR.G/C3   45 356 01 00:   DENSITY CORRECTION
 SPR .MV     11 010 01 00:   SPONTANEOUS POTENTIAL
 MSFL.OHMM   11 270 04 00:   MICRO SPHERICALLY FOCUSED RES.
 LLD .OHMM   11 220 10 00:   LATEROLOG LOG DEEP
 LLS .OHMM   11 220 09 00:   LATEROLOG LOG SHALLOW
~PARAMETER INFORMATION
#MNEM.UNIT          VALUE    DESCRIPTION
#----------   ------------   ------------------------------
 EKB .F         5094.0000:   Kelly bushing
 EGL .F         5084.0000:   Ground level
 EDF .F            0.0000:   Drilling floor
 EPD .F            0.0000:   Permanent datum
 TD  .F         3169.0000:   Total depth
 DATE.        30-MAY-1977:   Date logged
 CLNT.            A2DTECH:   Client Code
 SL  . 1266' FSL & 871' FWL:   Surface Location
 PD  .                 GL:   Permanent Datum
 DD  .F              3163:   Depth driller
 DL  .F              3169:   Depth logger
 BLI .F              3168:   Bottom log interval
 CS1 .IN            8.625:   Casing size
 CBD1.      8.625" @ 210':   Casing driller 1
 CBL1.F               219:   Casing logger 1
 BS1 .IN            7.875:   Bit size
 DFT .           SALT/MUD:   Type fluid in hole
 DFD .                8.9:   Density
 DFV .                 32:   Viscosity
 DFPH.                8.5:   pH
 DFL .                5.8:   Fluid loss
 MSS .                PIT:   Source of sample
 RMS .OHMM           .194:   Rm
 MST .F                65:   Rm Meas. temp.
 RMF .OHMM           .165:   Rmf
 MFST.F                65:   Rmf Meas. temp.
 MFSS.               MEAS:   Source Rmf.
 RMB .OHMM           .107:   Rm. at BHT
 BHT .F               118:   BHT.
 MRT .F               118:   Maximum recorded temp.
 LUN .               5642:   Logging unit number
 LUL .               CSPR:   Logging unit location
 ENGI.             MARTIN:   Recorded By
 WITN.         PETTINGILL:   Witnessed by
 ORIG.           5" PRINT:   Origin of data
 UWI .     49025103870000:   Unique Well ID
 DICO. A2D TECHNOLOGIES, INC.:   Digitizing Company
 DAPD.F                10:   Feet Above Permanent Datum
 BSD1.F              3163:   Depth drilled with bit1
 TLI .F               219:   Top log interval
 TLAB.HRS            0930:   Time logger at bottom
~OTHER INFORMATION
~A   DEPT     NPHI         CALD      GRD         RHOB      CORR       SPR       MSFL        LLD        LLS   
# ...
 1190.5000     0.3245     8.4547   143.4759     2.5317     0.0506   -95.0026    12.3920     8.8664     9.6030
 1191.0000     0.3157     8.4568   147.4524     2.5337     0.0477   -94.8079    12.0546     8.7841     9.6283
 1191.5000     0.3133     8.4589   145.8657     2.5268     0.0457   -94.6133    12.0527     8.5443     9.5386
 1192.0000     0.3180     8.4610   147.8569     2.5158     0.0377   -94.6163    12.0508     8.3876     9.1935
 1192.5000     0.3276     8.4634   151.4385     2.5138     0.0447   -94.4216    12.1596     8.1587     8.8608
 1193.0000     0.3332     8.4437   150.6493     2.5457     0.0706   -94.2270    12.3822     8.0349     8.5523
 1193.5000     0.3348     8.4438   149.4601     2.5457     0.0736   -94.2300    12.2675     7.9601     8.4735
 1194.0000     0.3364     8.4440   147.0757     2.5457     0.0656   -94.4306    12.2655     7.9596     8.4730
 1194.5000     0.3364     8.4441   145.0912     2.5388     0.0487   -94.2360    12.6048     8.1054     8.6264
 1195.0000     0.3380     8.4442   143.1067     2.5607     0.0577   -94.2389    12.8356     8.3308     8.8636
 1195.5000     0.3388     8.4443   141.1246     2.5786     0.0936   -94.0443    13.1906     8.1028     9.0158
 1196.0000     0.3396     8.4445   140.3328     2.5587     0.0766   -95.0353    13.1885     8.4828     9.4381
 1196.5000     0.3404     8.4645   137.5531     2.5597     0.0547   -94.6431    12.5968     9.0133     9.7893
 1197.0000     0.3356     8.4447   135.9629     2.5547     0.0418   -94.8437    11.9214     9.1277     9.7014
 1197.5000     0.3188     8.4647   135.9670     2.5557     0.0508   -94.8467    11.8113     8.7966     9.3534
 1198.0000     0.3092     8.4648   137.5608     2.5478     0.0617   -94.8496    11.5957     8.2196     8.7751
 1198.5000     0.3124     8.4650   139.1546     2.5338     0.0338   -95.0502    11.4883     7.9953     8.6156
 1199.0000     0.3252     8.4651   141.9437     2.5398     0.0458   -95.0532    11.5920     7.7770     8.4458
 1199.5000     0.3348     8.4652   143.5375     2.5339     0.0329   -94.8586    11.2764     7.5647     8.3679
 1200.0000     0.3316     8.4653   145.5291     2.4990     0.0608   -94.4663    11.8025     7.3127     8.2904
 1200.5000     0.3281     8.4655   146.2113     2.5171     0.0501   -94.3032    11.8016     7.4703     8.2889
 1201.0000     0.3320     8.4657   147.9228     2.5190     0.0459   -94.4703    11.8001     7.7262     8.4421
 1201.5000     0.3411     8.4659   149.5173     2.5060     0.0379   -94.2747    11.9075     8.0891     8.6769
 1202.0000     0.3439     8.4661   151.5086     2.5010     0.0519   -94.2766    11.9064     8.2385     8.9181
 1202.5000     0.3331     8.4663   152.3079     2.5230     0.0369   -94.2786    11.9053     8.0137     8.5299
 1203.0000     0.3263     8.4665   153.1071     2.5140     0.0270   -94.4782    12.2355     7.9397     8.4521
 1203.5000     0.3295     8.4468   153.5087     2.5310     0.0559   -94.2825    12.3468     7.9387     8.4510
 1204.0000     0.3323     8.5066   152.3198     2.5330     0.0778   -93.8893    12.3457     8.0592     8.5778
 1204.5000     0.3335     8.4671   151.1309     2.5688     0.0828   -94.0889    12.3445     8.3108     8.8425
 1205.0000     0.3327     8.4673   147.1587     2.5539     0.0659   -93.8936    12.1196     8.6215     9.1616
 1205.5000     0.3319     8.4675   147.1602     2.5420     0.0480   -93.8948    11.7904     8.5416     9.3307
 1206.0000     0.3311     8.4677   147.5619     2.5310     0.0330   -93.8968    11.4702     8.6199     9.5026
 1206.5000     0.3295     8.4679   144.7833     2.5251     0.0241   -94.0967    11.2612     8.6193     9.4150
 1207.0000     0.3267     8.4681   143.5944     2.5131     0.0400   -94.0987    11.3636     8.3838     8.9193
 1207.5000     0.3155     8.4683   147.1786     2.5062     0.0440   -93.9031    11.6788     7.9330     8.4450
 1208.0000     0.3163     8.5082   150.7620     2.5032     0.0321   -93.9050    11.8934     8.2294     8.7569
 1208.5000     0.3310     8.4688   154.3438     2.4952     0.0451   -94.1046    12.0016     8.3047     8.8361
 1209.0000     0.3366     8.4689   157.5288     2.5062     0.0391   -94.3042    11.8912     8.6152     9.1626
 1209.5000     0.3386     8.4889   157.1352     2.5132     0.0491   -94.3062    11.6745     8.2757     8.9881
 1210.0000     0.3262     8.4693   155.5486     2.5152     0.0561   -94.3081    11.5671     8.1996     8.9959
 1210.5000     0.3242     8.4695   151.9732     2.5043     0.0362   -94.3101    11.5661     8.1241     8.8329
 1211.0000     0.3254     8.4896   151.9756     2.4963     0.0342   -94.1145    11.6713     8.0934     8.7522
 1211.5000     0.3322     8.4898   153.5701     2.4863     0.0163   -93.9188    11.7775     8.0629     8.8313
 1212.0000     0.3370     8.4900   153.1765     2.5073     0.0342   -93.5263    11.7764     8.0324     8.8305
 1212.5000     0.3382     8.4902   151.5899     2.5123     0.0203   -94.3180    11.7754     8.0021     8.8297
 1213.0000     0.3286     8.4904   150.4010     2.4993     0.0302   -94.3200    11.5608     7.9719     8.7490
 1213.5000     0.3270     8.4707   151.2003     2.5183     0.0302   -94.1243    11.5597     7.9418     8.6690
 1214.0000     0.3313     8.4709   152.3971     2.5302     0.0452   -93.9287    11.6649     7.8978     8.6682
 1214.5000     0.3365     8.4710   151.2082     2.5492     0.0632   -93.7326    11.6639     7.8975     8.6674
 1215.0000     0.3393     8.4713   149.6217     2.5322     0.0552   -93.7350    11.6628     7.8968     8.6666
 1215.5000     0.3401     8.4715   149.2281     2.5532     0.0482   -93.7358    11.5555     7.8960     8.5874
 1216.0000     0.3381     8.4319   151.2202     2.5612     0.0771   -93.7385    11.3450     7.8953     8.5748
 1216.5000     0.3349     8.4719   154.4052     2.5851     0.0851   -94.1361    11.1383     7.8225     8.4185
 1217.0000     0.3349     8.4721   156.7949     2.5363     0.0393   -93.5453    10.9349     7.6095     8.2329
 1217.5000     0.3349     8.4921   158.7894     2.5253     0.0473   -93.5472    10.4450     7.2222     8.0392
 1218.0000     0.3493     8.4725   158.7934     2.5393     0.0463   -93.5492    10.7349     7.2219     7.9652
 1218.5000     0.3520     8.4727   152.8330     2.5393     0.0613   -93.9464    10.9323     7.3329     7.9644
 1219.0000     0.3492     8.4927   149.6560     2.5353     0.0473   -94.1460    11.3388     7.4684     8.1112
 1219.5000     0.3361     8.4929   148.0695     2.5294     0.0643   -93.9503    11.4419     7.8182     8.4911
 1220.0000     0.3261     8.5129   148.8687     2.5433     0.0563   -94.1503    11.4409     8.1097     8.8888
 1220.5000     0.3201     8.5130   148.8727     2.5394     0.0763   -94.3495    11.4398     8.2591     9.1360
 1221.0000     0.3192     8.5133   148.0814     2.5493     0.0693   -94.3515    11.3346     8.1829     9.0520
 1221.5000     0.3236     8.5334   146.0965     2.5404     0.0584   -94.7487    11.1281     8.1825     8.9684
 1222.0000     0.3264     8.5335   146.0989     2.5623     0.0634   -94.7507    10.5326     8.1067     8.6443
 1222.5000     0.3284     8.5338   147.6934     2.5793     0.0654   -94.7526    10.4357     8.0319     8.3490
 1223.0000     0.3324     8.5339   148.8902     2.5723     0.0853   -94.5570    10.1519     7.8852     8.2435
 1223.5000     0.3376     8.5342   147.7013     2.5514     0.0793   -94.5589    10.1513     7.7412     8.0949
 1224.0000     0.3436     8.5343   147.7053     2.5355     0.0515   -94.3633    10.1504     7.5303     8.0944
 1224.5000     0.3452     8.5346   151.2880     2.5504     0.0694   -94.3653    10.2427     7.3928     7.9479
 1225.0000     0.3456     8.5348   152.8824     2.5544     0.0714   -94.1696    10.3359     7.3921     8.1173
 1225.5000     0.3455     8.5350   150.8983     2.5335     0.0465   -94.1716    10.3350     7.4595     8.0431
 1226.0000     0.3395     8.4757   148.9141     2.5305     0.0465   -94.1736    10.3340     7.5969     8.1157
 1226.5000     0.3405     8.4957   146.5324     2.5306     0.0476   -93.9779    10.4283     7.7369     8.1154
