~VERSION INFORMATION
 VERS.                2.0:   CWLS LOG ASCII STANDARD - VERSION 2.0
 WRAP.                 NO:   ONE LINE PER DEPTH STEP
~WELL INFORMATION
#MNEM.UNIT      DATA TYPE    INFORMATION
#----------   ------------   ------------------------------
 STRT.F          213.5000:   START DEPTH
 STOP.F         3198.0000:   STOP DEPTH
 STEP.F            0.5000:   STEP LENGTH
 NULL.          -999.2500:   NO VALUE
 COMP.    FENIX & SCISSON:   COMPANY
 WELL.   FENIX "AX" #14-2:   WELL
 FLD .              NPR-3:   FIELD
 LOC .       S2 T38N R78W:   LOCATION
 CNTY.            NATRONA:   COUNTY
 STAT.            WYOMING:   STATE
 CTRY. UNITED STATES OF AMERICA:   COUNTRY
 SRVC.              WELEX:   SERVICE COMPANY
 DATE.        14-MAY-1977:   LOGDATE
 API .     49025103620000:   API NUMBER
~CURVE INFORMATION
#MNEM.UNIT       API CODE    CURVE DESCRIPTION
#----------   ------------   ------------------------------
 DEPT.F                  :   
 GRD .GAPI   45 310 01 00:   GAMMA RAY FROM DENSITY LOG
 CALD.IN     45 280 60 00:   CALIPER FROM DENSITY LOG
 CORR.G/C3   45 356 01 00:   DENSITY CORRECTION
 RHOB.G/C3   45 350 01 00:   BULK DENSITY
 SPR .MV     07 010 01 00:   SPONTANEOUS POTENTIAL FROM RES.
 ILD .OHMM   07 120 46 00:   DEEP INDUCTION RESISTIVITY
 ILM .OHMM   07 120 44 00:   INDUCTION LOG MEDIUM RESISTIVITY
 SGRD.OHMM   07 220 05 00:   SHALLOW SHORT GUARD RESISTIVITY
~PARAMETER INFORMATION
#MNEM.UNIT          VALUE    DESCRIPTION
#----------   ------------   ------------------------------
 EKB .F         5119.0000:   Kelly bushing
 EGL .F         5110.0000:   Ground level
 TD  .F         3200.0000:   Total depth
 CLNT.            A2DTECH:   Client Code
 SL  . 2400' FNL & 150' FWL:   Surface Location
 PD  .                 GL:   Permanent Datum
 EPD .F              5110:   Elevation Permanent Datum
 LMF .                 KB:   Log Measured From
 DMF .                 KB:   Drilling Measured From
 DAPD.F                 9:   Feet Above Permanent Datum
 DATE.        14-MAY-1977:   Date Logged [DD-MMM-YYYY]
 DD  .F              3200:   Depth driller
 DL  .F              3199:   Depth logger
 BLI .F              3197:   Bottom log interval
 TLI .F               217:   Top log interval
 CS1 .IN            8.625:   Casing size
 BS1 .IN            7.875:   Bit size
 BSD1.F              3200:   Depth drilled with bit1
 DFT .            KCL MUD:   Type fluid in hole
 DFD .                8.8:   Density
 TCS .HRS             2.5:   Time Circ. stopped
 MRT .F               130:   Maximum recorded temp.
 ENGI.          T. JOYNER:   Recorded By
 WITN.      W. PETTINGILL:   Witnessed by
 ORIG.           5" PRINT:   Origin of data
 UWI .     49025103620000:   Unique Well ID
 DICO. A2D TECHNOLOGIES, INC.:   Digitizing Company
 DFV .                 31:   Viscosity
 DFPH.                7.5:   pH
 DFL .                6.4:   Fluid loss
 MSS .          FLOW LINE:   Source of sample
 RMS .OHMM            .13:   Rm
 MST .F               62.:   Rm Meas. temp.
 RMF .OHMM            .12:   Rmf
 MFST.F                62:   Rmf Meas. temp.
 MFSS.           FANN KIT:   Source Rmf.
 RMC .OHMM            .28:   Rmc
 MCST.F                62:   Rmc Meas. temp.
 RMB .OHMM            .06:   Rm. at BHT
 BHT .F               130:   BHT.
~OTHER INFORMATION
~A   DEPT      GRD       CALD       CORR       RHOB        SPR        ILD        ILM       SGRD   
# ...
 1995.5000   144.7928     8.1010    -0.0014     2.4233   -45.9946     5.9047     7.0882    11.1129
 1996.0000   147.2062     8.1026    -0.0086     2.4164   -45.9744     5.8695     6.9526    11.0425
 1996.5000   146.6301     8.1042    -0.0129     2.4055   -45.9583     5.8745     6.9586    11.0528
 1997.0000   144.5592     8.0906    -0.0203     2.3966   -45.9422     5.8807     6.9644    10.9847
 1997.5000   141.5421     8.0925    -0.0232     2.3981   -45.7778     5.8851     6.9702    10.9931
 1998.0000   138.6292     8.0793    -0.0231     2.4057   -45.9141     5.8912     6.9768    11.0015
 1998.5000   139.2489     8.0809    -0.0109     2.4208   -45.8940     5.8964     6.9329    11.0965
 1999.0000   140.7654     8.0825    -0.0048     2.4328   -45.8779     5.9010     6.9400    11.3289
 1999.5000   142.2820     8.0845    -0.0045     2.4389   -45.8618     5.9063     6.9456    11.4161
 2000.0000   143.1952     8.0861    -0.0045     2.4390   -45.8457     5.9125     6.8083    11.4246
 2000.5000   141.7222     8.0876    -0.0042     2.4392   -45.8209     5.9014     6.6860    11.0446
 2001.0000   140.2547     8.0740    -0.0010     2.4466   -45.6651     5.8589     6.5417    10.4581
 2001.5000   138.7767     8.0608     0.0049     2.4497   -45.7974     5.8298     6.3681    10.1785
 2002.0000   137.8989     8.0628     0.0081     2.4482   -45.7773     5.8357     6.2421     9.9101
 2002.5000   137.3280     8.0644     0.0052     2.4438   -45.7612     5.8404     6.2907     9.8473
 2003.0000   136.4828     8.0660     0.0023     2.4391   -45.7451     5.8037     6.4303     9.9249
 2003.5000   138.9073     8.0528    -0.0005     2.4329   -45.7290     5.7684     6.6706     9.6185
 2004.0000   141.3252     8.0547    -0.0034     2.4242   -45.7129     5.7742     6.9154    10.9042
 2004.5000   143.7431     8.0563    -0.0033     2.4190   -45.6968     5.7391     7.2545    10.9901
 2005.0000   147.3569     8.0645    -0.0031     2.4243   -45.6808     5.7438     7.2106    10.9118
 2005.5000   146.1874     8.0741    -0.0030     2.4303   -45.6647     5.7484     7.2688    10.8588
 2006.0000   144.7189     8.0837    -0.0013     2.4333   -45.5040     5.7531     7.2752    10.7945
 2006.5000   144.7452     8.0934     0.0018     2.4296   -45.7847     5.7579     7.2298    10.6575
 2007.0000   145.3773     8.1047     0.0034     2.4236   -45.9131     5.7627     7.2377    10.5213
 2007.5000   143.8813     8.1060     0.0051     2.4244   -45.8971     5.7683     7.1153    10.4585
 2008.0000   142.6369     8.1073     0.0082     2.4305   -45.7327     5.7730     7.0507    10.5157
 2008.5000   139.7747     8.1086     0.0113     2.4367   -45.7166     5.7777     7.0581    10.7386
 2009.0000   140.3989     8.1099     0.0160     2.4455   -45.7003     5.7824     7.2132    11.0886
 2009.5000   142.5179     8.1112     0.0191     2.4545   -45.6807     5.7871     7.3712    11.1743
 2010.0000   144.6369     8.1125     0.0207     2.4658   -45.6647     5.7919     7.5853    11.1849
 2010.5000   146.1513     8.1138     0.0209     2.4710   -45.6487     5.7966     7.7024    11.0420
 2011.0000   141.1020     8.1151     0.0210     2.4666   -45.6327     5.8013     7.7048    10.9390
 2011.5000   137.8398     8.1312     0.0211     2.4651   -45.6167     5.8059     7.6069    10.6875
 2012.0000   144.1441     8.1328     0.0213     2.4666   -45.6007     5.8107     7.4992    10.5509
 2012.5000   145.0673     8.1341     0.0229     2.4689   -45.5847     5.8156     7.3100    10.4635
 2013.0000   143.5439     8.1354     0.0231     2.4727   -45.5697     5.7801     7.1659    10.3518
 2013.5000   141.8314     8.1367     0.0277     2.4757   -45.5527     5.7859     7.0246    10.2279
 2014.0000   140.9674     8.1379     0.0293     2.4803   -45.5367     5.7906     6.9325    10.1610
 2014.5000   140.6947     8.1392     0.0325     2.4834   -45.5207     5.7954     6.9398    10.1009
 2015.0000   141.0200     8.1406     0.0341     2.4878   -45.5044     5.8001     6.9463    10.1106
 2015.5000   140.7473     8.1271     0.0357     2.4896   -45.4881     5.8048     6.9832    10.1706
 2016.0000   140.7736     8.1284     0.0359     2.4856   -45.4687     5.8095     7.1048    10.2729
 2016.5000   140.5009     8.1297     0.0375     2.4826   -45.4527     5.8142     7.2146    10.4256
 2017.0000   138.7335     8.1311     0.0391     2.4819   -45.4367     5.8594     7.3685    10.5346
 2017.5000   135.1723     8.1326     0.0378     2.4790   -45.4228     5.8641     7.4793    10.8123
 2018.0000   138.5262     8.1339     0.0334     2.4737   -45.4047     5.9097     7.5380    11.0491
 2018.5000   141.5029     8.1352     0.0291     2.4715   -45.3887     5.9180     7.6500    11.1362
 2019.0000   139.7355     8.1217     0.0247     2.4671   -45.3727     5.9675     7.8176    11.2239
 2019.5000   141.5621     8.1230     0.0218     2.4641   -45.3567     5.9652     7.8941    11.3119
 2020.0000   143.9800     8.1243     0.0204     2.4624   -45.3407     5.9289     7.9953    11.4016
 2020.5000   146.6969     8.1256     0.0190     2.4552   -45.3247     5.9350     8.0030    11.6513
 2021.0000   149.4138     8.1122     0.0162     2.4477   -45.3086     5.9398     7.8998    11.7432
 2021.5000   150.0314     8.1137     0.0133     2.4402   -45.2923     5.9859     7.9330    11.6734
 2022.0000   145.5800     8.1296     0.0075     2.4343   -45.2727     6.0324     8.0242    11.6844
 2022.5000   145.3064     8.1312     0.0046     2.4291   -45.2567     6.0373     8.1242    11.5358
 2023.0000   145.3336     8.1325    -0.0013     2.4321   -45.2407     6.0422     8.2123    11.5470
 2023.5000   144.7620     8.1338    -0.0043     2.4254   -45.0763     6.0471     8.3296    11.6398
 2024.0000   145.4744     8.1203    -0.0055     2.4164   -45.2127     6.0520     8.3371    11.8129
 2024.5000   146.9138     8.1216    -0.0039     2.4163   -45.1927     6.0152     8.3457    11.9060
 2025.0000   145.1464     8.1229     0.0008     2.4255   -45.3251     6.0203     8.3521    12.0830
 2025.5000   143.6779     8.1242     0.0039     2.4324   -45.4614     6.0262     8.3009    12.1287
 2026.0000   143.0997     8.1255     0.0085     2.4361   -45.5905     5.9895     8.3100    11.9103
 2026.5000   142.5281     8.1268     0.0087     2.4375   -45.5738     5.9519     8.2011    11.7873
 2027.0000   141.0662     8.1281     0.0088     2.4361   -45.5578     5.9156     8.1534    11.6913
 2027.5000   138.9998     8.1146     0.0089     2.4376   -45.5415     5.9216     8.1041    11.5518
 2028.0000   138.0968     8.1011     0.0076     2.4406   -45.5252     5.9265     8.0276    11.3358
 2028.5000   139.6503     8.1027     0.0077     2.4422   -45.5058     5.9313     8.0052    11.1794
 2029.0000   141.8176     8.0889     0.0093     2.4407   -45.4926     5.9361     7.9588    10.6806
 2029.5000   143.9928     8.0758     0.0095     2.4467   -45.4738     5.9409     7.9660    10.1163
 2030.0000   144.2135     8.0771     0.0066     2.4529   -45.3094     5.9458     7.9744    11.2308
 2030.5000   142.1537     8.0784     0.0023     2.4505   -45.1451     5.9507     7.9253    11.9593
 2031.0000   140.3862     8.0797     0.0009     2.4528   -45.1291     6.0039     7.9876    11.6473
 2031.5000   138.6188     8.0810     0.0100     2.4567   -45.1131     6.1288     7.9955    11.4985
 2032.0000   141.0367     8.0823     0.0162     2.4589   -45.1563     6.1338     8.0026    11.6694
 2032.5000   144.0526     8.0836     0.0193     2.4559   -45.0811     6.1814     8.0301    11.9964
 2033.0000   141.3883     8.0849     0.0224     2.4574   -45.0651     6.2294     8.1035    12.2705
 2033.5000   142.0125     8.0865     0.0226     2.4597   -45.0490     6.1902     8.3067    12.4553
 2034.0000   144.4389     8.0878     0.0227     2.4635   -45.0168     6.1526     8.5085    12.6477
 2034.5000   145.3862     8.0891     0.0228     2.4657   -44.8647     6.1588     8.8012    12.8289
 2035.0000   147.7781     8.0904     0.0230     2.4628   -44.8487     6.2066     9.0618    12.8411
 2035.5000   150.4949     8.0917     0.0188     2.4658   -44.9851     6.2548     9.2513    12.7558
