~VERSION INFORMATION
 VERS.                2.0:   CWLS LOG ASCII STANDARD - VERSION 2.0
 WRAP.                 NO:   ONE LINE PER DEPTH STEP
~WELL INFORMATION
#MNEM.UNIT      DATA TYPE    INFORMATION
#----------   ------------   ------------------------------
 STRT.F           35.5000:   START DEPTH
 STOP.F         6235.5000:   STOP DEPTH
 STEP.F            0.5000:   STEP LENGTH
 NULL.          -999.2500:   NO VALUE
 COMP. LAWRENCE-ALLISON ASSOCIATES:   COMPANY
 WELL. LAWRENCE-ALLISON "X" #62-11:   WELL
 FLD .                NPR:   FIELD
 LOC .      S11 T38N R78W:   LOCATION
 CNTY.            NATRONA:   COUNTY
 STAT.            WYOMING:   STATE
 CTRY. UNITED STATES OF AMERICA:   COUNTRY
 SRVC.      DRESSER ATLAS:   SERVICE COMPANY
 DATE.        18-DEC-1982:   LOGDATE
 API .     49025109020000:   API NUMBER
~CURVE INFORMATION
#MNEM.UNIT       API CODE    CURVE DESCRIPTION
#----------   ------------   ------------------------------
 DEPT.F                  :   
 ILM .OHMM   07 120 44 00:   INDUCTION LOG MEDIUM
 ILD .OHMM   07 120 46 00:   DEEP RESISTIVITY
 RFOC.OHMM   07 220 04 00:   RESISTIVITY FOCUSED LOG RES.
 DT  .US/F   60 520 00 00:   DELTA TIME
 TENS.LBS    60 635 01 00:   TENSION FROM SONIC LOG.
 RS  .OHMM   11 220 09 00:   RESISTIVITY SHALLOW
 RD  .OHMM   11 220 10 00:   RESISTIVITY DEEP
 RLL .OHMM   11 220 00 00:   LATEROLOG RESISTIVITY
 SPR .MV     07 010 01 00:   SPONTANEOUS POTENTIAL
 TENR.LBS    07 635 01 00:   TENSION FROM RES. LOG
 CALD.IN     45 280 60 00:   CALIPER FROM DENSITY LOG
 GRD .GAPI   45 310 01 00:   GAMMA RAY FROM DENSITY LOG
 DEN .G/C3   45 350 01 00:   FORMATION FACTOR DENSITY
 DRHO.G/C3   45 356 01 00:   DENSITY CORRECTION
 TEND.LBS    45 635 01 00:   TENSION FROM DENSITY LOG
 CN  .DEC    42 890 00 00:   NEUTRON POROSITY
~PARAMETER INFORMATION
#MNEM.UNIT          VALUE    DESCRIPTION
#----------   ------------   ------------------------------
 EKB .F         5218.0000:   Kelly bushing
 EGL .F         5208.0000:   Ground level
 EDF .F            0.0000:   Drilling floor
 TD  .F         6232.0000:   Total depth
 DATE.        18-DEC-1982:   Date logged
 CLNT.            A2DTECH:   Client Code
 SL  . 971' FNL & 1898' FEL:   Surface Location
 PD  .                 GL:   Permanent Datum
 EPD .F              5208:   Elevation Permanent Datum
 LMF .                 KB:   Log Measured From
 DMF .                 KB:   Drilling Measured From
 DAPD.F                10:   Feet Above Permanent Datum
 DD  .F              6222:   Depth driller
 DL  .F              6232:   Depth logger
 BLI .F              6230:   Bottom log interval
 CS1 .IN            9.625:   Casing size
 CBD1.     9.625" @ 1002':   Casing driller 1
 CBL1.F              1002:   Casing logger 1
 BS1 .IN             8.75:   Bit size
 BSD1.F              6222:   Depth drilled with bit1
 DFT .                KCL:   Type fluid in hole
 DFD .                  9:   Density
 DFV .                 37:   Viscosity
 DFPH.                  8:   pH
 DFL .                8.4:   Fluid loss
 MSS .           FLOWLINE:   Source of sample
 RMS .OHMM            .25:   Rm
 MST .F                60:   Rm Meas. temp.
 RMF .OHMM            .18:   Rmf
 MFST.F                62:   Rmf Meas. temp.
 RMC .OHMM            .32:   Rmc
 MCST.F                60:   Rmc Meas. temp.
 MFSS.               MEAS:   Source Rmf.
 MCSS.               CALC:   Source Rmc.
 RMB .OHMM            .09:   Rm. at BHT
 BHT .F               166:   BHT.
 TCS .HRS               6:   Time Circ. stopped
 MRT .F               166:   Maximum recorded temp.
 LUN .               6274:   Logging unit number
 LUL .               GLTE:   Logging unit location
 ENGI.             RAUTIO:   Recorded By
 WITN.           JENNINGS:   Witnessed by
 ORIG.           5" PRINT:   Origin of data
 UWI .     49025109020000:   Unique Well ID
 DICO. A2D TECHNOLOGIES, INC.:   Digitizing Company
~OTHER INFORMATION
~A  DEPTH      ILM        ILD       RFOC         DT       TENS         RS         RD        RLL        SPR       TENR       CALD        GRD        DEN       DRHO       TEND         CN
# ...
 5797.5000  -999.2500  -999.2500  -999.2500    53.9517   -38.1997   105.0060    86.1845    34.1907   -85.4896   -45.5441    10.3014    13.3026     2.8000     0.0138   -23.4375     0.0440
 5798.0000  -999.2500  -999.2500  -999.2500    52.5189   -19.2890    85.1866    74.9722   527.7050   -85.5011   -45.7902    10.2899    12.0903     2.7922     0.0201   -23.4375     0.0732
 5798.5000  -999.2500  -999.2500  -999.2500    51.9155    -7.9425    60.4699    45.9660   565.9532   -85.5126   -46.0012    10.2889    16.0053     2.8344     0.0170   -23.4375     0.0914
 5799.0000  -999.2500  -999.2500  -999.2500    52.0664    -7.9425    35.7532    24.2874   220.6235   -85.5225   -46.2472    10.2878    23.2395     2.8615     0.0155   -23.4375     0.0961
 5799.5000  -999.2500  -999.2500  -999.2500    53.5747   -11.7247    22.1958     8.1104    12.1327   -85.5323   -42.6932    10.3020    31.3777     2.9288     0.0176   -23.4375     0.0965
 5800.0000  -999.2500  -999.2500  -999.2500    56.7067   -26.8533    13.2836     5.5330     5.4565   -85.2985   -39.1392    10.3006    27.1493     2.9750     0.0232   -23.4375     0.0743
 5800.5000  -999.2500  -999.2500  -999.2500    59.0059   -38.1997    11.9695     5.3789     4.7807   -84.7930   -31.7673    10.3005    20.1464     2.9820     0.0266   -31.2500     0.0363
 5801.0000  -999.2500  -999.2500  -999.2500    58.4045   -41.9818    12.0513    23.7551    10.6610   -84.7987   -43.2266    10.3004    11.7324     2.9797     0.0283   -31.2500     0.0321
 5801.5000  -999.2500  -999.2500  -999.2500    56.5960   -41.9818    20.6995    54.2142    38.8607   -84.9535   -50.8976    10.3154     7.7970     2.9758     0.0284   -27.5718     0.0316
 5802.0000  -999.2500  -999.2500  -999.2500    54.1841   -38.1997   185.9008    84.6734   369.3169   -84.8064   -43.5316    10.3152     6.8758     2.9649     0.0254   -27.6562     0.0323
 5802.5000  -999.2500  -999.2500  -999.2500    51.1692   -34.4175  1054.7791   552.1500   792.6104   -84.6608   -28.6121    10.3150     6.5603     2.9509     0.0224   -27.7344     0.0332
 5803.0000  -999.2500  -999.2500  -999.2500    49.9639   -34.4175  1565.6981   571.4399   955.7994   -84.6664   -24.9878    10.3149     6.2414     2.9478     0.0257   -27.8125     0.0346
 5803.5000  -999.2500  -999.2500  -999.2500    49.6435   -30.6354  1587.0543   555.5287  1010.0319   -84.3694   -36.4472    10.3147     7.4330     2.9415     0.0289   -27.8906     0.0373
 5804.0000  -999.2500  -999.2500  -999.2500    49.3585   -26.8533  1500.8306   447.7368   988.8817   -84.2231   -47.8831    10.3146    14.6590     2.9329     0.0306   -27.9687     0.0444
 5804.5000  -999.2500  -999.2500  -999.2500    49.1389   -26.8533  1075.4486   275.9198   878.4587   -84.0760   -48.0473    10.3144    23.0893     2.9048     0.0323   -28.6244     0.0557
 5805.0000  -999.2500  -999.2500  -999.2500    48.9140   -26.8533   541.0739   200.8214   601.1918   -83.7804   -40.6580    10.3143    28.8070     2.8791     0.0418   -32.0312     0.0706
 5805.5000  -999.2500  -999.2500  -999.2500    48.4632   -34.4175   264.7740   125.7230   356.3552   -83.6334   -33.2686    10.3141    34.8240     2.8533     0.0543   -36.0203     0.0862
 5806.0000  -999.2500  -999.2500  -999.2500    47.9369   -41.9818   113.5643    52.2574   111.5186   -83.4877   -25.9027    10.3140    39.3350     2.8252     0.1105   -40.0106     0.1017
 5806.5000  -999.2500  -999.2500  -999.2500    47.7870   -49.5461    40.1128    28.5453    35.4351   -83.3413   -29.8085    10.3138    42.6371     2.8127     0.1215   -43.9888     0.1172
 5807.0000  -999.2500  -999.2500  -999.2500    49.0710   -49.5461    25.7259    22.0674    19.7651   -83.1950   -37.5028    10.3089    44.7349     2.8596     0.0968   -51.8853     0.1257
 5807.5000  -999.2500  -999.2500  -999.2500    57.2928   -34.4175    24.3283    20.0134    13.1153   -83.2006   -48.9387    10.2985    45.8794     2.9565     0.0844   -51.9573     0.1010
 5808.0000  -999.2500  -999.2500  -999.2500    60.7633   -23.0711    24.8317    20.0056    12.2306   -83.0535   -56.6330    10.3134    43.7987     2.9831     0.0674   -52.0414     0.0533
 5808.5000  -999.2500  -999.2500  -999.2500    61.2929   -19.2890    27.5438    25.6775    12.9253   -82.9079   -53.0087    10.2982    28.0986     2.9878     0.0613   -52.1094     0.0373
 5809.0000  -999.2500  -999.2500  -999.2500    61.1435   -23.0711    32.7480    38.1354    16.4762   -82.9135   -45.6194    10.2980    18.4294     2.9847     0.0599   -52.1875     0.0320
 5809.5000  -999.2500  -999.2500  -999.2500    59.6366   -34.4175    55.0742    64.6279    47.6145   -82.6165   -38.2534    10.2979    10.2707     2.9730     0.0584   -52.2694     0.0295
 5810.0000  -999.2500  -999.2500  -999.2500    56.0183   -41.9818   214.3610   206.5111   323.7135   -82.6205   -45.9244    10.2977     8.1429     2.9636     0.0555   -52.3533     0.0283
 5810.5000  -999.2500  -999.2500  -999.2500    52.8523   -45.7640  1070.9988   873.5516  1272.9065   -82.4737   -53.6186    10.2976     7.8251     2.9566     0.0384   -48.5071     0.0277
 5811.0000  -999.2500  -999.2500  -999.2500    50.8178   -41.9818  1336.7007   759.9045   755.8075   -82.3280   -53.7594    10.3125     7.8113     2.9668     0.0215   -52.5034     0.0280
 5811.5000  -999.2500  -999.2500  -999.2500    50.2159   -34.4175  1364.3632   571.3223   704.8242   -82.1817   -42.6285    10.2973     8.0968     2.9761     0.0325   -52.5781     0.0290
 5812.0000  -999.2500  -999.2500  -999.2500    50.2927   -26.8533  1308.2598   460.4659   832.4115   -82.0353   -35.2390    10.2971     8.3869     2.9715     0.0622   -52.6654     0.0299
 5812.5000  -999.2500  -999.2500  -999.2500    50.5206   -26.8533  1138.3857   355.9706  1236.2870   -82.0409   -42.9100    10.2970     9.8767     2.9270     0.0716   -52.7344     0.0336
 5813.0000  -999.2500  -999.2500  -999.2500    50.5974   -26.8533   970.2239   303.2738  1334.0154   -82.0459   -61.8994    10.2968    11.3712     2.8684     0.0329   -52.8274     0.0383
 5813.5000  -999.2500  -999.2500  -999.2500    50.4482   -30.6354   494.9253   258.3948  1315.1846   -81.8988   -65.8053    10.2967    13.1650     2.8434     0.0221   -52.8934     0.0440
 5814.0000  -999.2500  -999.2500  -999.2500    50.2234   -34.4175   247.4620   173.8363   786.3057   -81.7524   -50.9093    10.2965    16.7711     2.8379     0.0128   -52.9688     0.0546
 5814.5000  -999.2500  -999.2500  -999.2500    50.0738   -38.1997   124.4117   118.5929   112.9516   -81.7581   -35.9897    10.2964    22.1847     2.8309     0.0083   -53.0469     0.0680
 5815.0000  -999.2500  -999.2500  -999.2500    50.3019   -38.1997    75.4797   100.3439    31.7421   -81.7623   -32.3654    10.2661    25.1898     2.7888     0.0084   -53.1250     0.0790
 5815.5000  -999.2500  -999.2500  -999.2500    51.0575   -38.1997    69.4297    76.4973    25.7616   -81.7672   -40.0597    10.2498    26.0809     2.7614     0.0101   -53.2174     0.0855
 5816.0000  -999.2500  -999.2500  -999.2500    52.6428   -34.4175    63.8612    67.9508    28.9811   -81.7715   -55.2607    10.2358    25.4496     2.7474     0.0133   -53.2894     0.0961
 5816.5000  -999.2500  -999.2500  -999.2500    54.3034   -26.8533    57.5329    61.1996   154.5071   -81.7764   -59.1901    10.2206    26.0463     2.7357     0.0197   -53.3735     0.1027
 5817.0000  -999.2500  -999.2500  -999.2500    54.2294   -23.0711    44.1870    53.6122   161.0301   -81.7806   -51.8007    10.2204    30.5574     2.7208     0.0251   -53.4394     0.1096
 5817.5000  -999.2500  -999.2500  -999.2500    54.0048   -23.0711    34.4128    43.2096   103.7686   -81.9355   -48.1881    10.2052    37.1777     2.6966     0.0324   -53.5156     0.1343
 5818.0000  -999.2500  -999.2500  -999.2500    53.9306   -26.8533    26.9872    32.4864    37.4222   -82.0904   -48.3406    10.2051    42.8931     2.6865     0.0357   -49.6952     0.1393
 5818.5000  -999.2500  -999.2500  -999.2500    55.4407   -26.8533    21.4584    24.5962    24.1501   -82.0949   -52.2463    10.2050    47.4041     2.6795     0.0326   -49.7656     0.1424
