~VERSION INFORMATION
 VERS.                2.0:   CWLS LOG ASCII STANDARD - VERSION 2.0
 WRAP.                 NO:   ONE LINE PER DEPTH STEP
~WELL INFORMATION
#MNEM.UNIT      DATA TYPE    INFORMATION
#----------   ------------   ------------------------------
 STRT.F           27.5000:   START DEPTH
 STOP.F         5889.0000:   STOP DEPTH
 STEP.F            0.5000:   STEP LENGTH
 NULL.          -999.2500:   NO VALUE
 COMP.   LAWRENCE ALLISON:   COMPANY
 WELL. LAWRENCE "X" #25-11:   WELL
 FLD .        N.P.R NO. 3:   FIELD
 LOC .      S11 T38N R78W:   LOCATION
 CNTY.            NATRONA:   COUNTY
 STAT.            WYOMING:   STATE
 CTRY. UNITED STATES OF AMERICA:   COUNTRY
 SRVC.      DRESSER ATLAS:   SERVICE COMPANY
 DATE.        09-FEB-1983:   LOGDATE
 API .     49025109170000:   API NUMBER
~CURVE INFORMATION
#MNEM.UNIT       API CODE    CURVE DESCRIPTION
#----------   ------------   ------------------------------
 DEPT.F                  :   
 CN  .DEC    42 890 03 00:   NEUTRON POROSITY
 GRD .GAPI   45 310 01 00:   GAMMA RAY FROM DENSITY LOG
 CORR.G/C3   45 356 01 00:   DENSITY CORRECTION
 DEN .G/C3   45 350 01 00:   BULK DENSITY
 CALD.IN     45 280 60 00:   CALIPER FROM DENSITY LOG
 TEND.LBS    45 635 01 00:   TENSION FORM DENSITY LOG
 GRS .GAPI   60 310 01 00:   GAMMA RAY FROM SONIC LOG
 TENS.LBS    60 635 01 00:   TENSION FROM SONIC
 DT  .US/F   60 520 00 00:   DELTA TIME
 SPR .MV     11 010 01 00:   SPONTANEOUS POTENTIAL FROM RES.
 RD  .OHMM   11 220 10 00:   RESISTIVITY DEEP
 RS  .OHMM   11 220 09 00:   RESISTIVITY SHALLOW
 RMLL.OHMM   11 270 04 00:   MICRO LATEROLOG
 TENR.LBS    11 635 01 00:   TENSION FROM RES.
~PARAMETER INFORMATION
#MNEM.UNIT          VALUE    DESCRIPTION
#----------   ------------   ------------------------------
 EKB .F         5196.0000:   Kelly bushing
 EGL .F         5186.0000:   Ground level
 TD  .F         5883.0000:   Total depth
 CLNT.            A2DTECH:   Client Code
 SL  . 1989' FSL & 1148' FWL:   Surface Location
 PD  .                 GL:   Permanent Datum
 EPD .F              5186:   Elevation Permanent Datum
 LMF .                 KB:   Log Measured From
 DMF .                 KB:   Drilling Measured From
 DAPD.F                10:   Feet Above Permanent Datum
 DATE.        09-FEB-1983:   Date Logged [DD-MMM-YYYY]
 DD  .F              5883:   Depth driller
 DL  .F              5882:   Depth logger
 BLI .F              5871:   Bottom log interval
 TLI .F               700:   Top log interval
 CS1 .IN            9.625:   Casing size
 CBD1.      9.625" @ 701':   Casing driller 1
 CBL1.F               700:   Casing logger 1
 BS1 .IN             8.75:   Bit size
 BSD1.F              5883:   Depth drilled with bit1
 DFT .    HEC/DRISPAC/KCL:   Type fluid in hole
 DFD .                  9:   Density
 DFV .                 35:   Viscosity
 DFPH.                  8:   pH
 DFL .                6.4:   Fluid loss
 MSS .           FLOWLINE:   Source of sample
 RMS .OHMM           0.23:   Rm
 MST .F                50:   Rm Meas. temp.
 RMF .OHMM           0.17:   Rmf
 MFST.F                54:   Rmf Meas. temp.
 MFSS.               MEAS:   Source Rmf.
 BHT .F               176:   BHT.
 TCS .HRS              10:   Time Circ. stopped
 MRT .F               176:   Maximum recorded temp.
 LUN .               6274:   Logging unit number
 LUL .               GLTE:   Logging unit location
 ENGI.          TOLLEFSON:   Recorded By
 WITN.           JENNINGS:   Witnessed by
 ORIG.           5" PRINT:   Origin of data
 UWI .     49025109170000:   Unique Well ID
 DICO. A2D TECHNOLOGIES, INC.:   Digitizing Company
 RMC .OHMM           0.41:   Rmc
 MCST.F                54:   Rmc Meas. temp.
 MCSS.               MEAS:   Source Rmc.
~OTHER INFORMATION
~A  DEPTH       CN        GRD       CORR        DEN       CALD       TEND        GRS       TENS         DT        SPR         RD         RS       RMLL       TENR
# ...
 2404.0000     0.2732   135.5869     0.0082     2.4827    10.1031   -37.1990  -999.2500  -999.2500  -999.2500   -96.1692     9.7897     9.6797     9.6340   -56.5036
 2404.5000     0.2847   139.8631     0.0352     2.4886    10.1053   -40.2504  -999.2500  -999.2500  -999.2500   -96.1777     9.5865     9.6046     9.3630   -55.9302
 2405.0000     0.2910   144.7518     0.0382     2.4818    10.1074   -43.3018  -999.2500  -999.2500  -999.2500   -96.1862     9.3814     9.4641     8.9746   -55.3568
 2405.5000     0.2962   147.2015     0.0322     2.4757    10.1098   -44.5848  -999.2500  -999.2500  -999.2500   -96.0445     9.1807     9.3254     8.2507   -54.7834
 2406.0000     0.2969   147.4277     0.0051     2.4697    10.1000   -41.8641  -999.2500  -999.2500  -999.2500   -96.0552     8.9842     9.3805     7.7997   -54.2100
 2406.5000     0.2996   145.9146    -0.0011     2.4604    10.0898   -39.1434  -999.2500  -999.2500  -999.2500   -95.9114     9.2909     9.6364     8.0118   -53.6367
 2407.0000     0.3030   143.1821     0.0035     2.4516    10.0900   -36.4227  -999.2500  -999.2500  -999.2500   -95.9221     9.7441     9.9681     8.6981   -53.0633
 2407.5000     0.3108   141.0584    -0.0085     2.4546    10.0900   -35.1603  -999.2500  -999.2500  -999.2500   -95.9327    10.0788    10.2423     9.6544   -52.4899
 2408.0000     0.3060   141.3700    -0.0251     2.4576    10.0900   -34.6987  -999.2500  -999.2500  -999.2500   -95.9412    10.3530    10.5903    10.3927   -51.9165
 2408.5000     0.2823   143.2435    -0.0040     2.4591    10.0900   -34.2372  -999.2500  -999.2500  -999.2500   -95.9497    10.3439    10.6572    10.5308   -51.3431
 2409.0000     0.2835   144.4304     0.0096     2.4606    10.0900   -33.7756  -999.2500  -999.2500  -999.2500   -95.9582     9.9126    10.1410    10.2324   -50.7697
 2409.5000     0.2838   144.1314     0.0230     2.4598    10.0900   -33.3141  -999.2500  -999.2500  -999.2500   -95.9670     9.3704     9.3875     9.1522   -50.1963
 2410.0000     0.2806   141.4007     0.0290     2.4703    10.0900   -32.8525  -999.2500  -999.2500  -999.2500   -95.9774     8.9814     8.8645     6.8841   -49.6229
 2410.5000     0.2800   137.1236     0.0305     2.4756    10.0900   -32.3910  -999.2500  -999.2500  -999.2500   -95.8336     8.5490     8.8021     7.1204   -49.0495
 2411.0000     0.2803   131.9801     0.0230     2.4794    10.0902   -31.9294  -999.2500  -999.2500  -999.2500   -95.6920     8.7192     8.9796     7.7303   -48.4762
 2411.5000     0.2762   128.3343     0.0124     2.4801    10.0977   -31.4679  -999.2500  -999.2500  -999.2500   -95.7026     9.1445     9.2246     8.4507   -48.7218
 2412.0000     0.2660   126.2106     0.0154     2.4740    10.1103   -31.0063  -999.2500  -999.2500  -999.2500   -95.4130     9.5244     9.6086     9.0549   -41.8943
 2412.5000     0.2669   125.0001     0.0169     2.4687    10.1100   -30.5448  -999.2500  -999.2500  -999.2500   -95.4215     9.5826     9.8024     9.2305   -42.8733
 2413.0000     0.2754   123.7046     0.0184     2.4650    10.1100   -30.0832  -999.2500  -999.2500  -999.2500   -95.4300     9.4422     9.7919     9.1590   -43.6842
 2413.5000     0.2866   120.1457     0.0214     2.4619    10.1100   -29.6217  -999.2500  -999.2500  -999.2500   -95.4385     9.6974     9.7836     9.5371   -44.6361
 2414.0000     0.2951   118.3265     0.0244     2.4612    10.1100   -29.1601  -999.2500  -999.2500  -999.2500   -95.1467     9.9613     9.8435    10.0724   -45.4191
 2414.5000     0.2903   118.0275     0.0274     2.4642    10.1093   -28.6986  -999.2500  -999.2500  -999.2500   -95.0051     9.8159     9.6894    10.2739   -46.2025
 2415.0000     0.2795   118.3409     0.0289     2.4702    10.1067   -28.2371  -999.2500  -999.2500  -999.2500   -94.8634     9.4715     9.3585     9.5768   -46.9924
 2415.5000     0.2732   117.1322     0.0274     2.4786    10.1041   -27.7755  -999.2500  -999.2500  -999.2500   -94.8741     9.0158     9.0315     8.9289   -47.9650
 2416.0000     0.2687   114.7041     0.0211     2.4875    10.1016   -27.3140  -999.2500  -999.2500  -999.2500   -94.7325     8.5819     9.2779     8.5585   -41.2296
 2416.5000     0.2593   112.5804     0.0123     2.4882    10.0991   -26.8524  -999.2500  -999.2500  -999.2500   -94.5908     8.8767     9.7364     8.5512   -42.0130
 2417.0000     0.2534   111.9567     0.0048     2.4829    10.0965   -26.3909  -999.2500  -999.2500  -999.2500   -94.6015     9.6376    10.3477     9.4111   -42.7964
 2417.5000     0.2570   115.2595    -0.0013     2.4739    10.0940   -25.9293  -999.2500  -999.2500  -999.2500   -94.6100    10.3522    10.7785    10.2882   -36.0607
 2418.0000     0.2664   124.1716    -0.0013     2.4653    10.0913   -25.4980  -999.2500  -999.2500  -999.2500   -94.6186    11.1249    11.2296    10.9400   -37.0400
 2418.5000     0.2707   134.5289     0.0107     2.4550    10.0843   -25.4980  -999.2500  -999.2500  -999.2500   -94.4790    11.3487    11.2176    11.3940   -37.8235
 2419.0000     0.2755   143.0597     0.0288     2.4482    10.0713   -25.4980  -999.2500  -999.2500  -999.2500   -94.4464    11.7386    11.7092    11.4634   -38.6065
 2419.5000     0.2893   148.8640     0.0393     2.4422    10.0630   -25.4980  -999.2500  -999.2500  -999.2500   -94.3437    12.1490    12.3386    10.9097   -39.3984
 2420.0000     0.2998   148.2509     0.0392     2.4361    10.0552   -26.5989  -999.2500  -999.2500  -999.2500   -94.3544    12.0451    12.2428    10.4571   -40.3693
 2420.5000     0.3046   140.6478     0.0287     2.4346    10.0475   -29.3196  -999.2500  -999.2500  -999.2500   -94.3650    11.3077    11.4121    10.0929   -48.6711
 2421.0000     0.2947   139.1329     0.0362     2.4519    10.0397   -32.0403  -999.2500  -999.2500  -999.2500   -94.2212    10.6892    10.4878     9.9436   -56.9733
 2421.5000     0.2896   137.9225     0.0407     2.4632    10.0320   -34.7610  -999.2500  -999.2500  -999.2500   -94.2319    10.2454    10.1930    10.0063   -57.7568
 2422.0000     0.2960   137.0164     0.0422     2.4692    10.0242   -33.6217  -999.2500  -999.2500  -999.2500   -94.0901    11.0445    10.7658    10.2053   -58.7357
 2422.5000     0.2972   136.1104     0.0456     2.4722    10.0165   -31.1686  -999.2500  -999.2500  -999.2500   -94.1009    12.5001    12.2729    10.4105   -59.5192
 2423.0000     0.2873   134.2929     0.0752     2.4662    10.0087   -28.6990  -999.2500  -999.2500  -999.2500   -94.4097    12.9322    12.8784    10.5466   -60.3026
 2423.5000     0.2807   133.0825     0.0812     2.4601    10.0009   -26.2426  -999.2500  -999.2500  -999.2500   -94.2680    12.3927    11.9969    10.1771   -68.6048
 2424.0000     0.2771   132.7853     0.0797     2.4571     9.9932   -27.9017  -999.2500  -999.2500  -999.2500   -94.1261    11.7105    11.2608     9.4232   -69.3983
 2424.5000     0.2800   133.7075     0.0782     2.4601     9.9854   -31.3479  -999.2500  -999.2500  -999.2500   -94.1351    11.1486    10.7945     8.7251   -70.3672
 2425.0000     0.2851   132.4971     0.0782     2.4615     9.9777   -34.7942  -999.2500  -999.2500  -999.2500   -94.4459    11.5315    11.7196     8.1348   -63.4359
 2425.5000     0.2878   128.8513     0.0782     2.4578     9.9699   -38.2404  -999.2500  -999.2500  -999.2500   -94.4544    11.9276    12.2121     7.6885   -56.7005
 2426.0000     0.2897   123.3791     0.0812     2.4533     9.9621   -41.6866  -999.2500  -999.2500  -999.2500   -94.6130    12.0004    12.0264     7.7890   -42.6314
 2426.5000     0.2861   118.2131     0.0781     2.4495     9.9544   -45.4183  -999.2500  -999.2500  -999.2500   -94.7718    11.4996    11.2884     8.1686   -36.1025
 2427.0000     0.2837   114.8717     0.0811     2.4503     9.9466   -51.3446  -999.2500  -999.2500  -999.2500   -95.0826    10.5736    10.5225     8.5668   -36.8859
 2427.5000     0.2753   115.4878     0.0871     2.4540     9.9389   -55.3785  -999.2500  -999.2500  -999.2500   -95.0912     9.8577    10.0847     8.6189   -37.6689
 2428.0000     0.2693   117.9303     0.0916     2.4623     9.9313   -55.3785  -999.2500  -999.2500  -999.2500   -95.2498     9.5802     9.7981     8.4914   -38.4524
