~VERSION INFORMATION
 VERS.                2.0:   CWLS LOG ASCII STANDARD - VERSION 2.0
 WRAP.                 NO:   ONE LINE PER DEPTH STEP
~WELL INFORMATION
#MNEM.UNIT      DATA TYPE    INFORMATION
#----------   ------------   ------------------------------
 STRT.F           40.0000:   START DEPTH
 STOP.F         3326.0000:   STOP DEPTH
 STEP.F            0.5000:   STEP LENGTH
 NULL.          -999.2500:   NO VALUE
 COMP.    FENIX & SCISSON:   COMPANY
 WELL.  FENIX "AX" #53-15:   WELL
 FLD .              NPR-3:   FIELD
 LOC .      S15 T38N R78W:   LOCATION
 CNTY.            NATRONA:   COUNTY
 STAT.            WYOMING:   STATE
 CTRY. UNITED STATES OF AMERICA:   COUNTRY
 SRVC.              WELEX:   SERVICE COMPANY
 DATE.        02-MAR-1977:   LOGDATE
 API .     49025102640000:   API NUMBER
~CURVE INFORMATION
#MNEM.UNIT       API CODE    CURVE DESCRIPTION
#----------   ------------   ------------------------------
 DEPT.F                  :   
 CALD.IN     42 280 60 00:   CALIPER
 TEND.LBS    42 635 01 00:   TENSION FROM NEUTRON POROSITY LOG
 GRD .GAPI   42 310 30 00:   GAMMA RAY
 NPHI.DEC    42 890 03 00:   NEUTRON POROSITY SANDSTONE
 DPHI.DEC    45 890 12 00:   DENSITY POROSITY SANDSTONE
 SPR .MV     07 010 01 00:   SPONTANEOUS POTENTIAL
 ILD .OHMM   07 120 46 00:   DEEP INDUCTION RESISTIVITY
 ILM .OHMM   07 120 44 00:   INDUCTION LOG MEDIUM RESISTIVITY
 SGRD.OHMM   07 220 05 00:   SHALLOW SHORT GUARD RESISTIVITY
~PARAMETER INFORMATION
#MNEM.UNIT          VALUE    DESCRIPTION
#----------   ------------   ------------------------------
 EKB .F            0.0000:   Kelly bushing
 EGL .F         5251.0000:   Ground level
 EDF .F            0.0000:   Drilling floor
 TD  .F          750.0000:   Total depth
 DATE.        02-MAR-1977:   Date logged
 CLNT.            A2DTECH:   Client Code
 SL  . 1650' FNL & 2360' FEL:   Surface Location
 PD  .                 GL:   Permanent Datum
 EPD .F              5253:   Elevation Permanent Datum
 LMF .                 GL:   Log Measured From
 DMF .                 GL:   Drilling Measured From
 DD  .F               750:   Depth driller
 DL  .F               747:   Depth logger
 BLI .F               745:   Bottom log interval
 CS1 .IN            8.625:   Casing size
 CBD1.       8.625" @ 40':   Casing driller 1
 CBL1.F                44:   Casing logger 1
 BS1 .IN            7.875:   Bit size
 BSD1.F               750:   Depth drilled with bit1
 DFT .           CHEM-GEL:   Type fluid in hole
 MSS .           FLOWLINE:   Source of sample
 RMS .OHMM          0.425:   Rm
 MST .F                56:   Rm Meas. temp.
 RMF .OHMM          0.466:   Rmf
 MFST.F                56:   Rmf Meas. temp.
 RMC .OHMM          0.712:   Rmc
 MCST.F                56:   Rmc Meas. temp.
 MFSS.               MEAS:   Source Rmf.
 MCSS.               MEAS:   Source Rmc.
 RMB .OHMM          0.350:   Rm. at BHT
 BHT .F                68:   BHT.
 TCS .HRS               2:   Time Circ. stopped
 MRT .F                68:   Maximum recorded temp.
 LUN .               8611:   Logging unit number
 LUL .            GILLETH:   Logging unit location
 ENGI.          D. LAWSON:   Recorded By
 WITN.           S. BURKL:   Witnessed by
 ORIG.           5" PRINT:   Origin of data
 UWI .     49025102640000:   Unique Well ID
 DICO. A2D TECHNOLOGIES, INC.:   Digitizing Company
~OTHER INFORMATION
~A   DEPT     CALD       TEND         GRD        NPHI     DPHI        SPR        ILD        ILM       SGRD   
# ...
  879.5000     8.6700   287.7510   110.8420     0.3060     0.0920  -999.2500  -999.2500  -999.2500  -999.2500
  880.0000     8.6700   289.2480   108.3450     0.3000     0.0910  -999.2500  -999.2500  -999.2500  -999.2500
  880.5000     8.6700   290.7450   109.2390     0.2960     0.0890  -999.2500  -999.2500  -999.2500  -999.2500
  881.0000     8.6700   292.2420   109.9140     0.2970     0.0890  -999.2500  -999.2500  -999.2500  -999.2500
  881.5000     8.6700   293.7390   109.1410     0.2960     0.0840  -999.2500  -999.2500  -999.2500  -999.2500
  882.0000     8.6700   300.6330   104.1710     0.2950     0.0770  -999.2500  -999.2500  -999.2500  -999.2500
  882.5000     8.6670   301.5320    98.5370     0.2960     0.0700  -999.2500  -999.2500  -999.2500  -999.2500
  883.0000     8.6540   297.3530   104.2670     0.2980     0.0730  -999.2500  -999.2500  -999.2500  -999.2500
  883.5000     8.6400   294.3220   108.8290     0.2960     0.0740  -999.2500  -999.2500  -999.2500  -999.2500
  884.0000     8.6270   293.2780   104.8700     0.2940     0.0740  -999.2500  -999.2500  -999.2500  -999.2500
  884.5000     8.6140   292.2330   104.8780     0.2940     0.0760  -999.2500  -999.2500  -999.2500  -999.2500
  885.0000     8.6000   291.1880   107.4860     0.2980     0.0730  -999.2500  -999.2500  -999.2500  -999.2500
  885.5000     8.5930   290.1430   110.0820     0.3090     0.0700  -999.2500  -999.2500  -999.2500  -999.2500
  886.0000     8.6070   289.0980   111.7610     0.3120     0.0690  -999.2500  -999.2500  -999.2500  -999.2500
  886.5000     8.6200   288.0540   110.1570     0.3200     0.0730  -999.2500  -999.2500  -999.2500  -999.2500
  887.0000     8.6340   287.0090   112.4940     0.3270     0.0820  -999.2500  -999.2500  -999.2500  -999.2500
  887.5000     8.6470   285.9640   109.5130     0.3330     0.0920  -999.2500  -999.2500  -999.2500  -999.2500
  888.0000     8.6600   284.9190   112.9890     0.3260     0.0970  -999.2500  -999.2500  -999.2500  -999.2500
  888.5000     8.6740   284.7150   116.0160     0.3190     0.0930  -999.2500  -999.2500  -999.2500  -999.2500
  889.0000     8.6870   284.7150   111.9740     0.3140     0.0900  -999.2500  -999.2500  -999.2500  -999.2500
  889.5000     8.7010   284.7150   106.9120     0.3110     0.0920  -999.2500  -999.2500  -999.2500  -999.2500
  890.0000     8.7140   284.7150   105.5620     0.3080     0.0920  -999.2500  -999.2500  -999.2500  -999.2500
  890.5000     8.7280   284.7150   110.4010     0.3080     0.0960  -999.2500  -999.2500  -999.2500  -999.2500
  891.0000     8.7410   284.7150   111.4470     0.3100     0.1020  -999.2500  -999.2500  -999.2500  -999.2500
  891.5000     8.7550   284.7150   108.0870     0.3120     0.1080  -999.2500  -999.2500  -999.2500  -999.2500
  892.0000     8.7680   284.7150   107.2010     0.3130     0.1140  -999.2500  -999.2500  -999.2500  -999.2500
  892.5000     8.7810   284.7150   114.7690     0.3090     0.1100  -999.2500  -999.2500  -999.2500  -999.2500
  893.0000     8.7950   284.7150   113.4660     0.3140     0.1060  -999.2500  -999.2500  -999.2500  -999.2500
  893.5000     8.8080   284.7150   115.1750     0.3200     0.1040  -999.2500  -999.2500  -999.2500  -999.2500
  894.0000     8.8130   284.7150   116.6390     0.3250     0.0990  -999.2500  -999.2500  -999.2500  -999.2500
  894.5000     8.8160   284.7150   110.9360     0.3290     0.0940  -999.2500  -999.2500  -999.2500  -999.2500
  895.0000     8.8200   284.7150   109.2560     0.3310     0.0940  -999.2500  -999.2500  -999.2500  -999.2500
  895.5000     8.8230   284.7150   111.3000     0.3320     0.0960  -999.2500  -999.2500  -999.2500  -999.2500
  896.0000     8.8270   284.7150   113.5850     0.3310     0.1020  -999.2500  -999.2500  -999.2500  -999.2500
  896.5000     8.8290   284.3520   115.6220     0.3290     0.1020  -999.2500  -999.2500  -999.2500  -999.2500
  897.0000     8.8000   283.9330   115.5050     0.3300     0.0950  -999.2500  -999.2500  -999.2500  -999.2500
  897.5000     8.7720   283.5150   117.3570     0.3260     0.0920  -999.2500  -999.2500  -999.2500  -999.2500
  898.0000     8.7440   283.0960   111.9830     0.3180     0.0950  -999.2500  -999.2500  -999.2500  -999.2500
  898.5000     8.7300   282.6780   108.6610     0.3140     0.0920  -999.2500  -999.2500  -999.2500  -999.2500
  899.0000     8.7360   282.2590   105.0200     0.3150     0.0910  -999.2500  -999.2500  -999.2500  -999.2500
  899.5000     8.7430   281.8410   104.6270     0.3130     0.0930  -999.2500  -999.2500  -999.2500  -999.2500
  900.0000     8.7500   281.4230   106.8890     0.3090     0.0940  -999.2500  -999.2500  -999.2500  -999.2500
  900.5000     8.7500   281.0040   113.8830     0.3060     0.0960  -999.2500  -999.2500  -999.2500  -999.2500
  901.0000     8.7570   280.5860   117.1330     0.3090     0.0980  -999.2500  -999.2500  -999.2500  -999.2500
  901.5000     8.7670   280.1670   115.4130     0.3070     0.0930  -999.2500  -999.2500  -999.2500  -999.2500
  902.0000     8.7770   279.7490   115.1350     0.3040     0.0820  -999.2500  -999.2500  -999.2500  -999.2500
  902.5000     8.7880   279.3300   115.0670     0.3080     0.0840  -999.2500  -999.2500  -999.2500  -999.2500
  903.0000     8.7860   278.9120   113.2030     0.3130     0.0880  -999.2500  -999.2500  -999.2500  -999.2500
  903.5000     8.7790   278.4930   110.9700     0.3160     0.0910  -999.2500  -999.2500  -999.2500  -999.2500
  904.0000     8.7710   278.0750   115.3260     0.3170     0.0940  -999.2500  -999.2500  -999.2500  -999.2500
  904.5000     8.7770   277.6560   109.1070     0.3180     0.0990  -999.2500  -999.2500  -999.2500  -999.2500
  905.0000     8.7860   277.2380   106.2270     0.3200     0.0940  -999.2500  -999.2500  -999.2500  -999.2500
  905.5000     8.7890   276.8190   105.2350     0.3230     0.0930  -999.2500  -999.2500  -999.2500  -999.2500
  906.0000     8.7720   276.4010   108.4630     0.3270     0.0960  -999.2500  -999.2500  -999.2500  -999.2500
  906.5000     8.6980   275.9820   111.8470     0.3270     0.0880  -999.2500  -999.2500  -999.2500  -999.2500
  907.0000     8.6270   275.5640   113.1690     0.3210     0.0840  -999.2500  -999.2500  -999.2500  -999.2500
  907.5000     8.5670   275.1450   114.0260     0.3160     0.0820  -999.2500  -999.2500  -999.2500  -999.2500
  908.0000     8.5540   274.7250   111.7470     0.3150     0.0730  -999.2500  -999.2500  -999.2500  -999.2500
  908.5000     8.5510   282.7370   113.2970     0.3140     0.0760  -999.2500  -999.2500  -999.2500  -999.2500
  909.0000     8.5530   292.7870   115.0100     0.3150     0.0770  -999.2500  -999.2500  -999.2500  -999.2500
  909.5000     8.5550   292.7990   116.2930     0.3140     0.0780  -999.2500  -999.2500  -999.2500  -999.2500
  910.0000     8.5560   290.4440   115.7780     0.3130     0.0810  -999.2500  -999.2500  -999.2500  -999.2500
  910.5000     8.5580   288.0880   117.0970     0.3130     0.0850  -999.2500  -999.2500  -999.2500  -999.2500
  911.0000     8.5600   285.7330   115.6650     0.3100     0.0890  -999.2500  -999.2500  -999.2500  -999.2500
  911.5000     8.5610   283.3780   113.7490     0.3070     0.0930  -999.2500  -999.2500  -999.2500  -999.2500
  912.0000     8.5630   281.0220   112.9830     0.3130     0.0890  -999.2500  -999.2500  -999.2500  -999.2500
  912.5000     8.5650   278.6670   116.5350     0.3190     0.0830  -999.2500  -999.2500  -999.2500  -999.2500
  913.0000     8.5660   276.3110   115.1720     0.3170     0.0820  -999.2500  -999.2500  -999.2500  -999.2500
  913.5000     8.5680   273.9560   113.4230     0.3100     0.0790  -999.2500  -999.2500  -999.2500  -999.2500
  914.0000     8.5690   271.6000   114.8900     0.3030     0.0740  -999.2500  -999.2500  -999.2500  -999.2500
  914.5000     8.5350   269.2450   109.6160     0.2980     0.0680  -999.2500  -999.2500  -999.2500  -999.2500
  915.0000     8.4970   266.8890    97.4580     0.2910     0.0660  -999.2500  -999.2500  -999.2500  -999.2500
  915.5000     8.4590   264.7350    83.3630     0.2850     0.0640  -999.2500  -999.2500  -999.2500  -999.2500
