~VERSION INFORMATION
 VERS.                2.0:   CWLS LOG ASCII STANDARD - VERSION 2.0
 WRAP.                 NO:   ONE LINE PER DEPTH STEP
~WELL INFORMATION
#MNEM.UNIT      DATA TYPE    INFORMATION
#----------   ------------   ------------------------------
 STRT.F            0.5000:   START DEPTH
 STOP.F         4128.0000:   STOP DEPTH
 STEP.F            0.5000:   STEP LENGTH
 NULL.          -999.2500:   NO VALUE
 COMP. LAWRENCE ALLISON ASSOC WEST:   COMPANY
 WELL. LAWRENCE NPR "AX" #12-33:   WELL
 FLD .      NPR - WILDCAT:   FIELD
 LOC .      S33 T39N R78W:   LOCATION
 CNTY.            NATRONA:   COUNTY
 STAT.            WYOMING:   STATE
 CTRY. UNITED STATES OF AMERICA:   COUNTRY
 SRVC.      DRESSER ATLAS:   SERVICE COMPANY
 DATE.        04-AUG-1984:   LOGDATE
 API .     49025109720000:   API NUMBER
~CURVE INFORMATION
#MNEM.UNIT       API CODE    CURVE DESCRIPTION
#----------   ------------   ------------------------------
 DEPT.F                  :   
 CORR.G/C3   45 356 01 00:   DENSITY CORRECTION
 TEND.LBS    45 635 01 00:   TENSION FROM DENSITY LOG
 RHOB.G/C3   45 350 01 00:   BULK DENSITY
 GRR .GAPI   07 310 01 00:   GAMMA RAY FROM RESISTIVITY
 SPR .MV     07 010 01 00:   SPONTANEOUS POTENTIAL
 RFOC.OHMM   07 220 04 00:   RESISTIVITY FOCUSED LOG RES.
 RILM.OHMM   07 120 44 00:   RESISTIVITY INDUCTION LOG MEDIUM
 RILD.OHMM   07 120 46 00:   RESISTIVITY INDUCTION LOG MEDIUM
 TENR.LBS    07 635 01 00:   TENSION FROM RESISTIVITY
 CALR.IN     07 280 01 00:   CALIPER FROM RESISTIVITY
 DT  .US/F   60 520 00 00:   DELTA TIME
 TENS.LBS    60 635 01 00:   TENSION FROM SONIC
 SPHI.DEC    60 890 00 00:   SONIC POROSITY
~PARAMETER INFORMATION
#MNEM.UNIT          VALUE    DESCRIPTION
#----------   ------------   ------------------------------
 EKB .F         5170.0000:   Kelly bushing
 EGL .F         5157.0000:   Ground level
 EDF .F            0.0000:   Drilling floor
 TD  .F         4121.0000:   Total depth
 DATE.        04-AUG-1984:   Date logged
 CLNT.            A2DTECH:   Client Code
 SL  . 857' FNL & 751' FWL:   Surface Location
 PD  .                 GL:   Permanent Datum
 EPD .F              5157:   Elevation Permanent Datum
 LMF .                 KB:   Log Measured From
 DMF .                 KB:   Drilling Measured From
 DAPD.F                13:   Feet Above Permanent Datum
 DD  .F              4120:   Depth driller
 DL  .F              4121:   Depth logger
 BLI .F              4119:   Bottom log interval
 CS1 .IN            8.625:   Casing size
 CBD1.      8.625" @ 625':   Casing driller 1
 CBL1.F               624:   Casing logger 1
 BS1 .IN            7.875:   Bit size
 BSD1.F              4120:   Depth drilled with bit1
 DFT .            GEL/KCL:   Type fluid in hole
 DFD .                9.1:   Density
 DFV .                 40:   Viscosity
 DFPH.                8.5:   pH
 DFL .                 11:   Fluid loss
 MSS .               TANK:   Source of sample
 RMS .OHMM           .302:   Rm
 MST .F                84:   Rm Meas. temp.
 RMF .OHMM            .22:   Rmf
 MFST.F                84:   Rmf Meas. temp.
 RMC .OHMM            .38:   Rmc
 MCST.F                84:   Rmc Meas. temp.
 MFSS.               CALC:   Source Rmf.
 MCSS.               CALC:   Source Rmc.
 RMB .OHMM            .19:   Rm. at BHT
 BHT .F               132:   BHT.
 TCS .HRS               4:   Time Circ. stopped
 MRT .F               132:   Maximum recorded temp.
 LUN .               6307:   Logging unit number
 LUL .               GLTE:   Logging unit location
 ENGI.           FAHLSING:   Recorded By
 WITN.       ROBERT SCOTT:   Witnessed by
 ORIG.           5" PRINT:   Origin of data
 UWI .     49025109720000:   Unique Well ID
 DICO. A2D TECHNOLOGIES, INC.:   Digitizing Company
~OTHER INFORMATION
~A    DEPT    CORR       TEND       RHOB         GRR       SPR       RFOC       RILM       RILD       TENR       CALR         DT       TENS       SPHI   
# ...
  858.5000  -999.2500  -999.2500  -999.2500   116.7480   -34.9170     6.1030     5.9390     5.6840   -35.2150     8.8960  -999.2500  -999.2500  -999.2500
  859.0000  -999.2500  -999.2500  -999.2500   117.2730   -35.3320     6.1030     5.9220     5.6700   -35.2150     8.8850  -999.2500  -999.2500  -999.2500
  859.5000  -999.2500  -999.2500  -999.2500   114.1130   -35.7450     6.1030     5.9040     5.6560   -35.2150     8.8740  -999.2500  -999.2500  -999.2500
  860.0000  -999.2500  -999.2500  -999.2500   110.9310   -36.1580     6.1030     5.8860     5.6420   -35.2150     8.8570  -999.2500  -999.2500  -999.2500
  860.5000  -999.2500  -999.2500  -999.2500   108.5070   -36.5730     6.1040     5.8680     5.6280   -35.2150     8.8420  -999.2500  -999.2500  -999.2500
  861.0000  -999.2500  -999.2500  -999.2500   110.7650   -36.9870     6.0870     5.8510     5.6140   -35.2150     8.8260  -999.2500  -999.2500  -999.2500
  861.5000  -999.2500  -999.2500  -999.2500   113.0900   -37.4020     6.0600     5.8330     5.6000   -35.2150     8.8160  -999.2500  -999.2500  -999.2500
  862.0000  -999.2500  -999.2500  -999.2500   112.6030   -37.8160     6.0330     5.8150     5.5860   -35.2150     8.8100  -999.2500  -999.2500  -999.2500
  862.5000  -999.2500  -999.2500  -999.2500   109.8730   -38.2310     6.0060     5.7970     5.5720   -35.2150     8.8050  -999.2500  -999.2500  -999.2500
  863.0000  -999.2500  -999.2500  -999.2500   107.1600   -38.6450     5.9790     5.7800     5.5240   -35.2150     8.8000  -999.2500  -999.2500  -999.2500
  863.5000  -999.2500  -999.2500  -999.2500   104.4270   -39.0570     5.9520     5.7620     5.4530   -35.2150     8.7940  -999.2500  -999.2500  -999.2500
  864.0000  -999.2500  -999.2500  -999.2500   101.4530   -39.4650     5.9250     5.7440     5.3820   -35.2150     8.7890  -999.2500  -999.2500  -999.2500
  864.5000  -999.2500  -999.2500  -999.2500   103.8710   -39.6320     5.8980     5.7260     5.3120   -35.2150     8.7830  -999.2500  -999.2500  -999.2500
  865.0000  -999.2500  -999.2500  -999.2500   108.1220   -39.2580     5.8820     5.7090     5.2410   -35.2150     8.7780  -999.2500  -999.2500  -999.2500
  865.5000  -999.2500  -999.2500  -999.2500   112.3550   -38.9030     5.8830     5.6910     5.1700   -35.2150     8.7720  -999.2500  -999.2500  -999.2500
  866.0000  -999.2500  -999.2500  -999.2500   111.3930   -38.5490     5.8820     5.6730     5.0990   -35.2150     8.7670  -999.2500  -999.2500  -999.2500
  866.5000  -999.2500  -999.2500  -999.2500   108.0060   -38.1950     5.8820     5.6550     5.0310   -35.2150     8.7610  -999.2500  -999.2500  -999.2500
  867.0000  -999.2500  -999.2500  -999.2500   107.1580   -37.8400     5.8820     5.6380     5.0310   -35.2150     8.7620  -999.2500  -999.2500  -999.2500
  867.5000  -999.2500  -999.2500  -999.2500   108.1580   -37.4860     5.8820     5.6200     5.0310   -35.2150     8.7670  -999.2500  -999.2500  -999.2500
  868.0000  -999.2500  -999.2500  -999.2500   108.2520   -37.1320     5.8830     5.6020     5.0310   -35.2150     8.7720  -999.2500  -999.2500  -999.2500
  868.5000  -999.2500  -999.2500  -999.2500   107.7110   -36.7790     5.8820     5.5840     5.0310   -35.2150     8.7780  -999.2500  -999.2500  -999.2500
  869.0000  -999.2500  -999.2500  -999.2500   107.5020   -36.5530     5.8810     5.5670     5.0320   -35.2150     8.7720  -999.2500  -999.2500  -999.2500
  869.5000  -999.2500  -999.2500  -999.2500   107.8860   -36.5570     5.8770     5.5490     5.0260   -35.2150     8.7630  -999.2500  -999.2500  -999.2500
  870.0000  -999.2500  -999.2500  -999.2500   108.2460   -36.5560     5.9430     5.5310     5.0820   -35.2150     8.7590  -999.2500  -999.2500  -999.2500
  870.5000  -999.2500  -999.2500  -999.2500   108.3290   -36.7520     5.9370     5.5130     5.0780   -35.2150     8.7590  -999.2500  -999.2500  -999.2500
  871.0000  -999.2500  -999.2500  -999.2500   107.0350   -37.0820     5.9370     5.4960     5.0760   -35.2150     8.7680  -999.2500  -999.2500  -999.2500
  871.5000  -999.2500  -999.2500  -999.2500   107.6780   -37.4130     5.9370     5.4780     5.0770   -35.2150     8.7770  -999.2500  -999.2500  -999.2500
  872.0000  -999.2500  -999.2500  -999.2500   107.2640   -37.7450     5.9370     5.4650     5.1240   -35.2150     8.7690  -999.2500  -999.2500  -999.2500
  872.5000  -999.2500  -999.2500  -999.2500   104.8760   -38.0770     5.9370     5.5250     5.1720   -35.2150     8.7620  -999.2500  -999.2500  -999.2500
  873.0000  -999.2500  -999.2500  -999.2500   102.5410   -38.4060     5.9490     5.5440     5.1720   -35.2150     8.7790  -999.2500  -999.2500  -999.2500
  873.5000  -999.2500  -999.2500  -999.2500   100.7460   -38.7490     5.9660     5.5640     5.1720   -35.2150     8.7950  -999.2500  -999.2500  -999.2500
  874.0000  -999.2500  -999.2500  -999.2500   101.9100   -38.9800     5.9840     5.5830     5.2420   -35.2150     8.8160  -999.2500  -999.2500  -999.2500
  874.5000  -999.2500  -999.2500  -999.2500   103.9800   -39.1350     6.0010     5.6020     5.3430   -35.2150     8.8370  -999.2500  -999.2500  -999.2500
  875.0000  -999.2500  -999.2500  -999.2500   105.0870   -38.9190     6.0190     5.6220     5.4450   -35.2150     8.8580  -999.2500  -999.2500  -999.2500
  875.5000  -999.2500  -999.2500  -999.2500   103.6710   -38.9210     6.0360     5.6410     5.5180   -35.2150     8.8770  -999.2500  -999.2500  -999.2500
  876.0000  -999.2500  -999.2500  -999.2500   102.0860   -39.1480     6.0540     5.6600     5.5250   -35.2150     8.8470  -999.2500  -999.2500  -999.2500
  876.5000  -999.2500  -999.2500  -999.2500   101.7930   -39.1410     6.0710     5.6700     5.5320   -35.2150     8.8150  -999.2500  -999.2500  -999.2500
  877.0000  -999.2500  -999.2500  -999.2500   101.5060   -39.1420     6.0880     5.7220     5.5390   -35.2150     8.7840  -999.2500  -999.2500  -999.2500
  877.5000  -999.2500  -999.2500  -999.2500    99.9980   -39.1420     6.1060     5.7220     5.5460   -35.2150     8.7600  -999.2500  -999.2500  -999.2500
  878.0000  -999.2500  -999.2500  -999.2500    98.4660   -39.1400     6.1230     5.7750     5.5530   -35.2150     8.7720  -999.2500  -999.2500  -999.2500
  878.5000  -999.2500  -999.2500  -999.2500    98.0780   -39.1500     6.1410     5.8290     5.5600   -35.2150     8.7820  -999.2500  -999.2500  -999.2500
  879.0000  -999.2500  -999.2500  -999.2500   102.6660   -38.9420     6.1590     5.8930     5.5670   -35.2150     8.7930  -999.2500  -999.2500  -999.2500
  879.5000  -999.2500  -999.2500  -999.2500   108.0380   -38.7400     6.1950     5.9820     5.7420   -35.2150     8.7960  -999.2500  -999.2500  -999.2500
  880.0000  -999.2500  -999.2500  -999.2500   107.8750   -38.3010     6.4580     6.0700     5.9300   -35.2150     8.7900  -999.2500  -999.2500  -999.2500
  880.5000  -999.2500  -999.2500  -999.2500   106.3160   -37.5900     6.7220     6.1590     6.1180   -35.2150     8.7850  -999.2500  -999.2500  -999.2500
  881.0000  -999.2500  -999.2500  -999.2500   103.3360   -36.8780     6.9850     6.3190     6.3060   -35.2150     8.7800  -999.2500  -999.2500  -999.2500
  881.5000  -999.2500  -999.2500  -999.2500   100.3600   -36.1650     7.2480     6.6280     6.6060   -35.2150     8.7960  -999.2500  -999.2500  -999.2500
  882.0000  -999.2500  -999.2500  -999.2500    99.0260   -35.4520     7.5120     6.9370     6.9980   -35.2150     8.8120  -999.2500  -999.2500  -999.2500
  882.5000  -999.2500  -999.2500  -999.2500    99.7270   -34.7950     7.7750     7.2460     7.3900   -35.2150     8.8290  -999.2500  -999.2500  -999.2500
  883.0000  -999.2500  -999.2500  -999.2500    99.1390   -35.0950     8.0380     7.5550     7.7830   -35.2150     8.8320  -999.2500  -999.2500  -999.2500
  883.5000  -999.2500  -999.2500  -999.2500    98.6530   -35.4230     8.3010     7.8640     8.1750   -35.2150     8.8170  -999.2500  -999.2500  -999.2500
  884.0000  -999.2500  -999.2500  -999.2500    99.4980   -35.7500     8.5650     8.1730     8.5000   -35.2150     8.8020  -999.2500  -999.2500  -999.2500
