~VERSION INFORMATION
 VERS.                2.0:   CWLS LOG ASCII STANDARD - VERSION 2.0
 WRAP.                 NO:   ONE LINE PER DEPTH STEP
~WELL INFORMATION
#MNEM.UNIT      DATA TYPE    INFORMATION
#----------   ------------   ------------------------------
 STRT.F          200.0000:   START DEPTH
 STOP.F         3080.0000:   STOP DEPTH
 STEP.F            0.5000:   STEP LENGTH
 NULL.          -999.2500:   NO VALUE
 COMP.    FENIX & SCISSON:   COMPANY
 WELL. FENIX NPR 3 "AX" #55-33:   WELL
 FLD .        TEAPOT DOME:   FIELD
 LOC .      S33 T38N R78W:   LOCATION
 CNTY.            NATRONA:   COUNTY
 STAT.            WYOMING:   STATE
 CTRY. UNITED STATES OF AMERICA:   COUNTRY
 SRVC.           BIRDWELL:   SERVICE COMPANY
 DATE.        08-FEB-1978:   LOGDATE
 API .     49025105740000:   API NUMBER
~CURVE INFORMATION
#MNEM.UNIT       API CODE    CURVE DESCRIPTION
#----------   ------------   ------------------------------
 DEPT.F                  :   
 CALD.IN     45 280 60 00:   CALIPER FROM DENSITY LOG
 GRD .GAPI   45 310 01 00:   GAMMA RAY FROM DENSITY LOG
 RHOB.G/C3   45 350 01 00:   BULK DENSITY
 CORR.G/C3   45 356 01 00:   DENSITY CORRECTION
 NPOR.DEC    42 890 03 00:   ALPHA PROCESSED NEUTRON POROSITY
 SPR .MV     05 010 01 00:   SPONTANEOUS POTENTIAL
 SN  .OHMM   05 040 16 00:   SHORT NORMAL 16"
 ILD .OHMM   05 120 46 00:   DEEP INDUCTION RESISTIVITY
~PARAMETER INFORMATION
#MNEM.UNIT          VALUE    DESCRIPTION
#----------   ------------   ------------------------------
 EKB .F         5197.0000:   Kelly bushing
 EGL .F         5187.0000:   Ground level
 EDF .F            0.0000:   Drilling floor
 TD  .F         3084.0000:   Total depth
 DATE.        08-FEB-1978:   Date logged
 CLNT.            A2DTECH:   Client Code
 SL  . 2000' FSL & 2310' FEL:   Surface Location
 PD  .                 GL:   Permanent Datum
 EPD .F              5187:   Elevation Permanent Datum
 LMF .                 KB:   Log Measured From
 DMF .                 KB:   Drilling Measured From
 DAPD.F                10:   Feet Above Permanent Datum
 DD  .F              3084:   Depth driller
 DL  .F              3080:   Depth logger
 BLI .F              3074:   Bottom log interval
 TLI .F               200:   Top log interval
 CS1 .IN            8.625:   Casing size
 CBD1.      8.625" @ 229':   Casing driller 1
 CBL1.F               230:   Casing logger 1
 BS1 .IN            7.875:   Bit size
 BSD1.F              3084:   Depth drilled with bit1
 DFT .     LIGNOSULFONATE:   Type fluid in hole
 DFD .                9.2:   Density
 DFV .                 30:   Viscosity
 DFPH.                  9:   pH
 DFL .                  5:   Fluid loss
 MSS .           FLOWLINE:   Source of sample
 RMS .OHMM            1.5:   Rm
 MST .F                62:   Rm Meas. temp.
 RMF .OHMM            1.2:   Rmf
 MFST.F                66:   Rmf Meas. temp.
 RMC .OHMM            2.8:   Rmc
 MCST.F                65:   Rmc Meas. temp.
 MFSS.               MEAS:   Source Rmf.
 RMB .OHMM            .82:   Rm. at BHT
 BHT .F               114:   BHT.
 TCS .HRS               3:   Time Circ. stopped
 MRT .F               114:   Maximum recorded temp.
 LUN .               2958:   Logging unit number
 LUL .               CASP:   Logging unit location
 ENGI.            POINTER:   Recorded By
 WITN.         HARRINGTON:   Witnessed by
 ORIG.           5" PRINT:   Origin of data
 UWI .     49025105740000:   Unique Well ID
 DICO. A2D TECHNOLOGIES, INC.:   Digitizing Company
~OTHER INFORMATION
~A   DEPT       CALD      GRD       RHOB        CORR      NPOR        SPR         SN        ILD   
# ...
  443.0000     9.2462    79.5151     2.5196     0.1816  -999.2500   -43.1610     6.7961     6.8734
  443.5000     9.2462    80.7056     2.5245     0.1636  -999.2500   -42.9664     6.7948     6.8717
  444.0000     9.2263    81.6976     2.5036     0.1436  -999.2500   -42.7728     6.6691     6.8700
  444.5000     9.2462    81.6976     2.5006     0.1336  -999.2500   -43.1751     6.6674     6.8052
  445.0000     9.2263    80.3087     2.4806     0.1215  -999.2500   -43.7762     6.4840     6.6178
  445.5000     9.2660    79.3167     2.4666     0.1195  -999.2500   -43.7812     6.3057     6.4355
  446.0000     9.3057    79.3167     2.4616     0.1235  -999.2500   -43.7863     6.1322     6.2582
  446.5000     9.3255    79.3167     2.4646     0.1275  -999.2500   -43.7913     6.0745     6.1422
  447.0000     9.3454    79.1183     2.4736     0.1255  -999.2500   -43.7964     6.0730     6.1407
  447.5000     9.3454    78.7214     2.4746     0.1195  -999.2500   -44.0001     6.0715     6.1392
  448.0000     9.3653    78.7214     2.4775     0.1155  -999.2500   -44.4025     6.0143     6.1377
  448.5000     9.3851    79.9119     2.4675     0.0915  -999.2500   -44.4075     6.0685     6.1361
  449.0000     9.3653    82.8881     2.4476     0.0795  -999.2500   -45.0085     6.0670     6.1346
  449.5000     9.3653    83.0865     2.4466     0.0834  -999.2500   -45.0136     6.0655     6.1903
  450.0000     9.3851    82.2929     2.4695     0.0954  -999.2500   -44.6203     6.0643     6.1887
  450.5000     9.3851    82.2929     2.4722     0.0972  -999.2500   -44.4267     6.2327     6.2446
  451.0000     9.3847    82.2892     2.4855     0.0974  -999.2500   -43.6372     6.2312     6.2430
  451.5000     9.3845    82.6840     2.4855     0.0974  -999.2500   -43.4436     6.2296     6.2415
  452.0000     9.4041    83.8725     2.4705     0.0953  -999.2500   -43.6473     6.1710     6.2978
  452.5000     9.4833    83.4728     2.4695     0.0953  -999.2500   -43.6524     6.2265     6.2962
  453.0000     9.5427    83.0752     2.4665     0.0993  -999.2500   -43.4588     6.2250     6.2946
  453.5000     9.3837    81.4855     2.4615     0.0953  -999.2500   -43.8611     6.1664     6.3514
  454.0000     9.4033    78.1105     2.4595     0.0953  -999.2500   -42.8729     6.1649     6.3499
  454.5000     9.3835    78.7037     2.4605     0.0953  -999.2500   -43.0756     6.1633     6.3486
  455.0000     9.4427    79.8922     2.4545     0.0953  -999.2500   -44.0750     6.1056     6.2887
  455.5000     9.4226    80.2870     2.4505     0.0952  -999.2500   -44.6750     5.9377     6.1155
  456.0000     9.4025    79.6897     2.4445     0.0972  -999.2500   -44.4814     5.6689     5.9471
  456.5000     9.4023    77.9024     2.4335     0.0992  -999.2500   -44.4844     5.6156     5.7302
  457.0000     9.4022    80.4797     2.4285     0.1012  -999.2500   -44.4915     5.4110     5.5724
  457.5000     9.4020    81.2705     2.4235     0.1052  -999.2500   -44.0992     5.2140     5.3198
  458.0000     9.4415    81.2693     2.4165     0.1111  -999.2500   -44.1043     5.0241     5.1733
  458.5000     9.4611    80.4736     2.4195     0.1211  -999.2500   -44.1093     4.9768     5.1245
  459.0000     9.5006    80.2732     2.4495     0.1411  -999.2500   -44.1144     4.9756     5.0762
  459.5000     9.7980    80.2712     2.4595     0.1191  -999.2500   -43.9208     5.0204     4.9445
  460.0000     9.4803    80.0708     2.4744     0.1071  -999.2500   -44.1245     5.2558     5.1771
  460.5000     9.5000    80.2671     2.4694     0.1051  -999.2500   -43.9309     5.6564     5.6663
  461.0000     9.4601    81.4560     2.4534     0.1011  -999.2500   -43.5377     5.7604     5.9327
  461.5000     9.4797    82.4460     2.4514     0.1030  -999.2500   -43.1454     6.0305     6.2112
  462.0000     9.4994    83.2376     2.4484     0.1050  -999.2500   -43.5478     6.1980     6.3840
  462.5000     9.4992    84.6236     2.4544     0.1110  -999.2500   -43.7515     6.4885     6.5615
  463.0000     9.4990    84.2264     2.4664     0.1190  -999.2500   -43.9552     6.6076     6.6821
  463.5000     9.4988    82.2395     2.4794     0.1209  -999.2500   -44.3576     6.6671     6.8048
  464.0000     9.4986    81.6430     2.4884     0.1189  -999.2500   -44.3626     6.6654     6.8665
  464.5000     9.5182    83.2279     2.4944     0.1169  -999.2500   -44.5663     6.7258     6.9927
  465.0000     9.5180    84.8123     2.4914     0.1169  -999.2500   -44.7660     6.9755     7.0557
  465.5000     9.4980    84.8111     2.4844     0.1189  -999.2500   -43.7818     6.8475     7.0540
  466.0000     9.4581    85.8003     2.4844     0.1209  -999.2500   -44.1842     7.0376     7.1176
  466.5000     9.4579    85.7995     2.4864     0.1228  -999.2500   -44.1882     7.1010     7.1158
  467.0000     9.4577    83.4162     2.4883     0.1268  -999.2500   -44.1933     7.0992     7.1800
  467.5000     9.4575    80.8348     2.4883     0.1268  -999.2500   -44.3970     7.0974     7.2447
  468.0000     9.4375    78.8487     2.4973     0.1388  -999.2500   -44.4021     7.0957     7.2429
  468.5000     9.3976    78.0531     2.5003     0.1228  -999.2500   -44.2085     7.0943     7.2415
  469.0000     9.3775    77.8527     2.4923     0.1108  -999.2500   -44.0149     7.0925     7.2397
  469.5000     9.3377    78.8427     2.4903     0.1088  -999.2500   -43.8213     7.0908     7.2379
  470.0000     9.2581    80.8247     2.4923     0.1088  -999.2500   -45.0182     7.0240     7.2361
  470.5000     9.2579    82.8068     2.4703     0.1087  -999.2500   -45.0233     7.0222     7.2343
  471.0000     9.2577    83.7972     2.4753     0.1187  -999.2500   -45.0284     7.0855     7.2325
  471.5000     9.2773    85.1840     2.4853     0.1267  -999.2500   -45.4307     7.1493     7.1643
  472.0000     9.3168    86.9677     2.4743     0.1287  -999.2500   -45.2371     7.0820     7.1625
  472.5000     9.3167    87.7593     2.4713     0.1326  -999.2500   -45.0425     7.1457     7.1607
  473.0000     9.2569    86.3684     2.4693     0.1366  -999.2500   -44.0543     7.0785     7.1589
  473.5000     9.2369    85.5727     2.4673     0.1406  -999.2500   -43.8607     7.0118     7.0914
  474.0000     9.2962    84.7771     2.4763     0.1526  -999.2500   -44.8580     6.9461     7.0900
  474.5000     9.2762    84.7751     2.4963     0.1685  -999.2500   -44.4648     6.8807     7.0232
  475.0000     9.2760    85.5667     2.5032     0.1565  -999.2500   -44.4719     6.7535     6.9573
  475.5000     9.2758    86.5571     2.4953     0.1505  -999.2500   -44.4769     6.6899     6.8281
  476.0000     9.2954    85.1662     2.4873     0.1445  -999.2500   -44.6806     6.5059     6.7637
  476.5000     9.3151    81.1957     2.4783     0.1445  -999.2500   -45.0830     6.3271     6.6384
  477.0000     9.3347    80.5988     2.4773     0.1465  -999.2500   -45.0880     6.2100     6.5155
  477.5000     9.3345    80.2000     2.4793     0.1485  -999.2500   -44.8944     6.2085     6.3361
  478.0000     9.3541    80.5948     2.4763     0.1464  -999.2500   -44.1039     6.0937     6.2187
  478.5000     9.3738    81.3864     2.4743     0.1444  -999.2500   -44.5062     5.8718     6.1035
  479.0000     9.3736    81.9796     2.4643     0.1404  -999.2500   -45.3059     5.6061     5.9355
  479.5000     9.3933    82.1760     2.4553     0.1364  -999.2500   -45.1123     5.3525     5.7721
  480.0000     9.3732    82.3723     2.4373     0.1304  -999.2500   -44.3228     5.1576     5.5616
  480.5000     9.3531    79.9894     2.4203     0.1264  -999.2500   -44.1292     4.8791     5.2609
  481.0000     9.3529    79.7890     2.4033     0.1244  -999.2500   -43.9356     4.4899     4.9307
  481.5000     9.3329    79.3902     2.3774     0.1244  -999.2500   -43.9406     4.2871     4.9295
  482.0000     9.3129    77.4037     2.3285     0.1263  -999.2500   -43.9457     3.8873     4.1359
  482.5000     9.3524    72.6403     2.3005     0.1323  -999.2500   -43.5524     3.5248     2.2492
  483.0000     9.4514    72.4399     2.2576     0.1383  -999.2500   -42.9615     3.1960     2.5121
