~VERSION INFORMATION
 VERS.                2.0:   CWLS LOG ASCII STANDARD - VERSION 2.0
 WRAP.                 NO:   ONE LINE PER DEPTH STEP
~WELL INFORMATION
#MNEM.UNIT      DATA TYPE    INFORMATION
#----------   ------------   ------------------------------
 STRT.F            0.0000:   START DEPTH
 STOP.F         5670.0000:   STOP DEPTH
 STEP.F            0.5000:   STEP LENGTH
 NULL.          -999.2500:   NO VALUE
 COMP.          INTEX OIL:   COMPANY
 WELL.    INTEX TP #71-15:   WELL
 FLD .             TEAPOT:   FIELD
 LOC .      S15 T38N R78W:   LOCATION
 CNTY.            NATRONA:   COUNTY
 STAT.            WYOMING:   STATE
 CTRY. UNITED STATES OF AMERICA:   COUNTRY
 SRVC.       SCHLUMBERGER:   SERVICE COMPANY
 DATE.        05-AUG-1966:   LOGDATE
 API .     49025097110000:   API NUMBER
~CURVE INFORMATION
#MNEM.UNIT       API CODE    CURVE DESCRIPTION
#----------   ------------   ------------------------------
 DEPT.F                  :   
 GRD .GAPI   45 310 01 00:   GAMMA RAY FROM DENSITY LOG
 CALD.IN     45 280 60 00:   CALIPER FROM DENSITY LOG
 CORR.G/C3   45 356 01 00:   DENSITY CORRECTION
 RHOB.G/C3   45 350 01 00:   BULK DENSITY
 SPR .MV     05 010 01 00:   SPONTANEOUS POTENTIAL FROM RES.
 ASN .OHMM   05 041 16 00:   AMPLIFIED SHORT NORMAL 16"
 ILD .OHMM   05 120 46 00:   INDUCTION LOG DEEP RESISTIVITY
~PARAMETER INFORMATION
#MNEM.UNIT          VALUE    DESCRIPTION
#----------   ------------   ------------------------------
 EKB .F         5247.5500:   Kelly bushing
 EGL .F         5236.1000:   Ground level
 EDF .F            0.0000:   Drilling floor
 EPD .F         5236.1000:   Permanent datum
 TD  .F         5670.0000:   Total depth
 CLNT.            A2DTECH:   Client Code
 SL  . 610' FNL & 710' FEL:   Surface Location
 PD  .                 GL:   Permanent Datum
 LMF .                 KB:   Log Measured From
 DMF .                 KB:   Drilling Measured From
 DAPD.F             11.45:   Feet Above Permanent Datum
 DATE.        05-AUG-1966:   Date Logged [DD-MMM-YYYY]
 DD  .F              5665:   Depth driller
 DL  .F              5670:   Depth logger
 BLI .F              5669:   Bottom log interval
 TLI .F              5551:   Top log interval
 CS1 .IN            10.75:   Casing size
 CBD1.    10.75" @ 567.9':   Casing driller 1
 CBL1.F               569:   Casing logger 1
 BS1 .IN           8.9375:   Bit size
 BSD1.F              5665:   Depth drilled with bit1
 DFT .            DEXTRID:   Type fluid in hole
 DFD .                9.4:   Density
 DFV .                 59:   Viscosity
 DFPH.                7.5:   pH
 DFL .                8.2:   Fluid loss
 MSS .           FLOWLINE:   Source of sample
 RMS .OHMM           1.80:   Rm
 MST .F                72:   Rm Meas. temp.
 RMF .OHMM           1.00:   Rmf
 MFST.F                82:   Rmf Meas. temp.
 MFSS.               MEAS:   Source Rmf.
 BHT .F               163:   BHT.
 TCS .HRS               3:   Time Circ. stopped
 MRT .F               163:   Maximum recorded temp.
 LUN .               4507:   Logging unit number
 LUL .               CSPR:   Logging unit location
 ENGI.            MANGOLD:   Recorded By
 ORIG.      2.5" 5" PRINT:   Origin of data
 UWI .     49025097110000:   Unique Well ID
 DICO. A2D TECHNOLOGIES, INC.:   Digitizing Company
~OTHER INFORMATION
~A    DEPT      GRD      CALD       CORR       RHOB        SPR        ASN        ILD   
# ...
 5642.0000    23.5655     7.9451     0.0609     2.6973   -35.5690   144.8910   227.0456
 5642.5000    22.6575     7.9448     0.0520     2.6899   -35.5603   144.9330   221.7665
 5643.0000    21.2977     7.9445     0.0268     2.6511   -35.4020   144.9869   220.9674
 5643.5000    20.3897     7.9442     0.0403     2.6212   -35.5428   145.7800   221.6766
 5644.0000    20.3853     7.9439     0.0395     2.5914   -35.5336   145.8359   226.8207
 5644.5000    21.2846     7.9435     0.0175     2.5750   -35.5231   145.8839   233.4731
 5645.0000    22.6510     7.9432     0.0223     2.5940   -35.5143   145.9318   247.5681
 5645.5000    23.5349     7.9430     0.0354     2.6255   -35.6572   147.4701   266.1430
 5646.0000    23.9823     7.9427     0.0328     2.6334   -36.0947   149.0163   286.2083
 5646.5000    23.3238     7.9125     0.0149     2.6122   -36.3849   151.2997   312.9800
 5647.0000    21.4539     7.9122     0.0109     2.6036   -36.8246   152.0928   328.5743
 5647.5000    19.1339     7.9119     0.0319     2.6084   -37.8622   155.1214   327.7661
 5648.0000    18.0904     7.9116     0.0594     2.6304   -38.3018   158.1499   327.7122
 5648.5000    19.2044     7.9156     0.0868     2.6507   -38.4426   163.4220   328.4123
 5649.0000    20.6209     7.9409     0.1019     2.6654   -38.7534   166.4506   333.5655
 5649.5000    22.1422     7.9107     0.1179     2.6861   -39.0229   169.4792   342.4444
 5650.0000    23.0414     7.8806     0.1135     2.6996   -39.1637   172.7496   350.3796
 5650.5000    23.0371     7.8786     0.1002     2.6951   -39.1527   177.7198   346.1252
 5651.0000    22.5809     7.8493     0.0780     2.6817   -39.2956   179.2101   341.6542
 5651.5000    18.5102     7.8485     0.0607     2.6673   -39.4363   181.6921   339.4188
 5652.0000     6.9124     7.8478     0.0283     2.6443   -39.5771   183.6811   336.4381
 5652.5000  -999.2500     7.8470     0.0174     2.6247   -39.5661   185.1714   342.3994
 5653.0000  -999.2500     7.8463     0.0250     2.6117   -39.8563   187.4069   378.9121
 5653.5000  -999.2500     7.8455     0.0324     2.6147   -40.1465   190.3875   404.9926
 5654.0000  -999.2500     7.8448     0.0216     2.6581   -40.3031   192.6230   410.9538
 5654.5000  -999.2500     7.8440     0.0194     2.6821   -40.7269   194.8584   411.6989
 5655.0000  -999.2500     7.8433     0.0302     2.6642   -41.3139   197.0939   411.6989
 5655.5000  -999.2500     7.8425     0.0367     2.6358   -41.9030   200.0745   411.6989
 5656.0000  -999.2500     7.8418     0.0180     2.6254   -42.4922   203.8003   413.9344
 5656.5000  -999.2500     7.8410     0.0210     2.6344   -43.2308   206.7809   413.9344
 5657.0000  -999.2500     7.8403     0.0329     2.6524   -43.8199   210.5067   413.9344
 5657.5000  -999.2500     7.8394     0.0336     2.6824   -44.4091   212.6965   413.9344
 5658.0000  -999.2500     7.8687     0.0361     2.6884   -44.9982   217.2131   413.9344
 5658.5000  -999.2500     7.8678     0.0450     2.6780   -45.5874   218.7034   413.9344
 5659.0000  -999.2500     7.8671     0.0399     2.7034   -46.0382   220.3063   413.9344
 5659.5000  -999.2500     7.8663     0.0348     2.7309   -46.6162   222.4292   413.9344
 5660.0000  -999.2500     7.8657     0.0556     2.7319   -47.2032   223.9195   413.9344
 5660.5000  -999.2500     7.8649     0.0499     2.7154   -47.7923   226.1550   413.9344
 5661.0000  -999.2500     7.8642     0.0295     2.6835   -48.6804   229.1356   413.9344
 5661.5000  -999.2500     7.8634     0.0262     2.6692   -49.4191   232.1162   413.9344
 5662.0000  -999.2500     7.8627     0.0307     2.6664   -49.8565   233.6797   413.9344
 5662.5000  -999.2500     7.8618    -0.0106     2.7001   -50.2984   238.0775   413.9344
 5663.0000  -999.2500     7.8612    -0.0016     2.7195   -50.7381   241.0581   413.9344
 5663.5000  -999.2500     7.8604     0.0189     2.7127   -50.8788   244.0387   413.9344
 5664.0000  -999.2500     7.8597     0.0219     2.6975   -51.3244   247.7645   413.9344
 5664.5000  -999.2500     7.8590    -0.0090     2.6905   -51.9277   250.7452   413.9344
 5665.0000  -999.2500     7.8582    -0.0126     2.6951   -52.6441   253.7258   414.6796
 5665.5000  -999.2500     7.8575    -0.0014     2.7131   -53.6816   255.9613   414.6796
 5666.0000  -999.2500     7.8567     0.0150     2.7266   -54.2708   256.7064   414.6796
 5666.5000  -999.2500     7.8560     0.0269     2.7296   -54.4137   257.4516   414.6796
 5667.0000  -999.2500     7.8552     0.0240     2.7237   -54.5544   257.4516   414.6796
 5667.5000  -999.2500     7.8545     0.0258     2.6594   -54.6951   256.7064   414.6796
 5668.0000  -999.2500     7.8537     0.0396     2.6087   -54.8359   256.7064   414.6796
 5668.5000  -999.2500     7.8530     0.0465     2.6057   -54.5260   255.9613   414.6796
 5669.0000  -999.2500     7.8522     0.0438     2.6213   -54.3665   255.9613   414.6796
 5669.5000  -999.2500  -999.2500  -999.2500  -999.2500  -999.2500   255.9613   414.6796
 5670.0000  -999.2500  -999.2500  -999.2500  -999.2500  -999.2500   256.7064   414.6796
