~VERSION INFORMATION
 VERS.                2.0:   CWLS LOG ASCII STANDARD - VERSION 2.0
 WRAP.                 NO:   ONE LINE PER DEPTH STEP
~WELL INFORMATION
#MNEM.UNIT      DATA TYPE    INFORMATION
#----------   ------------   ------------------------------
 STRT.F          517.0000:   START DEPTH
 STOP.F         3222.0000:   STOP DEPTH
 STEP.F            0.5000:   STEP LENGTH
 NULL.          -999.2500:   NO VALUE
 COMP.    FENIX & SCISSON:   COMPANY
 WELL.  FENIX "TX" #53-33:   WELL
 FLD .             NPR #3:   FIELD
 LOC .      S33 T39N R78W:   LOCATION
 CNTY.            NATRONA:   COUNTY
 STAT.            WYOMING:   STATE
 CTRY. UNITED STATES OF AMERICA:   COUNTRY
 SRVC.              WELEX:   SERVICE COMPANY
 DATE.        24-AUG-1980:   LOGDATE
 API .     49025108460000:   API NUMBER
~CURVE INFORMATION
#MNEM.UNIT       API CODE    CURVE DESCRIPTION
#----------   ------------   ------------------------------
 DEPT.F                  :   
 CALD.IN     45 280 60 00:   CALIPER FROM DENSITY LOG
 GRD .GAPI   45 310 01 00:   GAMMA RAY FROM DENSITY LOG
 CORR.G/C3   45 356 01 00:   DENSITY CORRECTION
 RHOB.G/C3   45 350 01 00:   BULK DENSITY
 SPR .MV     07 010 01 00:   SPONTANEOUS POTENTIAL
 ILD .OHMM   07 120 46 00:   DEEP INDUCTION RESISTIVITY
 ILM .OHMM   07 120 44 00:   INDUCTION LOG MEDIUM RESISTIVITY
 SGRD.OHMM   07 220 05 00:   SHALLOW SHORT GUARD RESISTIVITY
~PARAMETER INFORMATION
#MNEM.UNIT          VALUE    DESCRIPTION
#----------   ------------   ------------------------------
 EKB .F         5173.0000:   Kelly bushing
 EGL .F         5163.0000:   Ground level
 EDF .F            0.0000:   Drilling floor
 EPD .F            0.0000:   Permanent datum
 TD  .F         3224.0000:   Total depth
 CLNT.            A2DTECH:   Client Code
 SL  . 1650' FNL & 2500' FEL:   Surface Location
 PD  .                 GL:   Permanent Datum
 DAPD.F                10:   Feet Above Permanent Datum
 DATE.        24-AUG-1980:   Date Logged [DD-MMM-YYYY]
 DD  .F              3190:   Depth driller
 DL  .F              3224:   Depth logger
 BLI .F              3222:   Bottom log interval
 TLI .F               528:   Top log interval
 CS1 .IN            8.625:   Casing size
 CBD1.      8.625" @ 532':   Casing driller 1
 CBL1.F               528:   Casing logger 1
 BS1 .IN            7.875:   Bit size
 BSD1.F              3190:   Depth drilled with bit1
 DFT .     WATER BASE MUD:   Type fluid in hole
 DFD .                8.8:   Density
 DFV .                 45:   Viscosity
 DFL .                9.4:   Fluid loss
 MSS .            MUD PIT:   Source of sample
 RMS .OHMM           2.10:   Rm
 MST .F                65:   Rm Meas. temp.
 RMF .OHMM           1.68:   Rmf
 MFST.F                65:   Rmf Meas. temp.
 MFSS.               CALC:   Source Rmf.
 RMC .OHMM           2.52:   Rmc
 MCST.F                65:   Rmc Meas. temp.
 MCSS.               CALC:   Source Rmc.
 RMB .OHMM           1.14:   Rm. at BHT
 BHT .F               120:   BHT.
 TCS .HRS               3:   Time Circ. stopped
 MRT .F               120:   Maximum recorded temp.
 LUN .               1892:   Logging unit number
 LUL .             CASPER:   Logging unit location
 ENGI.           WACHTEIL:   Recorded By
 ORIG.         2.5" PRINT:   Origin of data
 UWI .     49025108460000:   Unique Well ID
 DICO. A2D TECHNOLOGIES, INC.:   Digitizing Company
~OTHER INFORMATION
~A   DEPT     CALD         GRD      CORR       RHOB        SPR        ILD        ILM       SGRD   
# ...
 2461.0000    10.5353   105.0652     0.1211     2.6096   -22.8843     5.7372     7.1000     7.4593
 2461.5000    10.5341   108.8127     0.1210     2.5998   -22.8932     5.7349     7.0975     7.4536
 2462.0000    10.5329   111.3304     0.1209     2.5830   -22.9021     5.8126     7.1182     7.4470
 2462.5000    10.5399   112.5377     0.1176     2.5745   -22.6125     5.8169     7.1921     7.6506
 2463.0000    10.5609   112.2662     0.1112     2.5759   -22.6214     5.9711     7.1545     7.8598
 2463.5000    10.5595   108.2330     0.1047     2.5743   -22.6303     5.9684     7.0876     7.9636
 2464.0000    10.5583   104.6100     0.1013     2.5652   -22.6392     5.9659     7.0852     8.0732
 2464.5000    10.5569   102.3384     0.1021     2.5666   -22.6481     5.9249     7.0827     8.1754
 2465.0000    10.5859   100.9677     0.0990     2.5605   -22.3584     5.7981     7.0803     8.1688
 2465.5000    10.6150   100.9483     0.0814     2.5467   -22.3673     5.7156     7.0774     8.0503
 2466.0000    10.6138   101.8298     0.0713     2.5482   -22.3762     5.7133     7.0750     7.9335
 2466.5000    10.5825   101.7220     0.0681     2.5581   -22.0866     5.6325     7.0726     7.8990
 2467.0000    10.5813   101.3378     0.0802     2.5795   -22.0955     5.4765     7.0702     7.8114
 2467.5000    10.5801   102.3873     0.0953     2.5860   -21.8059     5.3989     7.0678     7.8057
 2468.0000    10.5789   103.7299     0.0921     2.5781   -21.8149     5.3225     7.0654     7.6928
 2468.5000    10.5776   105.3840     0.0732     2.5583   -21.8239     5.2295     7.0631     7.5815
 2469.0000    10.5764   104.9648     0.0609     2.5359   -22.1313     5.1485     7.1595     7.4711
 2469.5000    10.5752   103.9352     0.0583     2.5295   -22.1403     5.0995     7.1569     7.3633
 2470.0000    10.5738   104.5194     0.0552     2.5310   -22.4478     5.0974     7.1544     7.3577
 2470.5000    10.5424   106.8342     0.0581     2.5416   -22.4911     5.0949     7.1519     7.4555
 2471.0000    10.5412   107.4854     0.0611     2.5567   -22.7642     5.0929     7.1495     7.4490
 2471.5000    10.5401   105.4082     0.0670     2.5689   -22.7731     5.0908     7.1470     7.4963
 2472.0000    10.5087   106.5709     0.0730     2.5718   -22.7821     5.0888     7.1445     7.4365
 2472.5000    10.5076   107.8716     0.0821     2.5717   -22.7910     5.1577     7.1420     7.4311
 2473.0000    10.4761   107.8486     0.0911     2.5721   -22.8000     5.0847     7.0887     7.3242
 2473.5000    10.4447   106.4779     0.0941     2.5747   -22.7478     5.0826     7.0386     7.3183
 2474.0000    10.4047   105.5576     0.0937     2.5655   -22.4539     5.0805     6.8429     7.3130
 2474.5000    10.3819   104.1869     0.0842     2.5543   -22.2288     5.0783     6.6532     7.3075
 2475.0000    10.3807   102.2894     0.0724     2.5471   -21.9392     5.0762     6.5592     7.3019
 2475.5000    10.3959   100.3854     0.0733     2.5592   -21.6496     5.0039     6.3773     7.1700
 2476.0000    10.4085   100.6426     0.0896     2.5698   -21.5760     5.0019     6.2872     7.0565
 2476.5000    10.4071   102.7886     0.1026     2.5591   -21.2820     4.8634     6.1128     6.8926
 2477.0000    10.4059   104.2883     0.0903     2.5498   -21.0792     4.7946     6.1108     6.8350
 2477.5000    10.4048   105.4167     0.0810     2.5434   -21.0896     4.7267     6.1087     6.6932
 2478.0000    10.4036   104.9424     0.0748     2.5385   -21.0985     4.5907     6.1066     6.6884
 2478.5000    10.4025    99.0672     0.0747     2.5316   -21.1075     4.5306     6.1044     6.5916
 2479.0000    10.4315    98.5973     0.0746     2.5228   -21.1164     4.5117     6.0841     6.4962
 2479.5000    10.4302   100.8302     0.0745     2.5246   -21.1254     4.3807     6.0160     6.4914
 2480.0000    10.4290   103.0631     0.0778     2.5480   -21.1343     4.3130     5.9863     6.4746
 2480.5000    10.4151   103.9446     0.0811     2.5495   -21.4418     4.2793     5.9289     6.3722
 2481.0000    10.3810   102.1216     0.0864     2.5494   -21.7493     4.2184     5.9269     6.1851
 2481.5000    10.3647   101.5271     0.0893     2.5524   -21.7582     4.1016     5.8022     6.1229
 2482.0000    10.3636   100.5647     0.0923     2.5508   -21.7672     4.0999     5.6366     6.0341
 2482.5000    10.3624    99.8458     0.0970     2.5462   -22.0746     4.0983     5.4469     5.8639
 2483.0000    10.3310    99.3378     0.1012     2.5479   -22.2299     4.1565     5.3699     5.8597
 2483.5000    10.2695   102.0168     0.1041     2.5522   -22.3910     4.2859     5.3681     6.3628
 2484.0000    10.2381   103.7992     0.1071     2.5521   -22.4000     4.5250     5.5175     6.8141
 2484.5000    10.2369   106.0321     0.1070     2.5507   -22.7075     4.7214     5.5929     7.0004
 2485.0000    10.2357   106.9144     0.1038     2.5466   -22.7164     4.9562     5.7484     6.9953
 2485.5000    10.2344   102.3823     0.1034     2.5428   -23.0239     5.2171     5.9083     7.2257
 2486.0000    10.2332   100.5676     0.1006     2.5458   -23.0328     5.6974     6.3401     7.6207
 2486.5000    10.2320   100.6333     0.1035     2.5487   -23.0418     6.2749     6.7166     8.1036
 2487.0000    10.2308   101.8811     0.1045     2.5457   -23.3510     6.8159     7.3003     8.8229
 2487.5000    10.2294   101.5204     0.1110     2.5274   -23.3599     7.3018     7.8589    10.5565
 2488.0000    10.2282    99.8260     0.0982     2.5162   -23.6673     7.7161     8.3257    11.7849
 2488.5000    10.2271    98.2140     0.0665     2.4934   -23.6762     8.1632     9.1952    11.9415
 2489.0000    10.2259    95.9380     0.0481     2.4638   -23.9836     8.4248     9.8770    11.6059
 2489.5000    10.1946    90.9637     0.0474     2.4527   -24.2910     8.7649    10.4632    11.2806
 2490.0000    10.1631    87.7912     0.0601     2.4594   -24.8969     9.1452    10.9293    11.1171
 2490.5000    10.1317    86.4204     0.0782     2.4632   -25.5028     9.3461    11.3999    11.1339
 2491.0000    10.1003    84.5844     0.0845     2.4357   -25.8102     9.7376    11.6254    11.4534
 2491.5000    10.0991    83.2275     0.0907     2.4630   -26.1176     9.7338    11.9488    11.7819
 2492.0000    10.0979    83.2072     0.1046     2.4782   -27.0220    10.0032    11.9448    12.2889
 2492.5000    10.0967    83.6402     0.1165     2.4660   -27.3294    10.1389    12.1082    12.4675
 2493.0000    10.1255    82.9938     0.1278     2.4629   -27.9353    10.2760    11.9368    12.7104
 2493.5000    10.1545    82.0315     0.1371     2.4823   -28.2427    10.1305    11.9327    13.0562
 2494.0000    10.1533    80.3637     0.1324     2.4962   -28.2515    10.1263    11.9287    13.0467
 2494.5000    10.1825    84.4539     0.1109     2.4863   -27.9612    10.1221    12.0915    13.0372
 2495.0000    10.1812    88.0381     0.1017     2.4632   -27.3738    10.1179    11.9205    13.2155
 2495.5000    10.1801    88.5420     0.0894     2.4497   -27.0842     9.7747    11.9163    13.3840
 2496.0000    10.1789    87.0984     0.0862     2.4366   -26.7940     9.6980    11.9122    13.5608
 2496.5000    10.1643    85.7164     0.0768     2.4396   -26.2064     9.4285    11.9081    13.6104
 2497.0000    10.0858    85.2579     0.0703     2.4563   -25.9168     9.1673    11.9039    13.7278
 2497.5000    10.0424    86.4190     0.0646     2.4851   -25.6272     9.1637    11.6749    13.7174
 2498.0000    10.0083    88.8227     0.0746     2.4972   -25.3376     8.7872    11.4101    13.3306
 2498.5000     9.9613    88.4471     0.0820     2.4956   -25.0480     8.6577    10.8663    12.4296
 2499.0000     9.9297    87.2101     0.0901     2.4925   -25.0569     8.4065    10.1254    11.5896
 2499.5000     9.8983    87.9257     0.0994     2.4925   -24.7672     8.3034     9.7823    11.2647
 2500.0000     9.8972    89.6364     0.1006     2.4955   -24.7761     8.2619     9.7790    10.9490
 2500.5000     9.9565    89.6170     0.0974     2.4969   -24.4865     8.1824     9.9125    10.9407
 2501.0000     9.9553    89.5976     0.0969     2.4953   -24.4955     8.1790     9.7725    10.9324
