~VERSION INFORMATION
 VERS.                2.0:   CWLS LOG ASCII STANDARD - VERSION 2.0
 WRAP.                 NO:   ONE LINE PER DEPTH STEP
~WELL INFORMATION
#MNEM.UNIT      DATA TYPE    INFORMATION
#----------   ------------   ------------------------------
 STRT.F            0.5000:   START DEPTH
 STOP.F         5758.0000:   STOP DEPTH
 STEP.F            0.5000:   STEP LENGTH
 NULL.          -999.2500:   NO VALUE
 COMP.   LAWRENCE ALLISON:   COMPANY
 WELL. LAWRENCE "X" #51-10:   WELL
 FLD .          NPR NO. 3:   FIELD
 LOC .      S10 T38N R78W:   LOCATION
 CNTY.            NATRONA:   COUNTY
 STAT.            WYOMING:   STATE
 CTRY. UNITED STATES OF AMERICA:   COUNTRY
 SRVC.      DRESSER ATLAS:   SERVICE COMPANY
 DATE.        31-JAN-1987:   LOGDATE
 API .     49025111230000:   API NUMBER
~CURVE INFORMATION
#MNEM.UNIT       API CODE    CURVE DESCRIPTION
#----------   ------------   ------------------------------
 DEPT.F                  :   
 GRR .GAPI   07 310 01 00:   GAMMA RAY FROM RESISTIVITY
 TENR.LBS    07 635 01 00:   TENSION FROM RESISTIVITY
 SPR .MV     07 010 01 00:   SPONTANEOUS POTENTIAL
 RD  .OHMM   11 220 10 00:   RESISTIVITY DEEP
 RS  .OHMM   11 220 09 00:   RESISTIVITY SHALLOW
 CNC .DEC    42 890 03 00:   NEUTRON POROSITY
 CALD.IN     45 280 60 00:   CALIPER FROM DENSITY LOG
 DEN .G/C3   45 350 01 00:   BULK DENSITY
 CORR.G/C3   45 356 01 00:   DENSITY CORRECTION
 TEND.LBS    45 635 01 00:   TENSION FORM DENSITY LOG
~PARAMETER INFORMATION
#MNEM.UNIT          VALUE    DESCRIPTION
#----------   ------------   ------------------------------
 EKB .F         5227.0000:   Kelly bushing
 EGL .F         5215.0000:   Ground level
 EDF .F            0.0000:   Drilling floor
 TD  .F         5750.0000:   Total depth
 CLNT.            A2DTECH:   Client Code
 SL  . 2356' FEL & 170' FNL:   Surface Location
 PD  .                 GL:   Permanent Datum
 EPD .F              5215:   Elevation Permanent Datum
 LMF .                 KB:   Log Measured From
 DMF .                 KB:   Drilling Measured From
 DAPD.F                12:   Feet Above Permanent Datum
 DATE.        31-JAN-1987:   Date Logged [DD-MMM-YYYY]
 DD  .F              5747:   Depth driller
 DL  .F              5750:   Depth logger
 BLI .F              5748:   Bottom log interval
 CS1 .IN            9.625:   Casing size
 CBD1.      9.625" @ 511':   Casing driller 1
 CBL1.F               512:   Casing logger 1
 BS1 .IN             8.75:   Bit size
 BSD1.F              5747:   Depth drilled with bit1
 DFT .        KCL POLYMER:   Type fluid in hole
 DFD .                9.3:   Density
 DFV .                 43:   Viscosity
 DFPH.                9.5:   pH
 MSS .           FLOWLINE:   Source of sample
 RMS .OHMM          0.247:   Rm
 MST .F                74:   Rm Meas. temp.
 RMF .OHMM          0.162:   Rmf
 MFST.F                74:   Rmf Meas. temp.
 MFSS.               MEAS:   Source Rmf.
 RMC .OHMM          0.310:   Rmc
 MCST.F                74:   Rmc Meas. temp.
 MCSS.               CALC:   Source Rmc.
 RMB .OHMM          0.109:   Rm. at BHT
 BHT .F               167:   BHT.
 TCS .HRS               5:   Time Circ. stopped
 MRT .F               167:   Maximum recorded temp.
 LUN .            HL-6274:   Logging unit number
 LUL .           GILLETTE:   Logging unit location
 ORIG.        2" 5" PRINT:   Origin of data
 UWI .     49025111230000:   Unique Well ID
 DICO. A2D TECHNOLOGIES, INC.:   Digitizing Company
 ENGI.             RAUTIO:   Recorded By
 WITN.             STRONG:   Witnessed by
 DFL .                7.8:   Fluid loss
~OTHER INFORMATION
~A  DEPTH      GRR       TENR        SPR         RD         RS        CNC       CALD        DEN       CORR       TEND
# ...
 2948.5000    58.4258    -7.5800   -65.1966    24.4241    11.9395     0.2274     9.0048     2.3667     0.0373    -3.4477
 2949.0000    59.6935    -5.0000   -65.1878    24.5984    12.1156     0.2208     9.0050     2.3599     0.0206    -2.9392
 2949.5000    60.3348   -22.9691   -65.0243    24.9595    12.2943     0.2271     8.9902     2.3508     0.0160   -24.8598
 2950.0000    58.8235   -44.8847   -65.0155    25.1251    12.2108     0.2286     9.0056     2.3492     0.0250   -47.0348
 2950.5000    57.0027   -66.8003   -65.1615    24.6554    11.6195     0.2290     9.0058     2.3560     0.0448   -46.2405
 2951.0000    56.0959   -84.9413   -65.1837    24.2778    11.3567     0.2296     9.0212     2.3627     0.0583   -53.0491
 2951.5000    55.5181   -84.5953   -65.2668    23.9475    11.0551     0.2299     9.0366     2.3688     0.0643   -59.8368
 2952.0000    58.0355   -84.2493   -65.3499    24.4535    11.1367     0.2305     9.0368     2.3717     0.0399   -66.4414
 2952.5000    61.1640   -83.9033   -65.5650    25.1425    11.5444     0.2320     9.0371     2.3679     0.0368   -65.7103
 2953.0000    64.6020   -83.5573   -65.7032    25.6729    11.7972     0.2333     9.0222     2.3693     0.0443   -72.6807
 2953.5000    66.5049   -83.2113   -66.1576    25.8553    12.1519     0.2348     9.0225     2.3738     0.0518   -71.7669
 2954.0000    67.7630   -82.8653   -66.4539    25.8587    12.0585     0.2360     9.0075     2.3746     0.0502   -71.0354
 2954.5000    65.6364   -82.5193   -66.4373    25.6830    11.7209     0.2366     9.0230     2.3715     0.0456   -70.3006
 2955.0000    64.4305   -82.1733   -66.2692    25.1590    11.6391     0.2345     9.0383     2.3684     0.0440   -69.5489
 2955.5000    63.8357   -81.8273   -66.0978    24.9898    11.3950     0.2324     9.0386     2.3691     0.0455   -68.6594
 2956.0000    62.6379   -81.4813   -66.0846    24.9939    11.3161     0.2312     9.0237     2.3744     0.0454   -67.9283
 2956.5000    61.7416   -81.1353   -66.0713    25.1706    11.5645     0.2339     9.0240     2.3781     0.0483   -67.1968
 2957.0000    63.9494   -80.7893   -66.0580    25.7016    11.8176     0.2364     9.0394     2.3826     0.0452   -74.1675
 2957.5000    67.3874   -80.4433   -66.0447    26.6092    12.1630     0.2382     9.0396     2.3840     0.0451   -80.9549
 2958.0000    70.5159   -80.0973   -66.0310    26.6128    12.1678     0.2406     9.0399     2.3848     0.0542   -80.0411
 2958.5000    71.7868   -79.7513   -65.8600    26.4336    11.9103     0.2422     9.0401     2.3809     0.0617   -79.3100
 2959.0000    70.1813   -79.4053   -65.8468    25.5387    11.5768     0.2434     9.0404     2.3696     0.0510   -86.0977
 2959.5000    66.5967   -79.0593   -65.6787    25.0177    11.1725     0.2446     9.0406     2.3332     0.0327   -85.3383
 2960.0000    65.6923   -78.7133   -65.6654    24.5072    10.7055     0.2452     9.1165     2.3172     0.0129   -84.4524
 2960.5000    67.5905   -78.3673   -65.8069    23.5152    10.4051     0.2452     9.0711     2.3165     0.0095   -83.7213
 2961.0000    71.6477   -78.0213   -65.7903    22.8767    10.3337     0.2455     9.0560     2.3172     0.0021   -60.4338
 2961.5000    75.4661   -77.6753   -65.7770    22.4099    10.2621     0.2453     9.0257     2.3172     0.0020   -59.7027
 2962.0000    76.3566   -77.3293   -65.7638    22.2583    10.1185     0.2450     9.0106     2.3156     0.0080   -58.9712
 2962.5000    72.3725   -76.9833   -65.5957    21.7858     9.9063     0.2447     9.0106     2.3125     0.0186   -65.7894
 2963.0000    67.7610   -76.6373   -65.2547    20.7775     9.6262     0.2444     9.0257     2.3102     0.0231   -80.0753
 2963.5000    63.4591   -76.2913   -64.6370    20.2133     9.3597     0.2447     9.0408     2.3086     0.0200   -86.8531
 2964.0000    61.9436   -75.9453   -64.4689    19.6645     9.1630     0.2450     9.0408     2.3064     0.0199   -86.0904
 2964.5000    60.7458   -75.5993   -64.3009    19.2633     9.0342     0.2462     9.0408     2.3043     0.0259   -85.2078
 2965.0000    60.7783   -75.2533   -64.2876    19.0012     8.9721     0.2475     9.0408     2.3028     0.0319   -84.4767
 2965.5000    60.4931   -78.2706   -64.2740    18.4859     8.7789     0.2463     9.0257     2.3051     0.0378   -83.7456
 2966.0000    59.9145   -90.4824   -64.4125    17.9834     8.5376     0.2366     9.0257     2.3111     0.0439   -75.4957
 2966.5000    59.6374  -102.6941   -64.3992    17.4957     8.3585     0.2227     9.0408     2.3475     0.0498   -82.4661
 2967.0000    58.4396  -115.0000   -64.3860    17.2577     8.4202     0.2009     9.0257     2.3877     0.0528   -81.5523
 2967.5000    57.2337  -113.4988   -64.5279    17.6223     8.6045     0.1786     9.0257     2.4293     0.0543   -80.8208
 2968.0000    56.6389  -111.8789   -64.5139    18.4986     9.3390     0.1704     9.0257     2.4661     0.0451   -80.0750
 2968.5000    58.5371  -110.2940   -64.6557    20.3816    11.2159     0.1695     9.0106     2.5000     0.0678   -86.6947
 2969.0000    62.3026  -108.7212   -65.1035    23.0861    12.7592     0.1735     9.0106     2.5241     0.0798   -93.4824
 2969.5000    64.8021  -107.1485   -65.0902    25.5051    14.3087     0.1820     8.9955     2.5339     0.0950   -92.7513
 2970.0000    63.7148  -105.5758   -65.0770    28.2205    14.9391     0.1956     9.0106     2.5255     0.0979   -99.7217
 2970.5000    61.4615  -104.0030   -65.0635    29.0158    14.2443     0.2098     9.0106     2.4732     0.0659   -91.2887
 2971.0000    60.5652  -102.4303   -65.0471    25.8012    12.5889     0.2397     9.0257     2.4019     0.0567   -83.0388
 2971.5000    60.2879  -100.8576   -65.0338    23.4237    11.0707     0.2440     9.0408     2.3504     0.0521   -74.7889
 2972.0000    60.6383   -99.2843   -65.0205    21.4135    10.1624     0.2403     9.0257     2.3352     0.0369   -74.0578
 2972.5000    61.2900   -97.7121   -65.0072    19.7110     9.5994     0.2395     9.0257     2.3435     0.0247   -73.3083
 2973.0000    62.5608   -96.1394   -64.9938    18.6527     9.6018     0.2446     9.0106     2.3482     0.0443   -72.4125
 2973.5000    61.0453   -95.0000   -64.9774    17.6512     9.8120     0.2471     8.9955     2.3511     0.0549   -71.6814
 2974.0000    58.9106   -94.9987   -64.9641    17.6535     9.8844     0.2489     8.9955     2.3533     0.0548   -70.9503
 2974.5000    58.6335   -94.9989   -64.9508    17.6564     9.8865     0.2492     9.0106     2.3503     0.0547   -70.2192
 2975.0000    62.6989   -95.0000   -64.9375    17.1770     9.6786     0.2489     9.0257     2.3442     0.0546   -69.4881
 2975.5000    65.8274   -95.0000   -64.9241    16.5955     9.4756     0.2489     9.0257     2.3381     0.0470   -68.7566
 2976.0000    67.4079   -95.0000   -64.9077    16.2568     9.4095     0.2495     9.0257     2.3260     0.0302   -68.0255
 2976.5000    67.4403   -95.0000   -64.8944    16.0357     9.6160     0.2502     9.0257     2.3290     0.0210   -67.2933
 2977.0000    67.1632   -95.0000   -65.0392    16.2617     9.6870     0.2517     9.0257     2.3381     0.0316   -66.5413
 2977.5000    64.7271   -95.0000   -65.1807    16.3767     9.6199     0.2547     9.0106     2.3464     0.0527   -65.6492
 2978.0000    62.5924   -95.0000   -65.3189    16.4925     9.2183     0.2559     9.0106     2.3461     0.0587   -64.9180
 2978.5000    62.3071   -95.0000   -65.4571    16.1560     8.9602     0.2532     9.0257     2.3373     0.0495   -64.1869
 2979.0000    63.2765   -95.0000   -65.4438    15.8264     8.8343     0.2502     9.0257     2.3342     0.0449   -71.1573
 2979.5000    65.8092   -95.0000   -65.4306    15.7194     8.7110     0.2475     9.0257     2.3388     0.0371   -85.2811
 2980.0000    68.6128   -94.9902   -65.2625    15.8310     8.8384     0.2448     9.0257     2.3372     0.0296   -84.5500
 2980.5000    66.1685   -95.0251   -65.2492    16.1650     9.0971     0.2418     9.0257     2.3289     0.0310   -76.3001
 2981.0000    64.9626   -94.9451   -65.0778    16.4012     9.5660     0.2397     9.0408     2.3289     0.0355   -75.5639
 2981.5000    64.6842  -107.7714   -64.7549    16.8547     9.6366     0.2376     9.0257     2.3319     0.0339   -67.2934
