~VERSION INFORMATION
 VERS.                2.0:   CWLS LOG ASCII STANDARD - VERSION 2.0
 WRAP.                 NO:   ONE LINE PER DEPTH STEP
~WELL INFORMATION
#MNEM.UNIT      DATA TYPE    INFORMATION
#----------   ------------   ------------------------------
 STRT.F            0.0000:   START DEPTH
 STOP.F         1077.0000:   STOP DEPTH
 STEP.F            0.5000:   STEP LENGTH
 NULL.          -999.2500:   NO VALUE
 COMP.         JOHN BROWN:   COMPANY
 WELL.       JOHN X #66-2:   WELL
 FLD .                NPR:   FIELD
 LOC .       S2 T38N R78W:   LOCATION
 CNTY.            NATRONA:   COUNTY
 STAT.            WYOMING:   STATE
 CTRY. UNITED STATES OF AMERICA:   COUNTRY
 SRVC.     ATLAS WIRELINE:   SERVICE COMPANY
 DATE.        04-DEC-1991:   LOGDATE
 API .     49025224820000:   API NUMBER
~CURVE INFORMATION
#MNEM.UNIT       API CODE    CURVE DESCRIPTION
#----------   ------------   ------------------------------
 DEPT.F                  :   
 TENR.LBS    07 635 01 00:   TENSION
 RILD.OHMM   07 120 46 00:   INDUCTION LOG DEEP RESISTIVITY
 RILM.OHMM   07 120 44 00:   INDUCTION LOG MEDIUM RESISTIVITY
 GRR .GAPI   07 310 01 00:   GAMMA RAY FROM RESISTIVITY
~PARAMETER INFORMATION
#MNEM.UNIT          VALUE    DESCRIPTION
#----------   ------------   ------------------------------
 EKB .F         5189.0000:   Kelly bushing
 EGL .F         5179.0000:   Ground level
 EDF .F         5188.0000:   Drilling floor
 EPD .F         5179.0000:   Permanent datum
 TD  .F         1072.0000:   Total depth
 DATE.        04-DEC-1991:   Date logged
 CLNT.            A2DTECH:   Client Code
 SL  . 1893' FSL & 1937' FEL:   Surface Location
 PD  .                 GL:   Permanent Datum
 LMF .                 KB:   Log Measured From
 DMF .                 KB:   Drilling Measured From
 DAPD.F                10:   Feet Above Permanent Datum
 DD  .F              1072:   Depth driller
 DL  .F              1073:   Depth logger
 BLI .F              1071:   Bottom log interval
 CS1 .IN            9.625:   Casing size
 CBD1.       9.625" @ 40':   Casing driller 1
 CBL1.F                50:   Casing logger 1
 BS1 .IN            7.875:   Bit size
 BSD1.F              1072:   Depth drilled with bit1
 DFT .                AIR:   Type fluid in hole
 LUN .            HL 6387:   Logging unit number
 LUL .             CASPER:   Logging unit location
 WITN.        GARY STRONG:   Witnessed by
 ORIG.         2.5" PRINT:   Origin of data
 UWI .     49025224820000:   Unique Well ID
 DICO. A2D TECHNOLOGIES, INC.:   Digitizing Company
~OTHER INFORMATION
~A    DEPT    TENR       RILD       RILM         GRR  
# ...
  876.0000    -0.4890    19.6690    20.1820    77.5210
  876.5000    -0.2200    19.4630    20.1820    79.7590
  877.0000     0.0490    18.3830    19.4630    82.2120
  877.5000     0.3180    17.3280    19.1140    83.2000
  878.0000     0.5860    16.4440    18.1020    84.7990
  878.5000     0.8550    16.0830    17.1440    87.4380
  879.0000     1.1240    15.7220    16.5330    92.0890
  879.5000     1.3930    15.3610    16.2360    99.7050
  880.0000     1.6620    15.1000    16.2360   106.3010
  880.5000     1.9300    15.3680    16.2360   104.4710
  881.0000     2.1990    15.6720    16.4620    99.5780
  881.5000     2.4680    15.9440    17.2310    96.1010
  882.0000     2.7370    16.3520    17.6530    88.9070
  882.5000     3.0060    16.9290    18.2850    81.9260
  883.0000     3.2740    17.5060    18.9170    79.3920
  883.5000     3.5430    18.4330    19.4630    84.3590
  884.0000     3.8120    19.8200    21.3100    88.6690
  884.5000     4.0810    20.0220    21.7000    89.0400
  885.0000     4.3500    20.5510    21.0860    85.7800
  885.5000     4.6190    20.2410    20.5530    86.3000
  886.0000     4.8870    19.6900    20.0200    88.9060
  886.5000     5.1560    19.1390    19.4860    91.9750
  887.0000     5.4250    18.5890    18.9530    94.4490
  887.5000     5.6940    18.0380    18.4190    96.8270
  888.0000     5.9630    17.4870    18.1020    97.6550
  888.5000     6.2310    16.8360    17.7770    95.7930
  889.0000     6.5000    16.8360    17.7770    96.3500
  889.5000     6.7690    16.7840    17.7380    97.1160
  890.0000     7.0380    16.7330    17.6770    97.9270
  890.5000     7.3070    16.6820    17.6150    98.7000
  891.0000     7.5760    16.6310    17.5540    97.8660
  891.5000     7.8440    16.5800    17.4930    94.5550
  892.0000     8.1130    16.5330    17.4310    91.3970
  892.5000     8.3820    16.4150    17.3700    89.8130
  893.0000     8.6510    16.3050    17.3090    93.5890
  893.5000     8.9200    16.1940    17.2470    95.3510
  894.0000     9.1880    16.0840    17.1860    92.8450
  894.5000     9.4570    15.9740    17.0550    92.5470
  895.0000     9.7260    15.8630    16.7690    95.2690
  895.5000     9.9950    15.7530    16.4830    97.7830
  896.0000    10.2640    15.6580    16.2360    97.3050
  896.5000    10.5330    15.5780    15.9440    96.5740
  897.0000    10.8010    15.5080    15.9440    96.4860
  897.5000    11.0700    15.4380    15.9440    96.4210
  898.0000    11.3390    15.3670    15.9440    97.1580
  898.5000    11.6080    15.2970    15.9440    98.5620
  899.0000    11.8770    15.2270    15.9440    99.5810
  899.5000    12.1450    15.1560    15.9440    99.5920
  900.0000    12.4140    15.1000    15.9440    99.6230
  900.5000    12.6830    15.0600    15.9040    99.6000
  901.0000    12.9520    15.0280    15.8070    99.6180
  901.5000    13.2210    14.9950    15.7090    99.6000
  902.0000    13.4900    14.9620    15.6110    99.6150
  902.5000    13.7580    14.9290    15.5140    99.6810
  903.0000    14.0270    14.8970    15.4170   100.6020
  903.5000    14.2960    14.8640    15.3190   101.4430
  904.0000    14.5650    14.8290    15.2220   102.3890
  904.5000    14.8340    14.7560    15.1240   102.7570
  905.0000    15.1020    14.6200    15.0010   102.7340
  905.5000    15.3710    14.4840    14.8680   102.7680
  906.0000    15.6400    14.3480    14.7350   103.6220
  906.5000    16.1070    14.2120    14.6030   104.7560
  907.0000    16.7070    14.0760    14.4700   105.9060
  907.5000    17.3060    13.9400    14.3370   107.1170
  908.0000    17.9060    13.8040    14.2040   108.7800
  908.5000    18.5060    13.6680    14.0710   108.8390
  909.0000    19.1060    13.5440    13.9390   105.5910
  909.5000    19.7050    13.4250    13.8060   102.2710
  910.0000    20.3050    13.3150    13.6730   102.8930
  910.5000    20.9050    13.2060    13.5400   106.4850
  911.0000    21.5050    13.0970    13.4070   106.2950
  911.5000    22.1040    12.9870    13.2750   105.9580
  912.0000    22.7040    12.8780    13.1420   106.1890
  912.5000    23.3040    12.7690    13.0610   107.1220
  913.0000    23.9040    12.5960    13.0610   106.4000
  913.5000    24.5030    12.6230    13.0610   102.3470
  914.0000    25.1030    12.6850    13.0610   101.0100
  914.5000    25.7030    12.7460    13.0610   103.4660
  915.0000    26.3020    12.8080    13.0610   105.9870
  915.5000    26.9020    12.8710    13.0610   104.7680
  916.0000    27.5020    12.9330    13.0610   101.1990
  916.5000    28.1020    12.9950    13.0610    97.6340
  917.0000    28.7010    13.0610    13.0320    99.3440
  917.5000    29.3010    13.0370    12.9400   101.6900
  918.0000    29.9010    13.0130    12.8490   104.1050
  918.5000    30.5010    12.9890    12.7590   106.3800
  919.0000    31.1000    12.9640    12.6680   104.6250
  919.5000    31.7000    12.9390    12.5770   103.3560
  920.0000    32.3000    12.9140    12.4860   103.1740
  920.5000    32.9000    12.8890    12.3950   102.9690
  921.0000    33.4990    12.8670    12.3040   102.2080
  921.5000    34.0990    12.8470    12.2130   100.3470
  922.0000    34.6990    12.7120    12.1230    99.0190
  922.5000    35.2990    12.4600    12.0320   100.8210
  923.0000    35.8980    12.2140    11.9410   102.9990
  923.5000    36.4980    11.9690    11.8500   105.2720
  924.0000    37.0980    11.7230    11.7590   105.3270
  924.5000    37.6980    11.4780    11.6680   104.4780
  925.0000    38.2970    11.2320    11.5780   104.9840
  925.5000    38.8970    10.9870    11.4870   105.9210
  926.0000    39.4970    10.7410    11.3960   106.7460
  926.5000    40.0970    10.5080    11.3050   107.9310
  927.0000    40.6960    10.4890    11.2140   106.4870
  927.5000    41.2960    10.4710    11.1240   102.2690
  928.0000    41.8960    10.4530    10.8960    98.9870
  928.5000    42.4950    10.4360    10.8960    98.9960
  929.0000    43.0950    10.4180    10.8960    99.0080
  929.5000    43.6950    10.4000    10.8960    99.1790
  930.0000    44.2950    10.3820    10.8960    99.2550
  930.5000    44.8940    10.3650    10.8960    99.3700
  931.0000    45.4940    10.3470    10.8960    99.4530
  931.5000    46.0940    10.3280    10.8960    99.6210
  932.0000    46.6940    10.3150    10.8960    99.1160
  932.5000    47.2930    10.3090    10.5060    98.1700
  933.0000    47.8930    10.3020    10.4830    97.2550
  933.5000    48.4930    10.2940    10.4530    95.3970
  934.0000    49.0930    10.2870    10.4240    93.5300
  934.5000    49.6920    10.2800    10.4000    94.6480
  935.0000    50.2920    10.2730    10.3760    97.4140
  935.5000    50.8920    10.2660    10.3500   101.2160
  936.0000    51.4920    10.2590    10.3250   105.2590
  936.5000    52.0910    10.2520    10.3000   106.7660
  937.0000    52.6910    10.2440    10.2750   106.6200
  937.5000    53.2910    10.2370    10.2490   106.6030
  938.0000    53.8910    10.2300    10.2240   107.1750
  938.5000    54.4900    10.2230    10.1990   108.3330
  939.0000    55.0900    10.2160    10.1740   109.6050
  939.5000    55.6900    10.2090    10.1480   110.5080
  940.0000    56.2890    10.2020    10.1230   114.6200
  940.5000    56.8890    10.1950    10.0980   121.8010
  941.0000    57.4890    10.1870    10.0730   122.1570
  941.5000    58.0890    10.1800    10.0470   117.4910
  942.0000    58.6880    10.1730    10.0220   114.0370
  942.5000    59.2880    10.1660     9.9970   114.7140
  943.0000    59.8880    10.1590     9.9710   115.7730
  943.5000    60.4880    10.1510     9.9510   114.1830
  944.0000    61.0870    10.1440     9.9380   110.7090
  944.5000    61.6870    10.1400     9.9280   107.5220
  945.0000    62.2870    10.0920     9.9170   107.4100
  945.5000    62.8870     9.9880     9.9060   108.0200
  946.0000    63.4860     9.8870     9.8950   109.2930
  946.5000    64.0860     9.7850     9.8840   110.4260
  947.0000    64.6860     9.6840     9.8740   110.4190
  947.5000    65.2860     9.5830     9.8630   108.7490
  948.0000    65.8850     9.4810     9.8520   106.7980
  948.5000    66.4850     9.3800     9.8410   107.0720
