~VERSION INFORMATION
 VERS.                2.0:   CWLS LOG ASCII STANDARD - VERSION 2.0
 WRAP.                 NO:   ONE LINE PER DEPTH STEP
~WELL INFORMATION
#MNEM.UNIT      DATA TYPE    INFORMATION
#----------   ------------   ------------------------------
 STRT.F            0.0000:   START DEPTH
 STOP.F         3964.0000:   STOP DEPTH
 STEP.F            0.5000:   STEP LENGTH
 NULL.          -999.2500:   NO VALUE
 COMP. LAWRENCE ALLISON & ASSOCIATES:   COMPANY
 WELL. LAWRENCE NPR 3 "X" #43-10:   WELL
 FLD .              N P R:   FIELD
 LOC .      S10 T38N R78W:   LOCATION
 CNTY.            NATRONA:   COUNTY
 STAT.            WYOMING:   STATE
 CTRY. UNITED STATES OF AMERICA:   COUNTRY
 SRVC.      DRESSER ATLAS:   SERVICE COMPANY
 DATE.        07-AUG-1985:   LOGDATE
 API .     49025111390000:   API NUMBER
~CURVE INFORMATION
#MNEM.UNIT       API CODE    CURVE DESCRIPTION
#----------   ------------   ------------------------------
 DEPT.F                  :   
 CNC .DEC    42 890 03 00:   NEUTRON PORISITY SANDSTONE
 RHOB.G/C3   45 350 01 00:   BULK DENSITY
 CORR.G/C3   45 356 01 00:   DENSITY CORRECTION
 TEND.LBS    45 635 01 00:   TENSION FROM DENSITY LOG
 GRR .GAPI   07 310 01 00:   GAMMA RAY FROM RESISTIVITY
 CALR.IN     07 280 01 00:   CALIPER FROM RESISTIVITY
 SPR .MV     07 010 01 00:   SPONTANEOUS POTENTIAL
 TENR.LBS    07 635 01 00:   TENSION FROM RESISTIVITY
 RILD.OHMM   07 120 46 00:   DEEP INDUCTION RESISTIVITY
 RILM.OHMM   07 120 44 00:   INDUCTION LOG MEDIUM RESISTIVITY
 RFOC.OHMM   07 220 04 00:   RESISTIVITY FOCUSED LOG RES.
 DT  .US/F   60 520 00 00:   DELTA TIME
 TENS.LBS    60 635 01 00:   TENSION FROM SONIC
~PARAMETER INFORMATION
#MNEM.UNIT          VALUE    DESCRIPTION
#----------   ------------   ------------------------------
 EKB .F         5223.0000:   Kelly bushing
 EGL .F         5211.0000:   Ground level
 EDF .F            0.0000:   Drilling floor
 EPD .F         5211.0000:   Permanent datum
 TD  .F         3950.0000:   Total depth
 DATE.        07-AUG-1985:   Date logged
 CLNT.            A2DTECH:   Client Code
 SL  . 2016' FNL & 2230' FWL:   Surface Location
 PD  .                 GL:   Permanent Datum
 DD  .F              3950:   Depth driller
 DL  .F              3950:   Depth logger
 BLI .F              3948:   Bottom log interval
 CS1 .IN            8.625:   Casing size
 CBD1.      8.625" @ 518':   Casing driller 1
 CBL1.F               520:   Casing logger 1
 BS1 .IN            7.875:   Bit size
 DFT .            KCL-GEL:   Type fluid in hole
 DFD .                8.9:   Density
 DFV .                 40:   Viscosity
 DFPH.                  9:   pH
 DFL .                 12:   Fluid loss
 MSS .           FLOWLINE:   Source of sample
 RMS .OHMM           .318:   Rm
 MST .F                82:   Rm Meas. temp.
 RMF .OHMM            .24:   Rmf
 MFST.F                82:   Rmf Meas. temp.
 RMC .OHMM            .40:   Rmc
 MCST.F                82:   Rmc Meas. temp.
 MFSS.               CALC:   Source Rmf.
 RMB .OHMM            .19:   Rm. at BHT
 BHT .F               140:   BHT.
 TCS .HRS               4:   Time Circ. stopped
 MRT .F               140:   Maximum recorded temp.
 LUN .               6264:   Logging unit number
 LUL .               GLTE:   Logging unit location
 ENGI.           FAHLSING:   Recorded By
 WITN.             STRONG:   Witnessed by
 ORIG.           5" PRINT:   Origin of data
 UWI .     49025111390000:   Unique Well ID
 DICO. A2D TECHNOLOGIES, INC.:   Digitizing Company
 DAPD.                 12:   Feet Above Permanent Datum
 BSD1.               3950:   Depth drilled with bit1
 MCSS.               CALC:   Source Rmc.
~OTHER INFORMATION
~A    DEPT     CNC       RHOB       CORR       TEND         GRR      CALR        SPR       TENR       RILD       RILM       RFOC         DT       TENS   
# ...
 2782.0000     0.2440     2.5430     0.0430   -19.0390    98.9830     8.5120   -75.5000   -45.7970     9.0860     9.8370    12.1490    71.0940   -82.8670
 2782.5000     0.2660     2.5400     0.0480   -19.5300   103.6510     8.5060   -75.6130   -45.0000     8.0430     9.1730    11.2930    72.2090   -82.5880
 2783.0000     0.2700     2.5350     0.0380   -20.0210   110.2650     8.5360   -75.7180   -44.2030     7.6020     8.4660     9.6720    74.3860   -82.3100
 2783.5000     0.2720     2.5300     0.0200   -20.5120   119.2390     8.5660   -75.8250   -43.4060     7.1380     7.7590     8.3270    77.1910   -82.0310
 2784.0000     0.2770     2.5180     0.0110   -21.0030   127.4160     8.5940   -75.9310   -42.6090     6.6740     7.0520     7.2790    80.3540   -81.7530
 2784.5000     0.2820     2.5080     0.0190   -21.4950   127.9540     8.6430   -76.0380   -41.8130     6.2100     6.5550     6.8210    83.5170   -81.4740
 2785.0000     0.2860     2.5090     0.0410   -21.9860   126.6400     8.6420   -76.1670   -41.0160     5.7940     6.2070     6.8050    84.9150   -81.1950
 2785.5000     0.2910     2.5310     0.0620   -22.4770   124.2950     8.6430   -76.4240   -40.2190     5.5730     5.9540     6.7640    85.1460   -80.9170
 2786.0000     0.2960     2.5520     0.0650   -22.9680   121.9380     8.6270   -76.6840   -39.4220     5.3530     5.8420     6.7240    85.3970   -80.6380
 2786.5000     0.3030     2.5480     0.0600   -23.4590   119.5760     8.6080   -76.9430   -38.6250     5.1680     5.7290     6.6830    85.6480   -80.3590
 2787.0000     0.3010     2.5410     0.0520   -23.9500   117.3690     8.5880   -77.2050   -37.8290     5.1060     5.6170     6.6420    85.7870   -80.0810
 2787.5000     0.3060     2.5410     0.0580   -24.4420   119.4620     8.5630   -77.2940   -37.0320     5.0430     5.5270     6.5310    85.8870   -79.8020
 2788.0000     0.2840     2.5430     0.0560   -24.9330   125.0080     8.5360   -77.2240   -36.2350     4.9960     5.4170     6.3670    86.2110   -79.5240
 2788.5000     0.2750     2.5450     0.0250   -25.4240   130.0230     8.5080   -77.1530   -35.4380     4.9370     5.3060     6.2040    86.7310   -79.2450
 2789.0000     0.2690     2.5490     0.0280   -25.9150   131.8420     8.5310   -77.0810   -34.6410     4.8810     5.1960     6.0400    87.4840   -78.9660
 2789.5000     0.2690     2.5610     0.0600   -25.5700   132.0790     8.5620   -77.0100   -33.8450     4.8240     5.1140     5.8910    88.2360   -78.6880
 2790.0000     0.2830     2.5770     0.0660   -19.6760   132.3930     8.5940   -76.9400   -33.0480     4.7680     5.0360     5.8650    88.5040   -78.4090
 2790.5000     0.2820     2.5790     0.0440   -13.7820   133.1630     8.6220   -76.8320   -32.2510     4.7290     4.9510     5.8380    88.7110   -78.1310
 2791.0000     0.2720     2.5770     0.0470    -7.8880   133.5430     8.6110   -76.7090   -31.4540     4.7440     5.0150     5.8380    88.7460   -77.8520
 2791.5000     0.2650     2.5740     0.0640    -7.6360   133.7200     8.6000   -76.5840   -30.6570     4.7580     5.1050     5.8380    88.7820   -77.5730
 2792.0000     0.2640     2.5710     0.0640    -9.1860   135.3240     8.5890   -76.4590   -29.8610     4.7730     5.1830     5.8380    88.7530   -77.2950
 2792.5000     0.2640     2.5680     0.0370   -10.7370   136.1760     8.5820   -76.3320   -29.0640     4.8650     5.2850     5.8630    88.5020   -77.0160
 2793.0000     0.2610     2.5640     0.0420   -12.2870   133.4780     8.5750   -76.3250   -28.2670     4.9630     5.3940     5.9360    88.2510   -76.7380
 2793.5000     0.2580     2.5580     0.0520   -13.8370   128.5760     8.5680   -76.3260   -27.4700     5.0620     5.5030     6.0100    87.7750   -76.4590
 2794.0000     0.2570     2.5480     0.0560   -15.3870   125.0990     8.5670   -76.3260   -26.6730     5.1600     5.6130     6.1880    86.9870   -76.1800
 2794.5000     0.2670     2.5460     0.0500   -16.9370   125.8070     8.5750   -76.3260   -26.7990     5.2580     5.6800     6.5390    86.1990   -75.9020
 2795.0000     0.2750     2.5580     0.0460   -18.4870   128.4810     8.5830   -76.3260   -27.5800     5.2780     5.6800     6.8210    85.7130   -75.6230
 2795.5000     0.2830     2.5680     0.0430   -20.0380   127.8310     8.5920   -76.3250   -28.3620     5.2780     5.6800     6.6440    85.7130   -75.3440
 2796.0000     0.2860     2.5720     0.0510   -21.5880   127.2010     8.6000   -76.4510   -29.1440     5.2570     5.5970     6.4660    86.2590   -75.0650
 2796.5000     0.2810     2.5590     0.0560   -23.1380   127.7210     8.6080   -76.6570   -29.9260     5.2320     5.4960     6.2890    86.7820   -74.7850
 2797.0000     0.2840     2.5450     0.0390   -24.6880   129.7230     8.6170   -76.8640   -30.7080     5.2060     5.3950     6.1970    87.3040   -74.5060
 2797.5000     0.2920     2.5300     0.0100   -26.2380   131.6610     8.6260   -77.0720   -31.4900     5.1800     5.2780     6.1350    87.8260   -74.2260
 2798.0000     0.2990     2.5280     0.0070   -27.7880   131.5220     8.6340   -77.2800   -32.2710     5.1540     5.2910     6.0720    88.2830   -73.9470
 2798.5000     0.3000     2.5500     0.0800   -29.3390   129.9180     8.6430   -77.2830   -33.0530     5.1350     5.3110     6.0100    88.5650   -73.6680
 2799.0000     0.3010     2.5690     0.1210   -30.8890   128.3260     8.6490   -77.2530   -33.8350     5.1350     5.3310     5.9480    88.8470   -73.3880
 2799.5000     0.3010     2.5760     0.1180   -32.4390   126.6920     8.6540   -77.2230   -34.6170     5.1350     5.3500     5.8910    89.1030   -73.1090
 2800.0000     0.2950     2.5810     0.0910   -33.9890   124.3160     8.6600   -77.1930   -35.3990     5.1350     5.3700     6.0170    89.1030   -72.8290
 2800.5000     0.2840     2.5780     0.0680   -35.5390   125.0420     8.6660   -77.1630   -36.1800     5.1350     5.3960     6.1330    88.8480   -72.5500
 2801.0000     0.2720     2.5670     0.0440   -35.4870   128.0370     8.6720   -77.1330   -36.9620     5.1350     5.4260     6.2490    88.3450   -72.2700
 2801.5000     0.2760     2.5600     0.0460   -33.9600   131.1740     8.6780   -77.1120   -37.7440     5.1350     5.4550     6.3970    88.0060   -71.9910
 2802.0000     0.2900     2.5620     0.0680   -32.4330   133.4420     8.6810   -77.1120   -38.5260     5.1350     5.4750     6.3510    88.0060   -71.7120
 2802.5000     0.3010     2.5570     0.0770   -30.9050   130.9670     8.6770   -77.1120   -39.3080     5.1360     5.4750     6.2610    88.3650   -71.4320
 2803.0000     0.3010     2.5490     0.0750   -29.3780   126.3690     8.6730   -77.1120   -40.0900     5.1550     5.4750     6.1720    88.7130   -71.1530
 2803.5000     0.2940     2.5410     0.0680   -27.8510   123.0740     8.6700   -77.1120   -40.8710     5.1930     5.4750     6.1110    89.0030   -70.8730
 2804.0000     0.2830     2.5330     0.0510   -26.3420   125.8640     8.6660   -77.1120   -41.6530     5.2310     5.4750     6.1470    89.1030   -70.5940
 2804.5000     0.2810     2.5250     0.0300   -26.3420   129.4780     8.6620   -77.1110   -42.4350     5.2680     5.5150     6.1740    89.2840   -70.3140
 2805.0000     0.2880     2.5170     0.0220   -26.3420   132.7060     8.6590   -77.2260   -43.2170     5.3060     5.5580     6.2010    89.5170   -70.0350
 2805.5000     0.2940     2.5080     0.0330   -26.3420   131.6500     8.6550   -77.4370   -43.9990     5.3440     5.6010     6.2430    89.6660   -69.7560
 2806.0000     0.3000     2.5000     0.0420   -26.3420   129.8640     8.6510   -77.6530   -44.7810     5.3760     5.6430     6.3720    89.4980   -69.4760
 2806.5000     0.3060     2.5020     0.0270   -26.3420   128.3320     8.6480   -77.8150   -45.5620     5.3760     5.6800     6.4560    89.3300   -69.1970
 2807.0000     0.3120     2.5040     0.0070   -26.3420   127.1640     8.6440   -77.9670   -46.0590     5.3760     5.6400     6.4410    89.2020   -68.9170
 2807.5000     0.3120     2.5000     0.0020   -26.3420   124.9370     8.6420   -78.1190   -45.0090     5.3760     5.6060     6.4270    89.3020   -68.6380
