~VERSION INFORMATION
 VERS.                2.0:   CWLS LOG ASCII STANDARD - VERSION 2.0
 WRAP.                 NO:   ONE LINE PER DEPTH STEP
~WELL INFORMATION
#MNEM.UNIT      DATA TYPE    INFORMATION
#----------   ------------   ------------------------------
 STRT.F          196.5000:   START DEPTH
 STOP.F         3219.0000:   STOP DEPTH
 STEP.F            0.5000:   STEP LENGTH
 NULL.          -999.2500:   NO VALUE
 COMP.    FENIX & SCISSON:   COMPANY
 WELL.  FENIX "AX" #73-15:   WELL
 FLD .              NPR 3:   FIELD
 LOC .      S15 T38N R78W:   LOCATION
 CNTY.            NATRONA:   COUNTY
 STAT.            WYOMING:   STATE
 CTRY. UNITED STATES OF AMERICA:   COUNTRY
 SRVC.       SCHLUMBERGER:   SERVICE COMPANY
 DATE.        30-AUG-1977:   LOGDATE
 API .     49025104270000:   API NUMBER
~CURVE INFORMATION
#MNEM.UNIT       API CODE    CURVE DESCRIPTION
#----------   ------------   ------------------------------
 DEPT.F                  :   
 NPHI.DEC    42 890 03 00:   NEUTRON POROSITY SANDSTONE
 CALD.IN     45 280 60 00:   CALIPER FROM DENSITY LOG
 GRD .GAPI   45 310 01 00:   GAMMA RAY FROM DENSITY LOG
 CORR.G/C3   45 356 01 00:   DENSITY CORRECTION
 RHOB.G/C3   45 350 01 00:   BULK DENSITY
 SPR .MV     07 010 01 00:   SPONTANEOUS POTENTIAL
 RILD.OHMM   07 120 46 00:   DEEP INDUCTION RESISTIVITY
 RILM.OHMM   07 120 44 00:   INDUCTION LOG MEDIUM RESISTIVITY
 LL8 .OHMM   07 220 08 00:   LATEROLOG-8 RES.
~PARAMETER INFORMATION
#MNEM.UNIT          VALUE    DESCRIPTION
#----------   ------------   ------------------------------
 EKB .F         5263.0000:   Kelly bushing
 EGL .F         5253.0000:   Ground level
 TD  .F         3220.0000:   Total depth
 CLNT.            A2DTECH:   Client Code
 SL  . 1650' FNL & 875' FEL:   Surface Location
 PD  .                 GL:   Permanent Datum
 EPD .F              5253:   Elevation Permanent Datum
 LMF .                 KB:   Log Measured From
 DMF .                 KB:   Drilling Measured From
 DAPD.F                10:   Feet Above Permanent Datum
 DATE.        30-AUG-1977:   Date Logged [DD-MMM-YYYY]
 DD  .F              3220:   Depth driller
 DL  .F              3219:   Depth logger
 BLI .F              3209:   Bottom log interval
 TLI .F               216:   Top log interval
 CS1 .IN            8.625:   Casing size
 CBL1.F               216:   Casing logger 1
 BS1 .IN            7.875:   Bit size
 BSD1.F              3220:   Depth drilled with bit1
 DFT .                FGM:   Type fluid in hole
 DFD .                8.9:   Density
 DFPH.                 11:   pH
 MSS .            MUDTANK:   Source of sample
 RMS .OHMM           0.40:   Rm
 MST .F                82:   Rm Meas. temp.
 RMF .OHMM           0.25:   Rmf
 MFST.F                72:   Rmf Meas. temp.
 MFSS.               MEAS:   Source Rmf.
 RMC .OHMM           0.60:   Rmc
 MCST.F                82:   Rmc Meas. temp.
 MCSS.               CALC:   Source Rmc.
 RMB .OHMM           0.27:   Rm. at BHT
 BHT .F               120:   BHT.
 MRT .F               120:   Maximum recorded temp.
 LUN .               5642:   Logging unit number
 LUL .               CSPR:   Logging unit location
 ENGI.                FIX:   Recorded By
 WITN.         RETTINGILL:   Witnessed by
 ORIG.           5" PRINT:   Origin of data
 UWI .     49025104270000:   Unique Well ID
 DICO. A2D TECHNOLOGIES, INC.:   Digitizing Company
 DFV .                 35:   Viscosity
 DFL .                8.4:   Fluid loss
 CBD1.      8.625" @ 216':   Casing driller 1
~OTHER INFORMATION
~A   DEPT       NPHI     CALD        GRD       CORR       RHOB        SPR       RILD       RILM        LL8   
  196.5000     0.5446  -999.2500  -999.2500  -999.2500  -999.2500  -999.2500  -999.2500  -999.2500  -999.2500
  197.0000     0.5337  -999.2500    38.8704  -999.2500  -999.2500  -999.2500  -999.2500  -999.2500  -999.2500
  197.5000     0.5216  -999.2500    37.5112  -999.2500  -999.2500  -999.2500  -999.2500  -999.2500  -999.2500
  198.0000     0.5115  -999.2500    35.6969  -999.2500  -999.2500  -999.2500  -999.2500  -999.2500  -999.2500
  198.5000     0.5052  -999.2500    32.7013  -999.2500  -999.2500  -999.2500  -999.2500  -999.2500  -999.2500
  199.0000     0.5106  -999.2500    32.9462  -999.2500  -999.2500  -999.2500  -999.2500  -999.2500  -999.2500
  199.5000     0.5393  -999.2500    33.8598  -999.2500  -999.2500  -999.2500  -999.2500  -999.2500  -999.2500
  200.0000     0.5581  -999.2500    33.4361  -999.2500  -999.2500  -999.2500  -999.2500  -999.2500  -999.2500
  200.5000     0.5695  -999.2500    31.0064  -999.2500  -999.2500  -999.2500  -999.2500  -999.2500  -999.2500
  201.0000     0.5686  -999.2500    30.8000  -999.2500  -999.2500  -999.2500  -999.2500  -999.2500  -999.2500
  201.5000     0.5590  -999.2500    31.9420  -999.2500  -999.2500  -999.2500  -999.2500  -999.2500  -999.2500
  202.0000     0.5541  -999.2500    33.5242  -999.2500  -999.2500  -999.2500  -999.2500  -999.2500  -999.2500
  202.5000     0.5592  -999.2500    35.1064  -999.2500  -999.2500  -999.2500  -999.2500  -999.2500  -999.2500
  203.0000     0.5869  -999.2500    36.4657  -999.2500  -999.2500  -999.2500  -999.2500  -999.2500  -999.2500
  203.5000     0.6011  -999.2500    37.8251  -999.2500  -999.2500  -999.2500  -999.2500  -999.2500  -999.2500
  204.0000     0.5855  -999.2500    38.7386  -999.2500  -999.2500  -999.2500  -999.2500  -999.2500  -999.2500
  204.5000     0.5777  -999.2500    39.4293  -999.2500  -999.2500  -999.2500  -999.2500  -999.2500  -999.2500
  205.0000     0.5843  -999.2500    38.7827  -999.2500  -999.2500  -999.2500  -999.2500  -999.2500  -999.2500
  205.5000     0.5749  -999.2500    34.3471  -999.2500  -999.2500  -999.2500  -999.2500  -999.2500  -999.2500
  206.0000     0.5626  -999.2500    30.5801  -999.2500  -999.2500  -999.2500  -999.2500  -999.2500  -999.2500
  206.5000     0.5635  -999.2500    28.5962  -999.2500  -999.2500  -999.2500  -999.2500  -999.2500  -999.2500
  207.0000     0.5638  -999.2500    28.1694  -999.2500  -999.2500  -999.2500  -999.2500  -999.2500  -999.2500
  207.5000     0.5589  -999.2500    28.8782  -999.2500  -999.2500  -999.2500  -999.2500  -999.2500  -999.2500
  208.0000     0.5586  -999.2500    29.7950  -999.2500  -999.2500  -999.2500  -999.2500  -999.2500  -999.2500
  208.5000     0.5706  -999.2500    30.2734  -999.2500  -999.2500  -999.2500  -999.2500  -999.2500  -999.2500
  209.0000     0.5741  -999.2500    30.7132  -999.2500  -999.2500  -999.2500  -999.2500  -999.2500  -999.2500
  209.5000     0.5732  -999.2500    30.2885  -999.2500  -999.2500  -999.2500  -999.2500  -999.2500  -999.2500
  210.0000     0.5603  -999.2500    28.9788  -999.2500  -999.2500  -999.2500  -999.2500  -999.2500  -999.2500
  210.5000     0.5276  -999.2500    28.7724  -999.2500  -999.2500  -999.2500  -999.2500  -999.2500  -999.2500
  211.0000     0.5230  -999.2500    29.4686  -999.2500  -999.2500  -999.2500  -999.2500  -999.2500  -999.2500
  211.5000     0.5242  -999.2500    28.5991  -999.2500  -999.2500  -999.2500  -999.2500  -999.2500  -999.2500
  212.0000     0.5293  -999.2500    27.5067  -999.2500  -999.2500  -999.2500  -999.2500  -999.2500  -999.2500
  212.5000     0.5397  -999.2500    25.0770  -999.2500  -999.2500  -999.2500  -999.2500  -999.2500  -999.2500
  213.0000     0.5496  -999.2500    19.3041  -999.2500  -999.2500  -999.2500  -999.2500  -999.2500  -999.2500
  213.5000     0.5634  -999.2500    18.4291  -999.2500  -999.2500  -999.2500  -999.2500  -999.2500  -999.2500
  214.0000     0.5883  -999.2500    19.1253  -999.2500  -999.2500  -999.2500  -999.2500  -999.2500  -999.2500
  214.5000     0.5990  -999.2500    21.1533  -999.2500  -999.2500  -999.2500  -999.2500  -999.2500  -999.2500
  215.0000     0.5978  -999.2500    26.5245  -999.2500  -999.2500  -999.2500  -999.2500  -999.2500  -999.2500
  215.5000     0.6055  -999.2500    36.3534  -999.2500     2.6118  -999.2500  -999.2500  -999.2500  -999.2500
  216.0000     0.6022  -999.2500    46.1822     0.0998     2.6568   -78.8839    10.5077    11.3468    12.9985
  216.5000     0.5881  -999.2500    49.8262     0.0878     2.6674   -85.4734     8.2416     8.9338     8.9878
  217.0000     0.4852    10.8563    49.1233     0.0538     2.6075   -87.7211     6.5606     6.1885     3.6596
  217.5000     0.4807    11.7526    50.4831     0.0421     2.3445   -89.8179     6.7018     6.5877     2.0063
  218.0000     0.4989    12.3929    53.4146     0.0374     2.3273   -92.3673     4.7683     4.5679     3.0394
  218.5000     0.5013    12.5131    55.2481     0.0301     2.3214   -94.4641     4.5823     4.6650     3.5161
  219.0000     0.4998    12.5144    57.7058     0.0345     2.3334   -95.6561     5.7178     5.8219     4.0395
  219.5000     0.4901    12.5306    59.2987     0.0464     2.3425   -97.0211     7.3961     6.9704     4.8709
  220.0000     0.4853    12.5319    56.8395     0.0359     2.3501   -98.5420     7.5016     7.6810     6.2076
  220.5000     0.4832    12.5184    57.0789     0.0329     2.3247   -99.8314     7.1503     8.1312     8.8979
  221.0000     0.4922    12.5200    52.2030     0.0451     2.3427  -100.1183     6.5828     7.6880     6.7830
  221.5000     0.5065    12.5213    50.8877     0.0407     2.3503  -100.1035     5.8948     7.2236     5.8291
  222.0000     0.5092    12.5227    53.8072     0.0400     2.3429   -99.6363     5.6566     6.9801     5.4857
  222.5000     0.5007    12.5240    55.8352     0.0326     2.3302   -96.7558     5.7384     6.8860     5.6882
  223.0000     0.4959    12.5402    56.7488     0.0312     2.3220   -92.9703     6.0678     6.8879     6.3567
  223.5000     0.5025    12.5564    57.2166     0.0321     2.3244   -97.1788     6.9721     6.9858     7.2526
  224.0000     0.5140    12.5577    59.4674     0.0254     2.3117  -102.8956     7.3214     7.3383     8.1049
  224.5000     0.5337    12.5590    62.3869     0.0247     2.2908  -103.9366     7.6351     7.7647     8.9330
  225.0000     0.5222    12.5603    65.3064     0.0264     2.2609  -103.4565     7.8528     8.1497     9.9141
  225.5000     0.4844    12.5320    69.1175     0.0641     2.2437  -102.7979     7.9655     8.2564    10.4094
  226.0000     0.4673    11.4930    70.4768     0.0989     2.2405  -101.6263     8.0799     8.2017     9.7872
  226.5000     0.4425    11.1080    70.7217     0.0643     2.2603   -99.9524     8.0275     8.1468     9.0747
  227.0000     0.4123    11.0351    72.9726     0.0584     2.2837   -99.0327     7.9203     7.9273     8.6501
  227.5000     0.3994    10.9767    75.6692     0.0570     2.3072   -98.2638     7.8084     7.8206     8.4181
  228.0000     0.4080    10.9040    74.7997     0.0503     2.3199   -98.0982     7.7102     7.7682     8.3639
  228.5000     0.4161    10.8594    74.1530     0.0482     2.3262   -97.9326     7.7678     7.7168     8.3103
  229.0000     0.4215    10.8026    73.9522     0.0596     2.3569   -97.9179     7.9341     7.7194     8.3144
  229.5000     0.4299    10.7742    74.6627     0.0559     2.3530   -97.2998     8.0481     7.7751     8.3190
  230.0000     0.4313    10.7607    75.1114     0.0365     2.3486   -95.7768     8.1636     7.8312     8.4422
  230.5000     0.4292    10.7624    75.3566     0.0283     2.3457   -94.5412     8.3964     7.9424     8.6866
  231.0000     0.4130    10.7785    75.3832     0.0253     2.3427   -93.9336     8.5761     8.1111     8.9380
  231.5000     0.4004    10.7799    75.1768     0.0307     2.3481   -93.6172     8.6993     8.2834     9.1825
  232.0000     0.4021    10.7812    72.9755     0.0595     2.3714   -93.4517     8.7634     8.4031     9.3795
  232.5000     0.4159    10.7673    68.5399     0.0746     2.3917   -93.4806     8.8892     8.5866     9.4490
