~VERSION INFORMATION
 VERS.                2.0:   CWLS LOG ASCII STANDARD - VERSION 2.0
 WRAP.                 NO:   ONE LINE PER DEPTH STEP
~WELL INFORMATION
#MNEM.UNIT      DATA TYPE    INFORMATION
#----------   ------------   ------------------------------
 STRT.F           41.0000:   START DEPTH
 STOP.F          925.0000:   STOP DEPTH
 STEP.F            0.5000:   STEP LENGTH
 NULL.          -999.2500:   NO VALUE
 COMP. LAWRENCE ALLISON & ASSOCIATION:   COMPANY
 WELL. LAWRENCE ALLISON #48-2:   WELL
 FLD .       N.P.R. NO. 3:   FIELD
 LOC .       S2 T38N R78W:   LOCATION
 CNTY.            NATRONA:   COUNTY
 STAT.            WYOMING:   STATE
 CTRY. UNITED STATES OF AMERICA:   COUNTRY
 SRVC.       SCHLUMBERGER:   SERVICE COMPANY
 DATE.        06-SEP-1982:   LOGDATE
 API .     49025109110000:   API NUMBER
~CURVE INFORMATION
#MNEM.UNIT       API CODE    CURVE DESCRIPTION
#----------   ------------   ------------------------------
 DEPT.F                  :   
 ILM .OHMM   07 120 44 00:   INDUCTION LOG MEDIUM RESISTIVITY
 ILD .OHMM   07 120 46 00:   DEEP INDUCTION RESISTIVITY
 CALD.IN     45 280 60 00:   CALIPER FROM DENSITY LOG
 GRD .GAPI   45 310 01 00:   GAMMA RAY FROM DENSITY LOG
 TEND.LBS    45 635 01 00:   TENSION FROM DENSITY LOG
 CORR.G/C3   45 356 01 00:   DENSITY CORRECTION
 RHOB.G/C3   45 350 01 00:   BULK DENSITY
 NPHI.DEC    42 890 03 00:   NEUTRON POROSITY SANDSTONE
~PARAMETER INFORMATION
#MNEM.UNIT          VALUE    DESCRIPTION
#----------   ------------   ------------------------------
 EKB .F         5192.0000:   Kelly bushing
 EGL .F         5182.0000:   Ground level
 TD  .F          920.0000:   Total depth
 CLNT.            A2DTECH:   Client Code
 DATE.         6-SEP-1982:   Date Logged [DD-MMM-YYYY]
 DD  .F               920:   Depth driller
 DL  .F               918:   Depth logger
 BLI .F               908:   Bottom log interval
 TLI .F                49:   Top log interval
 CBL1.IN               49:   Casing logger 1
 BSD1.F               920:   Depth drilled with bit1
 DFT .                AIR:   Type fluid in hole
 TCS .HRS            0730:   Time Circ. stopped
 TLAB.HRS            0900:   Time logger at bottom
 LUN .               8035:   Logging unit number
 LUL .               CSPR:   Logging unit location
 ENGI.              PENNY:   Recorded By
 WITN.           JENNINGS:   Witnessed by
 ORIG.           5" PRINT:   Origin of data
 UWI .     49025109110000:   Unique Well ID
 DICO. A2D TECHNOLOGIES, INC.:   Digitizing Company
 PD  .                 GL:   Permanent Datum
 EPD .               5180:   Elevation Permanent Datum
 LMF .                 KB:   Log Measured From
 DMF .                 KB:   Drilling Measured From
 DAPD.                 10:   Feet Above Permanent Datum
~OTHER INFORMATION
~A   DEPT      ILM        ILD       CALD         GRD      TEND       CORR       RHOB       NPHI   
# ...
  770.0000    14.8642    14.6711    12.6559   103.9837   772.8629     0.0319     2.3114  -999.2500
  770.5000    14.7641    14.5739    12.6569   101.7929   772.8639     0.0288     2.3021  -999.2500
  771.0000    14.5635    14.4766    12.6579    97.8321   772.8649     0.0265     2.3061  -999.2500
  771.5000    14.4646    14.3786    12.6739    98.3524   772.8659     0.0289     2.3125  -999.2500
  772.0000    14.3672    14.1845    12.6749   101.0118   772.8669     0.0346     2.3201  -999.2500
  772.5000    14.1720    14.0897    12.6609   101.2207   772.8679     0.0431     2.3255  -999.2500
  773.0000    14.0758    13.9956    12.6326   101.4634   772.8690     0.0478     2.3373  -999.2500
  773.5000    13.9817    13.8054    12.6484   103.6974   772.8699     0.0502     2.3427  -999.2500
  774.0000    13.8876    13.7131    12.6789   106.3738   772.8710     0.0431     2.3365  -999.2500
  774.5000    13.7941    13.7178    12.7543   109.9351   772.8719     0.0377     2.3350  -999.2500
  775.0000    13.7013    13.6252    12.7696   111.5053   772.8730     0.0345     2.3444  -999.2500
  775.5000    13.7052    13.5342    12.7558   111.5269   772.8740     0.0377     2.3508  -999.2500
  776.0000    13.7083    13.4445    12.7420   100.8939   772.8750     0.0449     2.3554  -999.2500
  776.5000    13.6152    13.3548    12.7282   100.2867   772.8760     0.0472     2.3601  -999.2500
  777.0000    13.4302    13.1733    12.7295   101.1986   772.8770     0.0480     2.3671  -999.2500
  777.5000    13.2979    13.3439    12.7305   101.2201   772.8780     0.0527     2.3741  -999.2500
  778.0000    13.2435    13.2966    12.7315    98.5868   772.8790     0.0590     2.3718  -999.2500
  778.5000    13.1891    13.2493    12.7325    94.1836   772.8800     0.0606     2.3656  -999.2500
  779.0000    13.1347    13.2019    12.7485    90.4386   772.8810     0.0551     2.3532  -999.2500
  779.5000    13.0803    13.1546    12.7495    93.3417   772.8820     0.0418     2.3356  -999.2500
  780.0000    13.0259    13.1073    12.7653    98.2304   772.8831     0.0277     2.3243  -999.2500
  780.5000    12.9715    13.0599    12.7663   105.1862   772.8840     0.0246     2.3306  -999.2500
  781.0000    12.9171    13.0126    12.7523   108.6725   772.8851     0.0333     2.3376  -999.2500
  781.5000    12.8627    12.9652    12.7535   104.9376   772.8860     0.0388     2.3416  -999.2500
  782.0000    12.8082    12.9179    12.7545   100.7556   772.8871     0.0325     2.3330  -999.2500
  782.5000    12.7538    12.8706    12.7407    97.9010   772.8881     0.0294     2.3237  -999.2500
  783.0000    12.6994    12.8232    12.7420    98.3650   772.8891     0.0381     2.3346  -999.2500
  783.5000    12.6450    12.7759    12.7280    99.9352   772.8901     0.0451     2.3660  -999.2500
  784.0000    12.5906    12.7286    12.7292   101.2842   772.8911     0.0546     2.3744  -999.2500
  784.5000    12.5362    12.6812    12.7450   101.5270   772.8921     0.0522     2.3667  -999.2500
  785.0000    12.4818    12.6339    12.7460   100.6563   772.8931     0.0433     2.3605  -999.2500
  785.5000    12.4274    12.5865    12.7470   100.4638   772.8941     0.0343     2.3574  -999.2500
  786.0000    12.3730    12.5392    12.7628   100.9332   772.8951     0.0288     2.3558  -999.2500
  786.5000    12.3186    12.4919    12.7490   104.7158   772.8961     0.0319     2.3621  -999.2500
  787.0000    12.2642    12.4445    12.7503   104.2949   772.8972     0.0414     2.3699  -999.2500
  787.5000    12.2098    12.3972    12.7513   101.8828   772.8981     0.0469     2.3754  -999.2500
  788.0000    12.1554    12.3499    12.7523    97.2583   772.8992     0.0485     2.3832  -999.2500
  788.5000    12.1009    12.3025    12.7533    91.9647   772.9001     0.0430     2.3723  -999.2500
  789.0000    12.0465    12.2552    12.7543    90.8854   772.9012     0.0334     2.3638  -999.2500
  789.5000    11.9960    12.2006    12.7553    90.2432   772.9022     0.0258     2.3607  -999.2500
  790.0000    11.9159    12.2039    12.7415    90.5161   772.9031     0.0282     2.3778  -999.2500
  790.5000    11.9186    12.2073    12.7427    93.1678   772.9042     0.0392     2.3849  -999.2500
  791.0000    11.9213    12.1249    12.7437    99.3840   772.9052     0.0463     2.3919  -999.2500
  791.5000    11.9240    12.0439    12.7300   103.6091   772.9062     0.0518     2.3959  -999.2500
  792.0000    11.7607    11.9642    12.7014   103.8465   772.9072     0.0557     2.3974  -999.2500
  792.5000    11.9295    11.8842    12.7024   100.9919   772.9082     0.0567     2.3850  -999.2500
  793.0000    12.0158    11.8048    12.7034   102.7887   772.9092     0.0526     2.3718  -999.2500
  793.5000    12.2729    11.8081    12.7044   104.5802   772.9102     0.0427     2.3624  -999.2500
  794.0000    12.3618    11.8121    12.7054   102.8261   772.9112     0.0307     2.3585  -999.2500
  794.5000    12.1089    11.8153    12.7067   102.6321   772.9122     0.0300     2.3539  -999.2500
  795.0000    11.9430    11.7363    12.7077   103.7652   772.9132     0.0323     2.3500  -999.2500
  795.5000    11.6988    11.6571    12.7087   105.3354   772.9142     0.0379     2.3656  -999.2500
  796.0000    11.6193    11.5800    12.7097   104.9144   772.9152     0.0449     2.3829  -999.2500
  796.5000    11.4608    11.5018    12.7107   101.8386   772.9163     0.0505     2.3844  -999.2500
  797.0000    11.3051    11.3463    12.7117    99.4212   772.9172     0.0473     2.3704  -999.2500
  797.5000    11.1507    11.2704    12.7127    99.6693   772.9183     0.0329     2.3720  -999.2500
  798.0000    10.9987    11.1173    12.7137   101.9032   772.9193     0.0278     2.3938    -0.0073
  798.5000    10.9246    10.9663    12.6999   103.9175   772.9203     0.0427     2.4180    -0.0073
  799.0000    10.7755    10.8820    12.6864   104.6012   772.9213     0.0506     2.4321    -0.0073
  799.5000    10.7036    10.8202    12.6874   102.6369   772.9223     0.0553     2.4346    -0.0073
  800.0000    10.7060    10.7479    12.6884   101.1459   772.9233     0.0585     2.4306    -0.0068
  800.5000    10.7085    10.6761    12.7189   102.5360   741.8856     0.0601     2.4208    -0.0068
  801.0000    10.7109    10.6797    12.7199   102.0885   741.8856     0.0546     2.4080    -0.0071
  801.5000    10.7133    10.7574    12.7212   100.9529   757.3416     0.0396     2.4080    -0.0071
  802.0000    10.7105    10.7604    12.7222   102.1108   757.3416     0.0271     2.4166    -0.0071
  802.5000    10.6840    10.8379    12.7232   105.7918   757.3416     0.0254     2.4197    -0.0071
  803.0000    10.6575    10.7687    12.7242   109.9314   757.3416     0.0286     2.4166    -0.0071
  803.5000    10.6310    10.7740    12.7252   112.0069   772.7975     0.0301     2.4127    -0.0071
  804.0000    10.6044    10.7782    12.7112   111.0703   757.3416     0.0324     2.4151    -0.0071
  804.5000    10.5779    10.8581    12.7125   110.8824   757.3416     0.0340     2.4198    -0.0071
  805.0000    10.5514    10.8619    12.7135   111.8138   757.3416     0.0356     2.4245    -0.0072
  805.5000    10.5241    10.8656    12.7145   111.1369   757.3416     0.0363     2.4190    -0.0072
  806.0000    10.6015    10.8693    12.7155   108.3958   772.7975     0.0307     2.4047    -0.0072
  806.5000    10.6795    10.8731    12.7166   105.1960   788.2535     0.0244     2.3972    -0.0072
  807.0000    10.6089    10.8768    12.7176   107.0420   788.2535     0.0269     2.4103    -0.0072
  807.5000    10.6125    10.8040    12.7334   108.2000   788.2535     0.0472     2.4199    -0.0072
  808.0000    10.5423    10.7325    12.7344   103.6240   788.2535     0.0504     2.4230    -0.0072
  808.5000    10.6200    10.6616    12.7356    96.4944   772.7975     0.0354     2.4051    -0.0072
  809.0000    10.5496    10.5183    12.7367    96.0776   772.7975     0.0292     2.3950    -0.0072
  809.5000    10.4078    10.3040    12.7377   100.2200   757.3416     0.0338     2.4005    -0.0072
  810.0000    10.3380    10.0940    12.7387   105.2771   772.7975     0.0472     2.4231    -0.0072
