~VERSION INFORMATION
 VERS.                2.0:   CWLS LOG ASCII STANDARD - VERSION 2.0
 WRAP.                 NO:   ONE LINE PER DEPTH STEP
~WELL INFORMATION
#MNEM.UNIT      DATA TYPE    INFORMATION
#----------   ------------   ------------------------------
 STRT.F            0.0000:   START DEPTH
 STOP.F         4152.0000:   STOP DEPTH
 STEP.F            0.5000:   STEP LENGTH
 NULL.          -999.2500:   NO VALUE
 COMP. LAWRENCE ALLISON & ASSOCIATES:   COMPANY
 WELL. LAWRENCE "X" #28-27:   WELL
 FLD .             NPR #3:   FIELD
 LOC .      S27 T39N R78W:   LOCATION
 CNTY.            NATRONA:   COUNTY
 STAT.            WYOMING:   STATE
 CTRY. UNITED STATES OF AMERICA:   COUNTRY
 SRVC.      DRESSER ATLAS:   SERVICE COMPANY
 DATE.        26-FEB-1984:   LOGDATE
 API .     49025109630000:   API NUMBER
~CURVE INFORMATION
#MNEM.UNIT       API CODE    CURVE DESCRIPTION
#----------   ------------   ------------------------------
 DEPT.F                  :   
 GRR .GAPI   07 310 01 00:   GAMMA RAY FROM RES.
 TENR.LBS    07 635 01 00:   TENSION FROM RES.
 SPR .MV     07 010 01 00:   SPONTANEOUS POTENTIAL
 RILD.OHMM   07 120 46 00:   RESISTIVITY INDUCTION LOG DEEP
 RILM.OHMM   07 120 44 00:   RESISTIIVTY INDUCTION LOG MEDIUM
 RFOC.OHMM   07 220 04 00:   RESISTIVITY FOCUSED LOG
 DT  .US/F   60 520 00 00:   DELTA TIME
 TENS.LBS    60 635 01 00:   TENSION FROM SONIC
 CALD.IN     45 280 60 00:   CALIPER FROM DENSITY LOG
 TEND.LBS    45 635 01 00:   TENSION FORM DENSITY LOG
 CNC .DEC    42 890 03 00:   NEUTRON POROSITY SANDSTONE
 CORR.G/C3   45 356 01 00:   DENSITY CORRECTION
 DENS.G/C3   45 350 01 00:   DENSITY
~PARAMETER INFORMATION
#MNEM.UNIT          VALUE    DESCRIPTION
#----------   ------------   ------------------------------
 EKB .F         5088.0000:   Kelly bushing
 EGL .F         5078.0000:   Ground level
 EDF .F            0.0000:   Drilling floor
 TD  .F         4154.0000:   Total depth
 CLNT.            A2DTECH:   Client Code
 SL  . 250' FSL & 810' FWL:   Surface Location
 PD  .                 GL:   Permanent Datum
 EPD .F              5078:   Elevation Permanent Datum
 LMF .                 KB:   Log Measured From
 DMF .                 KB:   Drilling Measured From
 DAPD.F                10:   Feet Above Permanent Datum
 DATE.        26-FEB-1984:   Date Logged [DD-MMM-YYYY]
 DD  .F              4154:   Depth driller
 DL  .F              4148:   Depth logger
 BLI .F              4146:   Bottom log interval
 TLI .F                 0:   Top log interval
 CS1 .IN            8.625:   Casing size
 CBD1.      8.625" @ 537':   Casing driller 1
 CBL1.F               540:   Casing logger 1
 BS1 .IN            7.875:   Bit size
 BSD1.F              4154:   Depth drilled with bit1
 DFT .            GEL KCL:   Type fluid in hole
 DFD .                  9:   Density
 DFV .                 45:   Viscosity
 DFPH.                  8:   pH
 DFL .                 14:   Fluid loss
 MSS .           FLOWLINE:   Source of sample
 RMS .OHMM          0.595:   Rm
 MST .F                60:   Rm Meas. temp.
 RMF .OHMM          0.446:   Rmf
 MFST.F                60:   Rmf Meas. temp.
 MFSS.               CALC:   Source Rmf.
 RMC .OHMM          0.744:   Rmc
 MCST.F                60:   Rmc Meas. temp.
 MCSS.               CALC:   Source Rmc.
 RMB .OHMM           0.26:   Rm. at BHT
 BHT .F               138:   BHT.
 TCS .HRS               4:   Time Circ. stopped
 MRT .F               138:   Maximum recorded temp.
 LUN .               6307:   Logging unit number
 LUL .               GLTE:   Logging unit location
 ENGI.           FAHLSING:   Recorded By
 WITN.           JENNINGS:   Witnessed by
 ORIG.      1" 2.5" PRINT:   Origin of data
 UWI .     49025109630000:   Unique Well ID
 DICO. A2D TECHNOLOGIES, INC.:   Digitizing Company
~OTHER INFORMATION
~A    DEPT       GRR     TENR        SPR       RILD       RILM       RFOC         DT       TENS       CALD       TEND        CNC       CORR       DENS   
# ...
 1508.0000   101.9902   -15.8824   -26.0000     5.9679     5.7068     5.3725  -999.2500  -999.2500     8.4316   -20.0000     0.2530     0.0135     2.5312
 1508.5000   102.1337    -7.4489   -25.9970     5.9691     5.5931     5.2871  -999.2500  -999.2500     8.4324   -20.0000     0.2543     0.0136     2.5297
 1509.0000   100.8147    -7.9412   -25.9940     5.9706     5.5566     5.1797  -999.2500  -999.2500     8.4333   -20.0000     0.2543     0.0107     2.5296
 1509.5000    99.6282   -23.1705   -25.9910     5.9717     5.5583     5.0914  -999.2500  -999.2500     8.4730   -20.0000     0.2471     0.0108     2.5330
 1510.0000   100.3992   -23.5768   -25.9875     5.9728     5.5597     5.0238  -999.2500  -999.2500     8.4743   -20.0000     0.2355     0.0223     2.5395
 1510.5000   102.3056   -23.9831   -25.6853     6.0560     5.5612     5.0249  -999.2500  -999.2500     8.4759   -20.0000     0.2256     0.0400     2.5460
 1511.0000   106.8525   -39.1176   -25.6826     6.0818     5.5627     5.0258  -999.2500  -999.2500     8.4772   -20.0000     0.2224     0.0532     2.5524
 1511.5000   100.8756   -43.6992   -25.6796     6.1416     5.6791     5.0956  -999.2500  -999.2500     8.4784   -20.0000     0.2245     0.0593     2.5614
 1512.0000    93.7010   -54.7059   -25.5888     6.1430     5.7195     5.1227  -999.2500  -999.2500     8.4798   -20.0000     0.2303     0.0624     2.5735
 1512.5000    93.1133   -69.9291   -25.0749     6.1442     5.7993     5.4626  -999.2500  -999.2500     8.4811   -20.0000     0.2333     0.0630     2.5736
 1513.0000    94.1684   -70.3354   -24.4725     6.2297     5.8802     5.6842  -999.2500  -999.2500     8.4825   -20.0000     0.2375     0.0696     2.5734
 1513.5000    98.4191   -56.0359   -24.4698     6.3164     5.8818     5.6086  -999.2500  -999.2500     8.4841   -20.0000     0.2472     0.0806     2.5720
 1514.0000   100.9365   -56.4706   -24.0419     6.3177     5.8834     5.3856  -999.2500  -999.2500     8.4853   -20.0000     0.2478     0.1019     2.5742
 1514.5000   101.1036   -56.9118   -23.9845     6.3584     5.9082     5.3867  -999.2500  -999.2500     8.4866   -20.0000     0.2449     0.1111     2.5797
 1515.0000    96.1682   -57.3529   -23.7275     6.3591     5.9107     5.3878  -999.2500  -999.2500     8.4879   -20.0000     0.2436     0.1081     2.5811
 1515.5000    94.9817   -57.8642   -23.8698     6.3617     5.9131     5.3889  -999.2500  -999.2500     8.4893   -20.0000     0.2478     0.0949     2.5781
 1516.0000    96.1916   -58.2705   -24.0120     6.3643     5.9158     5.3902  -999.2500  -999.2500     8.4906   -20.0000     0.2478     0.0580     2.5721
 1516.5000    97.0358   -58.6768   -24.3039     6.3673     5.9991     5.5520  -999.2500  -999.2500     8.4920   -20.0000     0.2448     0.0481     2.5738
 1517.0000    97.4132   -59.1177   -24.2964     6.3697     5.9202     5.5535  -999.2500  -999.2500     8.4935   -20.0000     0.2414     0.0546     2.5752
 1517.5000    96.6436   -59.5588   -24.5889     6.3721     5.9227     5.6313  -999.2500  -999.2500     8.4948   -20.0000     0.2382     0.0393     2.5688
 1518.0000    97.5410   -60.0000   -24.6806     6.3747     5.9251     5.7097  -999.2500  -999.2500     8.4961   -20.0000     0.2408     0.0364     2.5591
 1518.5000    99.0940   -45.7993   -24.8728     6.3773     5.9276     5.7112  -999.2500  -999.2500     8.4974   -20.0000     0.2436     0.0395     2.5556
 1519.0000    97.9184   -46.2056   -24.9651     6.3799     5.9303     5.5501  -999.2500  -999.2500     8.4988   -20.0000     0.2424     0.0561     2.5556
 1519.5000    96.7429   -46.6176   -24.8572     6.2965     5.7733     5.4118  -999.2500  -999.2500     8.5002   -20.0000     0.2364     0.0796     2.5662
 1520.0000    96.8464   -44.1192   -24.8503     6.2989     5.7703     5.4135  -999.2500  -999.2500     8.5017   -20.0000     0.2399     0.1044     2.5785
 1520.5000    98.3515   -32.7186   -24.4935     6.3013     5.6225     5.4152  -999.2500  -999.2500     8.5030   -20.0000     0.2502     0.1031     2.5798
 1521.0000   101.8561   -33.2353   -24.2365     6.2184     5.6251     5.4166  -999.2500  -999.2500     8.5042   -20.0000     0.2515     0.1002     2.5592
 1521.5000   104.0279   -33.7344   -24.2290     6.2211     5.6278     5.4179  -999.2500  -999.2500     8.5056   -20.0000     0.2481     0.1063     2.5533
 1522.0000   104.0500   -34.1407   -24.5198     6.1771     5.6300     5.4194  -999.2500  -999.2500     8.5069   -20.0000     0.2424     0.0612     2.5572
 1522.5000   102.8744   -34.5588   -24.8123     6.0589     5.6321     5.3475  -999.2500  -999.2500     8.5083   -20.0000     0.2442     0.0613     2.5708
 1523.0000   101.0101   -35.0000   -24.8054     6.0615     5.6343     5.2770  -999.2500  -999.2500     8.5099   -20.0000     0.2485     0.0656     2.5859
 1523.5000   100.3334   -35.4412   -25.3973     6.0638     5.6366     5.2787  -999.2500  -999.2500     8.5112   -20.0000     0.2515     0.0830     2.5905
 1524.0000    99.0579   -35.9690   -25.3892     6.0663     5.6389     5.2800  -999.2500  -999.2500     8.4822   -20.0000     0.2498     0.1007     2.5905
 1524.5000    97.5846   -36.3753   -25.6811     6.0688     5.6416     5.2813  -999.2500  -999.2500     8.4835   -20.0000     0.2473     0.1068     2.5892
 1525.0000    98.2054   -36.7816   -25.9719     6.0717     5.6437     5.1998  -999.2500  -999.2500     8.4849   -20.0000     0.2497     0.1069     2.5815
 1525.5000    98.8263   -37.2059   -25.6656     6.0740     5.6459     5.1423  -999.2500  -999.2500     8.4863   -20.0000     0.2574     0.1070     2.5694
 1526.0000    98.7465   -37.6471   -25.6587     6.0763     5.6481     5.1439  -999.2500  -999.2500     8.4876   -20.0000     0.2648     0.1053     2.5679
 1526.5000    98.0698   -38.0882   -25.6013     6.0787     5.6504     5.1455  -999.2500  -999.2500     8.4891   -20.0000     0.2635     0.0885     2.5648
 1527.0000    97.1018   -38.6100   -25.3443     6.0812     5.7301     5.1468  -999.2500  -999.2500     8.4904   -20.0000     0.2566     0.0561     2.5559
 1527.5000    95.9316   -39.0163   -25.1871     6.0837     5.7329     5.1493  -999.2500  -999.2500     8.4917   -20.0000     0.2465     0.0532     2.5563
 1528.0000    95.9537   -39.4226   -24.7294     6.0866     5.7351     5.2333  -999.2500  -999.2500     8.4931   -20.0000     0.2455     0.0563     2.5567
 1528.5000    96.5749   -39.8530   -25.0219     6.0889     5.7372     5.2926  -999.2500  -999.2500     8.4944   -20.0000     0.2473     0.0531     2.5514
 1529.0000    96.5988   -40.2941   -25.3144     6.0912     5.7395     5.1523  -999.2500  -999.2500     8.4958   -20.0000     0.2473     0.0393     2.5454
 1529.5000    96.6228   -40.7353   -25.3069     6.0936     5.7418     5.0158  -999.2500  -999.2500     8.4973   -20.0000     0.2473     0.0294     2.5394
 1530.0000    97.2455   -41.2509   -25.2994     6.0961     5.7442     4.8825  -999.2500  -999.2500     8.4986   -20.0000     0.2473     0.0508     2.5363
 1530.5000    97.2727   -41.6572   -25.2919     6.0986     5.6689     4.8838  -999.2500  -999.2500     8.4696   -20.0000     0.2463     0.0688     2.5366
 1531.0000    99.0912   -42.0635   -25.2833     6.1015     5.6714     4.8989  -999.2500  -999.2500     8.4710   -20.0000     0.2430     0.0809     2.5424
 1531.5000   103.3049   -42.5000   -25.2764     6.1038     5.6736     5.0731  -999.2500  -999.2500     8.4630   -20.0000     0.2407     0.0840     2.5542
 1532.0000    98.8821   -42.9412   -25.2695     6.1061     5.6758     5.1607  -999.2500  -999.2500     8.4435   -20.0000     0.2438     0.0767     2.5666
 1532.5000    97.9598   -43.3824   -25.2620     6.0130     5.6781     5.1821  -999.2500  -999.2500     8.4149   -20.0000     0.2438     0.0622     2.5666
 1533.0000    98.5868   -43.8920   -25.5550     5.8940     5.6805     5.1635  -999.2500  -999.2500     8.4161   -20.0000     0.2419     0.0572     2.5621
 1533.5000    96.2186   -44.2983   -25.8458     5.7113     5.6832     4.9549  -999.2500  -999.2500     8.4174   -20.0000     0.2370     0.0603     2.5515
