~VERSION INFORMATION
 VERS.                2.0:   CWLS LOG ASCII STANDARD - VERSION 2.0
 WRAP.                 NO:   ONE LINE PER DEPTH STEP
~WELL INFORMATION
#MNEM.UNIT      DATA TYPE    INFORMATION
#----------   ------------   ------------------------------
 STRT.F            0.0000:   START DEPTH
 STOP.F         3040.0000:   STOP DEPTH
 STEP.F            0.5000:   STEP LENGTH
 NULL.          -999.2500:   NO VALUE
 COMP. LAWRENCE ALLISON & ASSOCIATES:   COMPANY
 WELL. LAWRENCE NPR 3 "AX" #77-28:   WELL
 FLD .      NPR - WILDCAT:   FIELD
 LOC .      S28 T39N R78W:   LOCATION
 CNTY.            NATRONA:   COUNTY
 STAT.            WYOMING:   STATE
 CTRY. UNITED STATES OF AMERICA:   COUNTRY
 SRVC.      DRESSER ATLAS:   SERVICE COMPANY
 DATE.        19-OCT-1986:   LOGDATE
 API .     49025111150000:   API NUMBER
~CURVE INFORMATION
#MNEM.UNIT       API CODE    CURVE DESCRIPTION
#----------   ------------   ------------------------------
 DEPT.F                  :   
 TENR.LBS    07 635 01 00:   TENSION FROM RESISTIVITY
 RILD.OHMM   07 120 46 00:   DEEP INDUCTION RESISTIVITY
 RILM.OHMM   07 120 44 00:   INDUCTION LOG MEDIUM RESISTIVITY
 RFOC.OHMM   07 220 04 00:   RESISTIVITY FOCUSED LOG RES.
 SPR .MV     07 010 01 00:   SPONTANEOUS POTENTIAL
 GRR .GAPI   07 310 01 00:   GAMMA RAY FROM RESISTIVITY
 CNC .DEC    42 890 03 00:   NEUTRON POROSITY SANDSTONE
 RHOB.G/C3   45 350 01 00:   BULK DENSITY
 TEND.LBS    45 635 01 00:   TENSION FROM DENSITY LOG
 CORR.G/C3   45 356 01 00:   DENSITY CORRECTION
 CALD.IN     45 280 60 00:   CALIPER FROM DENSITY LOG
~PARAMETER INFORMATION
#MNEM.UNIT          VALUE    DESCRIPTION
#----------   ------------   ------------------------------
 EKB .F         5086.0000:   Kelly bushing
 EGL .F         5074.0000:   Ground level
 EDF .F            0.0000:   Drilling floor
 TD  .F         3025.0000:   Total depth
 DATE.        19-OCT-1986:   Date logged
 CLNT.            A2DTECH:   Client Code
 SL  . 967' FSL @ 763' FEL:   Surface Location
 PD  .                 GL:   Permanent Datum
 EPD .F              5074:   Elevation Permanent Datum
 LMF .                 KB:   Log Measured From
 DMF .                 KB:   Drilling Measured From
 DAPD.F                12:   Feet Above Permanent Datum
 DD  .F              3021:   Depth driller
 DL  .F              3025:   Depth logger
 BLI .F              3023:   Bottom log interval
 CS1 .IN            8.625:   Casing size
 CBD1.      8.625" @ 620':   Casing driller 1
 CBL1.F               615:   Casing logger 1
 BS1 .IN            7.875:   Bit size
 BSD1.F              3021:   Depth drilled with bit1
 DFT .        KCL/POLTMER:   Type fluid in hole
 DFD .                8.9:   Density
 DFV .                 38:   Viscosity
 DFPH.                9.5:   pH
 DFL .                 11:   Fluid loss
 MSS .           FLOWLINE:   Source of sample
 RMS .OHMM            .25:   Rm
 MST .F                65:   Rm Meas. temp.
 RMF .OHMM           .203:   Rmf
 MFST.F                65:   Rmf Meas. temp.
 RMC .OHMM            .31:   Rmc
 MCST.F                65:   Rmc Meas. temp.
 MFSS.               MEAS:   Source Rmf.
 MCSS.               CALC:   Source Rmc.
 RMB .OHMM           .136:   Rm. at BHT
 BHT .F               119:   BHT.
 TCS .HRS               5:   Time Circ. stopped
 MRT .F               119:   Maximum recorded temp.
 LUN .               6274:   Logging unit number
 LUL .               GLTE:   Logging unit location
 ENGI.             RAUTIO:   Recorded By
 WITN.             STRONG:   Witnessed by
 ORIG.         2.5" PRINT:   Origin of data
 UWI .     49025111150000:   Unique Well ID
 DICO. A2D TECHNOLOGIES, INC.:   Digitizing Company
~OTHER INFORMATION
~A    DEPT    TENR       RILD       RILM       RFOC        SPR         GRR       CNC       RHOB       TEND       CORR       CALD   
# ...
 2684.0000   -73.0910     8.9530     9.2610     9.4050   -74.9780   108.1380     0.1900     2.5600   -98.5340     0.0100    10.0990
 2684.5000   -73.3040     9.0810     9.3780    10.3640   -75.0380   103.1840     0.1830     2.5760   -98.9870     0.0330    10.0920
 2685.0000   -73.5180     9.2080     9.4950    11.3230   -75.0970    98.5470     0.1700     2.5910   -99.4400     0.0530    10.0830
 2685.5000   -73.7310     9.3360     9.6250    12.3930   -75.1570    96.1890     0.1690     2.5910   -99.8920     0.0370    10.0750
 2686.0000   -73.9440     9.4520     9.5100    11.8290   -75.2160    97.4510     0.1700     2.5860  -100.3450     0.0050    10.0670
 2686.5000   -74.1580     9.2730     9.3810    11.1920   -75.2760    98.2580     0.1810     2.5800  -100.7980     0.0030    10.0580
 2687.0000   -74.3710     9.1080     9.2510    10.5550   -75.3360    99.1420     0.1910     2.5760  -101.2510     0.0100    10.0500
 2687.5000   -74.5840     8.9430     9.1220     9.9170   -75.3950   100.0870     0.2000     2.5700  -101.7040     0.0140    10.0400
 2688.0000   -74.7980     8.7780     8.9920     9.2800   -75.4550   100.7440     0.2010     2.5580  -102.1570     0.0060    10.0340
 2688.5000   -75.0110     8.6120     8.8630     8.3300   -75.5150   100.7850     0.1960     2.5500  -102.6100     0.0100    10.0130
 2689.0000   -75.2240     8.4470     8.7340     8.6370   -75.5720   100.7670     0.1900     2.5590  -103.0630     0.0250     9.9900
 2689.5000   -75.4380     8.2820     8.6040     9.2380   -75.6370   100.6890     0.1900     2.5680  -103.5150     0.0400     9.9660
 2690.0000   -75.6510     8.1170     8.4750     9.8390   -75.6850    99.2080     0.1870     2.5780  -103.9680     0.0550     9.9430
 2690.5000   -75.8640     7.9520     8.3450    10.7260   -75.9360    97.7290     0.1820     2.5810  -104.4210     0.0390     9.9200
 2691.0000   -76.0780     7.7870     8.2160    10.5340   -76.2640    98.5380     0.1850     2.5770  -104.8740     0.0290     9.8970
 2691.5000   -76.2910     7.6110     7.9440     9.7280   -76.5900   102.6670     0.1930     2.5680  -105.3270     0.0410     9.8740
 2692.0000   -76.5040     7.2950     7.6190     8.6220   -76.9120   107.0230     0.2010     2.5560  -105.7800     0.0320     9.8510
 2692.5000   -76.7180     6.9570     7.2940     7.8910   -77.2370   111.3700     0.2090     2.5420  -106.2330     0.0190     9.8280
 2693.0000   -76.9310     6.6180     6.9690     7.9580   -77.5620   114.5120     0.2180     2.5430  -106.6860     0.0060     9.8050
 2693.5000   -77.1440     6.2800     6.6450     8.0340   -77.8860   112.3440     0.2240     2.5500  -107.1380     0.0210     9.7820
 2694.0000   -77.3580     6.0110     6.3200     7.6420   -78.2090   111.0080     0.2260     2.5510  -107.5910     0.0400     9.7580
 2694.5000   -77.5710     5.8000     6.0990     7.2090   -78.5370   111.3710     0.2260     2.5400  -108.0440     0.0580     9.7350
 2695.0000   -77.7850     5.5880     5.9130     7.0790   -78.8570   111.7920     0.2230     2.5400  -108.4970     0.0760     9.7160
 2695.5000   -77.9980     5.3760     5.7270     6.9430   -79.1710   112.7990     0.2200     2.5490  -108.9500     0.0840     9.7120
 2696.0000   -78.2110     5.1640     5.5410     6.8290   -79.2780   114.8800     0.2210     2.5530  -109.4030     0.0740     9.7090
 2696.5000   -78.4250     4.9220     5.3030     6.3150   -79.3800   118.5590     0.2270     2.5520  -109.8560     0.0400     9.7060
 2697.0000   -78.6380     4.4000     4.7730     5.9090   -79.4740   121.4680     0.2350     2.5480  -110.3090     0.0110     9.7030
 2697.5000   -78.8510     3.8780     4.2280     5.5270   -79.5730   128.2430     0.2430     2.5400  -110.7610     0.0080     9.7010
 2698.0000   -79.0650     3.3570     3.6830     5.1450   -79.6680   136.1510     0.2510     2.5300  -111.2140     0.0260     9.6980
 2698.5000   -79.2780     2.8350     3.1380     4.7590   -79.7710   143.3470     0.2630     2.4900  -111.6670     0.0400     9.6950
 2699.0000   -79.4910     2.3130     2.5920     4.1960   -79.8600   159.3880     0.2820     2.4560  -112.1200     0.0340     9.6920
 2699.5000   -79.7050     1.7910     2.0470     3.6270   -79.9450   181.9010     0.3010     2.4190  -112.5730     0.0280     9.6900
 2700.0000   -79.9180     1.5240     1.6100     3.0570   -79.7400   199.4440     0.3250     2.3810  -113.0260     0.0220     9.6860
 2700.5000   -80.1310     1.4280     1.5190     2.2700   -79.5260   209.4990     0.3260     2.3470  -113.4790     0.0160     9.6850
 2701.0000   -80.3450     1.3320     1.4420     2.3530   -79.3180   216.8540     0.3270     2.3190  -113.9310     0.0090     9.6770
 2701.5000   -80.5580     1.2360     1.3690     2.5900   -78.8810   216.9670     0.3370     2.3070  -114.3840     0.0030     9.6830
 2702.0000   -80.7710     1.1630     1.3440     3.4380   -78.1480   212.4660     0.3650     2.3200  -114.8370    -0.0300     9.6700
 2702.5000   -80.9850     1.1850     1.4950     3.2020   -77.4240   202.3390     0.3530     2.0010  -115.2900    -0.0660     9.7100
 2703.0000   -81.1980     1.4110     1.8280     2.6820   -76.7070   176.9850     0.3250     2.0130  -115.7430    -0.1020    10.0090
 2703.5000   -81.4110     1.6250     2.1600     2.0000   -75.9960   162.2160     0.3060     2.0030  -116.1960    -0.1360    10.2080
 2704.0000   -81.6250     1.8390     2.4930     2.9720   -75.2100   144.9580     0.2970     2.0060  -116.6490    -0.1330     9.7820
 2704.5000   -81.8380     2.0530     2.8250     4.3850   -75.1210   127.5400     0.2900     2.0910  -117.1020    -0.1120     9.4660
 2705.0000   -82.0520     2.2670     3.1580     6.4690   -75.7210   114.2570     0.2590     2.2920  -117.5540    -0.0560     9.4340
 2705.5000   -82.2650     2.4810     3.4900     6.3490   -76.2470   109.2960     0.2450     2.4360  -118.0070     0.0070     9.4360
 2706.0000   -82.4780     2.8550     3.8230     6.1210   -76.7830   107.7980     0.2600     2.4820  -118.4600     0.0300     9.4460
 2706.5000   -82.6920     3.5400     4.5630     6.0180   -77.2360   107.3380     0.2590     2.4790  -118.9130     0.0100     9.4460
 2707.0000   -82.9050     4.2240     5.6380     6.0180   -77.3670   107.0870     0.2480     2.4800  -119.3660    -0.0030     9.4530
 2707.5000   -83.1180     4.9090     6.7140     6.0180   -77.4890   108.0550     0.2450     2.4790  -119.8190    -0.0020     9.4560
 2708.0000   -83.3330     5.5990     7.7890     6.0180   -77.6030   108.3110     0.2440     2.4820  -119.4000     0.0030     9.4600
 2708.5000   -82.8730     6.5260     8.8640     6.3530   -77.7170   107.5700     0.2360     2.4920  -118.4000     0.0080     9.4640
 2709.0000   -82.4100     7.4610     9.9390     6.8290   -77.8360   104.6500     0.2230     2.5190  -117.4000     0.0120     9.4680
 2709.5000   -81.9460     8.3960    11.0140    10.5490   -77.9550    98.6180     0.1740     2.5450  -116.4000     0.0150     9.4720
 2710.0000   -81.4820     9.3310    12.0890    14.2120   -78.0070    92.7460     0.1410     2.5680  -115.4000     0.0160     9.4750
 2710.5000   -81.0190    10.2650    13.3220    17.8740   -77.7840    86.9360     0.1170     2.5710  -114.4000     0.0170     9.4880
 2711.0000   -80.5550    11.2000    13.5640    21.3050   -77.5750    80.8440     0.1150     2.5660  -113.4000     0.0130     9.5000
 2711.5000   -80.0920    12.6190    13.4040    19.0720   -77.3370    79.2490     0.1160     2.5550  -112.4000     0.0110     9.5120
 2712.0000   -79.6280    12.4690    12.8140    17.1540   -77.2590    80.0910     0.1300     2.5460  -111.4000     0.0100     9.5230
 2712.5000   -79.1640    12.1580    12.2240    16.1790   -77.3450    80.7570     0.1440     2.5410  -110.4000     0.0100     9.5350
 2713.0000   -78.7010    11.8470    11.6340    14.7700   -77.4110    81.4370     0.1500     2.5380  -109.4000     0.0130     9.5470
 2713.5000   -78.2370    11.5360    11.0450    13.5640   -77.4830    83.7380     0.1580     2.5340  -108.4000     0.0140     9.5600
 2714.0000   -77.7740    11.2250    10.5340    12.3830   -77.5520    87.2090     0.1660     2.5310  -107.4000     0.0110     9.5740
