~VERSION INFORMATION
 VERS.                2.0:   CWLS LOG ASCII STANDARD - VERSION 2.0
 WRAP.                 NO:   ONE LINE PER DEPTH STEP
~WELL INFORMATION
#MNEM.UNIT      DATA TYPE    INFORMATION
#----------   ------------   ------------------------------
 STRT.F          200.0000:   START DEPTH
 STOP.F         3098.0000:   STOP DEPTH
 STEP.F            0.5000:   STEP LENGTH
 NULL.          -999.2500:   NO VALUE
 COMP.    FENIX & SCISSON:   COMPANY
 WELL.   FENIX "AX" #74-3:   WELL
 FLD .              N P R:   FIELD
 LOC .       S3 T38N R78W:   LOCATION
 CNTY.            NATRONA:   COUNTY
 STAT.            WYOMING:   STATE
 CTRY. UNITED STATES OF AMERICA:   COUNTRY
 SRVC.              WELEX:   SERVICE COMPANY
 DATE.        17-AUG-1977:   LOGDATE
 API .     49025104120000:   API NUMBER
~CURVE INFORMATION
#MNEM.UNIT       API CODE    CURVE DESCRIPTION
#----------   ------------   ------------------------------
 DEPT.F                  :   
 CALD.IN     45 280 60 00:   CALIPER FROM DENSITY LOG
 SPR .MV     07 010 01 00:   SPONTANEOUS POTENTIAL
 NPHI.DEC    42 890 00 00:   NEUTRON POROSITY
 GRD .GAPI   45 310 01 00:   GAMMA RAY FROM DENSITY LOG
 CORR.G/C3   45 356 01 00:   DENSITY CORRECTION
 RHOB.G/C3   45 350 01 00:   BULK DENSITY
 SGRD.OHMM   07 220 05 00:   SHALLOW SHORT GUARD RESISTIVITY
 ILD .OHMM   07 120 46 00:   DEEP INDUCTION RESISTIVITY
 ILM .OHMM   07 120 44 00:   INDUCTION LOG MEDIUM RESISTIVITY
~PARAMETER INFORMATION
#MNEM.UNIT          VALUE    DESCRIPTION
#----------   ------------   ------------------------------
 EKB .F         5141.0000:   Kelly bushing
 EGL .F         5131.0000:   Ground level
 EDF .F            0.0000:   Drilling floor
 TD  .F         3100.0000:   Total depth
 DATE.        17-AUG-1977:   Date logged
 CLNT.            A2DTECH:   Client Code
 SL  . 2272' FNL & 1060' FEL:   Surface Location
 PD  .                 GL:   Permanent Datum
 EPD .F              5131:   Elevation Permanent Datum
 LMF .                 KB:   Log Measured From
 DMF .                 KB:   Drilling Measured From
 DD  .F              3100:   Depth driller
 DL  .F              3100:   Depth logger
 BLI .F              3098:   Bottom log interval
 TLI .F               200:   Top log interval
 CS1 .IN            8.625:   Casing size
 CBD1.      8.625" @ 215':   Casing driller 1
 CBL1.F               218:   Casing logger 1
 BS1 .IN            7.875:   Bit size
 DFT .            KCL MUD:   Type fluid in hole
 DFD .                8.8:   Density
 DFV .                 33:   Viscosity
 DFPH.                9.5:   pH
 DFL .               10.6:   Fluid loss
 MSS .           FLOWLINE:   Source of sample
 RMS .OHMM            .67:   Rm
 MST .F                98:   Rm Meas. temp.
 RMF .OHMM            .64:   Rmf
 MFST.F                98:   Rmf Meas. temp.
 RMC .OHMM            .31:   Rmc
 MCST.F                98:   Rmc Meas. temp.
 MFSS.           MEASURED:   Source Rmf.
 RMB .OHMM            .57:   Rm. at BHT
 BHT .F               115:   BHT.
 TCS .HRS               3:   Time Circ. stopped
 MRT .F               115:   Maximum recorded temp.
 LUN .               8611:   Logging unit number
 LUL .             CASPER:   Logging unit location
 ENGI.            C. DOAK:   Recorded By
 WITN.     MR. PETTINGILL:   Witnessed by
 ORIG.           5" PRINT:   Origin of data
 UWI .     49025104120000:   Unique Well ID
 DICO. A2D TECHNOLOGIES, INC.:   Digitizing Company
 BSD1.               3100:   Depth drilled with bit1
~OTHER INFORMATION
~A   DEPT       CALD      SPR       NPHI          GRD      CORR        RHOB     SGRD        ILD        ILM   
# ...
 1331.5000     9.9720   -71.5830     0.2990   104.3480     0.0320     2.4790     8.2670     6.5160     7.1510
 1332.0000     9.9500   -71.5230     0.2970   104.3250     0.0340     2.4750     8.2670     6.4940     7.1570
 1332.5000     9.9770   -71.4630     0.3000   104.3850     0.0350     2.4810     8.2810     6.4720     7.1620
 1333.0000    10.0150   -71.4030     0.3000   104.4380     0.0360     2.4870     8.3330     6.4560     7.1680
 1333.5000    10.0520   -71.3430     0.3000   104.4890     0.0400     2.4940     8.3850     6.4560     7.1730
 1334.0000    10.0860   -71.2840     0.3000   104.5400     0.0430     2.5000     8.4380     6.4580     7.1780
 1334.5000    10.0970   -71.2240     0.3010   104.5910     0.0460     2.5040     8.4900     6.4640     7.1840
 1335.0000    10.1070   -71.1640     0.3030   104.6460     0.0490     2.5050     8.5420     6.4690     7.1890
 1335.5000    10.1180   -71.1040     0.3050   104.6540     0.0520     2.5070     8.5750     6.4740     7.1950
 1336.0000    10.1290   -71.0440     0.3070   104.0990     0.0540     2.5100     8.5750     6.4800     7.2000
 1336.5000    10.1400   -70.9840     0.3070   103.5530     0.0500     2.5090     8.5750     6.4850     7.2060
 1337.0000    10.1510   -70.9250     0.3070   103.0100     0.0460     2.5080     8.4420     6.4900     7.2070
 1337.5000    10.1620   -70.8650     0.3090   102.4680     0.0420     2.5020     8.3200     6.4950     7.1990
 1338.0000    10.1730   -70.8050     0.3100   101.9330     0.0370     2.4940     8.1990     6.5010     7.2790
 1338.5000    10.1840   -70.7450     0.3100   101.5460     0.0360     2.4880     8.0430     6.5060     7.2730
 1339.0000    10.1950   -70.6850     0.3100   101.9390     0.0360     2.4840     8.1660     6.5110     7.2720
 1339.5000    10.2060   -70.6250     0.3080   102.3470     0.0390     2.4850     8.3990     6.5160     7.2720
 1340.0000    10.2170   -70.5650     0.3060   102.3400     0.0410     2.4890     8.5750     6.4100     7.2720
 1340.5000    10.2280   -70.5060     0.3040   102.3380     0.0430     2.4940     8.4260     6.3530     7.2730
 1341.0000    10.2390   -70.4460     0.3020   102.7820     0.0440     2.4990     8.2850     6.2960     7.2450
 1341.5000    10.2510   -70.3860     0.3020   103.6270     0.0440     2.5030     8.1440     6.2400     7.1940
 1342.0000    10.2620   -70.3260     0.3060   104.4740     0.0440     2.5030     8.0030     6.1830     7.1430
 1342.5000    10.2730   -70.2660     0.3110   105.3290     0.0440     2.5040     7.8250     6.1260     7.0920
 1343.0000    10.2840   -70.2060     0.3160   106.1940     0.0450     2.5040     7.8650     6.1110     7.0410
 1343.5000    10.2950   -70.1460     0.3210   105.9310     0.0450     2.5000     7.9190     6.2240     7.0110
 1344.0000    10.3060   -70.0870     0.3260   104.9570     0.0450     2.4940     7.9690     6.2380     7.0110
 1344.5000    10.3170   -70.0270     0.3250   103.9960     0.0460     2.4880     8.0430     6.2680     7.0360
 1345.0000    10.3280   -69.9670     0.3230   103.1170     0.0460     2.4850     8.0880     6.2810     7.0640
 1345.5000    10.3390   -69.9080     0.3210   103.4770     0.0450     2.4830     8.1170     6.2920     7.0930
 1346.0000    10.3540   -69.8610     0.3210   103.9020     0.0430     2.4790     7.9110     6.3060     7.1210
 1346.5000    10.3690   -69.8200     0.3240   103.0640     0.0410     2.4600     7.7530     6.3200     7.1400
 1347.0000    10.3840   -69.7800     0.3290   101.9810     0.0380     2.4400     7.5960     6.3340     7.1400
 1347.5000    10.3980   -69.7390     0.3340   100.8940     0.0360     2.4210     7.4390     6.3390     7.0750
 1348.0000    10.4130   -69.6990     0.3380    99.8090     0.0380     2.4010     7.2820     5.9970     6.8540
 1348.5000    10.4280   -69.6590     0.3430    98.7190     0.0410     2.3860     7.1300     5.7770     6.6420
 1349.0000    10.4430   -69.6180     0.3480    97.6700     0.0430     2.3720     6.8980     5.5580     6.4290
 1349.5000    10.4580   -69.5780     0.3500    98.2800     0.0460     2.3500     6.6660     5.3390     6.2170
 1350.0000    10.5090   -69.5380     0.3480    99.0480     0.0480     2.3240     6.4330     5.1830     6.0040
 1350.5000    10.5770   -69.4970     0.3450    99.8460     0.0400     2.2980     6.2010     5.2030     5.7910
 1351.0000    10.6470   -69.4570     0.3420    99.4810     0.0300     2.2720     6.0550     5.2260     5.5760
 1351.5000    10.7180   -69.4170     0.3390    98.8760     0.0190     2.2520     6.0550     5.2490     5.5760
 1352.0000    10.7890   -69.3760     0.3360    99.6410     0.0080     2.2530     6.2180     5.2710     5.6920
 1352.5000    10.8600   -69.3360     0.3350   100.4490     0.0000     2.3140     6.3750     5.3270     5.7860
 1353.0000    10.9310   -69.2960     0.3340   101.2510     0.0060     2.3770     6.5320     5.4140     5.8800
 1353.5000    10.9610   -69.2550     0.3330   102.0520     0.0160     2.4300     6.6890     5.5760     5.9740
 1354.0000    10.9500   -69.2150     0.3260   102.8520     0.0220     2.4280     6.8470     5.7370     6.0690
 1354.5000    10.8910   -69.1750     0.3150   103.6620     0.0190     2.4270     7.0040     5.8990     6.1630
 1355.0000    10.8340   -69.1340     0.3120   103.5570     0.0140     2.4280     7.1400     6.0600     6.2570
 1355.5000    10.7770   -69.0940     0.3090   102.8830     0.0150     2.4320     7.1400     6.2240     6.3520
 1356.0000    10.7210   -69.0540     0.3070   102.3160     0.0250     2.4360     7.1400     6.2240     6.4460
 1356.5000    10.6720   -69.0130     0.3080   102.7040     0.0360     2.4390     7.1400     6.2240     6.5160
 1357.0000    10.6360   -68.9730     0.3120   103.1580     0.0380     2.4300     7.1400     6.2240     6.5750
 1357.5000    10.5990   -68.9320     0.3160   103.6010     0.0380     2.4140     7.1400     6.2240     6.6290
 1358.0000    10.5910   -68.8920     0.3200   103.6440     0.0380     2.3990     7.1400     6.2230     6.6860
 1358.5000    10.5910   -68.8520     0.3240   102.8940     0.0380     2.3830     7.1390     6.2290     6.6970
 1359.0000    10.5910   -68.8110     0.3280   102.3100     0.0380     2.3690     7.1440     6.1580     6.6220
 1359.5000    10.5910   -68.7710     0.3330   102.9190     0.0350     2.3530     6.9220     6.0550     6.5730
 1360.0000    10.5910   -68.7310     0.3340   103.5970     0.0300     2.3090     6.7740     5.8480     6.5230
 1360.5000    10.5910   -68.6900     0.3340   104.2780     0.0220     2.2660     6.6260     5.5760     6.4740
 1361.0000    10.5910   -68.6500     0.3340   104.9630     0.0140     2.2230     6.5160     5.2810     6.1920
 1361.5000    10.6000   -68.6100     0.3340   105.6370     0.0160     2.1810     6.4570     4.9760     5.7330
 1362.0000    10.6410   -68.5690     0.3390   105.2030     0.0200     2.1390     5.9130     4.6010     5.2750
 1362.5000    10.6820   -68.5280     0.3430   102.5400     0.0090     2.0970     5.3680     4.6680     4.8170
 1363.0000    10.7480   -68.5120     0.3480   100.0880    -0.0040     2.0610     4.9510     4.7840     4.9150
 1363.5000    10.8560   -68.6050     0.3520   100.8170    -0.0180     2.0860     5.4910     4.9000     5.0380
 1364.0000    10.9640   -68.6950     0.3570   102.8760     0.0040     2.2140     6.8840     5.0160     5.1600
 1364.5000    11.0710   -68.7840     0.3530   104.9070     0.0380     2.3420     6.6320     5.1350     5.2820
 1365.0000    11.1790   -68.8740     0.3490   106.9410     0.0510     2.3950     6.1780     5.1830     5.4040
 1365.5000    11.2870   -68.9630     0.3430   108.9820     0.0630     2.4490     5.8380     5.2300     5.4250
 1366.0000    11.3910   -69.0530     0.3380   110.9970     0.0720     2.5020     5.9900     5.1830     5.3760
 1366.5000    11.2420   -69.1420     0.3350   111.7250     0.0760     2.5000     6.1650     5.2300     5.3760
 1367.0000    11.0490   -69.2310     0.3360   111.7020     0.0760     2.4930     6.3400     5.1580     5.3760
 1367.5000    10.8530   -69.3210     0.3380   110.7290     0.0750     2.4890     6.5750     5.0240     5.3760
