~VERSION INFORMATION
 VERS.                2.0:   CWLS LOG ASCII STANDARD - VERSION 2.0
 WRAP.                 NO:   ONE LINE PER DEPTH STEP
~WELL INFORMATION
#MNEM.UNIT      DATA TYPE    INFORMATION
#----------   ------------   ------------------------------
 STRT.F          176.0000:   START DEPTH
 STOP.F         3442.0000:   STOP DEPTH
 STEP.F            0.5000:   STEP LENGTH
 NULL.          -999.2500:   NO VALUE
 COMP.  FENIX AND SCISSON:   COMPANY
 WELL.  FENIX "AX" #65-15:   WELL
 FLD . NAVAL PETROLEUM RESERVE #3:   FIELD
 LOC .      S15 T38N R78W:   LOCATION
 CNTY.            NATRONA:   COUNTY
 STAT.            WYOMING:   STATE
 CTRY. UNITED STATES OF AMERICA:   COUNTRY
 SRVC.       SCHLUMBERGER:   SERVICE COMPANY
 DATE.        09-APR-1981:   LOGDATE
 API .     49025108710000:   API NUMBER
~CURVE INFORMATION
#MNEM.UNIT       API CODE    CURVE DESCRIPTION
#----------   ------------   ------------------------------
 DEPT.F                  :   
 TENR.LBS    07 635 01 00:   TENSION
 SPR .MV     07 010 01 00:   SPONTANEOUS POTENTIAL
 ILD .OHMM   07 120 46 00:   INDUCTION LOG DEEP RESISTIVITY
 ILM .OHMM   07 120 44 00:   INDUCTION LOG MEDIUM RESISTIVITY
 SFL .OHMM   07 220 01 00:   SHALLOW FOCUSED LOG RESISTIVITY
 TEND.LBS    45 635 01 00:   TENSION FROM DENSITY LOG
 CALD.IN     45 280 60 00:   CALIPER FROM DENSITY LOG
 GRD .GAPI   45 310 01 00:   GAMMA RAY FROM DENSITY LOG
 RHOB.G/C3   45 350 01 00:   BULK DENSITY
 CORR.G/C3   45 356 01 00:   DENSITY CORRECTION
~PARAMETER INFORMATION
#MNEM.UNIT          VALUE    DESCRIPTION
#----------   ------------   ------------------------------
 EKB .F         5287.0000:   Kelly bushing
 EGL .F         5277.0000:   Ground level
 EDF .F            0.0000:   Drilling floor
 TD  .F         5476.0000:   Total depth
 DATE.        09-APR-1981:   Date logged
 CLNT.            A2DTECH:   Client Code
 SL  . 1945' FSL & 1161' FEL:   Surface Location
 PD  .                 GL:   Permanent Datum
 EPD .F              5277:   Elevation Permanent Datum
 LMF .                 KB:   Log Measured From
 DMF .                 KB:   Drilling Measured From
 DAPD.F                10:   Feet Above Permanent Datum
 DD  .F              5476:   Depth driller
 DL  .F              5436:   Depth logger
 BLI .F              5430:   Bottom log interval
 TLI .F               190:   Top log interval
 CS1 .IN            8.625:   Casing size
 CBD1.      8.625" @ 190':   Casing driller 1
 CBL1.F               190:   Casing logger 1
 BS1 .IN            7.875:   Bit size
 BSD1.F              5476:   Depth drilled with bit1
 DFT .           CHEM GEL:   Type fluid in hole
 DFD .                9.1:   Density
 DFV .                 42:   Viscosity
 DFPH.                9.5:   pH
 DFL .                  8:   Fluid loss
 MSS .            MUDTANK:   Source of sample
 RMS .OHMM           1.62:   Rm
 MST .F                71:   Rm Meas. temp.
 RMF .OHMM           1.45:   Rmf
 MFST.F                71:   Rmf Meas. temp.
 MFSS.               MEAS:   Source Rmf.
 RMB .OHMM           1.02:   Rm. at BHT
 BHT .F               116:   BHT.
 TCS .HRS            1600:   Time Circ. stopped
 TLAB.HRS            1830:   Time logger at bottom
 MRT .F               116:   Maximum recorded temp.
 LUN .               8035:   Logging unit number
 LUL .               CSPR:   Logging unit location
 ENGI.            BEATTIE:   Recorded By
 WITN.              EIVAS:   Witnessed by
 ORIG.           5" PRINT:   Origin of data
 UWI .     49025108710000:   Unique Well ID
 DICO. A2D TECHNOLOGIES, INC.:   Digitizing Company
~OTHER INFORMATION
~A   DEPT     TENR        SPR        ILD        ILM        SFL       TEND       CALD         GRD      RHOB       CORR   
# ...
 2320.0000   583.0040   -22.3730     9.6480     9.8440    13.0880   573.8520     8.2620   137.3040     2.4600     0.0080
 2320.5000   583.0040   -22.3460     9.9090     9.9250    13.5230   573.8520     8.2730   142.7630     2.4550     0.0050
 2321.0000   583.0040   -22.3200    10.1690    10.0070    13.5230   573.8520     8.2830   146.4620     2.4560     0.0050
 2321.5000   583.0040   -22.2940    10.4300    10.0880    13.6260   573.8520     8.2940   146.4060     2.4580     0.0070
 2322.0000   583.0040   -22.2680    10.6910    10.1690    13.7230   573.8520     8.3550   145.0810     2.4570     0.0070
 2322.5000   583.0040   -22.2410    10.8690    10.2500    13.8190   573.8520     8.4540   145.4710     2.4570     0.0030
 2323.0000   583.0040   -22.2150    11.0690    10.3320    13.9150   573.8520     8.4430   150.7590     2.4560     0.0010
 2323.5000   583.0040   -22.1900    11.0950    10.4130    14.0120   573.8520     8.3550   151.7190     2.4560     0.0040
 2324.0000   583.0040   -22.1600    11.1290    10.4810    14.1080   573.8520     8.3360   154.9380     2.4550     0.0060
 2324.5000   583.0040   -22.1900    11.1630    10.4500    14.2040   573.8520     8.3300   156.7960     2.4550     0.0080
 2325.0000   583.0040   -22.2880    11.1980    10.4110    14.2820   573.8520     8.3260   152.3990     2.4530     0.0090
 2325.5000   583.0040   -22.3820    11.2320    10.3710    14.2820   573.3050     8.3210   148.2260     2.4510     0.0070
 2326.0000   583.0040   -22.4770    11.2720    10.3310    14.2820   571.9480     8.3160   145.0930     2.4490     0.0050
 2326.5000   583.0040   -22.5720    11.1430    10.2920    14.2820   570.5910     8.3110   144.5650     2.4450     0.0040
 2327.0000   583.0040   -22.6660    10.9890    10.2520    14.2820   569.2350     8.3060   147.0650     2.4390     0.0040
 2327.5000   583.0040   -22.7630    10.8340    10.2120    14.2820   567.8780     8.3010   150.6510     2.4420     0.0050
 2328.0000   583.0040   -22.8560    10.6790    10.1730    13.8770   566.5210     8.2980   150.6580     2.4480     0.0080
 2328.5000   583.0040   -22.9390    10.5250    10.1330    13.5020   565.1640     8.3140   156.9430     2.4540     0.0120
 2329.0000   583.0040   -22.9450    10.4810    10.1040    13.1260   563.8720     8.3300   163.6290     2.4570     0.0090
 2329.5000   583.0040   -23.0580    10.4810    10.1040    12.8040   564.4440     8.3610   170.3100     2.4520     0.0060
 2330.0000   583.0040   -23.1800    10.4810    10.1040    12.8040   564.9900     8.3760   175.4620     2.4460     0.0030
 2330.5000   583.0040   -23.3060    10.7900    10.1330    13.1980   565.5350     8.3770   174.5540     2.4400     0.0020
 2331.0000   583.0040   -23.4310    11.1120    10.1860    13.6070   566.0810     8.3760   168.1440     2.4310     0.0010
 2331.5000   583.0040   -23.5530    11.4340    10.2370    14.3400   566.6270     8.4340   160.5140     2.4220    -0.0010
 2332.0000   583.0040   -23.6800    11.7560    10.2880    15.6430   567.1720     8.5180   152.9430     2.4210    -0.0030
 2332.5000   583.0040   -23.7640    12.0780    10.3800    15.5430   567.7180     8.5890   147.3440     2.4230    -0.0020
 2333.0000   583.0040   -23.9030    12.4000    10.7530    15.1210   568.2630     8.5030   144.2290     2.4380     0.0040
 2333.5000   583.0040   -24.0430    12.7220    11.1250    14.8110   568.8090     8.4180   145.2120     2.4410     0.0060
 2334.0000   583.0040   -24.1870    13.0440    11.4980    14.8110   569.3550     8.3560   146.1300     2.4340     0.0040
 2334.5000   583.0040   -24.3290    13.3660    11.8710    16.1930   569.9000     8.4590   140.5820     2.4260     0.0020
 2335.0000   583.0040   -24.4690    13.5230    12.2440    17.4650   570.4460     8.5080   132.2450     2.4290     0.0020
 2335.5000   583.0040   -24.5070    13.5230    13.0390    18.7370   570.9920     8.4630   122.0910     2.4340     0.0110
 2336.0000   583.0040   -24.3770    13.5230    13.2790    19.8190   571.5370     8.4190   119.3390     2.4420     0.0260
 2336.5000   583.0040   -24.2340    13.2950    13.0760    20.1830   572.0830     8.4450   124.7900     2.4330     0.0280
 2337.0000   583.0040   -24.0940    12.9930    12.5150    19.1400   572.6290     8.5490   130.6440     2.4190     0.0250
 2337.5000   583.0040   -23.9530    12.6920    11.9540    17.3250   573.1740     8.6480   134.4280     2.4120     0.0190
 2338.0000   583.0040   -23.7930    12.2810    11.3930    15.5110   573.7200     8.7370   135.3460     2.4110     0.0130
 2338.5000   583.0040   -23.7380    11.7980    10.8320    13.0390   574.2660     8.6810   134.6570     2.4130     0.0070
 2339.0000   583.0040   -23.5640    11.3160    10.2710    13.0820   574.8110     8.6110   130.1940     2.4160     0.0050
 2339.5000   583.0040   -23.2460    10.8330     9.7450    13.2580   575.3570     8.5430   125.6870     2.4210     0.0040
 2340.0000   583.0040   -23.0030    10.1060     9.5900    13.4330   575.9030     8.4550   123.9300     2.4270     0.0110
 2340.5000   583.0040   -22.6280    10.1500     9.4430    13.5230   576.4480     8.3690   126.7770     2.4320     0.0190
 2341.0000   583.0040   -22.5390    10.2400     9.2270    13.5230   576.9940     8.2950   130.5850     2.4400     0.0280
 2341.5000   583.0040   -22.4290    10.3300     9.3440    12.7100   577.5390     8.2980   136.0290     2.4550     0.0410
 2342.0000   583.0040   -22.3150    10.4200     9.5700    11.8190   578.0850     8.2980   141.6580     2.4460     0.0380
 2342.5000   583.0040   -22.1770    10.5100     9.7950    11.0690   578.6310     8.2980   146.0120     2.4210     0.0130
 2343.0000   583.0040   -21.8270    10.6000    10.0200    12.2480   579.1760     8.2980   146.5560     2.3960     0.0030
 2343.5000   583.0040   -21.3730    10.6730    10.2460    13.7910   579.7220     8.2980   145.5400     2.3910    -0.0060
 2344.0000   583.0040   -20.9220    10.5950    10.2920    15.9300   580.2680     8.2970   143.8360     2.3970    -0.0060
 2344.5000   583.0040   -20.7240    10.3980    10.1750    15.7290   580.8130     8.3210   138.1160     2.4050    -0.0050
 2345.0000   583.0040   -21.2890    10.2020    10.0590    14.8150   581.3590     8.3360   131.9570     2.4140    -0.0030
 2345.5000   583.0040   -21.8720    10.0060     9.9430    13.7710   581.9050     8.3370   128.9320     2.4260    -0.0020
 2346.0000   583.0040   -22.1740     9.8100     9.8280    12.5790   582.4500     8.2940   130.0080     2.4390     0.0000
 2346.5000   583.0040   -21.9960     9.6140     9.7120    11.1900   582.9960     8.2970   136.8540     2.4470     0.0000
 2347.0000   583.0040   -21.8640     9.4180     9.5960     9.8010   583.5420     8.3010   142.6960     2.4490    -0.0010
 2347.5000   583.0040   -21.7220     9.2220     9.4800     8.8970   583.8320     8.3440   144.7330     2.4380    -0.0010
 2348.0000   583.0040   -21.5770     8.8970     9.3640     8.8970   583.8320     8.3850   143.0750     2.4320     0.0000
 2348.5000   583.0040   -21.4380     8.9300     9.2480    10.6250   583.8320     8.4250   139.3350     2.4320     0.0010
 2349.0000   583.0040   -21.2900     9.0230     9.1330    12.5730   583.8320     8.4660   137.7340     2.4350     0.0020
 2349.5000   583.0040   -21.1550     9.1160     9.0610    12.1690   583.8320     8.5060   136.1060     2.4410     0.0030
 2350.0000   583.0040   -20.9930     9.2100     9.0780    11.8220   583.8320     8.5350   133.1950     2.4480     0.0040
 2350.5000   583.2550   -20.9520     9.3030     9.1070    11.4800   583.8320     8.5340   127.3370     2.4550     0.0060
 2351.0000   583.5670   -20.9110     9.3960     9.1360    11.4210   583.8320     8.5450   121.9430     2.4620     0.0080
 2351.5000   583.8800   -20.8780     9.4900     9.1660    11.3270   583.8320     8.6310   118.7700     2.4690     0.0120
 2352.0000   584.1920   -20.8400     9.5830     9.1950    11.2330   583.8320     8.7160   117.4480     2.4740     0.0150
 2352.5000   584.5050   -20.8030     9.6770     9.2240    11.1380   583.8320     8.7540   119.0160     2.4640     0.0100
 2353.0000   584.8170   -20.7660     9.9240     9.2530    11.0690   583.8320     8.6380   119.8460     2.4540     0.0040
