~VERSION INFORMATION
 VERS.                2.0:   CWLS LOG ASCII STANDARD - VERSION 2.0
 WRAP.                 NO:   ONE LINE PER DEPTH STEP
~WELL INFORMATION
#MNEM.UNIT      DATA TYPE    INFORMATION
#----------   ------------   ------------------------------
 STRT.F         2933.0000:   START DEPTH
 STOP.F         5494.0000:   STOP DEPTH
 STEP.F            0.5000:   STEP LENGTH
 NULL.          -999.2500:   NO VALUE
 COMP.    FENIX & SCISSON:   COMPANY
 WELL. FENIX "TPX" #56-10:   WELL
 FLD .        TEAPOT DOME:   FIELD
 LOC .      S10 T38N R78W:   LOCATION
 CNTY.            NATRONA:   COUNTY
 STAT.            WYOMING:   STATE
 CTRY. UNITED STATES OF AMERICA:   COUNTRY
 SRVC.       SCHLUMBERGER:   SERVICE COMPANY
 DATE.        22-MAY-1978:   LOGDATE
 API .     49025106100000:   API NUMBER
~CURVE INFORMATION
#MNEM.UNIT       API CODE    CURVE DESCRIPTION
#----------   ------------   ------------------------------
 DEPT.F                  :   
 NPHI.DEC    42 890 03 00:   NEUTRON POROSITY SANDSTONE
 GRD .GAPI   45 310 01 00:   GAMMA RAY FROM DENSITY LOG
 CALD.IN     45 280 60 00:   CALIPER FROM DENSITY LOG
 CORR.G/C3   45 356 01 00:   DENSITY CORRECTION
 RHOB.G/C3   45 350 01 00:   BULK DENSITY
 SPR .MV     07 010 01 00:   SPONTANEOUS POTENTIAL
 ILD .OHMM   07 120 46 00:   INDUCTION LOG DEEP RESISTIVITY
 ILM .OHMM   07 120 44 00:   INDUCTION LOG MEDIUM RESISTIVITY
 SFL .OHMM   07 220 01 00:   SHALLOW FOCUSED LOG RESISITIVITY
 DT  .US/F   60 520 00 00:   DELTA TIME
~PARAMETER INFORMATION
#MNEM.UNIT          VALUE    DESCRIPTION
#----------   ------------   ------------------------------
 EKB .F         5212.0000:   Kelly bushing
 EGL .F         5202.0000:   Ground level
 TD  .F         5500.0000:   Total depth
 CLNT.            A2DTECH:   Client Code
 SL  . 1270' FSL & 2130' FEL:   Surface Location
 PD  .                 GL:   Permanent Datum
 EPD .F              5202:   Elevation Permanent Datum
 LMF .                 KB:   Log Measured From
 DMF .                 KB:   Drilling Measured From
 DAPD.F                10:   Feet Above Permanent Datum
 DATE.        22-MAY-1978:   Date Logged [DD-MMM-YYYY]
 DD  .F              5500:   Depth driller
 DL  .F              5499:   Depth logger
 BLI .F              5497:   Bottom log interval
 TLI .F              2971:   Top log interval
 CS1 .IN            8.625:   Casing size
 CBD1.     8.625" @ 2972':   Casing driller 1
 CBL1.F              2971:   Casing logger 1
 BS1 .IN            7.875:   Bit size
 BSD1.F              5500:   Depth drilled with bit1
 DFT .                FGM:   Type fluid in hole
 DFD .                9.3:   Density
 DFV .                 57:   Viscosity
 DFPH.               10.5:   pH
 DFL .                  6:   Fluid loss
 MSS .           MUD TANK:   Source of sample
 RMS .OHMM           0.93:   Rm
 MST .F                58:   Rm Meas. temp.
 RMF .OHMM           0.71:   Rmf
 MFST.F                61:   Rmf Meas. temp.
 MFSS.               MEAS:   Source Rmf.
 RMB .OHMM           0.27:   Rm. at BHT
 BHT .F               198:   BHT.
 TCS .HRS            1500:   Time Circ. stopped
 TLAB.HRS            0100:   Time logger at bottom
 MRT .F               198:   Maximum recorded temp.
 LUN .               8039:   Logging unit number
 LUL .               CSPR:   Logging unit location
 ENGI.          CHALUPSKY:   Recorded By
 WITN.            RHOADES:   Witnessed by
 ORIG.      2.5" 5" PRINT:   Origin of data
 UWI .     49025106100000:   Unique Well ID
 DICO. A2D TECHNOLOGIES, INC.:   Digitizing Company
~OTHER INFORMATION
~A  DEPTH     NPHI        GRD       CALD       CORR       RHOB        SPR        ILD        ILM        SFL         DT
# ...
 3636.5000     0.3014   101.6446    10.3712     0.1325     2.3634   -46.5950     3.8128     3.9656     4.7490    83.4675
 3637.0000     0.2892   101.6506    10.0625     0.1434     2.4995   -46.0034     4.0014     4.3974     5.9250    83.6982
 3637.5000     0.2836   100.7533     9.8064     0.1663     2.5512   -45.4097     4.1128     4.3944     6.1737    86.2597
 3638.0000     0.2859    99.7995     9.8067     0.1731     2.5290   -45.4152     4.2273     4.3913     5.8355    86.6408
 3638.5000     0.2951    98.6578    10.1373     0.1678     2.5024   -46.0166     4.2851     4.3182     5.4408    88.2249
 3639.0000     0.3127    99.2661    10.4379     0.1794     2.4846   -46.6180     4.1664     4.0909     4.8966    89.4391
 3639.5000     0.3412   104.0913    11.0087     0.2199     2.4787   -47.2194     3.9098     3.8944     4.4642    91.3758
 3640.0000     0.3697   105.3020    11.1291     0.2106     2.4166   -47.5224     3.6970     3.6562     4.1136    93.2040
 3640.5000     0.3648   106.5127    11.0093     0.1772     2.3122   -47.5269     3.5979     3.5538     4.0269    93.0575
 3641.0000     0.3341   105.9162    10.7694     0.1350     2.2657   -47.3829     3.5472     3.5514     4.2530    92.3121
 3641.5000     0.3294   105.3193    10.7096     0.1153     2.3296   -47.5366     3.3752     3.6742     4.5239    91.5641
 3642.0000     0.3512   102.9159    10.8973     0.1174     2.3488   -47.8395     3.0198     3.4977     4.4585    97.4356
 3642.5000     0.3941   100.5121    11.3031     0.2500     2.3377   -48.2916     2.8941     3.0426     4.1859   104.6588
 3643.0000     0.4462    98.0928    12.2367     0.2500     2.2477   -48.7438     2.7786     2.7592     3.6161   105.9421
 3643.5000     0.4874    95.7046    12.8791     0.2494     2.0201   -49.0467     2.7585     2.6449     3.0174   105.1202
 3644.0000     0.5119    94.5057    12.8657     0.2292     1.7405   -49.0511     2.8749     2.5708     2.8133   104.4487
 3644.5000     0.4874    95.8090    12.7019     0.1074     1.7701   -48.7570     3.0806     2.5691     2.6968    98.7395
 3645.0000     0.3939    97.0481    11.5135     0.0204     1.8218   -48.4628     3.2330     2.7512     2.7865    89.4965
 3645.5000     0.3254    97.5354    10.0523    -0.0190     1.9983   -47.8702     3.3695     3.3386     3.7304    82.1333
 3646.0000     0.3005    96.1604     9.5175    -0.0353     2.1418   -46.6767     3.7122     3.9956     5.7706    79.2813
 3646.5000     0.2886    95.7400     9.3764     0.0322     2.5674   -46.3865     4.2049     4.6734     7.9337    79.2865
 3647.0000     0.2681    96.4457     9.4242     0.0523     2.5940   -46.3919     4.8295     5.4901     9.1080    79.4421
 3647.5000     0.2609    99.7277     9.5121     0.0534     2.5825   -46.3963     5.5856     6.1729     9.2305    80.1251
 3648.0000     0.2544   103.8554     9.5124     0.0489     2.5621   -45.8037     6.1134     6.5267     9.1590    84.4159
 3648.5000     0.2475   104.8012     9.5127     0.0514     2.5550   -45.5085     6.4227     6.5160     9.0895    86.6767
 3649.0000     0.2491   104.8072     9.5730     0.0638     2.5562   -45.2144     6.4561     6.2452     8.5931    89.3886
 3649.5000     0.2693   101.8023     9.9637     0.1147     2.5637   -45.2199     5.9379     5.9041     7.5795    94.9577
 3650.0000     0.3009   100.6024    10.2943     0.1652     2.5579   -45.0739     5.4240     5.4289     6.0398    94.5104
 3650.5000     0.3404   101.2117    10.5349     0.2030     2.5261   -45.6764     4.8826     4.7226     5.1819    94.6672
 3651.0000     0.3676   101.8200    10.6553     0.2180     2.4915   -46.1286     4.3629     4.1081     4.4767    95.7250
 3651.5000     0.3819   100.6211    10.7156     0.2335     2.4308   -46.5131     3.9676     3.8302     4.2328    96.1061
 3652.0000     0.3807    95.8077    10.6851     0.2198     2.3877   -46.6924     3.7780     3.7229     4.3196    96.8075
 3652.5000     0.3701    92.1991    10.6561     0.1978     2.3523   -47.0449     3.5479     3.7203     4.6599    98.2217
 3653.0000     0.3689    91.0000    10.6264     0.1694     2.3572   -47.0508     3.3089     3.7178     4.6906    97.4010
 3653.5000     0.3755    92.2109    10.7675     0.2184     2.3690   -47.3552     3.2843     3.5638     4.4964    96.8047
 3654.0000     0.3917    94.6747    11.0468     0.2424     2.3128   -47.9724     3.2599     3.2770     4.0779    96.0579
 3654.5000     0.4012    97.1458    11.6564     0.2142     2.2359   -48.5612     3.2812     3.1196     3.8825    93.8074
 3655.0000     0.3965    98.4133    11.6186     0.1802     2.2617   -48.8668     3.2563     3.0959     3.9348    92.0746
 3655.5000     0.3994   100.6687    11.6848     0.1386     2.3691   -48.5728     3.2098     3.0498     3.9878    92.6816
 3656.0000     0.4084   100.6747    12.3730     0.1372     2.4799   -47.9831     3.0144     2.9602     3.9581    93.7387
 3656.5000     0.4225   100.6807    12.5374     0.2496     2.5006   -47.6890     2.7919     2.8032     3.6838    95.9988
 3657.0000     0.4391    99.0968    13.2416     0.2496     2.4560   -47.3964     2.6219     2.6871     3.3601    97.3566
 3657.5000     0.4514    95.2109    13.9099     0.2496     2.3481   -47.1038     2.5666     2.5404     3.0779    97.6618
 3658.0000     0.4571    93.4699    14.3560     0.2495     2.2618   -46.8112     2.5300     2.4016     2.9101   102.9294
 3658.5000     0.4612    93.4759    14.9159     0.2110     2.1329   -46.8185     2.5639     2.3669     2.7707   104.4623
 3659.0000     0.4666    92.5744    15.4649     0.1844     2.0058   -46.8244     2.6006     2.3653     2.6380   100.5884
 3659.5000     0.4783    91.6169    14.8555     0.1605     1.9281   -46.5318     2.6329     2.4641     2.7297    93.6049
 3660.0000     0.4647    88.0735    13.4067     0.0949     1.8630   -46.5377     2.6311     2.8883     2.9244    89.4141
 3660.5000     0.4323    90.4890    12.0532     0.0804     2.0183   -45.9466     2.6297     2.9887     3.6246    90.3208
 3661.0000     0.4292    95.3142    11.5021     0.1499     2.1870   -45.9525     2.6102     2.8644     3.8036    93.6336
 3661.5000     0.4459    98.3321    12.4002     0.2239     2.2210   -46.2569     2.5907     2.7458     3.6715    96.3448
 3662.0000     0.4519    98.3380    13.0643     0.2447     2.2151   -46.5613     2.6077     2.7823     3.2612    97.1000
 3662.5000     0.4531    96.5366    13.5450     0.2199     2.1011   -47.0149     2.5879     2.8586     2.9990    96.3533
 3663.0000     0.4550    93.5305    13.4964     0.1915     2.0775   -47.4687     2.5687     2.8147     3.0184    96.5270
 3663.5000     0.4598    89.3195    12.9893     0.1959     2.0894   -47.4746     2.5320     2.6218     3.0803    99.5964
 3664.0000     0.4687    87.5182    12.6094     0.2078     2.1028   -47.4806     2.5132     2.4828     3.0787   100.1260
 3664.5000     0.4700    88.7289    12.7901     0.2062     2.0988   -47.6370     2.4773     2.4811     3.0558    99.7557
 3665.0000     0.4647    88.7349    13.6918     0.1929     2.0878   -47.7921     2.4250     2.4794     3.0104    99.9857
 3665.5000     0.4594    88.7410    14.0672     0.1810     2.0896   -48.2458     2.4406     2.4606     2.9281   100.5916
 3666.0000     0.4621    88.6507    14.1477     0.1780     2.0941   -48.5502     2.4737     2.4424     2.8660    99.9946
 3666.5000     0.4737    87.5476    14.1480     0.1721     1.9962   -48.7053     2.5063     2.5268     2.8451    98.9464
 3667.0000     0.4845    88.4614    13.9737     0.1602     1.9267   -49.0097     2.4705     2.5072     3.0056    96.7704
 3667.5000     0.4500    94.6687    12.8851     0.1146     1.9235   -49.0156     2.4688     2.5230     3.0677    93.6921
 3668.0000     0.4370    98.6187    12.3299     0.0744     2.0109   -48.7215     2.4675     2.6467     3.0445    93.0951
 3668.5000     0.4396    99.8572    12.9481     0.1147     2.0493   -48.1319     2.4833     2.5725     3.0010    96.4830
 3669.0000     0.4493    99.6988    13.8793     0.1542     2.1351   -47.5408     2.5516     2.5004     2.9173    95.5100
 3669.5000     0.4581    97.5485    13.8496     0.1994     2.1661   -47.0989     2.6400     2.5161     2.8557    93.9920
