~VERSION INFORMATION
 VERS.                2.0:   CWLS LOG ASCII STANDARD - VERSION 2.0
 WRAP.                 NO:   ONE LINE PER DEPTH STEP
~WELL INFORMATION
#MNEM.UNIT      DATA TYPE    INFORMATION
#----------   ------------   ------------------------------
 STRT.F            7.5000:   START DEPTH
 STOP.F         5700.0000:   STOP DEPTH
 STEP.F            0.5000:   STEP LENGTH
 NULL.          -999.2500:   NO VALUE
 COMP. FLUOR DANIEL (NPOSR):   COMPANY
 WELL.   FLOUR "X" #52-10:   WELL
 FLD .             NPR #3:   FIELD
 LOC .      S10 T38N R78W:   LOCATION
 CNTY.            NATRONA:   COUNTY
 STAT.            WYOMING:   STATE
 CTRY. UNITED STATES OF AMERICA:   COUNTRY
 SRVC.      WESTERN ATLAS:   SERVICE COMPANY
 DATE.        12-JAN-1996:   LOGDATE
 API .     49025227600000:   API NUMBER
~CURVE INFORMATION
#MNEM.UNIT       API CODE    CURVE DESCRIPTION
#----------   ------------   ------------------------------
 DEPT.F                  :   
 TENR.LBS    11 635 01 00:   TENSION
 GRR .GAPI   11 310 01 00:   GAMMA RAY FROM RESISTIVITY
 LLD .OHMM   11 220 10 00:   LATEROLOG DEEP
 LLS .OHMM   11 220 09 00:   LATEROLOG SHALLOW
 SPR .MV     11 010 01 00:   SPONTANEOUS POTENTIAL
 CALD.IN     45 280 60 00:   CALIPER FROM DENSITY LOG
 TEND.LBS    45 635 01 00:   TENSION FROM DENSITY LOG
 ZCOR.G/C3   45 356 01 00:   DENSITY CORRECTION
 ZDEN.G/C3   45 350 01 00:   BULK DENSITY
 CNC .DEC    42 890 03 00:   NEUTRON POROSITY SANDSTONE
~PARAMETER INFORMATION
#MNEM.UNIT          VALUE    DESCRIPTION
#----------   ------------   ------------------------------
 EKB .F         5196.0000:   Kelly bushing
 EGL .F         5186.0000:   Ground level
 EDF .F         5195.0000:   Drilling floor
 TD  .F         5699.0000:   Total depth
 DATE.        12-JAN-1996:   Date logged
 CLNT.            A2DTECH:   Client Code
 SL  . 1032' FNL & 2536' FEL:   Surface Location
 PD  .                 GL:   Permanent Datum
 EPD .F              5186:   Elevation Permanent Datum
 LMF .                 KB:   Log Measured From
 DMF .                 KB:   Drilling Measured From
 DAPD.F                11:   Feet Above Permanent Datum
 DD  .F              5699:   Depth driller
 DL  .F              5699:   Depth logger
 BLI .F              5687:   Bottom log interval
 CS1 .IN            9.625:   Casing size
 CBD1.      9.625" @ 520':   Casing driller 1
 CBL1.F               522:   Casing logger 1
 BS1 .IN             8.75:   Bit size
 BSD1.F              5699:   Depth drilled with bit1
 DFT .               CHEM:   Type fluid in hole
 DFD .                9.8:   Density
 DFV .                 50:   Viscosity
 DFPH.                9.5:   pH
 DFL .                8.4:   Fluid loss
 MSS .           FLOWLINE:   Source of sample
 RMS .OHMM          0.515:   Rm
 MST .F                66:   Rm Meas. temp.
 RMF .OHMM          0.499:   Rmf
 MFST.F                66:   Rmf Meas. temp.
 RMC .OHMM          0.761:   Rmc
 MCST.F                66:   Rmc Meas. temp.
 MFSS.               MEAS:   Source Rmf.
 MCSS.               MEAS:   Source Rmc.
 RMB .OHMM          0.233:   Rm. at BHT
 BHT .F               174:   BHT.
 TCS .HRS               6:   Time Circ. stopped
 MRT .F               174:   Maximum recorded temp.
 LUN .            HL 6530:   Logging unit number
 LUL .             CASPER:   Logging unit location
 ENGI.        VERN RAUTIO:   Recorded By
 WITN. LAFRENIERE/OPSAL/HARDY:   Witnessed by
 ORIG.     2.5", 5" PRINT:   Origin of data
 UWI .     49025227600000:   Unique Well ID
 DICO. A2D TECHNOLOGIES, INC.:   Digitizing Company
~OTHER INFORMATION
~A    DEPT    TENR         GRR       LLD        LLS        SPR       CALD       TEND       ZCOR       ZDEN        CNC   
# ...
 3257.0000    23.0740   118.3660     7.5940     6.2030   -86.7950     9.9720   -24.5100     0.0240     2.5250     0.2080
 3257.5000    18.3920   118.3300     7.8450     6.3170   -86.7950     9.9720   -24.5100     0.0250     2.5160     0.2070
 3258.0000    15.5660   118.8210     7.9990     6.3890   -86.7940     9.9720   -24.5100     0.0260     2.5130     0.2070
 3258.5000    14.5760   118.6440     8.0590     6.4360   -86.7950     9.9720   -24.5100     0.0260     2.5210     0.2060
 3259.0000    13.5850   117.3390     8.1180     6.4830   -86.7910     9.9720   -24.5100     0.0270     2.5300     0.2070
 3259.5000    12.5950   117.9740     8.1770     6.5730   -86.7180     9.9720   -24.5100     0.0270     2.5360     0.2070
 3260.0000    11.6040   119.9030     8.2360     6.6940   -86.6440     9.9720   -24.5100     0.0250     2.5340     0.2080
 3260.5000    10.6140   120.4500     8.2700     6.8100   -86.5850     9.9720   -24.5100     0.0210     2.5280     0.2090
 3261.0000     9.6230   120.6750     8.1250     6.7490   -86.5340     9.9720   -24.5100     0.0180     2.5250     0.2100
 3261.5000     8.6330   122.2490     8.0240     6.6770   -86.4820     9.9720   -24.5100     0.0140     2.5260     0.2120
 3262.0000     7.6420   126.2870     7.8960     6.6060   -86.4310     9.9720   -18.0390     0.0140     2.5340     0.2130
 3262.5000     6.6520   130.0020     7.9170     6.5020   -86.4700     9.9720    -9.8040     0.0200     2.5440     0.2120
 3263.0000     5.2560   129.4800     7.9460     6.5810   -86.4510     9.9720   -10.6160     0.0240     2.5530     0.2080
 3263.5000     0.7770   123.5480     7.9700     6.7210   -86.2400     9.9720   -24.7340     0.0230     2.5530     0.2060
 3264.0000    -3.7020   117.7400     8.2970     6.9280   -86.1900     9.9720   -38.8520     0.0240     2.5520     0.2060
 3264.5000    -8.1810   114.6840     8.6230     7.1510   -86.1900     9.9720   -45.3570     0.0240     2.5540     0.2110
 3265.0000   -12.6590   112.1910     8.9880     7.3750   -86.2400     9.9720   -47.3330     0.0300     2.5570     0.2150
 3265.5000   -16.1410   111.8820     8.9050     7.4700   -86.2920     9.9720   -49.3100     0.0380     2.5580     0.2180
 3266.0000   -19.1710   114.1340     8.7350     7.3430   -86.3440     9.9720   -51.2860     0.0310     2.5540     0.2200
 3266.5000   -22.2010   119.0100     8.4960     7.1610   -86.3880     9.9720   -53.2630     0.0240     2.5500     0.2220
 3267.0000   -24.7180   121.1530     8.2960     6.9800   -86.3440     9.9720   -55.2390     0.0240     2.5470     0.2270
 3267.5000   -26.3800   122.7650     8.1600     6.7990   -86.2990     9.9720   -57.2160     0.0230     2.5530     0.2310
 3268.0000   -28.0410   124.3410     8.0240     6.6240   -86.2550     9.9720   -59.1920     0.0240     2.5590     0.2360
 3268.5000   -29.7030   125.5920     7.8960     6.6240   -86.2110     9.9720   -61.1690     0.0250     2.5610     0.2400
 3269.0000   -31.3640   125.3390     7.9350     6.7290   -86.1660     9.9720   -63.1450     0.0260     2.5600     0.2430
 3269.5000   -33.0260   125.6050     7.9790     6.8500   -86.1220     9.9720   -58.7390     0.0270     2.5560     0.2460
 3270.0000   -31.1240   127.5140     8.0240     7.0020   -86.0780     9.9720   -51.6810     0.0290     2.5510     0.2490
 3270.5000   -22.0350   130.6500     8.0440     6.9740   -86.0340     9.9720   -44.1180     0.0310     2.5460     0.2520
 3271.0000   -12.9460   133.5330     8.0210     6.9380   -85.9880     9.9720   -52.4600     0.0340     2.5420     0.2550
 3271.5000    -4.0160   133.5390     8.0050     6.9010   -85.8970     9.9720   -61.4440     0.0360     2.5400     0.2540
 3272.0000   -11.2450   132.6530     7.9880     6.8560   -85.8020     9.9720   -70.4280     0.0390     2.5390     0.2530
 3272.5000   -18.3490   132.2360     7.9720     6.7840   -85.7860     9.9720   -79.4120     0.0420     2.5410     0.2560
 3273.0000   -25.4540   133.1360     7.8620     6.7110   -85.7860     9.9720   -80.2400     0.0460     2.5420     0.2600
 3273.5000   -32.5580   133.9880     7.7400     6.6390   -85.7620     9.9720   -74.7490     0.0500     2.5510     0.2620
 3274.0000   -39.6620   136.0320     7.6170     6.5630   -85.6780     9.9720   -69.2590     0.0540     2.5620     0.2600
 3274.5000   -42.2990   138.7920     7.5390     6.5930   -85.5950     9.9720   -63.7690     0.0550     2.6010     0.2570
 3275.0000   -37.1490   139.0380     7.7680     6.6240   -85.5120     9.9720   -58.2790     0.0480     2.6420     0.2580
 3275.5000   -28.7900   136.9760     7.9360     6.8100   -85.4310     9.9720   -52.7890     0.0180     2.6280     0.2590
 3276.0000   -15.9140   132.8240     8.1040     6.9970   -85.4740     9.9720   -47.2980     0.0090     2.5970     0.2630
 3276.5000    -3.0370   128.7280     8.1940     7.1320   -85.6840     9.9720   -44.8100     0.0300     2.5660     0.2680
 3277.0000     2.7540   129.6100     7.9010     7.0020   -85.8370     9.9720   -46.4580     0.0300     2.5410     0.2740
 3277.5000    -8.2830   133.5980     7.7010     6.7880   -85.9430     9.9720   -48.1050     0.0410     2.5270     0.2770
 3278.0000   -19.3200   137.9030     7.5120     6.5520   -86.0160     9.9720   -49.7520     0.0520     2.5230     0.2800
 3278.5000   -24.0960   141.4180     7.2310     6.3150   -86.0670     9.9720   -51.3990     0.0620     2.5230     0.2850
 3279.0000   -24.0960   141.3110     6.9500     6.0790   -86.1180     9.9720   -53.0460     0.0620     2.5240     0.2920
 3279.5000   -24.0960   139.5500     6.6240     5.8430   -86.1680     9.9720   -54.6930     0.0540     2.5250     0.2960
 3280.0000   -24.0960   135.4210     6.6530     5.7130   -86.2190     9.9720   -56.3400     0.0440     2.5300     0.2920
 3280.5000   -24.0960   135.5150     6.6890     5.7130   -86.2700     9.9720   -57.9870     0.0340     2.5360     0.2860
 3281.0000   -24.0960   136.9220     6.7240     5.7860   -86.3200     9.9720   -59.6340     0.0310     2.5410     0.2810
 3281.5000   -24.0960   138.1190     6.7860     5.8680   -86.3720     9.9720   -61.2810     0.0360     2.5490     0.2760
 3282.0000   -24.0960   137.6000     6.9010     5.9500   -86.3310     9.9720   -62.9280     0.0460     2.5660     0.2760
 3282.5000   -24.0960   137.3050     7.0170     6.0320   -86.2330     9.9720   -62.7060     0.0540     2.5970     0.2750
 3283.0000   -24.0960   137.3390     7.1330     6.1140   -86.1340     9.9720   -60.7290     0.0520     2.6260     0.2780
 3283.5000   -24.0960   135.9940     7.1990     6.1960   -86.0350     9.9720   -58.7530     0.0450     2.6560     0.2810
 3284.0000   -22.4830   133.0030     7.0780     6.2090   -86.0080     9.9720   -56.7760     0.0320     2.6390     0.2850
 3284.5000   -20.5750   128.6890     7.0020     5.9650   -86.0430     9.9720   -54.8000     0.0330     2.6010     0.2870
 3285.0000   -18.6670   126.4840     6.4860     5.5100   -86.0800     9.9720   -52.8240     0.0560     2.5620     0.2890
 3285.5000   -16.7600   131.8000     6.0140     5.0190   -86.1160     9.9730   -50.8470     0.0770     2.5400     0.2910
 3286.0000   -14.8520   140.9620     5.7130     4.9120   -86.1530     9.9890   -48.8710     0.0800     2.5350     0.2910
 3286.5000   -20.0600   145.5610     5.6780     4.8330   -86.1890    10.0040   -46.8940     0.0760     2.5310     0.2870
 3287.0000   -30.3610   143.1400     5.6420     4.8140   -86.2260    10.0190   -44.9180     0.0700     2.5130     0.2850
 3287.5000   -40.6630   140.4520     5.6080     4.7950   -86.2620    10.0350   -53.9220     0.0640     2.4830     0.2860
 3288.0000   -50.9640   141.4710     5.5910     4.6830   -86.2980    10.0500   -70.3920     0.0590     2.4870     0.2930
 3288.5000   -61.2650   141.7180     5.5700     4.6180   -86.3350    10.0650   -82.4860     0.0540     2.5000     0.2990
 3289.0000   -59.3840   140.0190     5.5570     4.7230   -86.3720    10.0810   -78.5330     0.0480     2.5220     0.2980
 3289.5000   -52.5170   135.5580     5.8790     4.9160   -86.4300    10.0960   -74.5800     0.0420     2.5370     0.2960
 3290.0000   -45.6490   131.0490     5.9830     5.1130   -86.5170    10.1120   -70.6270     0.0370     2.5350     0.2930
