~VERSION INFORMATION
 VERS.                2.0:   CWLS LOG ASCII STANDARD - VERSION 2.0
 WRAP.                 NO:   ONE LINE PER DEPTH STEP
~WELL INFORMATION
#MNEM.UNIT      DATA TYPE    INFORMATION
#----------   ------------   ------------------------------
 STRT.F           13.0000:   START DEPTH
 STOP.F         2858.0000:   STOP DEPTH
 STEP.F            0.5000:   STEP LENGTH
 NULL.          -999.2500:   NO VALUE
 COMP.    FENIX & SCISSON:   COMPANY
 WELL. FENIX & SCISSON "AX" #16-21:   WELL
 FLD .  TEAPOT DOME NRP-3:   FIELD
 LOC .      S21 T39N R78W:   LOCATION
 CNTY.            NATRONA:   COUNTY
 STAT.            WYOMING:   STATE
 CTRY. UNITED STATES OF AMERICA:   COUNTRY
 SRVC.           BIRDWELL:   SERVICE COMPANY
 DATE.        17-JUL-1978:   LOGDATE
 API .     49025106590000:   API NUMBER
~CURVE INFORMATION
#MNEM.UNIT       API CODE    CURVE DESCRIPTION
#----------   ------------   ------------------------------
 DEPT.F                  :   
 GRD .GAPI   45 310 01 00:   GAMMA RAY FROM DENSITY LOG
 CALD.IN     45 280 60 00:   CALIPER FROM DENSITY LOG
 CORR.G/C3   45 356 01 00:   DENSITY CORRECTION
 RHOB.G/C3   45 350 01 00:   BULK DENSITY
 SPR .MV     05 010 01 00:   SPONTANEOUS POTENTIAL FROM RES.
 ILD .OHMM   05 120 46 00:   INDUCTION LOG DEEP
 SN  .OHMM   05 041 16 00:   SHORT NORMAL 16"
~PARAMETER INFORMATION
#MNEM.UNIT          VALUE    DESCRIPTION
#----------   ------------   ------------------------------
 EKB .F         5003.0000:   Kelly bushing
 EGL .F         4993.0000:   Ground level
 EDF .F            0.0000:   Drilling floor
 EPD .F         4993.0000:   Permanent datum
 TD  .F         2858.0000:   Total depth
 CLNT.            A2DTECH:   Client Code
 SL  . 1420' FSL & 200' FWL:   Surface Location
 DATE.        17-JUL-1978:   Date Logged [DD-MMM-YYYY]
 DD  .F              2855:   Depth driller
 DL  .F              2858:   Depth logger
 BLI .F              2858:   Bottom log interval
 TLI .F                20:   Top log interval
 CS1 .              8.625:   Casing size
 CBD1.      8.625" @ 200':   Casing driller 1
 CBL1.IN              228:   Casing logger 1
 BS1 .IN            7.875:   Bit size
 BSD1.F              2855:   Depth drilled with bit1
 DFT .            MUD GEL:   Type fluid in hole
 DFD .                9.9:   Density
 DFV .                 32:   Viscosity
 DFPH.               10.5:   pH
 DFL .                7.2:   Fluid loss
 MSS .           FLOWLINE:   Source of sample
 RMS .OHMM            1.3:   Rm
 MST .F                80:   Rm Meas. temp.
 RMF .OHMM           0.77:   Rmf
 MFST.F                74:   Rmf Meas. temp.
 MFSS.               MEAS:   Source Rmf.
 RMC .OHMM            1.5:   Rmc
 MCST.F                73:   Rmc Meas. temp.
 MCSS.               MEAS:   Source Rmc.
 TCS .HRS               1:   Time Circ. stopped
 MRT .F               118:   Maximum recorded temp.
 LUN .               2958:   Logging unit number
 LUL .               CASP:   Logging unit location
 ENGI.              HONEA:   Recorded By
 WITN.           MCGINLEY:   Witnessed by
 ORIG.        2" 5" PRINT:   Origin of data
 UWI .     49025106590000:   Unique Well ID
 DICO. A2D TECHNOLOGIES, INC.:   Digitizing Company
 PD  .                 GL:   Permanent Datum
 DAPD.                 10:   Feet Above Permanent Datum
~OTHER INFORMATION
~A   DEPT       GRD      CALD       CORR       RHOB        SPR        ILD         SN   
# ...
  240.5000    55.1858    10.3923     0.0758     2.3476   -38.2942    17.5240    13.1812
  241.0000    55.2075    10.3935     0.0789     2.3358   -38.4155    17.3029    13.1916
  241.5000    55.2718    10.3946     0.0760     2.3284   -38.5368    17.1952    13.2020
  242.0000    56.5982    10.3957     0.0761     2.3240   -38.7996    17.0916    13.1195
  242.5000    57.8135    10.3968     0.0762     2.3412   -38.9276    16.8760    12.9529
  243.0000    57.5363    10.3979     0.0764     2.3458   -39.0489    16.8897    12.8745
  243.5000    55.0202    10.3990     0.0794     2.3510   -39.1702    16.9034    12.7967
  244.0000    49.0714    10.4002     0.0810     2.3392   -39.1367    16.9171    12.6322
  244.5000    47.0031    10.4013     0.0708     2.3371   -39.2647    17.0472    12.5556
  245.0000    45.5318    10.4024     0.0590     2.3394   -39.2312    17.0611    12.4795
  245.5000    43.6128    10.4035     0.0532     2.3394   -39.0562    17.0749    12.4898
  246.0000    44.3803    10.4046     0.0563     2.3275   -38.8813    17.0887    12.3312
  246.5000    46.1926    10.4058     0.0593     2.3282   -38.7063    17.1026    12.2565
  247.0000    47.2587    10.4069     0.0639     2.3404   -38.5313    17.1164    12.2662
  247.5000    48.0262    10.4073     0.0685     2.3450   -38.5045    17.1303    12.2759
  248.0000    47.8905    10.4077     0.0716     2.3451   -38.4777    17.0271    12.2856
  248.5000    47.4717    10.4081     0.0702     2.3496   -38.4508    16.9073    12.2953
  249.0000    46.9013    10.4085     0.0704     2.3578   -38.4240    16.7077    12.3050
  249.5000    46.3256    10.4089     0.0705     2.3646   -38.3972    16.6070    12.3147
  250.0000    46.7946    10.4093     0.0706     2.3721   -38.2222    16.6238    12.3245
  250.5000    48.1591    10.4098     0.0662     2.3692   -38.1951    16.6373    12.3342
  251.0000    51.1655    10.4102     0.0589     2.3648   -38.3625    16.6508    12.3440
  251.5000    52.8285    10.4106     0.0487     2.3619   -38.5063    16.6643    12.4389
  252.0000    49.4170    10.4110     0.0488     2.3479   -38.7143    16.6778    12.4487
  252.5000    48.5374    10.4114     0.0489     2.3286   -38.9860    16.6807    12.4584
  253.0000    48.5640    10.4118     0.0490     2.3284   -39.2515    16.6550    12.4684
  253.5000    48.5853    10.4122     0.0491     2.3065   -39.3751    16.6293    12.4784
  254.0000    48.6065    10.4126     0.0477     2.2880   -39.4986    16.6036    12.4885
  254.5000    48.3293    10.4130     0.0479     2.2702   -39.6222    16.5779    12.4985
  255.0000    48.0521    10.4135     0.0495     2.2517   -39.7518    16.5522    12.5085
  255.5000    47.9241    10.4139     0.0541     2.2273   -39.8692    16.5265    12.5186
  256.0000    47.9462    10.4143     0.0690     2.1255   -39.8446    16.5008    12.5286
  256.5000    48.1212    10.4147     0.1152     2.0631   -39.9682    16.4738    12.5386
  257.0000    48.4410    10.4151     0.1866     2.0260   -39.9435    16.3756    12.5486
  257.5000    49.9548    10.4152     0.3270     1.9384   -39.9189    16.3898    12.5605
  258.0000    51.1701    10.4146     0.3554     1.9548   -40.0425    16.2921    12.4818
  258.5000    50.2958    10.4139     0.3600     2.0493   -40.0117    16.3068    12.4940
  259.0000    49.4216    10.4132     0.3305     2.1653   -39.9871    16.2091    12.5037
  259.5000    48.9951    10.4125     0.2534     2.3084   -39.9625    16.2268    12.5135
  260.0000    49.1656    10.4118     0.2015     2.3737   -39.9379    16.1265    12.5233
  260.5000    49.1869    10.4112     0.1407     2.3998   -39.9133    16.1441    12.5331
  261.0000    49.2081    10.4105     0.1052     2.3887   -39.8886    16.1582    12.4570
  261.5000    49.2294    10.4098     0.0875     2.3591   -39.8640    16.1723    12.5528
  262.0000    49.2508    10.4091     0.0831     2.3331   -39.8394    16.1864    12.4789
  262.5000    49.4216    10.4085     0.0730     2.3324   -39.8148    16.2005    12.4886
  263.0000    49.7647    10.4078     0.0687     2.3333   -39.7896    16.2146    12.4104
  263.5000    50.0661    10.4071     0.0673     2.3274   -39.7594    16.2288    12.2531
  264.0000    50.2366    10.4064     0.0645     2.3252   -39.7348    16.2432    12.0126
  264.5000    50.2579    10.4057     0.0617     2.3380   -39.7102    16.2577    11.7768
  265.0000    50.1299    10.4051     0.0574     2.3432   -39.8399    16.2748    11.7860
  265.5000    49.9966    10.4044     0.0546     2.3493   -39.8091    16.2890    11.7952
  266.0000    49.5754    10.4037     0.0518     2.3441   -39.7845    16.3032    11.8045
  266.5000    48.8504    10.4030     0.0505     2.3366   -39.7599    16.0953    11.8139
  267.0000    48.1254    10.4023     0.0491     2.3354   -39.7353    15.7816    11.7419
  267.5000    48.5944    10.4017     0.0493     2.3459   -39.7107    15.3682    11.5930
  268.0000    50.5560    10.4010     0.0495     2.3459   -39.8342    14.7620    11.3655
  268.5000    51.1853    10.4003     0.0511     2.3475   -39.8096    14.3754    11.2943
  269.0000    50.0015    10.3996     0.0497     2.3520   -39.9332    13.9033    11.1489
  269.5000    48.5211    10.3990     0.0484     2.3551   -40.0567    13.6280    11.0812
  270.0000    48.2530    10.3983     0.0486     2.3581   -40.1802    13.3665    10.8658
  270.5000    48.4289    10.3976     0.0488     2.3582   -40.4458    13.3811    10.7999
  271.0000    48.1516    10.3969     0.0489     2.3575   -40.4212    13.3927    10.7271
  271.5000    47.1281    10.3962     0.0536     2.3591   -40.5509    13.4044    10.5982
  272.0000    46.6963    10.3960     0.0643     2.3651   -40.6744    13.4161    10.6065
  272.5000    48.5139    10.3959     0.0672     2.3794   -40.7918    13.4278    10.6148
  273.0000    50.9233    10.3957     0.0674     2.4027   -40.7672    13.4395    10.5483
  273.5000    53.6311    10.3956     0.0660     2.4240   -40.8907    13.4513    10.4843
  274.0000    57.8315    10.3955     0.0677     2.4428   -41.0142    13.3705    10.4945
  274.5000    58.5937    10.3953     0.0678     2.4503   -41.1378    13.3827    10.5034
  275.0000    58.4701    10.3952     0.0680     2.4526   -41.1070    13.2121    10.4589
  275.5000    58.0445    10.3951     0.0771     2.4542   -41.2367    13.1258    10.4083
  276.0000    57.0210    10.3950     0.0817     2.4602   -41.2059    12.9509    10.3577
  276.5000    56.8931    10.3948     0.0786     2.4707   -41.1813    12.7130    10.3072
  277.0000    57.5119    10.3947     0.0699     2.4782   -41.0086    12.6372    10.2566
  277.5000    57.3834    10.3946     0.0687     2.4723   -41.1383    12.5619    10.2060
  278.0000    57.2554    10.3944     0.0719     2.4568   -40.9593    12.5756    10.1554
  278.5000    57.4312    10.3943     0.0750     2.4435   -40.9347    12.5865    10.1419
  279.0000    58.1987    10.3942     0.0752     2.4510   -40.9101    12.5975    10.1518
  279.5000    58.8170    10.3940     0.0753     2.4555   -41.0337    12.6085    10.0899
  280.0000    58.8383    10.3939     0.0770     2.4601   -40.8547    12.5329    10.0293
  280.5000    58.7050    10.3938     0.0786     2.4624   -40.6820    12.5443     9.9640
  281.0000    58.5770    10.3936     0.0803     2.4640   -40.6574    12.4695     9.9674
  281.5000    58.7529    10.3935     0.0819     2.4678   -40.6328    12.3951     9.9707
  282.0000    59.0726    10.3934     0.0759     2.4730   -40.6082    12.3212     9.8380
  282.5000    60.5864    10.3933     0.0703     2.4753   -40.7378    12.3346     9.7739
  283.0000    60.9062    10.3931     0.0735     2.4710   -40.8563    12.2584     9.7772
  283.5000    61.8302    10.3930     0.0766     2.4577   -40.8306    12.1853     9.8575
  284.0000    64.1255    10.3929     0.0782     2.4585   -40.9542    12.1986     9.9883
  284.5000    63.9316    10.3927     0.0799     2.4667   -41.0777    12.2092     9.9917
  285.0000    62.6384    10.3926     0.0770     2.4705   -41.1951    12.1338     9.9266
  285.5000    61.1671    10.3925     0.0713     2.4676   -41.1705    11.9817     9.7937
