~VERSION INFORMATION
 VERS.                2.0:   CWLS LOG ASCII STANDARD - VERSION 2.0
 WRAP.                 NO:   ONE LINE PER DEPTH STEP
~WELL INFORMATION
#MNEM.UNIT      DATA TYPE    INFORMATION
#----------   ------------   ------------------------------
 STRT.F          520.0000:   START DEPTH
 STOP.F         3092.0000:   STOP DEPTH
 STEP.F            0.5000:   STEP LENGTH
 NULL.          -999.2500:   NO VALUE
 COMP.    FENIX & SCISSON:   COMPANY
 WELL. FENIX 87 "AX" #3-3:   WELL
 FLD .              N P R:   FIELD
 LOC .       S3 T38N R78W:   LOCATION
 CNTY.            NATRONA:   COUNTY
 STAT.            WYOMING:   STATE
 CTRY. UNITED STATES OF AMERICA:   COUNTRY
 SRVC.              WELEX:   SERVICE COMPANY
 DATE.        30-OCT-1980:   LOGDATE
 API .     49025108510000:   API NUMBER
~CURVE INFORMATION
#MNEM.UNIT       API CODE    CURVE DESCRIPTION
#----------   ------------   ------------------------------
 DEPT.F                  :   
 CALD.IN     45 280 60 00:   CALIPER FROM DENSITY LOG
 GRD .GAPI   45 310 01 00:   GAMMA RAY FROM DENSITY LOG
 RHOB.G/C3   45 350 01 00:   BULK DENSITY
 CORR.G/C3   45 356 01 00:   DENSITY CORRECTION
 SPR .MV     07 010 01 00:   SPONTANEOUS POTENTIAL
 ILD .OHMM   07 120 46 00:   DEEP INDUCTION RESISTIVITY
 ILM .OHMM   07 120 44 00:   INDUCTION LOG MEDIUM RESISTIVITY
 SGRD.OHMM   07 220 05 00:   SHALLOW SHORT GUARD RESISTIVITY
~PARAMETER INFORMATION
#MNEM.UNIT          VALUE    DESCRIPTION
#----------   ------------   ------------------------------
 EKB .F         5131.0000:   Kelly bushing
 EGL .F         5121.0000:   Ground level
 TD  .F         3095.0000:   Total depth
 DATE.        30-OCT-1980:   Date logged
 CLNT.            A2DTECH:   Client Code
 SL  . 910' FWL & 95' FEL:   Surface Location
 PD  .                 GL:   Permanent Datum
 EPD .F              5121:   Elevation Permanent Datum
 LMF .                 KB:   Log Measured From
 DMF .                 KB:   Drilling Measured From
 DD  .F              3095:   Depth driller
 DL  .F              3094:   Depth logger
 BLI .F              3092:   Bottom log interval
 TLI .F               525:   Top log interval
 CS1 .IN            9.625:   Casing size
 CBD1.      9.625" @ 525':   Casing driller 1
 CBL1.F               525:   Casing logger 1
 BS1 .IN            7.875:   Bit size
 DFT .          DISPERSED:   Type fluid in hole
 DFD .                  9:   Density
 DFV .                 40:   Viscosity
 DFPH.                 10:   pH
 DFL .                  8:   Fluid loss
 MSS .             MUDPIT:   Source of sample
 RMS .OHMM           2.40:   Rm
 MST .F                68:   Rm Meas. temp.
 MFST.F                68:   Rmf Meas. temp.
 RMC .OHMM            2.8:   Rmc
 MCST.F                68:   Rmc Meas. temp.
 MFSS.F              MEAS:   Source Rmf.
 RMB .OHMM           1.36:   Rm. at BHT
 BHT .F               120:   BHT.
 TCS .HRS             5.5:   Time Circ. stopped
 MRT .F               120:   Maximum recorded temp.
 LUN .               1891:   Logging unit number
 LUL .             CASPER:   Logging unit location
 ENGI.          PFERIMMER:   Recorded By
 WITN.              FIVAS:   Witnessed by
 ORIG.           5" PRINT:   Origin of data
 UWI .     49025108510000:   Unique Well ID
 DICO. A2D TECHNOLOGIES, INC.:   Digitizing Company
 DAPD.F                10:   Feet Above Permanent Datum
 BSD1.F              3095:   Depth drilled with bit1
 RMF .OHMM           1.92:   Rmf
 MCSS.               MEAS:   Source Rmc.
~OTHER INFORMATION
~A   DEPT     CALD        GRD       RHOB       CORR        SPR          ILD        ILM      SGRD  
# ...
 2909.5000     9.3980    93.1850     2.5620     0.0240   -28.7990     4.1510     6.6510     7.8470
 2910.0000     9.3750    93.3250     2.5750     0.0360   -28.7920     4.3870     6.6840     8.3470
 2910.5000     9.3510    92.9140     2.5870     0.0420   -28.7850     4.6240     6.7170     8.3470
 2911.0000     9.3290    92.4850     2.5960     0.0470   -28.7790     4.8600     6.7500     8.0440
 2911.5000     9.3230    92.3500     2.5960     0.0520   -28.7720     5.1130     6.7820     8.2310
 2912.0000     9.3180    94.0760     2.5910     0.0570   -28.7660     5.2570     6.8150     8.4970
 2912.5000     9.3120    95.5470     2.5770     0.0620   -28.7590     5.2570     6.8480     8.7420
 2913.0000     9.3070    96.9940     2.5630     0.0670   -28.7530     5.2020     6.8730     8.8230
 2913.5000     9.2970    98.4420     2.5520     0.0730   -28.7460     5.1620     6.8020     8.8230
 2914.0000     9.2840    99.8970     2.5670     0.0780   -28.7390     5.1220     6.7710     8.8230
 2914.5000     9.2700   101.2890     2.5790     0.0830   -28.7330     5.0830     6.7390     8.6710
 2915.0000     9.2570   101.3110     2.5780     0.0880   -28.7260     5.0430     6.7080     8.4600
 2915.5000     9.2430   100.7830     2.5770     0.0890   -28.7200     5.0040     6.6770     8.2480
 2916.0000     9.2290   100.2480     2.5760     0.0840   -28.7130     4.9640     6.6460     8.0370
 2916.5000     9.2160   100.1410     2.5750     0.0710   -28.7060     4.9240     6.6150     7.8250
 2917.0000     9.2020   100.5460     2.5730     0.0590   -28.7000     4.8820     6.5830     7.6090
 2917.5000     9.1880   102.5030     2.5830     0.0460   -28.6930     4.7920     6.5630     7.6090
 2918.0000     9.1750   104.4610     2.5960     0.0340   -28.6870     4.7920     6.6080     7.7510
 2918.5000     9.1730   106.4090     2.6040     0.0210   -28.6800     4.8410     6.7270     8.1620
 2919.0000     9.1850   108.3540     2.5790     0.0100   -28.6730     4.8760     6.8460     8.5990
 2919.5000     9.1790   110.4030     2.5580     0.0130   -28.6670     4.9100     6.9640     9.0350
 2920.0000     9.1730   114.4940     2.5530     0.0150   -28.6600     4.9430     7.0670     9.4130
 2920.5000     9.1660   118.8510     2.5590     0.0210   -28.6540     4.9730     6.8730     9.0710
 2921.0000     9.1600   123.2110     2.5470     0.0370   -28.6470     4.9730     6.6070     8.3910
 2921.5000     9.1540   127.5680     2.5330     0.0450   -28.6410     4.6590     6.3330     7.6950
 2922.0000     9.1490   131.9240     2.5100     0.0420   -28.6340     4.3480     6.0600     6.9990
 2922.5000     9.1250   136.2890     2.4870     0.0380   -28.6270     4.0380     5.7870     6.3830
 2923.0000     9.1240   140.8000     2.4680     0.0350   -28.6210     3.7270     5.6400     6.6210
 2923.5000     9.1210   142.5850     2.4490     0.0310   -28.6140     3.4170     5.2520     7.2660
 2924.0000     9.1180   141.2720     2.4280     0.0230   -28.6080     3.1060     4.6950     6.3850
 2924.5000     9.1160   134.9130     2.4230     0.0150   -28.6010     2.7960     4.1380     5.2820
 2925.0000     9.1130   121.8130     2.4690     0.0060   -28.5940     2.4850     3.5810     4.1800
 2925.5000     9.1100   102.5030     2.5160    -0.0010   -28.5880     2.3510     2.8820     3.3720
 2926.0000     9.1080    92.1670     2.5450     0.0100   -28.5810     2.3300     3.5680     4.3320
 2926.5000     9.1050    91.3210     2.5610     0.0210   -28.5750     2.3510     4.4890     5.6210
 2927.0000     9.1020    92.3250     2.5740     0.0320   -28.5680     2.4400     5.1360     6.9090
 2927.5000     9.1000    93.4120     2.5740     0.0430   -28.5620     2.7830     5.6180     8.1970
 2928.0000     9.0970    94.6490     2.5740     0.0380   -28.5680     3.1650     6.1000     8.8790
 2928.5000     9.0940    96.6740     2.5720     0.0310   -28.5960     3.5470     6.4140     9.4820
 2929.0000     9.0910    98.6830     2.5660     0.0240   -28.6240     3.9290     6.5830     9.8580
 2929.5000     9.0870   100.6900     2.5590     0.0170   -28.6520     4.3110     6.7470     9.5050
 2930.0000     9.0910   102.6970     2.5520     0.0100   -28.6790     4.6920     6.8100     9.1480
 2930.5000     9.0500   104.7000     2.5460     0.0030   -28.7070     5.0740     6.8730     8.7910
 2931.0000     9.0090   106.7080     2.5440     0.0010   -28.7350     5.2080     6.8730     8.4330
 2931.5000     8.9910   109.0430     2.5520     0.0060   -28.7630     5.2080     6.8100     8.0760
 2932.0000     8.9900   113.0150     2.5580     0.0180   -28.7900     5.2080     6.6850     7.7190
 2932.5000     8.9900   116.9930     2.5600     0.0300   -28.8180     5.0660     6.5630     7.3610
 2933.0000     8.9900   120.9690     2.5610     0.0420   -28.8460     4.8820     6.4430     7.0040
 2933.5000     8.9950   124.9420     2.5630     0.0520   -28.8730     4.7160     6.2090     6.6850
 2934.0000     9.0090   128.9160     2.5610     0.0480   -28.9010     4.4190     6.0390     6.6560
 2934.5000     9.0100   132.8900     2.5520     0.0440   -28.9290     4.1220     5.8190     6.6240
 2935.0000     9.0090   136.8660     2.5390     0.0410   -28.9570     3.8240     5.5420     6.5630
 2935.5000     9.0310   140.8430     2.5200     0.0370   -28.9840     3.5270     5.2610     6.1570
 2936.0000     9.0270   144.8210     2.5010     0.0330   -29.0120     3.2300     4.8760     5.6110
 2936.5000     8.8980   147.4350     2.4830     0.0290   -29.0400     2.9330     4.3780     5.0660
 2937.0000     8.6170   141.9290     2.4920     0.0190   -29.0680     2.6350     3.8790     4.5200
 2937.5000     8.3260   133.6400     2.4980     0.0100   -29.0950     2.3380     3.3800     3.9750
 2938.0000     9.3100   114.9010     2.4980     0.0010   -29.1230     2.0410     2.8820     3.4290
 2938.5000     9.6920   100.7490     2.5230     0.0000   -29.1290     1.9180     2.7260     3.0750
 2939.0000     8.9940   100.4670     2.5410     0.0040   -29.0840     1.9180     3.1840     4.1410
 2939.5000     8.6930   100.6420     2.5330     0.0070   -29.0390     2.0470     4.0640     5.7020
 2940.0000     8.5090   101.5660     2.5260     0.0110   -28.9940     2.2360     4.7920     7.2630
 2940.5000     8.3740   102.8490     2.5380     0.0210   -28.9490     2.5960     5.2820     7.8960
 2941.0000     8.3510   104.1500     2.5530     0.0320   -28.9050     2.9560     5.7810     7.4700
 2941.5000     8.3270   105.4550     2.5560     0.0420   -28.8600     3.3150     6.2810     8.0130
 2942.0000     8.3030   106.7580     2.5500     0.0530   -28.8110     3.6750     6.6240     8.5810
 2942.5000     8.2790   106.7230     2.5590     0.0630   -28.7740     4.0350     6.5860     8.3590
 2943.0000     8.2560   106.5010     2.5570     0.0670   -28.3500     4.3940     6.5530     8.1190
 2943.5000     8.2320   106.2740     2.5540     0.0650   -28.1640     4.7540     6.5190     7.8800
 2944.0000     8.2080   106.0420     2.5610     0.0630   -28.2020     4.9730     6.4860     7.6400
 2944.5000     8.1840   106.4610     2.5560     0.0610   -28.2220     4.9410     6.4430     7.5390
 2945.0000     8.1600   106.9540     2.5470     0.0590   -28.2450     4.9050     6.5050     7.5390
 2945.5000     8.1360   107.4490     2.5400     0.0560   -28.2670     4.8370     6.5920     7.9220
 2946.0000     8.1280   107.9580     2.5460     0.0540   -28.2890     4.8370     6.6800     8.2580
 2946.5000     8.1270   107.5430     2.5370     0.0520   -28.3120     4.9950     6.7670     8.5950
 2947.0000     8.1270   106.7720     2.5270     0.0500   -28.3340     5.1340     6.8550     8.9050
 2947.5000     8.1270   106.0030     2.5180     0.0480   -28.3560     5.2710     6.9420     8.7290
 2948.0000     8.1270   105.6420     2.5290     0.0440   -28.3790     5.3970     7.0670     8.4760
 2948.5000     8.1270   106.5840     2.5450     0.0380   -28.4010     5.4550     6.9990     8.2330
 2949.0000     8.1270   107.4870     2.5610     0.0330   -28.4230     5.4550     6.8790     8.1940
 2949.5000     8.1270   108.3810     2.5600     0.0270   -28.4460     5.3380     6.7600     8.8600
