~VERSION INFORMATION
 VERS.                2.0:   CWLS LOG ASCII STANDARD - VERSION 2.0
 WRAP.                 NO:   ONE LINE PER DEPTH STEP
~WELL INFORMATION
#MNEM.UNIT      DATA TYPE    INFORMATION
#----------   ------------   ------------------------------
 STRT.F          206.0000:   START DEPTH
 STOP.F         3080.5000:   STOP DEPTH
 STEP.F            0.5000:   STEP LENGTH
 NULL.          -999.2500:   NO VALUE
 COMP.    FENIX & SCISSON:   COMPANY
 WELL.   FENIX "A" #61-28:   WELL
 FLD .           N P R #3:   FIELD
 LOC .      S28 T39N R78W:   LOCATION
 CNTY.            NATRONA:   COUNTY
 STAT.            WYOMING:   STATE
 CTRY. UNITED STATES OF AMERICA:   COUNTRY
 SRVC.        SCHLUMBEGER:   SERVICE COMPANY
 DATE.        16-MAY-1977:   LOGDATE
 API .     49025103680000:   API NUMBER
~CURVE INFORMATION
#MNEM.UNIT       API CODE    CURVE DESCRIPTION
#----------   ------------   ------------------------------
 DEPT.F                  :   
 SPR .MV     07 010 01 00:   SPONTANEOUS POTENTIAL
 LL8 .OHMM   07 220 08 00:   LATEROLOG-8 RES.
 ILM .OHMM   07 120 44 00:   INDUCTION LOG MEDIUM RESISTIVITY
 ILD .OHMM   07 120 46 00:   DEEP INDUCTION RESISTIVITY
 CALD.IN     45 280 60 00:   CALIPER FROM DENSITY LOG
 GRD .GAPI   45 310 01 00:   GAMMA RAY FROM DENSITY LOG
 RHOB.G/C3   45 350 01 00:   BULK DENSITY
 CORR.G/C3   45 356 01 00:   DENSITY CORRECTION
~PARAMETER INFORMATION
#MNEM.UNIT          VALUE    DESCRIPTION
#----------   ------------   ------------------------------
 EKB .F         5019.0000:   Kelly bushing
 EGL .F         5009.0000:   Ground level
 EDF .F            0.0000:   Drilling floor
 TD  .F         3050.0000:   Total depth
 DATE.        16-MAY-1977:   Date logged
 CLNT.            A2DTECH:   Client Code
 SL  . 330' FNL & 1650' FEL:   Surface Location
 PD  .                 GL:   Permanent Datum
 DD  .F              3050:   Depth driller
 DL  .F              3079:   Depth logger
 BLI .F              3072:   Bottom log interval
 CS1 .IN            8.625:   Casing size
 CBD1.      8.625" @ 213':   Casing driller 1
 CBL1.F               213:   Casing logger 1
 BS1 .IN            7.875:   Bit size
 DFT .            KCL-MUD:   Type fluid in hole
 DFD .                9.2:   Density
 DFV .                 32:   Viscosity
 DFPH.                  8:   pH
 DFL .                7.6:   Fluid loss
 MSS .              CIRC.:   Source of sample
 RMS .OHMM          0.128:   Rm
 MST .F                62:   Rm Meas. temp.
 RMF .OHMM          0.126:   Rmf
 MFST.F                62:   Rmf Meas. temp.
 RMC .OHMM          0.192:   Rmc
 MCST.F                62:   Rmc Meas. temp.
 MFSS.               MEAS:   Source Rmf.
 RMB .OHMM           0.07:   Rm. at BHT
 BHT .F               112:   BHT.
 TCS .HRS            0900:   Time Circ. stopped
 MRT .F               112:   Maximum recorded temp.
 LUN .               7711:   Logging unit number
 LUL .               CSPR:   Logging unit location
 ENGI.             SAYLER:   Recorded By
 WITN.         PETTINGILL:   Witnessed by
 ORIG.           5" PRINT:   Origin of data
 UWI .     49025103680000:   Unique Well ID
 DICO. A2D TECHNOLOGIES, INC.:   Digitizing Company
 DAPD.                 10:   Feet Above Permanent Datum
 BSD1.               3050:   Depth drilled with bit1
 MCSS.               CALC:   Source Rmc.
 EPD .F              5009:   Elevation Permanent Datum
 LMF .                 KB:   Log Measured From
 DMF .                 KB:   Drilling Measured From
 TLI .F               213:   Top log interval
 TLAB.               1100:   Time logger at bottom
~OTHER INFORMATION
~A   DEPT      SPR        LL8        ILM        ILD       CALD         GRD      RHOB       CORR   
# ...
 3041.0000   -49.2600     5.6870     5.2690     4.8560     7.9450   115.5590     2.4980     0.0260
 3041.5000   -49.1480     6.0540     5.3230     4.7690     7.9430   112.0750     2.4950     0.0230
 3042.0000   -49.0260     5.8550     5.3230     4.6770     7.9420   109.5710     2.4920     0.0120
 3042.5000   -48.9100     5.3230     5.1630     4.5850     7.9420   111.5040     2.4930     0.0040
 3043.0000   -48.7910     5.1180     4.9910     4.4930     7.9420   116.7440     2.4880     0.0080
 3043.5000   -48.6730     4.9350     4.8180     4.4010     7.9420   121.9830     2.4780     0.0040
 3044.0000   -48.5550     4.7520     4.6450     4.3090     7.9420   124.4410     2.4860     0.0160
 3044.5000   -48.4370     4.5120     4.4730     4.2180     7.9420   125.5640     2.4940     0.0290
 3045.0000   -48.3190     4.5330     4.3490     4.1260     7.9420   124.4830     2.4870     0.0260
 3045.5000   -48.2010     4.6110     4.4540     4.0400     7.9420   122.2250     2.4770     0.0220
 3046.0000   -48.0830     4.6890     4.5050     4.0500     7.9420   121.7990     2.4660     0.0180
 3046.5000   -47.9650     4.7660     4.5570     4.0640     7.9420   121.0100     2.4700     0.0140
 3047.0000   -47.8460     4.8560     4.6480     4.0790     7.9420   119.0200     2.4790     0.0130
 3047.5000   -47.7300     4.7800     4.6020     4.0930     7.9420   118.4770     2.4780     0.0180
 3048.0000   -47.6100     4.6900     4.5090     4.1070     7.9420   120.1780     2.4760     0.0140
 3048.5000   -47.4900     4.6000     4.4170     4.1150     7.9420   122.1860     2.4740     0.0110
 3049.0000   -47.4380     4.5100     4.3240     4.0910     7.9420   124.1720     2.4730     0.0130
 3049.5000   -47.6040     4.4200     4.2620     4.0520     7.9420   124.4640     2.4800     0.0180
 3050.0000   -47.7600     4.2890     4.2430     4.0120     7.9420   123.7940     2.4870     0.0240
 3050.5000   -47.9230     4.3220     4.2230     3.9730     7.9420   123.2350     2.4920     0.0290
 3051.0000   -48.1120     4.3870     4.2040     3.9340     7.9420   125.2140     2.4910     0.0330
 3051.5000   -48.0790     4.4530     4.1920     3.8940     7.9420   127.1480     2.4900     0.0270
 3052.0000   -47.6600     4.5120     4.1500     3.8550     7.9420   123.7910     2.4890     0.0220
 3052.5000   -47.2710     4.2190     4.0700     3.8160     7.9420   124.6140     2.5010     0.0400
 3053.0000   -46.8700     3.9670     3.9890     3.7760     7.9420   125.9540     2.5120     0.0590
 3053.5000   -46.4720     4.1150     3.8940     3.7370     7.9430   124.5210     2.5150     0.0830
 3054.0000   -46.0710     4.2560     3.9830     3.6980     7.8940   122.6970     2.5030     0.0780
 3054.5000   -45.6750     4.3970     4.0960     3.6580     7.8260   124.0000     2.4990     0.0680
 3055.0000   -45.2810     4.4290     4.0590     3.6190     7.7580   125.0780     2.5120     0.0720
 3055.5000   -44.8450     4.1840     3.9860     3.5800     7.7250   124.6240     2.5050     0.0760
 3056.0000   -44.5780     3.9250     3.9140     3.5400     7.7290   127.3620     2.5000     0.0680
 3056.5000   -44.6080     3.6860     3.8410     3.5010     7.7330   130.9210     2.5070     0.0910
 3057.0000   -44.6000     3.6320     3.7680     3.4430     7.7370   129.2920     2.5010     0.0730
 3057.5000   -44.6030     3.5520     3.6950     3.3760     7.7410   126.3210     2.4960     0.0760
 3058.0000   -44.5870     3.4880     3.6220     3.3090     7.7370   126.9760     2.4900     0.0820
 3058.5000   -44.7840     3.5150     3.5490     3.2400     7.7240   128.1160     2.4890     0.0870
 3059.0000   -45.3030     3.5500     3.4880     3.2150     7.7120   129.2550     2.4940     0.0890
 3059.5000   -45.7990     3.5840     3.4030     3.1700     7.6990   130.3900     2.4840     0.0760
 3060.0000   -46.3030     3.6180     3.3010     3.1250     7.6860   131.5340     2.4740     0.0640
 3060.5000   -46.8070     3.6530     3.2390     3.0800     7.7150   132.7150     2.4880     0.0570
 3061.0000   -47.3090     3.6860     3.1510     3.0350     7.7600  -999.2500     2.4840     0.0490
 3061.5000   -47.8130     3.5720     3.0630     2.9900     7.8050  -999.2500     2.4800     0.0420
 3062.0000   -48.3160     3.3710     2.9750     2.9450     7.8500  -999.2500     2.4640     0.0340
 3062.5000   -48.8190     3.1700     2.9020     2.9000     7.8950  -999.2500     2.4530     0.0330
 3063.0000   -49.3220     3.1240     2.9530     2.8550     7.9390  -999.2500     2.4550     0.0330
 3063.5000   -49.8270     3.1600     2.9970     2.8100     7.9610  -999.2500     2.4500     0.0240
 3064.0000   -50.3270     3.1990     3.0400     2.7950     7.9580  -999.2500     2.4390     0.0120
 3064.5000   -50.8240     3.2380     3.0840     2.7880     7.9560  -999.2500     2.4260     0.0020
 3065.0000   -51.1400     3.2760     3.1270     2.7800     7.9540  -999.2500     2.4270     0.0060
 3065.5000   -51.3610     3.3150     3.1700     2.7730     7.9510  -999.2500     2.4290     0.0110
 3066.0000   -51.5770     3.3620     3.2400     2.7660     7.9490  -999.2500     2.4380     0.0160
 3066.5000   -51.7950     3.4240     3.2150     2.7590     7.9460  -999.2500     2.4530     0.0150
 3067.0000   -52.0100     3.3390     3.1480     2.7510     7.9440  -999.2500     2.4450     0.0100
 3067.5000   -52.2270     3.2510     3.0810     2.7270     7.9420  -999.2500     2.4400     0.0150
 3068.0000   -52.4470     3.1640     3.0140     2.6680     7.9420  -999.2500     2.4500     0.0240
 3068.5000   -52.6150     3.0760     2.9470     2.6090     7.9420  -999.2500     2.4600     0.0330
 3069.0000   -52.6670     2.9880     2.8800     2.5500     7.9420  -999.2500     2.4590     0.0390
 3069.5000   -52.7240     2.8490     2.8130     2.5040     7.9420  -999.2500     2.4540     0.0330
 3070.0000   -52.7780     2.9040     2.7460     2.4970     7.9420  -999.2500     2.4520     0.0330
 3070.5000   -52.8300     3.0670     2.8410     2.4900     7.9400  -999.2500     2.4610     0.0390
 3071.0000   -52.8880     3.0500     2.9560     2.4830     7.9380  -999.2500     2.4670     0.0340
 3071.5000   -52.9370     3.0110  -999.2500     2.4760     7.9370  -999.2500     2.4610     0.0260
 3072.0000   -52.9900     3.1000  -999.2500     2.4690     7.9350  -999.2500     2.4540     0.0180
 3072.5000   -52.8650     3.3910  -999.2500     2.4600     7.9330  -999.2500     2.4460     0.0150
 3073.0000   -52.7170  -999.2500  -999.2500     2.4690     7.9320  -999.2500     2.4410     0.0140
 3073.5000   -52.5640  -999.2500  -999.2500     2.4840     7.9300  -999.2500     2.4370     0.0200
 3074.0000   -52.4170  -999.2500  -999.2500     2.4990     7.9280  -999.2500     2.4390     0.0260
 3074.5000   -52.2620  -999.2500  -999.2500     2.5140     7.9270  -999.2500     2.4230     0.0270
 3075.0000   -52.2030  -999.2500  -999.2500     2.5290     7.9250  -999.2500     2.4080     0.0330
 3075.5000   -52.4110  -999.2500  -999.2500     2.5440     7.9250  -999.2500     2.3930     0.0380
 3076.0000   -52.5060  -999.2500  -999.2500     2.5530     7.9160  -999.2500     2.3780     0.0330
 3076.5000   -52.9210  -999.2500  -999.2500     2.5640     7.7510  -999.2500     2.3620     0.0450
 3077.0000   -52.8600  -999.2500  -999.2500     2.5740     7.5750  -999.2500     2.3450     0.0610
 3077.5000   -52.7050  -999.2500  -999.2500     2.5840     6.9850  -999.2500     2.3210     0.0970
 3078.0000   -52.5240  -999.2500  -999.2500     2.5950     6.0870  -999.2500     2.2980     0.1160
 3078.5000   -52.3770  -999.2500  -999.2500  -999.2500  -999.2500  -999.2500     2.2730     0.1030
 3079.0000   -52.2100  -999.2500  -999.2500  -999.2500  -999.2500  -999.2500     2.2560     0.0970
 3079.5000  -999.2500  -999.2500  -999.2500  -999.2500  -999.2500  -999.2500     2.2560     0.1000
 3080.0000  -999.2500  -999.2500  -999.2500  -999.2500  -999.2500  -999.2500     2.2570     0.1070
 3080.5000  -999.2500  -999.2500  -999.2500  -999.2500  -999.2500  -999.2500  -999.2500     0.1110
