~VERSION INFORMATION
 VERS.                2.0:   CWLS LOG ASCII STANDARD - VERSION 2.0
 WRAP.                 NO:   ONE LINE PER DEPTH STEP
~WELL INFORMATION
#MNEM.UNIT      DATA TYPE    INFORMATION
#----------   ------------   ------------------------------
 STRT.F          230.0000:   START DEPTH
 STOP.F         3480.0000:   STOP DEPTH
 STEP.F            0.5000:   STEP LENGTH
 NULL.          -999.2500:   NO VALUE
 COMP.    FENIX & SCISSON:   COMPANY
 WELL. FENIX NPR 3 "AX" #33-15:   WELL
 FLD .                NPR:   FIELD
 LOC .      S15 T38N R78W:   LOCATION
 CNTY.            NATRONA:   COUNTY
 STAT.            WYOMING:   STATE
 CTRY. UNITED STATES OF AMERICA:   COUNTRY
 SRVC.       SCHLUMBERGER:   SERVICE COMPANY
 DATE.        19-MAR-1981:   LOGDATE
 API .     49025108760000:   API NUMBER
~CURVE INFORMATION
#MNEM.UNIT       API CODE    CURVE DESCRIPTION
#----------   ------------   ------------------------------
 DEPT.F                  :   
 TENR.LBS    07 635 01 00:   TENSION
 SFL .OHMM   07 220 01 00:   SHALLOW FOCUSED LOG RESISTIVITY
 ILM .OHMM   07 120 44 00:   INDUCTION LOG MEDIUM RESISTIVITY
 ILD .OHMM   07 120 46 00:   INDUCTION LOG DEEP RESISTIVITY
 SPR .MV     07 010 01 00:   SPONTANEOUS POTENTIAL
 CALD.IN     45 280 60 00:   CALIPER FROM DENSITY LOG
 GRD .GAPI   45 310 01 00:   GAMMA RAY FROM DENSITY LOG
 CORR.G/C3   45 356 01 00:   DENSITY CORRECTION
 RHOB.G/C3   45 350 01 00:   BULK DENSITY
~PARAMETER INFORMATION
#MNEM.UNIT          VALUE    DESCRIPTION
#----------   ------------   ------------------------------
 EKB .F         5286.0000:   Kelly bushing
 EGL .F         5276.0000:   Ground level
 EDF .F            0.0000:   Drilling floor
 TD  .F         3500.0000:   Total depth
 DATE.        19-MAR-1981:   Date logged
 CLNT.            A2DTECH:   Client Code
 SL  . 1545' FNL & 1467' FWL:   Surface Location
 PD  .                 GL:   Permanent Datum
 EPD .F              5276:   Elevation Permanent Datum
 LMF .                 KB:   Log Measured From
 DMF .                 KB:   Drilling Measured From
 DAPD.F                10:   Feet Above Permanent Datum
 DD  .F              3500:   Depth driller
 DL  .F              3476:   Depth logger
 BLI .F              3470:   Bottom log interval
 TLI .F               234:   Top log interval
 CS1 .IN            8.625:   Casing size
 CBD1.      8.625" @ 250':   Casing driller 1
 CBL1.F               234:   Casing logger 1
 BS1 .IN            7.875:   Bit size
 BSD1.F              3500:   Depth drilled with bit1
 DFT .                FGM:   Type fluid in hole
 DFD .                8.9:   Density
 DFV .                 39:   Viscosity
 DFPH.                9.5:   pH
 DFL .                 10:   Fluid loss
 MSS .               TANK:   Source of sample
 RMS .OHMM           2.26:   Rm
 MST .F                54:   Rm Meas. temp.
 RMF .OHMM           1.60:   Rmf
 MFST.F                54:   Rmf Meas. temp.
 MFSS.               MEAS:   Source Rmf.
 RMB .OHMM            .87:   Rm. at BHT
 BHT .F               140:   BHT.
 TCS .HRS            1030:   Time Circ. stopped
 TLAB.HRS            1300:   Time logger at bottom
 MRT .F               140:   Maximum recorded temp.
 LUN .               8039:   Logging unit number
 LUL .               CSPR:   Logging unit location
 ENGI.           C. PFARR:   Recorded By
 WITN.           R. SCOTT:   Witnessed by
 ORIG.     2.5", 5" PRINT:   Origin of data
 UWI .     49025108760000:   Unique Well ID
 DICO. A2D TECHNOLOGIES, INC.:   Digitizing Company
~OTHER INFORMATION
~A   DEPT     TENR          SFL      ILM        ILD        SPR         CALD       GRD      CORR         RHOB 
# ...
 3004.0000  1647.7800    28.4410    18.5710    26.4090   -30.4610     8.2770    86.2300     0.0520     2.4510
 3004.5000  1647.3070    28.9530    18.5710    26.4730   -30.8480     8.2770    86.1830     0.0550     2.4510
 3005.0000  1646.8340    29.5440    18.7520    26.6090   -31.2190     8.2780    83.1610     0.0560     2.4510
 3005.5000  1646.3610    30.1350    19.0190    26.7450   -31.6000     8.2780    80.2950     0.0560     2.4450
 3006.0000  1645.8879    30.7270    19.2870    26.8800   -32.0000     8.2790    78.7650     0.0570     2.4390
 3006.5000  1645.4150    31.3180    19.5540    27.0160   -32.2810     8.2790    77.8040     0.0570     2.4330
 3007.0000  1644.9420    31.9090    19.6330    27.1520   -32.6490     8.2800    77.1760     0.0540     2.4330
 3007.5000  1644.4690    32.5000    19.6330    27.2880   -32.4600     8.2800    76.5450     0.0500     2.4340
 3008.0000  1643.9960    33.0920    19.6340    27.4240   -32.1310     8.2810    76.3640     0.0470     2.4340
 3008.5000  1643.5229    33.6030    19.6330    27.5600   -31.7820     8.2810    76.3630     0.0430     2.4310
 3009.0000  1643.0500    33.3430    19.6620    27.6960   -31.4620     8.2810    76.6070     0.0390     2.4280
 3009.5000  1642.5770    32.9910    19.7000    27.9190   -31.1230     8.2820    78.1800     0.0350     2.4250
 3010.0000  1642.1040    32.6390    19.7380    27.8730   -30.7970     8.2820    79.4770     0.0340     2.4220
 3010.5000  1641.6310    32.2870    19.7770    27.7440   -30.4600     8.2830    77.6200     0.0330     2.4210
 3011.0000  1641.1580    31.7860    19.8160    27.6140   -30.3480     8.2830    76.3570     0.0430     2.4230
 3011.5000  1640.6851    32.2320    19.8550    27.4850   -30.3280     8.2840    75.2520     0.0530     2.4290
 3012.0000  1640.2120    33.0030    19.8950    27.4060   -30.2950     8.2840    73.7420     0.0560     2.4400
 3012.5000  1639.7390    33.7730    19.9320    27.4060   -30.2600     8.2850    72.3370     0.0570     2.4510
 3013.0000  1639.2660    34.2320    19.9690    27.2590   -30.2280     8.2850    74.0220     0.0540     2.4560
 3013.5000  1638.7930    33.0590    19.9990    26.8960   -30.1950     8.2860    78.4990     0.0500     2.4580
 3014.0000  1638.3199    32.1680    19.7300    26.5320   -30.1620     8.2860    83.5640     0.0460     2.4540
 3014.5000  1637.8470    31.2770    19.4010    26.1690   -30.1280     8.2860    88.0450     0.0420     2.4400
 3015.0000  1637.3740    30.3850    19.0660    25.8060   -30.0950     8.2870    90.4900     0.0380     2.4250
 3015.5000  1636.9010    29.5700    18.7350    25.4420   -30.0630     8.2870    92.3930     0.0370     2.4250
 3016.0000  1636.4280    28.7970    18.4030    25.0790   -30.0280     8.2880    93.4080     0.0350     2.4260
 3016.5000  1635.9550    27.9190    18.0720    24.7160   -29.9970     8.2880    91.0370     0.0340     2.4410
 3017.0000  1635.4821    28.2010    17.5670    24.0720   -29.9650     8.2890    89.4320     0.0380     2.4550
 3017.5000  1635.0090    28.8020    17.8380    24.1500   -30.0230     8.2890    88.3100     0.0430     2.4640
 3018.0000  1634.5360    29.4040    18.0900    24.4300   -30.0880     8.2900    87.4900     0.0490     2.4520
 3018.5000  1634.0630    30.0670    18.3430    24.7110   -30.1550     8.2900    84.6250     0.0540     2.4270
 3019.0000  1633.5900    30.4710    18.5960    24.9910   -30.2240     8.2910    80.7900     0.0510     2.4060
 3019.5000  1633.1169    31.2780    18.8490    25.2720   -30.2850     8.2910    78.2930     0.0460     2.4100
 3020.0000  1632.6440    32.0850    19.1020    25.5520   -30.3450     8.2910    76.3040     0.0410     2.4150
 3020.5000  1632.1710    32.8930    19.2720    25.8330   -30.1870     8.2920    75.4420     0.0410     2.4200
 3021.0000  1631.6980    34.2320    19.1650    26.1130   -30.0150     8.2920    75.9020     0.0390     2.4200
 3021.5000  1631.2250    33.6520    18.9630    26.4090   -29.8350     8.2930    77.9900     0.0400     2.4210
 3022.0000  1630.7520    31.9540    18.7610    26.3690   -29.6630     8.2930    82.5180     0.0400     2.4240
 3022.5000  1630.2791    29.5150    18.5590    26.3270   -29.4840     8.2940    89.0690     0.0430     2.4410
 3023.0000  1629.8060    29.7630    18.2300    26.2840   -29.3080     8.2940    92.8700     0.0560     2.4680
 3023.5000  1629.3330    30.2030    18.5710    26.2430   -29.1770     8.2950    89.2280     0.0680     2.4950
 3024.0000  1628.8600    30.6440    18.5710    26.2010   -29.2550     8.2950    83.3350     0.0670     2.4960
 3024.5000  1628.3870    31.0840    18.5710    26.1590   -29.3190     8.2960    78.1020     0.0600     2.4700
 3025.0000  1627.9139    31.7860    18.5000    26.1170   -29.3950     8.2960    76.0290     0.0530     2.4440
 3025.5000  1627.4410    31.5540    18.4280    26.0750   -29.4640     8.2960    76.5210     0.0420     2.4310
 3026.0000  1626.9680    30.9820    18.3570    26.0320   -29.5360     8.2970    77.0860     0.0310     2.4270
 3026.5000  1626.5060    30.4100    18.2850    25.9890   -29.5760     8.2970    79.6870     0.0210     2.4320
 3027.0000  1627.2800    29.8380    18.2300    25.9280   -29.6180     8.2980    82.3870     0.0210     2.4360
 3027.5000  1628.0350    29.5150    18.4960    25.9990   -29.6630     8.2990    83.3700     0.0240     2.4340
 3028.0000  1628.7910    30.6000    18.8140    26.1760   -29.7090     8.3000    83.4030     0.0270     2.4300
 3028.5000  1629.5470    32.2870    19.1330    26.3510   -29.7540     8.3020    81.3090     0.0310     2.4260
 3029.0000  1630.3030    33.9750    19.4510    26.5250   -29.8000     8.3040    78.6390     0.0300     2.4260
 3029.5000  1631.0580    35.1660    19.9290    26.6980   -29.8430     8.3060    76.1370     0.0270     2.4480
 3030.0000  1631.8140    35.7940    19.6330    26.8950   -29.8930     8.3080    75.8890     0.0260     2.4730
 3030.5000  1632.5699    36.4220    19.5930    26.6090   -29.9350     8.3090    79.5290     0.0400     2.5020
 3031.0000  1633.3260    36.8660    19.5100    26.2760   -29.9470     8.3110    81.1240     0.0520     2.5040
 3031.5000  1634.0811    36.2610    19.4280    25.9430   -29.7110     8.3130    77.7310     0.0590     2.4890
 3032.0000  1634.8370    35.0520    19.3450    25.6100   -29.4830     8.3150    74.8360     0.0570     2.4720
 3032.5000  1635.5930    33.8440    19.2720    25.4480   -29.2460     8.3170    77.3270     0.0470     2.4550
 3033.0000  1636.3480    32.6350    19.2720    25.9430   -29.0110     8.3180    84.8670     0.0360     2.4380
 3033.5000  1637.1040    31.4260    19.2720    26.6270   -28.7740     8.3180    90.4980     0.0310     2.4340
 3034.0000  1637.8600    30.6300    19.9360    27.3120   -28.5530     8.3180    92.6820     0.0250     2.4340
 3034.5000  1638.6160    34.4680    20.8350    27.9970   -28.3340     8.3180    88.0730     0.0180     2.4650
 3035.0000  1639.3710    43.1990    21.7340    28.6810   -28.7080     8.3180    81.5040     0.0200     2.5010
 3035.5000  1640.1270    55.0310    22.6330    29.3660   -28.9620     8.3180    75.6660     0.0300     2.5380
 3036.0000  1640.8831    71.8390    23.6300    30.0670   -29.1410     8.3180    72.1410     0.0410     2.5530
 3036.5000  1641.6390    66.4420    23.1760    30.0670   -29.3070     8.3180    71.0840     0.0520     2.5150
 3037.0000  1642.3940    57.1260    22.3910    30.0670   -29.4880     8.3180    71.7460     0.0440     2.4800
 3037.5000  1643.1500    47.8110    21.6070    29.5150   -29.6620     8.3180    73.0780     0.0290     2.4450
 3038.0000  1643.9060    38.4950    20.8220    28.5990   -29.8500     8.3180    75.2610     0.0280     2.4290
 3038.5000  1644.6610    34.2320    20.0380    27.4560   -29.9650     8.3180    78.1050     0.0490     2.4660
 3039.0000  1645.4170    33.2880    19.2720    26.3130   -29.7920     8.3180    81.7810     0.0630     2.4840
 3039.5000  1646.1730    32.5390    18.7830    25.1700   -29.6160     8.3180    85.4180     0.0630     2.4770
 3040.0000  1646.9290    31.7890    18.3060    24.0720   -29.4360     8.3180    89.1010     0.0460     2.4770
