~VERSION INFORMATION
 VERS.                2.0:   CWLS LOG ASCII STANDARD - VERSION 2.0
 WRAP.                 NO:   ONE LINE PER DEPTH STEP
~WELL INFORMATION
#MNEM.UNIT      DATA TYPE    INFORMATION
#----------   ------------   ------------------------------
 STRT.F          210.0000:   START DEPTH
 STOP.F         2998.0000:   STOP DEPTH
 STEP.F            0.5000:   STEP LENGTH
 NULL.          -999.2500:   NO VALUE
 COMP.    FENIX & SCISSON:   COMPANY
 WELL. FENIX & SCISSON "A" #41-28:   WELL
 FLD .          N.P.R. #3:   FIELD
 LOC .      S28 T39N R78W:   LOCATION
 CNTY.            NATRONA:   COUNTY
 STAT.            WYOMING:   STATE
 CTRY. UNITED STATES OF AMERICA:   COUNTRY
 SRVC.       SCHLUMBERGER:   SERVICE COMPANY
 DATE.        08-MAY-1977:   LOGDATE
 API .     49025103670000:   API NUMBER
~CURVE INFORMATION
#MNEM.UNIT       API CODE    CURVE DESCRIPTION
#----------   ------------   ------------------------------
 DEPT.F                  :   
 CALD.IN     45 280 60 00:   CALIPER FROM DENSITY LOG
 GRD .GAPI   45 310 01 00:   GAMMA RAY FROM DENSITY LOG
 CORR.G/C3   45 356 01 00:   DENSITY CORRECTION
 RHOB.G/C3   45 350 01 00:   BULK DENSITY
 SPR .MV     07 010 01 00:   SPONTANEOUS POTENTIAL
 LL8 .OHMM   07 220 08 00:   LATEROLOG-8 RES.
 ILM .OHMM   07 120 44 00:   INDUCTION LOG MEDIUM RESISTIVITY
 ILD .OHMM   07 120 46 00:   DEEP INDUCTION RESISTIVITY
~PARAMETER INFORMATION
#MNEM.UNIT          VALUE    DESCRIPTION
#----------   ------------   ------------------------------
 EKB .F         5012.0000:   Kelly bushing
 EGL .F         5002.0000:   Ground level
 TD  .F         3000.0000:   Total depth
 CLNT.            A2DTECH:   Client Code
 SL  . 330' FNL & 2310' FWL:   Surface Location
 DATE.        08-MAY-1977:   Date Logged [DD-MMM-YYYY]
 DD  .F              3000:   Depth driller
 DL  .F              2999:   Depth logger
 BLI .F              2993:   Bottom log interval
 TLI .F               222:   Top log interval
 CS1 .              8.625:   Casing size
 CBD1.      8.625" @ 112':   Casing driller 1
 CBL1.IN              222:   Casing logger 1
 BS1 .IN            7.875:   Bit size
 BSD1.F              3000:   Depth drilled with bit1
 DFT .                KCL:   Type fluid in hole
 DFD .                8.8:   Density
 DFV .                 32:   Viscosity
 DFPH.                8.0:   pH
 DFL .                8.8:   Fluid loss
 MSS .           FLOWLINE:   Source of sample
 RMS .OHMM          0.124:   Rm
 MST .F                80:   Rm Meas. temp.
 RMF .OHMM          0.117:   Rmf
 MFST.F                80:   Rmf Meas. temp.
 MFSS.               MEAS:   Source Rmf.
 RMB .OHMM         0.0886:   Rm. at BHT
 BHT .F               112:   BHT.
 TCS .HRS            0200:   Time Circ. stopped
 TLAB.HRS            0515:   Time logger at bottom
 MRT .F               112:   Maximum recorded temp.
 LUN .               5642:   Logging unit number
 LUL .               CSPR:   Logging unit location
 ENGI.            MARATIN:   Recorded By
 WITN.         PETTINGILL:   Witnessed by
 ORIG.      2.5" 5" PRINT:   Origin of data
 UWI .     49025103670000:   Unique Well ID
 DICO. A2D TECHNOLOGIES, INC.:   Digitizing Company
 PD  .                 GL:   Permanent Datum
 EPD .               5002:   Elevation Permanent Datum
 LMF .                 KB:   Log Measured From
 DMF .                 KB:   Drilling Measured From
 DAPD.                 10:   Feet Above Permanent Datum
~OTHER INFORMATION
~A   DEPT     CALD         GRD      CORR       RHOB        SPR        LL8        ILM        ILD   
# ...
  777.0000     8.8850   114.3954     0.1068     2.5257   -86.4825    10.8602    10.3801     8.9068
  777.5000     8.8729   115.1660     0.1099     2.5168   -86.2500    10.8611    10.3801     8.9044
  778.0000     8.8758   114.4486     0.1160     2.5124   -86.5560    10.7133    10.3801     8.9020
  778.5000     8.8630   108.8204     0.1220     2.5215   -86.5525    10.7143    10.3522     8.8995
  779.0000     8.8367   106.3172     0.1296     2.5433   -86.9393    10.7152    10.2331     8.8971
  779.5000     8.8395   106.0395     0.1349     2.5524   -87.2454    10.7161    10.0883     8.8946
  780.0000     8.8423   109.6442     0.1395     2.5293   -87.5514    10.7170    10.0883     8.8921
  780.5000     8.8451   111.0101     0.1411     2.5534   -88.1661    10.7179     9.9454     8.8897
  781.0000     8.8330   111.1855     0.1351     2.5445   -89.0066    10.7188     9.9454     8.8872
  781.5000     8.8508   110.3192     0.1276     2.5304   -89.3956    10.7198     9.9454     8.8848
  782.0000     8.8536   109.1553     0.1195     2.5447   -90.0101    10.7207     9.9454     8.8823
  782.5000     8.8565   108.4378     0.1082     2.5426   -90.2319    10.7216     9.9454     8.8799
  783.0000     8.8593   107.5716     0.1046     2.5210   -90.3138    10.7225     9.9454     8.8774
  783.5000     8.8621   106.5507     0.1084     2.5301   -90.5344    10.7234     9.9454     9.1239
  784.0000     8.8649   105.3926     0.1137     2.5384   -90.5309    10.7244     9.9778     9.1615
  784.5000     8.8521   107.3751     0.1146     2.5415   -90.5278    10.7253    10.0883     9.2456
  785.0000     8.8557   108.2738     0.1206     2.5401   -90.5247    10.8777    10.1221     9.2427
  785.5000     8.8429   108.1324     0.1155     2.5320   -90.5216    11.0349    10.2331     9.2401
  786.0000     8.8464   108.5474     0.1102     2.5336   -90.5185    11.0357    10.3801     9.2021
  786.5000     8.8492   110.0477     0.1074     2.5367   -90.2068    11.0365    10.3801     9.1083
  787.0000     8.8521   110.7671     0.1071     2.5368   -90.2037    11.0373    10.3801     9.1059
  787.5000     8.8549   109.1568     0.0922     2.5339   -90.2006    11.0381    10.3801     9.1034
  788.0000     8.8577   106.3560     0.0910     2.5033   -90.1975    11.0388    10.3801     8.9465
  788.5000     8.8605   106.8290     0.1001     2.5057   -90.1945    11.0396    10.3801     8.8226
  789.0000     8.8634   108.6413     0.1024     2.5192   -89.8827    11.0404    10.3801     8.5811
  789.5000     8.8662   109.8517     0.0965     2.5276   -89.5710    11.0412    10.1950     8.3702
  790.0000     8.8690   106.0159     0.0927     2.5015   -89.5679    11.0420    10.0502     8.3450
  790.5000     8.8569   106.9353     0.0944     2.5061   -89.5648    10.8862     9.9074     8.2509
  791.0000     8.8441   108.8964     0.0982     2.5316   -89.6554    10.8870     9.7668     8.2283
  791.5000     8.8477   110.4111     0.1042     2.5228   -89.9615    10.8878     9.6280     8.1333
  792.0000     8.8505   109.3894     0.1104     2.5086   -90.2675    10.8885     9.5290     8.0195
  792.5000     8.8533   110.4643     0.1149     2.5290   -90.5736    10.8893     9.5290     8.0173
  793.0000     8.8562   108.8540     0.1180     2.5537   -91.1882    10.8901     9.3941     8.0150
  793.5000     8.8590   109.9222     0.1143     2.5516   -92.1117    10.8909     9.4332     8.0129
  794.0000     8.8618   110.9905     0.1061     2.5375   -92.6301    10.7372     9.5290     8.0107
  794.5000     8.8646   111.7611     0.1046     2.5286   -92.6265    10.7380     9.5290     8.0085
  795.0000     8.8525   111.9299     0.1085     2.5168   -92.6234    10.7387     9.6659     8.0174
  795.5000     8.8554   110.7726     0.1168     2.5303   -92.5221    10.7395     9.6659     8.1154
  796.0000     8.8731   109.1623     0.1251     2.5499   -92.2098    10.5880     9.6659     8.1131
  796.5000     8.8760   105.9151     0.1252     2.5388   -91.8976    10.5887     9.6659     8.2237
  797.0000     8.8788   107.2810     0.1101     2.5299   -91.3765    10.5895     9.6659     8.2213
  797.5000     8.8816   110.4325     0.1051     2.5240   -91.2732    10.5903     9.6659     8.2190
  798.0000     8.8844   112.5425     0.1093     2.5407   -91.0617    10.4408     9.6659     8.2169
  798.5000     8.8873   113.0155     0.1247     2.5407   -90.9573    10.4416     9.6659     8.2146
  799.0000     8.8901   112.5956     0.1240     2.5386   -90.6450    10.4423     9.6659     8.3265
  799.5000     8.8929   110.9853     0.1159     2.5259   -90.3329    10.4431     9.6659     8.3242
  800.0000     8.8958   109.9250     0.1069     2.5298   -90.0903    10.4687     9.7300     8.3424
  800.5000     8.8920   108.6582     0.1040     2.5358   -89.8883    10.5193     9.8263     8.3810
  801.0000     8.8796   105.5656     0.1063     2.5441   -89.6863    10.5700     9.9225     8.4196
  801.5000     8.8672   106.1965     0.1124     2.5472   -89.4877    10.6207    10.0188     8.4310
  802.0000     8.8618   107.5693     0.1095     2.5309   -89.4815    10.6713    10.1151     8.4705
  802.5000     8.8507   108.1994     0.1118     2.5279   -89.4753    10.7220    10.2113     8.5435
  803.0000     8.8538   109.5623     0.1149     2.5295   -89.4692    10.7375    10.3076     8.6599
  803.5000     8.8567   106.9047     0.1142     2.5363   -89.4630    10.5834    10.3697     8.4500
  804.0000     8.8597   105.0117     0.1127     2.5327   -89.4568    10.5259    10.2212     8.1896
  804.5000     8.8627   105.6650     0.1098     2.5148   -89.7596    10.3745    10.0751     8.1874
  805.0000     8.8657   109.4049     0.1076     2.5140   -89.7531    10.2810     9.9311     8.1851
  805.5000     8.8686   111.2178     0.1101     2.5232   -89.7469     9.8809     9.7891     8.2966
  806.0000     8.8716   112.1309     0.1171     2.5323   -89.7408     9.7078     9.7877     8.3903
  806.5000     8.8746   111.1077     0.1261     2.5436   -89.7345    10.1025    10.0694     8.6933
  807.0000     8.8776   110.5562     0.1328     2.5309   -89.4197    10.5448    10.3592     9.0592
  807.5000     8.8812   110.7366     0.1304     2.5272   -89.4136    11.0063    10.5066     9.3112
  808.0000     8.8842   110.7674     0.1251     2.5423   -89.4074    11.4196    10.6560     9.7032
  808.5000     8.8871   110.6499     0.1111     2.5499   -89.0926    11.7496    10.9625     9.7756
  809.0000     8.8901   110.9971     0.1059     2.5349   -89.0217    12.0891    11.1183    10.0466
  809.5000     8.8931   112.0615     0.1038     2.5146   -88.7716    12.2621    11.2763    10.1835
  810.0000     8.8961   112.6786     0.1057     2.5075   -88.6934    12.4375    11.6009    10.1806
  810.5000     8.8990   112.0729     0.1145     2.5162   -88.1420    12.5365    11.7658    10.1778
  811.0000     8.9020   106.7338     0.1104     2.5310   -87.8271    12.7150    11.9330    10.1750
  811.5000     8.9050   106.6705     0.1046     2.5361   -87.8210    12.7132    11.9313    10.1722
  812.0000     8.8923   109.1069     0.1050     2.5263   -87.8148    12.7114    12.1011    10.1694
  812.5000     8.8960   109.7098     0.1089     2.5161   -87.8987    12.8924    12.0992    10.1666
  813.0000     8.8990   107.6063     0.1150     2.5247   -88.2047    12.8905    12.0975    10.1638
  813.5000     8.9020   105.8899     0.1172     2.5283   -88.8195    12.8887    12.2697    10.1610
  814.0000     8.9049   105.1626     0.1140     2.5276   -89.3343    12.8869    12.2677    10.1582
  814.5000     8.8923   104.6257     0.1057     2.5217   -89.7401    12.8850    12.0923    10.1554
  815.0000     8.8960   104.6727     0.0994     2.5113   -90.0462    12.8832    12.0906    10.1526
  815.5000     8.8989   105.1508     0.1048     2.5159   -90.2419    12.8813    12.0889    10.0746
  816.0000     8.9019   106.3888     0.1116     2.5249   -90.2345    12.6969    11.9161    10.0078
  816.5000     8.9049   107.7603     0.0944     2.5250   -90.2284    12.4266    11.7457     9.7930
  817.0000     8.9079   108.9663     0.0938     2.5236   -90.2222    12.2478    11.7440     9.7299
