~VERSION INFORMATION
 VERS.                2.0:   CWLS LOG ASCII STANDARD - VERSION 2.0
 WRAP.                 NO:   ONE LINE PER DEPTH STEP
~WELL INFORMATION
#MNEM.UNIT      DATA TYPE    INFORMATION
#----------   ------------   ------------------------------
 STRT.F          150.0000:   START DEPTH
 STOP.F         2980.0000:   STOP DEPTH
 STEP.F            0.5000:   STEP LENGTH
 NULL.          -999.2500:   NO VALUE
 COMP. FENIX & SCISSION U.S. NAVY:   COMPANY
 WELL.   FENIX "A" #84-20:   WELL
 FLD .             NPR #3:   FIELD
 LOC .      S20 T39N R78W:   LOCATION
 CNTY.            NATRONA:   COUNTY
 STAT.            WYOMING:   STATE
 CTRY. UNITED STATES OF AMERICA:   COUNTRY
 SRVC.       SCHLUMBERGER:   SERVICE COMPANY
 DATE.        21-FEB-1977:   LOGDATE
 API .     49025103020000:   API NUMBER
~CURVE INFORMATION
#MNEM.UNIT       API CODE    CURVE DESCRIPTION
#----------   ------------   ------------------------------
 DEPT.F                  :   
 NPHI.DEC    42 890 03 00:   NEUTRON POROSITY SANDSTONE
 GRD .GAPI   45 310 01 00:   GAMMA RAY FROM DENSITY LOG
 CALD.IN     45 280 60 00:   CALIPER FROM DENSITY LOG
 RHOB.G/C3   45 350 01 00:   BULK DENSITY
 DCOR.G/C3   45 356 01 00:   DENSITY CORRECTION
 SPR .MV     07 010 01 00:   SPONTANEOUS POTENTIAL
 LLD .OHMM   11 220 10 00:   LATEROLOG DEEP
 LLS .OHMM   11 220 09 00:   LATEROLOG SHALLOW
 MSFL.OHMM   07 270 04 00:   MICRO SPHERICALLY FOCUSED RES.
~PARAMETER INFORMATION
#MNEM.UNIT          VALUE    DESCRIPTION
#----------   ------------   ------------------------------
 EKB .F         5006.0000:   Kelly bushing
 EGL .F         4996.0000:   Ground level
 EDF .F            0.0000:   Drilling floor
 TD  .F         2973.0000:   Total depth
 DATE.        21-FEB-1977:   Date logged
 CLNT.            A2DTECH:   Client Code
 SL  . 330' FEL & 2310' FNL:   Surface Location
 PD  .                 GL:   Permanent Datum
 EPD .F              4996:   Elevation Permanent Datum
 LMF .                 KB:   Log Measured From
 DMF .                 KB:   Drilling Measured From
 DAPD.F                10:   Feet Above Permanent Datum
 DD  .F              2973:   Depth driller
 DL  .F              2971:   Depth logger
 BLI .F              2970:   Bottom log interval
 TLI .F               164:   Top log interval
 CS1 .IN            8.625:   Casing size
 CBD1.      8.625" @ 167':   Casing driller 1
 CBL1.F               164:   Casing logger 1
 BS1 .IN            7.875:   Bit size
 BSD1.F              2973:   Depth drilled with bit1
 DFT .            KCL MUD:   Type fluid in hole
 DFD .                9.5:   Density
 DFV .                 35:   Viscosity
 DFPH.                6.5:   pH
 DFL .                 11:   Fluid loss
 MSS .              CIRC.:   Source of sample
 RMS .OHMM           0.27:   Rm
 MST .F                72:   Rm Meas. temp.
 RMF .OHMM           0.19:   Rmf
 MFST.F                72:   Rmf Meas. temp.
 RMC .OHMM           0.35:   Rmc
 MCST.F                72:   Rmc Meas. temp.
 MFSS.               MEAS:   Source Rmf.
 MCSS.               CALC:   Source Rmc.
 RMB .OHMM           0.18:   Rm. at BHT
 BHT .F               110:   BHT.
 TCS .HRS            0300:   Time Circ. stopped
 TLAB.HRS            1000:   Time logger at bottom
 MRT .F               110:   Maximum recorded temp.
 LUN .               7711:   Logging unit number
 LUL .               CSPR:   Logging unit location
 ENGI.             SAYLER:   Recorded By
 WITN.               JAPP:   Witnessed by
 ORIG.           5" PRINT:   Origin of data
 UWI .     49025103020000:   Unique Well ID
 DICO. A2D TECHNOLOGIES, INC.:   Digitizing Company
~OTHER INFORMATION
~A   DEPT       NPHI       GRD      CALD       RHOB       DCOR        SPR        LLD        LLS       MSFL   
# ...
 2011.5000     0.3330   123.9590    10.2270     2.5120     0.0200   -38.2190    10.0000    11.8940    15.4620
 2012.0000     0.3490   125.5530    10.2180     2.5050     0.0210   -38.3580    10.2930    12.3800    14.6320
 2012.5000     0.3680   129.4390    10.2110     2.4910     0.0290   -38.5130    10.7050    12.8650    16.9500
 2013.0000     0.3730   134.6520    10.2190     2.4580     0.0230   -38.6610    10.5610    12.6330    16.7960
 2013.5000     0.3640   139.9900    10.2270     2.4320     0.0180   -38.8050    10.3220    12.4010    16.0920
 2014.0000     0.3520   141.5070    10.2340     2.4190     0.0180   -38.9620    10.1300    12.7950    14.7200
 2014.5000     0.3560   139.1360    10.2410     2.4230     0.0150   -39.1050    10.1300    13.1890    13.3470
 2015.0000     0.3530   135.9500    10.2490     2.4290     0.0120   -39.2110    10.5860    13.3470    18.9270
 2015.5000     0.3490   134.4940    10.2560     2.4400     0.0150   -38.8770    11.3450    14.2810    17.7840
 2016.0000     0.3470   133.5530    10.2630     2.4570     0.0270   -38.5740    11.9530    14.9030    16.6410
 2016.5000     0.3470   133.9540    10.2710     2.4530     0.0260   -38.1800    11.5200    13.9650    18.5820
 2017.0000     0.3460   134.8480    10.2810     2.4540     0.0260   -38.3610    11.1590    13.1830    17.9230
 2017.5000     0.3480   135.6940    10.2910     2.4730     0.0350   -39.2620    10.7980    12.4010    17.4530
 2018.0000     0.3520   136.2710    10.3010     2.4670     0.0240   -39.7900    10.5100    12.9460    16.2770
 2018.5000     0.3460   136.1370    10.3100     2.4540     0.0270   -39.9150    11.1280    13.4920    14.6320
 2019.0000     0.3400   135.6020    10.3170     2.4660     0.0370   -39.5640    11.9530    14.3650    17.2650
 2019.5000     0.3450   135.1550    10.3250     2.4820     0.0510   -38.8970    11.7710    14.1470    17.9110
 2020.0000     0.3460   135.5100    10.3320     2.4820     0.0410   -39.1690    11.3150    13.6010    17.9110
 2020.5000     0.3470   136.2840    10.3390     2.4770     0.0290   -40.3150    10.8590    13.0560    16.2720
 2021.0000     0.3440   137.0230    10.3460     2.4710     0.0170   -40.4110    10.1300    12.4010    15.1800
 2021.5000     0.3400   134.7310    10.3530     2.4670     0.0160   -40.3480    10.2390    12.5180    16.3380
 2022.0000     0.3430   132.3050    10.3600     2.4680     0.0180   -40.2570    10.5100    12.6640    13.3470
 2022.5000     0.3470   130.9250    10.3680     2.4750     0.0180   -40.1960    10.7800    12.8110    16.9500
 2023.0000     0.3520   130.1830    10.3750     2.4750     0.0180   -40.1280    11.1060    12.9570    18.2440
 2023.5000     0.3540   130.0440    10.3820     2.4910     0.0290   -40.0520    10.7680    13.1040    15.4040
 2024.0000     0.3540   130.4030    10.3890     2.4840     0.0270   -40.2860    10.3460    12.5390    15.4720
 2024.5000     0.3490   131.2460    10.3960     2.4800     0.0280   -40.5910     9.9240    11.9740    12.8650
 2025.0000     0.3410   132.1050    10.4030     2.4870     0.0250   -40.9000     9.5870    11.5220    15.4620
 2025.5000     0.3320   131.3790    10.4130     2.4720     0.0220   -41.1990     9.9460    12.6310    14.8120
 2026.0000     0.3230   128.6990    10.4320     2.4650     0.0270   -41.5160     9.6840    11.6930    12.8650
 2026.5000     0.3170   125.7480    10.4500     2.4840     0.0250   -41.6430     9.0720    10.1300    14.6100
 2027.0000     0.3140   123.1610    10.4680     2.5050     0.0230   -41.6310     9.1230    10.5230    16.6410
 2027.5000     0.3150   121.5000    10.4860     2.5260     0.0280   -41.6330     9.2070    10.9170     9.0720
 2028.0000     0.3190   121.3630    10.5050     2.5410     0.0270   -41.6340     9.5100    11.3100    11.6260
 2028.5000     0.3260   121.6940    10.5230     2.5520     0.0420   -41.6330     9.9590    11.7030    17.5850
 2029.0000     0.3320   122.0420    10.5410     2.5470     0.0380   -41.6340    10.3180    12.1750    16.6830
 2029.5000     0.3360   122.3590    10.5530     2.5380     0.0320   -41.6330     9.7610    10.8120    15.1800
 2030.0000     0.3340   122.2660    10.5620     2.5200     0.0320   -41.6330     9.2970    10.0750    12.8650
 2030.5000     0.3320   121.5900    10.5710     2.5030     0.0280   -41.6340     8.8330     9.9830    12.7710
 2031.0000     0.3290   120.5410    10.5800     2.4950     0.0250   -41.6330     8.2760     9.7590    12.6310
 2031.5000     0.3270   119.4220    10.5920     2.4970     0.0350   -41.6340     8.2000     9.4470    11.7970
 2032.0000     0.3220   117.4500    10.6170     2.5090     0.0270   -41.6330     8.1250     9.0720    10.1300
 2032.5000     0.3210   114.9900    10.6410     2.5080     0.0280   -41.6280     8.6760     9.8880    10.5170
 2033.0000     0.3250   114.2560    10.6650     2.5000     0.0290   -41.5560     9.4120    10.7050    11.9030
 2033.5000     0.3290   115.2500    10.6890     2.4930     0.0250   -41.4920     9.2720    10.4230    13.5700
 2034.0000     0.3320   117.1430    10.7140     2.4830     0.0210   -41.4270     8.9210    10.1880    14.9030
 2034.5000     0.3370   118.9500    10.7380     2.4950     0.0230   -41.3570     8.4290     9.9530    11.7350
 2035.0000     0.3430   120.7470    10.7620     2.5070     0.0250   -41.2950     8.7540     9.7650    10.1300
 2035.5000     0.3500   122.5890    10.7860     2.5020     0.0210   -41.2500     9.2960    10.1170    11.1970
 2036.0000     0.3550   123.7990    10.8070     2.4850     0.0170   -41.3930     9.9460    10.4110    15.4620
 2036.5000     0.3500   123.4270    10.8210     2.4780     0.0170   -41.5370     9.1850    10.7050    14.5770
 2037.0000     0.3380   121.0120    10.8350     2.4730     0.0190   -41.6780     7.7370     9.1170    12.3650
 2037.5000     0.3270   118.1160    10.8490     2.4770     0.0330   -41.8010     6.2890     7.5300    10.1530
 2038.0000     0.3250   120.1010    10.8630     2.4790     0.0350   -42.0210     5.2270     5.6250     7.9410
 2038.5000     0.3210   123.2860    10.8770     2.4780     0.0340   -41.5690     6.4760     6.0620     5.7290
 2039.0000     0.3180   127.5980    10.8920     2.4720     0.0270   -41.3530     7.9160     7.8690     9.3280
 2039.5000     0.3190   133.1600    10.9060     2.4570     0.0250   -41.6590     9.3570    10.5140    14.3650
 2040.0000     0.3200   139.5630    10.9200     2.4430     0.0230   -41.9150    10.5100    12.6310    13.4500
 2040.5000     0.3190   145.8050    10.9340     2.4360     0.0180   -42.0940     9.8750    12.0590    11.9250
 2041.0000     0.3190   150.5060    10.9490     2.4290     0.0110   -42.2300     9.2410    11.5820    10.7050
 2041.5000     0.3210   156.0250    10.9640     2.4240     0.0110   -42.3580    10.5860    11.1060    16.9500
 2042.0000     0.3280   161.6160    10.9790     2.4250     0.0170   -42.4920    12.6410    13.4120    15.1800
 2042.5000     0.3350   164.0990    10.9950     2.4260     0.0240   -42.6240    14.6950    15.7190    16.7070
 2043.0000     0.3380   163.7250    11.0100     2.4320     0.0300   -42.7550    16.3380    25.8710    20.5250
 2043.5000     0.3440   163.2820    11.0250     2.4230     0.0380   -42.9250    13.5030    23.4240    25.8710
 2044.0000     0.3520   162.8780    11.0430     2.4150     0.0270   -43.1410    11.1400    17.3080    20.5020
 2044.5000     0.3420   160.8850    11.1220     2.4330     0.0440   -43.3550     7.8310     8.7450     7.9770
 2045.0000     0.3330   157.5870    11.1990     2.4450     0.0230   -43.5700     8.6940    12.1030    14.9030
 2045.5000     0.3240   152.5610    11.2930     2.4520     0.0120   -43.7840    10.1300    17.8020    20.3710
 2046.0000     0.3180   146.1170    11.3960     2.4760     0.0100   -43.9990    11.1060    13.9110    18.8140
 2046.5000     0.3310   138.2790    11.4400     2.5000     0.0270   -44.2140     6.0540     6.6370    16.2180
 2047.0000     0.3310   133.1460    11.4820     2.5160     0.0510   -44.4280     7.4110     7.2520     6.0540
 2047.5000     0.3290   131.4820    11.5240     2.5090     0.0420   -44.6430     5.9610     8.2760     6.8230
