~VERSION INFORMATION
 VERS.                2.0:   CWLS LOG ASCII STANDARD - VERSION 2.0
 WRAP.                 NO:   ONE LINE PER DEPTH STEP
~WELL INFORMATION
#MNEM.UNIT      DATA TYPE    INFORMATION
#----------   ------------   ------------------------------
 STRT.F           31.0000:   START DEPTH
 STOP.F         2926.0000:   STOP DEPTH
 STEP.F            0.5000:   STEP LENGTH
 NULL.          -999.2500:   NO VALUE
 COMP. LAWERNCE ALLISON AND ASSOCIATES:   COMPANY
 WELL.   FENIX "X" #17-21:   WELL
 FLD .             NPR #3:   FIELD
 LOC .      S21 T39N R78W:   LOCATION
 CNTY.            NATRONA:   COUNTY
 STAT.            WYOMING:   STATE
 CTRY. UNITED STATES OF AMERICA:   COUNTRY
 SRVC.      WESTERN ATLAS:   SERVICE COMPANY
 DATE.        02-NOV-1987:   LOGDATE
 API .     49025111960000:   API NUMBER
~CURVE INFORMATION
#MNEM.UNIT       API CODE    CURVE DESCRIPTION
#----------   ------------   ------------------------------
 DEPT.F                  :   
 CALD.IN     45 280 60 00:   CALIPER FROM DENSITY LOG
 TEND.LBS    45 635 01 00:   TENSION FROM DENSITY LOG
 CORR.G/C3   45 356 01 00:   DENSITY CORRECTION
 RHOB.G/C3   45 350 01 00:   BULK DENSITY
 CNC .DEC    42 890 03 00:   NEUTRON POROSITY SANDSTONE
 SPR .MV     07 010 01 00:   SPONTANEOUS POTENTIAL
 GRR .GAPI   07 310 01 00:   GAMMA RAY FROM RESISTIVITY
 TENR.LBS    07 635 01 00:   TENSION FROM RESISTIVITY
 RFOC.OHMM   07 220 04 00:   RESISTIVITY FOCUSED LOG RES.
 RILD.OHMM   07 120 46 00:   DEEP INDUCTION RESISTIVITY
 RILM.OHMM   07 120 44 00:   INDUCTION LOG MEDIUM RESISTIVITY
~PARAMETER INFORMATION
#MNEM.UNIT          VALUE    DESCRIPTION
#----------   ------------   ------------------------------
 EKB .F         5006.0000:   Kelly bushing
 EGL .F         4995.0000:   Ground level
 EDF .F            0.0000:   Drilling floor
 TD  .F         2915.0000:   Total depth
 DATE.        02-NOV-1987:   Date logged
 CLNT.            A2DTECH:   Client Code
 SL  . 1824' FSL & 399' FWL:   Surface Location
 PD  .                 GL:   Permanent Datum
 DD  .F              2911:   Depth driller
 DL  .F              2915:   Depth logger
 BLI .F              2913:   Bottom log interval
 CS1 .IN            8.625:   Casing size
 CBD1.      8.625" @ 350':   Casing driller 1
 CBL1.F               350:   Casing logger 1
 BS1 .IN            7.875:   Bit size
 DFT .        KCL-POLYMER:   Type fluid in hole
 DFD .                8.8:   Density
 DFV .                 42:   Viscosity
 DFPH.                9.5:   pH
 DFL .                 11:   Fluid loss
 MSS .           FLOWLINE:   Source of sample
 RMS .OHMM           0.41:   Rm
 MST .F                78:   Rm Meas. temp.
 RMF .OHMM           0.29:   Rmf
 MFST.F                78:   Rmf Meas. temp.
 RMC .OHMM           0.51:   Rmc
 MCST.F                78:   Rmc Meas. temp.
 MFSS.               MEAS:   Source Rmf.
 RMB .OHMM           0.29:   Rm. at BHT
 BHT .F               108:   BHT.
 TCS .HRS               5:   Time Circ. stopped
 MRT .F               108:   Maximum recorded temp.
 LUN .            HL-6274:   Logging unit number
 LUL .           GILLETTE:   Logging unit location
 WITN.             STRONG:   Witnessed by
 ORIG.           5" PRINT:   Origin of data
 UWI .     49025111960000:   Unique Well ID
 DICO. A2D TECHNOLOGIES, INC.:   Digitizing Company
 DAPD.                 11:   Feet Above Permanent Datum
 BSD1.               2911:   Depth drilled with bit1
 MCSS.               CALC:   Source Rmc.
 EPD .               4995:   Elevation Permanent Datum
 LMF .                 KB:   Log Measured From
 DMF .                 KB:   Drilling Measured From
 TLI .                 11:   Top log interval
~OTHER INFORMATION
~A   DEPT     CALD       TEND       CORR       RHOB        CNC        SPR         GRR      TENR       RFOC       RILD       RILM   
# ...
 2562.5000     8.2880   -38.6680    -0.0020     2.4820     0.2450   -28.4930   112.1710   -16.9900     8.0340     7.8570     7.9840
 2563.0000     8.2830   -44.7510    -0.0010     2.4820     0.2420   -28.5680   106.6860   -19.9600     8.1790     7.9410     8.0320
 2563.5000     8.2770   -50.8350     0.0000     2.4800     0.2390   -28.6020   104.6410   -22.9300     8.8580     8.0250     8.0800
 2564.0000     8.2720   -56.9180     0.0010     2.4760     0.2370   -28.5520   106.1470   -25.8990     9.4370     8.1090     8.1280
 2564.5000     8.2670   -63.0020     0.0010     2.4760     0.2340   -28.4910   108.3320   -26.6990     9.2690     8.1930     8.1790
 2565.0000     8.2610   -69.0850     0.0010     2.4780     0.2310   -28.4300   106.5260   -27.3730     9.1470     8.2780     8.3730
 2565.5000     8.2560   -75.1690     0.0010     2.4800     0.2280   -28.3690   103.9620   -28.0740     8.9440     8.4120     8.5760
 2566.0000     8.2570   -81.0140     0.0010     2.4800     0.2240   -28.3080   103.0390   -28.7760     9.1210     8.6140     8.7790
 2566.5000     8.2600   -81.0140     0.0010     2.4810     0.2210   -28.2460   103.0900   -29.4770     9.7790     8.8170     8.9810
 2567.0000     8.2630   -81.0140     0.0010     2.4820     0.2200   -28.1850   103.2170   -30.1780     9.9570     9.0190     9.1840
 2567.5000     8.2650   -81.0140     0.0010     2.4820     0.2210   -28.1240   102.2960   -30.8790     9.8270     9.1870     9.4370
 2568.0000     8.2680   -75.8450     0.0010     2.4840     0.2220   -28.0630   100.0710   -31.5800     9.6010     9.2690     9.5690
 2568.5000     8.2710   -65.7060     0.0010     2.4850     0.2220   -28.0010    98.9980   -32.2820     9.4370     9.5000     9.7320
 2569.0000     8.2730   -61.1330     0.0010     2.4870     0.2170   -27.9400    96.4300   -32.9830    10.5340     9.7330     9.8960
 2569.5000     8.2760   -70.8250     0.0010     2.4910     0.2110   -27.8790    94.3280   -33.6840    11.7760     9.9670    10.0600
 2570.0000     8.2790   -81.0140     0.0010     2.4950     0.2040   -27.8210    92.4410   -34.3850    13.2550    10.2010    10.2230
 2570.5000     8.2810   -61.1330     0.0070     2.4950     0.1980   -27.8480    90.7020   -35.0860    12.7090    10.4340    10.3870
 2571.0000     8.2840   -61.1330     0.0110     2.5030     0.1940   -27.9480    88.8250   -35.7870    12.0330    10.6950    10.5500
 2571.5000     8.2870   -61.1330     0.0160     2.5180     0.1990   -28.0490    89.1480   -36.4890    11.6960    10.6950    10.6950
 2572.0000     8.2900   -61.1330     0.0200     2.5200     0.2030   -28.1500    92.2850   -37.1900    10.4250    10.4880    10.3790
 2572.5000     8.2920   -59.6170     0.0140     2.5130     0.2080   -28.2510    95.6000   -37.8910     9.2860    10.3030    10.2050
 2573.0000     8.2950   -57.8980     0.0060     2.5070     0.2120   -28.3510    99.2150   -38.5920     8.6290    10.1180    10.0310
 2573.5000     8.2980   -56.1800    -0.0020     2.5000     0.2150   -28.4520   100.2570   -39.2930     8.8480     9.9320     9.8580
 2574.0000     8.3000   -54.4610    -0.0070     2.5020     0.2120   -28.5530    98.5290   -39.9950     9.6610     9.7470     9.6840
 2574.5000     8.3030   -52.7430    -0.0030     2.5100     0.2090   -28.6540    96.9340   -40.6960    10.5060     9.5620     9.5100
 2575.0000     8.3060   -51.0240     0.0000     2.5170     0.2050   -28.7550    95.9910   -41.3970    10.5060     9.3760     9.4370
 2575.5000     8.3080   -49.3060     0.0040     2.5250     0.2060   -28.8560    97.0910   -42.0980     9.9270     9.2690     8.9320
 2576.0000     8.3110   -47.5870     0.0080     2.5280     0.2120   -28.9560   101.0990   -42.7990     9.2110     8.4500     8.4760
 2576.5000     8.3140   -45.8690     0.0120     2.5310     0.2210   -29.0570   105.1610   -43.5010     8.4950     7.7510     8.0340
 2577.0000     8.3170   -44.1500     0.0160     2.5180     0.2290   -29.1580   106.7240   -44.2020     7.7510     7.4840     7.7510
 2577.5000     8.3190   -42.4320     0.0110     2.5030     0.2370   -29.2580   103.8880   -44.9030     7.7510     7.2440     7.5440
 2578.0000     8.3220   -40.7130     0.0000     2.4850     0.2400   -29.3570   102.7810   -45.6040     7.4790     7.0040     7.1840
 2578.5000     8.3250   -38.9950     0.0030     2.4810     0.2430   -29.4670   101.6340   -45.9750     7.2980     6.7640     6.8240
 2579.0000     8.3280   -37.2760     0.0130     2.4900     0.2460   -29.5520   104.5620   -45.4490     7.0210     6.5240     6.4640
 2579.5000     8.3300   -35.5580     0.0220     2.5030     0.2490   -29.6610   109.3510   -44.9230     6.7180     6.0350     6.3670
 2580.0000     8.3330   -33.8390     0.0270     2.5140     0.2520   -29.8350   113.9100   -44.3970     6.4250     5.7430     6.0480
 2580.5000     8.3200   -32.1210     0.0220     2.5130     0.2510   -30.1990   119.2020   -43.8710     5.9160     5.4400     5.7160
 2581.0000     8.3030   -30.4020     0.0170     2.5090     0.2490   -30.3010   128.3530   -43.3450     5.4070     5.1370     5.3840
 2581.5000     8.2860   -28.6840     0.0180     2.5060     0.2480   -30.5230   134.2580   -42.8200     4.9570     4.8690     5.0520
 2582.0000     8.2700   -26.9650     0.0220     2.5010     0.2470   -30.7220   132.5830   -42.2940     5.1780     4.6340     4.7210
 2582.5000     8.2550   -25.2470     0.0240     2.4890     0.2560   -30.9190   130.4030   -41.7680     5.2770     4.3740     4.3740
 2583.0000     8.2530   -23.5280     0.0160     2.4760     0.2690   -30.9320   130.5490   -41.2420     4.8290     3.9400     3.9930
 2583.5000     8.2510   -21.8100     0.0090     2.4600     0.2820   -30.9430   132.7860   -40.7160     4.3320     3.5760     3.6170
 2584.0000     8.2500   -21.3720     0.0000     2.4400     0.2970   -30.8730   142.1450   -40.1900     3.8360     3.2130     3.2410
 2584.5000     8.2480   -22.3330     0.0010     2.4140     0.3090   -30.7590   155.7640   -39.6640     3.3390     2.8490     2.8660
 2585.0000     8.2460   -24.0230     0.0110     2.3890     0.3210   -30.6510   167.8890   -39.1380     2.7470     2.4850     2.4900
 2585.5000     8.2440   -25.7120     0.0200     2.3730     0.3290   -30.5430   180.7840   -38.6120     2.6640     2.1220     2.1140
 2586.0000     8.2420   -27.4020     0.0200     2.3570     0.3410   -30.4350   194.7620   -38.0870     2.4660     1.7580     1.6950
 2586.5000     8.2410   -29.0920     0.0190     2.3430     0.3620   -30.3270   214.0320   -37.5610     2.2690     1.3940     1.6430
 2587.0000     8.2390   -30.7820     0.0240     2.3150     0.3760   -30.2190   221.0130   -37.0350     1.9910     1.2960     1.5840
 2587.5000     8.2370   -32.4720     0.0310     2.2980     0.3780   -30.1140   224.1410   -36.5090     2.0270     1.2410     1.5260
 2588.0000     8.2350   -34.1620     0.0290     2.3150     0.3760   -30.0000   202.6670   -35.9830     2.7950     1.1840     1.4690
 2588.5000     8.2340   -35.8520     0.0240     2.3310     0.3580   -29.8950   180.8500   -35.4570     3.7450     1.1640     1.4220
 2589.0000     8.2320   -37.5410     0.0210     2.3440     0.3490   -29.7930   183.7920   -34.9310     4.3740     1.1640     1.4390
 2589.5000     8.2300   -39.2310     0.0380     2.3360     0.3520   -29.5640   191.6810   -34.4050     3.9350     1.2070     1.4690
 2590.0000     8.2280   -40.9210     0.0590     2.3100     0.3550   -29.0390   199.9270   -33.8790     2.4240     1.4340     1.8110
 2590.5000     8.2270   -42.6110     0.0780     2.2990     0.2990   -28.5430   189.1380   -33.3540     2.6010     1.6700     2.1660
 2591.0000     8.2250   -44.3010     0.0540     2.3420     0.2990   -28.0290   165.2720   -32.8280     2.9510     1.9070     2.5210
 2591.5000     8.2230   -45.9910     0.0300     2.3850     0.2830   -27.8080   141.7780   -32.3020     6.4260     2.1430     2.8760
 2592.0000     8.2210   -47.6810     0.0030     2.4290     0.2630   -28.2170   119.1720   -31.7760    10.5060     2.3390     3.2320
 2592.5000     8.2200   -49.3700     0.0090     2.4670     0.2610   -28.7270   105.2880   -31.2500     9.0020     2.8870     3.5870
