~VERSION INFORMATION
 VERS.                2.0:   CWLS LOG ASCII STANDARD - VERSION 2.0
 WRAP.                 NO:   ONE LINE PER DEPTH STEP
~WELL INFORMATION
#MNEM.UNIT      DATA TYPE    INFORMATION
#----------   ------------   ------------------------------
 STRT.F          444.0000:   START DEPTH
 STOP.F         3018.0000:   STOP DEPTH
 STEP.F            0.5000:   STEP LENGTH
 NULL.          -999.2500:   NO VALUE
 COMP.    FENIX & SCISSON:   COMPANY
 WELL.  FENIX "AX" #25-28:   WELL
 FLD .             TEAPOT:   FIELD
 LOC .      S28 T39N R78W:   LOCATION
 CNTY.            NATRONA:   COUNTY
 STAT.            WYOMING:   STATE
 CTRY. UNITED STATES OF AMERICA:   COUNTRY
 SRVC.              WELEX:   SERVICE COMPANY
 DATE.        01-DEC-1979:   LOGDATE
 API .     49025107940000:   API NUMBER
~CURVE INFORMATION
#MNEM.UNIT       API CODE    CURVE DESCRIPTION
#----------   ------------   ------------------------------
 DEPT.F                  :   
 SPR .MV     07 010 01 00:   SPONTANEOUS POTENTIAL
 RILM.OHMM   07 120 44 00:   INDUCTION LOG MEDIUM RESISTIVITY
 RILD.OHMM   07 120 46 00:   DEEP INDUCTION RESISTIVITY
 SGRD.OHMM   07 220 05 00:   SHALLOW GUARD LOG RESISTIVITY
 TENR.LBS    07 635 01 00:   TENSION FROM RESISTIVITY
 NPHI.DEC    42 890 03 00:   NEUTRON POROSITY SANDSTONE
 GRD .GAPI   45 310 01 00:   GAMMA RAY FROM DENSITY LOG
 CALD.IN     45 280 60 00:   CALIPER FROM DENSITY LOG
 RHOB.G/C3   45 350 01 00:   BULK DENSITY
 DCOR.G/C3   45 356 01 00:   DENSITY CORRECTION
 TEND.LBS    45 635 01 00:   TENSION FROM DENSITY LOG
~PARAMETER INFORMATION
#MNEM.UNIT          VALUE    DESCRIPTION
#----------   ------------   ------------------------------
 EKB .F         5092.0000:   Kelly bushing
 EGL .F         5082.0000:   Ground level
 EDF .F            0.0000:   Drilling floor
 TD  .F         3013.5000:   Total depth
 DATE.        01-DEC-1979:   Date logged
 CLNT.            A2DTECH:   Client Code
 SL  . 2267' FSL & 1070' FWL:   Surface Location
 PD  .                 GL:   Permanent Datum
 EPD .F              5082:   Elevation Permanent Datum
 LMF .                 KB:   Log Measured From
 DMF .                 KB:   Drilling Measured From
 DAPD.F                10:   Feet Above Permanent Datum
 DD  .F              3000:   Depth driller
 DL  .F            3013.5:   Depth logger
 BLI .F              3013:   Bottom log interval
 TLI .F               350:   Top log interval
 CS1 .IN            8.625:   Casing size
 CBD1.      8.625" @ 465':   Casing driller 1
 CBL1.F               462:   Casing logger 1
 BS1 .IN            7.875:   Bit size
 BSD1.F              3000:   Depth drilled with bit1
 DFT .           CHEM GEL:   Type fluid in hole
 DFD .                8.8:   Density
 DFV .                 55:   Viscosity
 DFPH.                  9:   pH
 DFL .                6.4:   Fluid loss
 MSS .           FLOWLINE:   Source of sample
 RMS .OHMM           1.53:   Rm
 MST .F                75:   Rm Meas. temp.
 RMF .OHMM           1.24:   Rmf
 MFST.F                75:   Rmf Meas. temp.
 RMC .OHMM           1.83:   Rmc
 MCST.F                75:   Rmc Meas. temp.
 MFSS.               MEAS:   Source Rmf.
 MCSS.               MEAS:   Source Rmc.
 RMB .OHMM           1.09:   Rm. at BHT
 BHT .F               105:   BHT.
 TCS .HRS             2.5:   Time Circ. stopped
 MRT .F               105:   Maximum recorded temp.
 LUN .                965:   Logging unit number
 LUL .             CASPER:   Logging unit location
 ENGI.            BENTSEN:   Recorded By
 WITN.           P. AMEND:   Witnessed by
 ORIG.           5" PRINT:   Origin of data
 UWI .     49025107940000:   Unique Well ID
 DICO. A2D TECHNOLOGIES, INC.:   Digitizing Company
~OTHER INFORMATION
~A   DEPT      SPR       RILM       RILD       SGRD       TENR       NPHI         GRD      CALD       RHOB       DCOR       TEND   
# ...
 2792.5000   -34.3170     4.4220     4.2210     5.8120  1186.6130     0.2860    94.6960     7.8690     2.5220    -0.0010  1673.6970
 2793.0000   -34.3660     4.4680     4.2700     5.9400  1187.1080     0.2830    91.5930     7.8680     2.5170    -0.0050  1664.4520
 2793.5000   -34.3960     4.5270     4.3390     6.0420  1187.7600     0.2780    89.1870     7.8660     2.5000    -0.0170  1655.2061
 2794.0000   -34.4230     4.6490     4.4450     6.1440  1188.4120     0.2760    90.1920     7.8650     2.4890    -0.0300  1645.9611
 2794.5000   -34.4490     4.7710     4.5500     6.2510  1189.0640     0.2700    89.1670     7.8640     2.5050    -0.0200  1636.7159
 2795.0000   -34.4750     4.8930     4.6560     6.4520  1189.7159     0.2680    89.3060     7.8620     2.5210    -0.0090  1634.6510
 2795.5000   -34.5020     4.9910     4.7680     6.7970  1190.3680     0.2640    86.5320     7.8610     2.5380    -0.0010  1647.8000
 2796.0000   -34.5280     5.0900     4.6360     7.2570  1191.0200     0.2650    81.8520     7.8600     2.5450     0.0010  1660.9490
 2796.5000   -34.5540     5.0790     4.7650     7.7490  1191.6720     0.2690    79.5600     7.8580     2.5400    -0.0120  1671.7480
 2797.0000   -34.5640     5.0640     4.8580     6.8450  1192.3240     0.2710    78.4870     7.8570     2.5350    -0.0250  1677.4310
 2797.5000   -34.4750     5.0430     4.7680     6.1930  1192.9760     0.2730    82.8620     7.8560     2.5300    -0.0300  1683.1140
 2798.0000   -34.3860     5.0650     4.7950     6.1350  1193.6281     0.2750    87.7720     7.8540     2.5250    -0.0240  1688.7960
 2798.5000   -34.2980     5.1080     4.8190     6.4890  1194.2800     0.2750    91.7030     7.8530     2.5120    -0.0310  1694.4790
 2799.0000   -34.2090     5.1380     4.8430     6.3100  1194.9320     0.2750    92.6830     7.8520     2.5030    -0.0350  1700.1610
 2799.5000   -34.1210     5.1270     4.8670     6.5500  1195.5840     0.2740    90.6400     7.8500     2.5190    -0.0200  1705.8440
 2800.0000   -34.0330     5.1180     4.8910     6.7360  1196.2360     0.2740    89.9930     7.8490     2.5350    -0.0020  1711.5270
 2800.5000   -33.9800     5.1100     4.9150     6.6740  1196.8879     0.2760    91.4360     7.8480     2.5490     0.0080  1717.2090
 2801.0000   -34.0170     5.1020     4.9490     6.6110  1197.5400     0.2790    93.5330     7.8460     2.5580     0.0120  1722.8920
 2801.5000   -34.0510     5.0930     4.8810     6.5560  1198.1930     0.2800    95.1420     7.8450     2.5490    -0.0020  1728.5740
 2802.0000   -34.0860     5.0550     4.7410     6.2120  1198.8450     0.2860    96.4410     7.8440     2.5390    -0.0040  1725.9200
 2802.5000   -34.1200     4.9960     4.6020     5.8690  1199.4969     0.2900    95.5660     7.8430     2.5480     0.0040  1722.1420
 2803.0000   -34.1540     4.7850     4.4630     5.5360  1200.1490     0.2910    94.0600     7.8410     2.5530     0.0130  1718.3640
 2803.5000   -34.1960     4.5770     4.3240     5.3830  1200.8010     0.2910    92.9340     7.8400     2.5370    -0.0030  1714.5870
 2804.0000   -34.2480     4.4130     4.2230     5.3830  1201.4530     0.2890    93.8160     7.8390     2.5130    -0.0210  1710.8090
 2804.5000   -34.2990     4.3720     4.1840     5.3830  1202.1050     0.2840    92.2570     7.8370     2.5040    -0.0250  1707.0310
 2805.0000   -34.3510     4.3300     4.1440     5.4340  1202.7570     0.2750    92.8680     7.8360     2.5010    -0.0230  1703.2531
 2805.5000   -34.3890     4.2890     4.1320     5.5360  1203.4091     0.2680    94.1080     7.8350     2.4850    -0.0340  1699.4760
 2806.0000   -34.4150     4.2680     4.1190     5.5360  1204.0610     0.2620    91.7020     7.8330     2.4820    -0.0440  1695.6980
 2806.5000   -34.4420     4.3380     4.1060     5.5360  1204.7130     0.2600    91.7360     7.8320     2.4850    -0.0400  1691.9200
 2807.0000   -34.4680     4.4060     4.1650     5.5360  1205.3650     0.2550    93.6860     7.8310     2.5030    -0.0280  1691.5500
 2807.5000   -34.4950     4.5190     4.2230     5.8150  1206.0170     0.2470    94.0510     7.8300     2.5230    -0.0100  1695.9160
 2808.0000   -34.5210     4.6320     4.3950     6.1590  1206.6689     0.2390    91.7710     7.8280     2.5340    -0.0060  1700.2810
 2808.5000   -34.5480     4.7450     4.5500     6.5020  1207.3210     0.2380    88.6060     7.8320     2.5310    -0.0090  1704.6460
 2809.0000   -34.5730     4.8580     4.6430     6.7360  1207.9730     0.2390    89.3070     7.8360     2.5390    -0.0100  1709.0120
 2809.5000   -34.5140     4.9700     4.7230     6.7990  1208.6260     0.2430    87.1710     7.8410     2.5470    -0.0070  1713.3770
 2810.0000   -34.4430     5.0900     4.7780     6.6740  1209.2780     0.2470    87.5810     7.8460     2.5440    -0.0060  1717.7430
 2810.5000   -34.3730     5.0670     4.8120     6.3030  1209.9301     0.2520    87.2790     7.8510     2.5340    -0.0100  1722.1080
 2811.0000   -34.3030     5.0180     4.6990     5.8840  1210.5820     0.2570    88.1600     7.8550     2.5310    -0.0080  1726.4730
 2811.5000   -34.2330     4.8830     4.5160     5.5180  1211.2340     0.2610    89.8350     7.8600     2.5270    -0.0060  1726.7820
 2812.0000   -34.1620     4.5920     4.3330     5.1520  1211.8860     0.2620    92.3340     7.8650     2.5230     0.0050  1720.0081
 2812.5000   -34.0920     4.2650     4.0150     4.6890  1212.5380     0.2650    94.9920     7.8690     2.5050     0.0100  1713.2340
 2813.0000   -34.0200     3.9370     3.6690     4.2070  1213.1899     0.2640    99.2030     7.8740     2.4860     0.0000  1706.4600
 2813.5000   -33.9810     3.6090     3.3230     3.7250  1213.8420     0.2640   103.6350     7.8790     2.4780     0.0120  1699.6870
 2814.0000   -34.2200     3.2820     3.0170     3.2430  1214.4940     0.2670   107.7760     7.8830     2.4770     0.0270  1692.9130
 2814.5000   -34.4490     3.0740     2.9610     2.7990  1215.1460     0.2640   111.3460     7.8880     2.4670     0.0340  1686.1390
 2815.0000   -34.6790     3.0240     2.9610     2.8520  1215.7980     0.2590   112.2500     7.8930     2.4570     0.0410  1679.3650
 2815.5000   -34.6570     3.1290     2.9890     4.0570  1216.4500     0.2490   105.8510     7.8970     2.4520     0.0490  1672.5909
 2816.0000   -34.4540     3.3780     3.0450     5.7060  1217.1021     0.2380    99.5560     7.9020     2.4550     0.0410  1665.8170
 2816.5000   -34.2490     3.6530     3.2640     6.1500  1217.7540     0.2280    90.3440     7.9070     2.4740    -0.0050  1659.0430
 2817.0000   -34.0430     3.9280     3.5820     6.1750  1218.4060     0.2210    86.5970     7.9020     2.5170     0.0030  1652.2690
 2817.5000   -33.8300     4.2030     3.9000     6.2240  1219.0580     0.2190    84.6040     7.8960     2.5660     0.0100  1654.4590
 2818.0000   -33.7580     4.4790     4.2190     6.3430  1219.7111     0.2180    81.7820     7.8900     2.5540    -0.0010  1660.5980
 2818.5000   -33.7350     4.7530     4.5370     6.4620  1220.3630     0.2160    81.3630     7.8880     2.5350    -0.0170  1666.7371
 2819.0000   -33.7140     5.0180     4.8120     6.6110  1221.0150     0.2180    81.9240     7.8890     2.5200    -0.0320  1672.8750
 2819.5000   -33.6940     5.1830     4.9960     6.4370  1221.6670     0.2190    82.2840     7.8910     2.5160    -0.0320  1679.0140
 2820.0000   -33.6730     5.2840     4.9960     6.2010  1222.3190     0.2240    80.8970     7.8920     2.5300    -0.0080  1685.1530
 2820.5000   -33.6520     5.2310     4.9270     5.9660  1222.9709     0.2280    82.8580     7.8930     2.5430    -0.0130  1691.2920
 2821.0000   -33.6320     5.1640     4.8400     5.8010  1223.6230     0.2300    85.4140     7.8940     2.5450    -0.0050  1697.4310
 2821.5000   -33.6110     5.0970     4.7540     5.7470  1224.2750     0.2300    88.0630     7.8960     2.5510    -0.0060  1703.5699
 2822.0000   -33.5900     4.9960     4.7230     5.7470  1224.9270     0.2290    90.6230     7.8970     2.5590     0.0030  1709.4860
 2822.5000   -33.5690     5.0060     4.7230     5.8010  1225.5790     0.2320    90.6060     7.8980     2.5550    -0.0040  1704.1290
