~VERSION INFORMATION
 VERS.                2.0:   CWLS LOG ASCII STANDARD - VERSION 2.0
 WRAP.                 NO:   ONE LINE PER DEPTH STEP
~WELL INFORMATION
#MNEM.UNIT      DATA TYPE    INFORMATION
#----------   ------------   ------------------------------
 STRT.F          208.0000:   START DEPTH
 STOP.F         2950.0000:   STOP DEPTH
 STEP.F            0.5000:   STEP LENGTH
 NULL.          -999.2500:   NO VALUE
 COMP.    FENIX & SCISSON:   COMPANY
 WELL.     FENIX A #56-28:   WELL
 FLD .                NPR:   FIELD
 LOC .      S28 T39N R78W:   LOCATION
 CNTY.            NATRONA:   COUNTY
 STAT.            WYOMING:   STATE
 CTRY. UNITED STATES OF AMERICA:   COUNTRY
 SRVC.              WELEX:   SERVICE COMPANY
 DATE.        20-AUG-1977:   LOGDATE
 API .     49025104140000:   API NUMBER
~CURVE INFORMATION
#MNEM.UNIT       API CODE    CURVE DESCRIPTION
#----------   ------------   ------------------------------
 DEPT.F                  :   
 SPR .MV     07 010 01 00:   SPONTANEOUS POTENTIAL
 RILM.OHMM   07 120 44 00:   INDUCTION LOG MEDIUM RESISTIVITY
 RILD.OHMM   07 120 46 00:   INDUCTION LOG DEEP RESISTIVITY
 SGRD.OHMM   07 220 05 00:   SHALLOW GUARD LOG RESISTIVITY
 CALD.IN     45 280 60 00:   CALIPER FROM DENSITY LOG
 DCOR.G/C3   45 356 01 00:   DENSITY CORRECTION
 GRD .GAPI   45 310 01 00:   GAMMA RAY FROM DENSITY LOG
 RHOB.G/C3   45 350 01 00:   BULK DENSITY
~PARAMETER INFORMATION
#MNEM.UNIT          VALUE    DESCRIPTION
#----------   ------------   ------------------------------
 EKB .F         5088.0000:   Kelly bushing
 EGL .F         5078.0000:   Ground level
 EDF .F            0.0000:   Drilling floor
 EPD .F         5078.0000:   Permanent datum
 TD  .F         2960.0000:   Total depth
 DATE.        20-AUG-1977:   Date logged
 CLNT.            A2DTECH:   Client Code
 SL  . 1650' FSL & 2310' FEL:   Surface Location
 PD  .                 GL:   Permanent Datum
 LMF .                 KB:   Log Measured From
 DMF .                 KB:   Drilling Measured From
 DAPD.F                10:   Feet Above Permanent Datum
 DD  .F              2960:   Depth driller
 DL  .F              2952:   Depth logger
 BLI .F              2950:   Bottom log interval
 TLI .F               210:   Top log interval
 CS1 .IN            8.625:   Casing size
 CBD1.      8.625" @ 215':   Casing driller 1
 CBL1.F               218:   Casing logger 1
 BS1 .IN            7.875:   Bit size
 BSD1.F              2960:   Depth drilled with bit1
 DFT .            KCL MUD:   Type fluid in hole
 DFD .                8.9:   Density
 DFV .                 60:   Viscosity
 DFPH.                 11:   pH
 DFL .                7.2:   Fluid loss
 MSS .           FLOWLINE:   Source of sample
 RMS .OHMM            .78:   Rm
 MST .F                81:   Rm Meas. temp.
 RMF .OHMM            .46:   Rmf
 MFST.F                81:   Rmf Meas. temp.
 RMC .OHMM           1.66:   Rmc
 MCST.F                81:   Rmc Meas. temp.
 MFSS.               CALC:   Source Rmf.
 MCSS.               CALC:   Source Rmc.
 RMB .OHMM            .56:   Rm. at BHT
 BHT .F               112:   BHT.
 TCS .HRS             2.5:   Time Circ. stopped
 MRT .F               112:   Maximum recorded temp.
 LUN .               8611:   Logging unit number
 LUL .             CASPER:   Logging unit location
 ENGI.             C DOAK:   Recorded By
 WITN.       B HARRINGTON:   Witnessed by
 ORIG.           5" PRINT:   Origin of data
 UWI .     49025104140000:   Unique Well ID
 DICO. A2D TECHNOLOGIES, INC.:   Digitizing Company
~OTHER INFORMATION
~A   DEPT      SPR       RILM       RILD       SGRD         CALD     DCOR        GRD       RHOB   
# ...
  734.5000   -75.1430     8.7960     7.9660    11.5040     9.8970     0.0090   120.5190     2.4770
  735.0000   -75.1580     8.8140     7.9930    11.4280     9.9020     0.0040   121.2680     2.4680
  735.5000   -75.0850     8.7230     8.0190    11.3530     9.9070    -0.0010   121.9550     2.4620
  736.0000   -75.0120     8.6410     8.0430    11.2860     9.9130    -0.0010   122.1840     2.4680
  736.5000   -74.9390     8.5590     7.9840    11.7060     9.9180     0.0030   122.2130     2.4750
  737.0000   -74.8650     8.4770     7.9180    11.5410     9.9230     0.0070   121.7030     2.4760
  737.5000   -74.7920     8.4190     7.8520    11.2110     9.9270     0.0040   121.2100     2.4700
  738.0000   -74.7190     8.5750     7.7870    10.9800     9.9250     0.0010   120.7070     2.4640
  738.5000   -74.6450     8.5410     7.7210    11.0300     9.9230     0.0000   120.4000     2.4600
  739.0000   -74.6600     8.4720     7.6550    11.0810     9.9210     0.0010   120.1560     2.4630
  739.5000   -74.7630     8.4040     7.5890    10.9810     9.9190     0.0020   120.0680     2.4660
  740.0000   -74.8660     8.3350     7.5430    10.8390     9.9160     0.0030   120.4220     2.4690
  740.5000   -74.9740     8.2670     7.5430    10.6820     9.9140     0.0040   120.7620     2.4720
  741.0000   -74.9220     8.1910     7.5430    10.6820     9.9120     0.0050   121.1010     2.4740
  741.5000   -74.8150     8.2220     7.5430    10.6820     9.9100     0.0060   121.4360     2.4690
  742.0000   -74.7060     8.2560     7.5430    10.5600     9.9080     0.0070   121.7710     2.4650
  742.5000   -74.5970     8.3630     7.6340    10.1110     9.9060     0.0080   121.3830     2.4660
  743.0000   -74.4890     8.5000     7.7170    10.5580     9.9040     0.0090   120.2100     2.4700
  743.5000   -74.4220     8.6370     7.8000    11.0540     9.9020     0.0100   118.5510     2.4730
  744.0000   -74.4670     8.7860     7.9310    11.6000     9.9000     0.0110   116.7550     2.4770
  744.5000   -74.5100     8.9620     8.0840    11.6000     9.8980     0.0120   115.4640     2.4800
  745.0000   -74.5520     9.1370     8.2360    11.7640     9.8960     0.0140   115.1260     2.4830
  745.5000   -74.5950     9.3130     8.3860    12.0910     9.8930     0.0180   114.9220     2.4910
  746.0000   -74.6380     9.4890     8.5280    12.3610     9.8910     0.0210   114.4250     2.5000
  746.5000   -74.6800     9.6640     8.6710    12.5960     9.8890     0.0240   113.9040     2.5100
  747.0000   -74.7240     9.8400     8.8140    12.5960     9.8860     0.0270   114.3530     2.5190
  747.5000   -74.7690     9.9500     8.9570    12.7610     9.8820     0.0280   114.7940     2.5180
  748.0000   -74.7850    10.0220     9.1430    12.9950     9.8770     0.0250   115.2300     2.5160
  748.5000   -74.3760    10.0950     9.1300    13.0660     9.8720     0.0230   115.2740     2.5120
  749.0000   -74.0250    10.2040     9.1120    13.0660     9.8670     0.0210   114.9240     2.5090
  749.5000   -74.0700    10.1680     9.0940    13.1200     9.8630     0.0230   114.5610     2.5120
  750.0000   -74.1200    10.0950     9.0760    13.1860     9.8580     0.0240   114.5880     2.5160
  750.5000   -74.1680    10.0230     9.0590    12.9430     9.8530     0.0260   114.7430     2.5190
  751.0000   -74.2150     9.9500     8.9920    12.6720     9.8480     0.0270   114.7670     2.5150
  751.5000   -74.2630     9.9190     8.9310    12.4810     9.8440     0.0290   114.3910     2.5110
  752.0000   -74.3110     9.9070     8.8700    12.6700     9.8390     0.0270   114.0240     2.5140
  752.5000   -74.3580     9.8940     8.8140    12.9470     9.8340     0.0250   113.6600     2.5180
  753.0000   -74.4080     9.8820     8.7570    12.7980     9.8290     0.0230   112.7990     2.5080
  753.5000   -74.6820     9.8690     8.7060    12.5820     9.8290     0.0210   111.4290     2.4990
  754.0000   -74.9880     9.8570     8.6540    12.2550     9.8290     0.0190   111.0710     2.4900
  754.5000   -75.3090     9.8440     8.6020    12.2770     9.8290     0.0170   113.1740     2.4810
  755.0000   -75.2030     9.8040     8.5660    12.3240     9.8290     0.0150   114.7870     2.4730
  755.5000   -74.9350     9.7360     8.5460    12.3680     9.8290     0.0160   116.4110     2.4760
  756.0000   -74.6620     9.6670     8.5270    12.2670     9.8290     0.0170   117.7040     2.4810
  756.5000   -74.4230     9.6130     8.5070    12.1430     9.8290     0.0180   118.1990     2.4870
  757.0000   -74.6010     9.5460     8.4880    12.2380     9.8290     0.0190   117.2150     2.4920
  757.5000   -74.7800     9.4790     8.4690    12.3780     9.8290     0.0200   115.7320     2.4970
  758.0000   -74.8040     9.4110     8.4490    12.4810     9.8290     0.0210   114.2710     2.4880
  758.5000   -74.8040     9.3440     8.4190    12.0830     9.8290     0.0180   112.7720     2.4820
  759.0000   -74.8040     9.2760     8.4230    11.6000     9.8290     0.0150   113.4150     2.4800
  759.5000   -74.8040     9.2270     8.4310    11.7040     9.8290     0.0120   114.2390     2.4740
  760.0000   -74.8060     9.3500     8.4390    11.9300     9.8320     0.0100   114.0110     2.4670
  760.5000   -74.8520     9.4480     8.4470    12.1430     9.8370     0.0070   113.2460     2.4610
  761.0000   -74.8980     9.5470     8.4550    11.9500     9.8410     0.0040   113.9770     2.4580
  761.5000   -74.9430     9.6570     8.4630    11.8140     9.8450     0.0010   114.6840     2.4570
  762.0000   -74.9890     9.6400     8.4710    12.2320     9.8490     0.0000   114.7580     2.4630
  762.5000   -75.0340     9.6180     8.4790    12.4810     9.8530     0.0030   114.6210     2.4680
  763.0000   -75.0800     9.5960     8.4870    12.2950     9.8570     0.0070   114.4800     2.4740
  763.5000   -75.1250     9.5710     8.4950    12.1450     9.8610     0.0090   114.9630     2.4760
  764.0000   -75.1710     9.6430     8.5360    12.0320     9.8650     0.0070   115.5140     2.4780
  764.5000   -75.2470     9.7290     8.5830    12.2920     9.8690     0.0110   116.0670     2.4860
  765.0000   -75.3620     9.8140     8.6290    12.4810     9.8700     0.0150   116.6260     2.4950
  765.5000   -75.4770     9.8990     8.6760    12.1430     9.8710     0.0190   117.1930     2.5020
  766.0000   -75.5920     9.9850     8.7220    12.2250     9.8730     0.0220   116.6220     2.4990
  766.5000   -75.7070    10.0700     8.7690    12.4730     9.8740     0.0210   115.9420     2.4980
  767.0000   -75.8220    10.1560     8.8140    12.4410     9.8750     0.0200   115.2330     2.5010
  767.5000   -75.9390    10.2090     8.7900    12.3780     9.8770     0.0180   115.4400     2.5020
  768.0000   -75.9300    10.2210     8.7680    12.2680     9.8780     0.0160   115.9660     2.4970
  768.5000   -75.8530    10.2330     8.7450    12.1490     9.8800     0.0150   116.0360     2.4910
  769.0000   -75.7750    10.2460     8.7220    12.0320     9.8810     0.0170   115.6440     2.4920
  769.5000   -75.6970    10.2580     8.6990    12.1330     9.8820     0.0190   114.8420     2.4970
  770.0000   -75.6170    10.2700     8.6760    12.2320     9.8840     0.0210   113.6150     2.5010
  770.5000   -75.6340    10.2810     8.6540    12.3680     9.8850     0.0230   112.5480     2.5010
  771.0000   -75.7060    10.2980     8.6370    12.3210     9.8870     0.0250   113.9990     2.4980
  771.5000   -75.7780    10.2710     8.6200    12.1430     9.8880     0.0240   115.8720     2.4950
  772.0000   -75.8510    10.2060     8.6030    12.2150     9.8900     0.0230   116.8430     2.4920
  772.5000   -75.9230    10.1400     8.5850    12.3890     9.8910     0.0220   115.2520     2.4920
  773.0000   -75.9820    10.0750     8.5680    12.5960     9.8930     0.0200   113.8600     2.4890
  773.5000   -75.9800    10.0090     8.5510    12.3490     9.8950     0.0190   113.8680     2.4860
  774.0000   -75.9800     9.9440     8.5340    11.9450     9.8960     0.0180   115.5640     2.4830
  774.5000   -75.9800     9.8790     8.5170    12.0520     9.8980     0.0170   116.1230     2.4850
