~VERSION INFORMATION
 VERS.                2.0:   CWLS LOG ASCII STANDARD - VERSION 2.0
 WRAP.                 NO:   ONE LINE PER DEPTH STEP
~WELL INFORMATION
#MNEM.UNIT      DATA TYPE    INFORMATION
#----------   ------------   ------------------------------
 STRT.F            0.0000:   START DEPTH
 STOP.F          678.0000:   STOP DEPTH
 STEP.F            0.5000:   STEP LENGTH
 NULL.          -999.2500:   NO VALUE
 COMP.       FLUOR DANIEL:   COMPANY
 WELL. FLUOR DANIEL "X" #23-2:   WELL
 FLD .          N.P.R. #3:   FIELD
 LOC .       S2 T38N R78W:   LOCATION
 CNTY.            NATRONA:   COUNTY
 STAT.            WYOMING:   STATE
 CTRY. UNITED STATES OF AMERICA:   COUNTRY
 SRVC.      WESTERN ATLAS:   SERVICE COMPANY
 DATE.        12-AUG-1994:   LOGDATE
 API .     49025226420000:   API NUMBER
~CURVE INFORMATION
#MNEM.UNIT       API CODE    CURVE DESCRIPTION
#----------   ------------   ------------------------------
 DEPT.F                  :   
 GR  .GAPI   07 310 01 00:   GAMMA RAY
 ILD .OHMM   07 120 46 00:   DEEP INDUCTION RESISTIVITY
 ILM .OHMM   07 120 44 00:   INDUCTION LOG MEDIUM RESISTIVITY
 TENR.LBS    07 635 01 00:   TENSION FROM RESISTIVITY
~PARAMETER INFORMATION
#MNEM.UNIT          VALUE    DESCRIPTION
#----------   ------------   ------------------------------
 EKB .F         5110.0000:   Kelly bushing
 EGL .F         5100.0000:   Ground level
 EDF .F         5109.0000:   Drilling floor
 EPD .F         5100.0000:   Permanent datum
 TD  .F          677.0000:   Total depth
 CLNT.            A2DTECH:   Client Code
 SL  . 1896' FNL & 744' FWL:   Surface Location
 PD  .                 GL:   Permanent Datum
 DAPD.F                10:   Feet Above Permanent Datum
 DATE.        12-AUG-1994:   Date Logged [DD-MMM-YYYY]
 DD  .F               670:   Depth driller
 DL  .F               677:   Depth logger
 BLI .F               664:   Bottom log interval
 TLI .F                 0:   Top log interval
 CS1 .              9.625:   Casing size
 CBD1.       9.625" @ 72':   Casing driller 1
 CBL1.IN               79:   Casing logger 1
 BS1 .IN             8.75:   Bit size
 BSD1.F               670:   Depth drilled with bit1
 DFT .                AIR:   Type fluid in hole
 LUN .            HL 6530:   Logging unit number
 LUL .             CASPER:   Logging unit location
 ENGI.      PAT RASMUSSEN:   Recorded By
 WITN.        GARY STRONG:   Witnessed by
 ORIG.         2.5" PRINT:   Origin of data
 UWI .     49025226420000:   Unique Well ID
 DICO. A2D TECHNOLOGIES, INC.:   Digitizing Company
~OTHER INFORMATION
~A    DEPT       GR       ILD        ILM       TENR   
# ...
  438.0000   166.6665     4.7458     5.0023   -47.9651
  438.5000   166.9395     4.7482     4.9447   -47.6017
  439.0000   164.7232     4.9389     4.9557   -47.2384
  439.5000   155.9412     4.9414     5.0232   -46.8750
  440.0000   150.9413     5.0712     5.1601   -46.5116
  440.5000   149.3970     5.0702     5.2304   -46.1483
  441.0000   150.2413     5.0692     5.3731   -45.7849
  441.5000   152.0089     5.0681     5.4283   -45.4215
  442.0000   154.3647     4.9995     5.2663   -45.0582
  442.5000   156.8822     4.9318     5.1072   -44.6947
  443.0000   161.0118     4.9309     4.9890   -44.3314
  443.5000   164.9618     4.9299     4.9414   -43.9680
  444.0000   165.7670     4.9522     5.0292   -43.6046
  444.5000   159.4708     5.1434     5.1664   -43.2413
  445.0000   155.4996     5.2977     5.2617   -42.8780
  445.5000   150.9047     5.5003     5.5808   -57.0495
  446.0000   146.3860     5.7440     6.0194   -56.6860
  446.5000   142.5176     6.1237     6.4039   -56.3227
  447.0000   142.1471     6.4614     6.5424   -55.9593
  447.5000   142.1324     6.7029     6.6302   -55.5237
  448.0000   142.1177     6.6516     6.4168   -55.1628
  448.5000   142.1030     6.3610     6.1626   -54.8018
  449.0000   142.0883     5.9436     5.8035   -54.4408
  449.5000   142.0736     5.4795     5.4602   -54.0799
  450.0000   143.2353     5.0518     5.1740   -53.7189
  450.5000   150.0644     4.8059     4.9690   -53.3579
  451.0000   157.3941     4.6580     4.9016   -52.9970
  451.5000   162.1204     4.6571     4.8705   -52.6360
  452.0000   165.2705     4.7051     4.9069   -52.2750
  452.5000   162.5591     4.9928     5.0800   -51.9141
  453.0000   156.4646     5.3307     5.4772   -37.0182
  453.5000   151.9530     6.0557     6.0321   -36.6573
  454.0000   149.5855     6.6750     6.4493   -36.2963
  454.5000   146.6297     7.0958     6.8953   -35.9353
  455.0000   146.0269     7.2888     7.2741   -35.5744
  455.5000   146.6029     7.3871     7.4710   -35.2134
  456.0000   145.9977     7.4868     7.5712   -34.8524
  456.5000   143.6301     7.5362     7.5707   -34.4915
  457.0000   141.2626     7.5347     7.5702   -34.1305
  457.5000   139.4833     7.5332     7.6718   -48.3285
  458.0000   140.6452     7.5317     7.6712   -47.9435
  458.5000   146.5129     7.5302     7.6707   -47.5825
  459.0000   146.6353     7.5286     7.6702   -47.2215
  459.5000   144.1308     7.5271     7.6697   -46.8606
  460.0000   140.5868     7.5253     7.6692   -46.4996
  460.5000   138.8075     7.5238     7.5667   -46.1386
  461.0000   139.9693     7.5223     7.5662   -45.7777
  461.5000   142.3077     7.5211     7.5657   -45.4167
  462.0000   142.2931     7.5195     7.4646   -45.0557
  462.5000   141.6903     7.5180     7.4641   -44.6948
  463.0000   142.8521     7.5165     7.4636   -44.3314
  463.5000   144.0140     7.5516     7.5206   -43.9680
  464.0000   145.1759     7.7569     7.6230   -43.6047
  464.5000   140.9574     7.8616     7.9786   -43.2413
  465.0000   132.7158     8.0754     8.1945   -42.8779
  465.5000   129.8382     8.0497     8.0850   -42.5145
  466.0000   131.3687     7.5397     7.4605   -42.1511
  466.5000   133.7246     6.7657     6.4385   -41.7878
  467.0000   135.6942     6.0002     5.4826   -41.4244
  467.5000   138.0588     5.4022     4.9255   -41.0610
  468.0000   145.4914     5.1870     4.7313   -33.7197
  468.5000   151.6119     5.1159     4.6681   -25.7994
  469.0000   153.2646     5.0800     4.8590   -25.4361
  469.5000   152.2656     5.1477     5.2651   -25.0727
  470.0000   143.2941     5.3305     5.9388   -24.7094
  470.5000   136.7500     6.4199     6.7891   -24.3460
  471.0000   136.7353     7.8442     7.5560   -23.9825
  471.5000   136.7206     8.6521     8.4096   -23.6192
  472.0000   135.8353     9.1325     8.8716   -23.2558
  472.5000   132.5638     9.4072     9.3590   -22.8202
  473.0000   131.3824     9.4548     9.3584   -22.4593
  473.5000   133.2225     9.2781     9.4839   -22.0983
  474.0000   136.9725     9.1525     9.3572    -7.2025
  474.5000   138.7315     9.1507     9.3566    -6.8415
  475.0000   138.6275     9.2725     9.3559    -6.4805
  475.5000   136.6000     9.6517     9.7387   -20.7122
  476.0000   134.0530    10.4593    10.2737   -20.2935
  476.5000   127.7497    11.6429    11.5884   -19.9325
  477.0000   117.1469    12.9605    13.0713   -19.5716
  477.5000   102.4264    14.2348    14.3545   -19.2106
  478.0000    86.4881    15.4259    15.3515   -18.8496
  478.5000    74.6988    16.4937    16.8688   -18.4887
  479.0000    70.5961    17.6354    18.2803   -18.1277
  479.5000    69.3961    18.6046    19.5387   -17.7667
  480.0000    69.4510    19.6272    20.6162   -17.4058
  480.5000    70.0334    20.7059    21.2023   -17.0448
  481.0000    70.6725    21.2652    22.0494   -16.6838
  481.5000    72.9628    21.8396    22.6509   -16.3229
  482.0000    74.7960    22.1307    22.9202   -15.9619
  482.5000    76.9863    22.4253    22.9185   -15.6009
  483.0000    75.1136    22.7236    22.9170   -15.2400
  483.5000    73.9138    22.7190    22.9155   -14.8790
  484.0000    73.4131    22.7145    22.9716   -14.5180
  484.5000    77.4006    23.0959    23.2214   -14.1571
  485.0000    79.8545    24.0446    23.9194   -28.3430
  485.5000    78.8411    24.7928    24.5718   -27.9700
  486.0000    75.2709    25.8159    25.5821   -27.6091
  486.5000    71.7001    26.7692    25.9304   -27.2481
  487.0000    67.5410    27.1306    26.6377   -26.8871
  487.5000    65.6639    27.4966    27.0002   -26.5262
  488.0000    73.9690    28.1136    27.2554   -26.1628
  488.5000    78.3637    28.4879    27.2533   -25.7994
  489.0000    79.1495    28.4812    27.2515   -25.4361
  489.5000    78.7188    28.4754    27.3787   -25.0727
  490.0000    75.9017    28.4697    28.1256   -24.7093
  490.5000    71.1461    28.4639    28.5084   -24.3459
  491.0000    66.6236    28.8429    28.7432   -23.9825
  491.5000    64.5057    29.6219    28.9689   -23.6192
  492.0000    69.6392    28.6570    28.7390   -23.2558
  492.5000    75.9659    27.3451    27.8619   -22.8924
  493.0000    80.1550    26.6057    26.0406   -22.5291
  493.5000    81.3677    25.5343    24.1642   -22.1657
  494.0000    81.3529    24.8504    23.1917   -21.8023
  494.5000    81.3382    24.3463    23.8226   -21.4389
  495.0000    81.9117    24.6881    24.8072   -21.0756
  495.5000    82.1726    25.7022    25.6474   -20.7122
  496.0000    79.7410    26.2028    26.3469   -20.3489
  496.5000    77.7500    25.9972    26.8621   -19.9855
  497.0000    77.3960    25.2988    25.9501   -19.6221
  497.5000    77.1324    23.8370    24.7269   -19.2588
  498.0000    78.8795    22.2849    23.1790   -18.8954
  498.5000    83.5708    21.4008    21.9690   -18.5320
  499.0000    86.4974    21.1112    21.3871   -18.1686
  499.5000    88.2475    21.1070    21.1013   -17.8052
  500.0000    89.4093    21.1028    21.0999   -18.3752
  500.5000    90.5712    21.3844    21.0985   -23.6486
  501.0000    88.0172    21.3794    21.3815   -28.9220
  501.5000    83.3014    21.0901    21.9602   -34.1954
  502.0000    77.0240    20.9397    21.9587   -39.4688
  502.5000    72.2794    20.6550    21.6653   -44.6978
  503.0000    72.4549    20.5113    21.0915   -44.3314
  503.5000    76.1170    20.5058    20.8097   -29.4332
  504.0000    84.3524    20.2232    20.4913   -29.0697
  504.5000    89.2532    19.4152    19.0805   -28.7063
  505.0000    91.5886    18.3943    17.4346   -27.8597
  505.5000    93.5529    17.4271    17.1970   -13.4447
  506.0000    93.9435    16.7429    17.1913   -12.4985
  506.5000    91.7950    16.5152    16.9570     1.8169
  507.0000    90.0174    16.5106    16.9513     2.1803
  507.5000    88.6030    16.5062    16.9456     2.5436
  508.0000    88.5882    16.5018    16.9400     2.9070
  508.5000    89.5205    16.4973    16.9343     3.2704
  509.0000    90.9140    16.4929    16.7035     3.6337
  509.5000    91.4875    16.4885    16.6979     3.9971
  510.0000    91.6470    16.4841    16.6923     4.3605
  510.5000    92.9831    16.4796    16.6868     4.7238
