~VERSION INFORMATION
 VERS.                2.0:   CWLS LOG ASCII STANDARD - VERSION 2.0
 WRAP.                 NO:   ONE LINE PER DEPTH STEP
~WELL INFORMATION
#MNEM.UNIT      DATA TYPE    INFORMATION
#----------   ------------   ------------------------------
 STRT.F          210.0000:   START DEPTH
 STOP.F         2998.0000:   STOP DEPTH
 STEP.F            0.5000:   STEP LENGTH
 NULL.          -999.2500:   NO VALUE
 COMP.    FENIX & SCISSON:   COMPANY
 WELL. FENIX & SCISSON "A" #41-28:   WELL
 FLD .          N.P.R. #3:   FIELD
 LOC .      S28 T39N R78W:   LOCATION
 CNTY.            NATRONA:   COUNTY
 STAT.            WYOMING:   STATE
 CTRY. UNITED STATES OF AMERICA:   COUNTRY
 SRVC.       SCHLUMBERGER:   SERVICE COMPANY
 DATE.        08-MAY-1977:   LOGDATE
 API .     49025103670000:   API NUMBER
~CURVE INFORMATION
#MNEM.UNIT       API CODE    CURVE DESCRIPTION
#----------   ------------   ------------------------------
 DEPT.F                  :   
 CALD.IN     45 280 60 00:   CALIPER FROM DENSITY LOG
 GRD .GAPI   45 310 01 00:   GAMMA RAY FROM DENSITY LOG
 CORR.G/C3   45 356 01 00:   DENSITY CORRECTION
 RHOB.G/C3   45 350 01 00:   BULK DENSITY
 SPR .MV     07 010 01 00:   SPONTANEOUS POTENTIAL
 LL8 .OHMM   07 220 08 00:   LATEROLOG-8 RES.
 ILM .OHMM   07 120 44 00:   INDUCTION LOG MEDIUM RESISTIVITY
 ILD .OHMM   07 120 46 00:   DEEP INDUCTION RESISTIVITY
~PARAMETER INFORMATION
#MNEM.UNIT          VALUE    DESCRIPTION
#----------   ------------   ------------------------------
 EKB .F         5012.0000:   Kelly bushing
 EGL .F         5002.0000:   Ground level
 TD  .F         3000.0000:   Total depth
 CLNT.            A2DTECH:   Client Code
 SL  . 330' FNL & 2310' FWL:   Surface Location
 DATE.        08-MAY-1977:   Date Logged [DD-MMM-YYYY]
 DD  .F              3000:   Depth driller
 DL  .F              2999:   Depth logger
 BLI .F              2993:   Bottom log interval
 TLI .F               222:   Top log interval
 CS1 .              8.625:   Casing size
 CBD1.      8.625" @ 112':   Casing driller 1
 CBL1.IN              222:   Casing logger 1
 BS1 .IN            7.875:   Bit size
 BSD1.F              3000:   Depth drilled with bit1
 DFT .                KCL:   Type fluid in hole
 DFD .                8.8:   Density
 DFV .                 32:   Viscosity
 DFPH.                8.0:   pH
 DFL .                8.8:   Fluid loss
 MSS .           FLOWLINE:   Source of sample
 RMS .OHMM          0.124:   Rm
 MST .F                80:   Rm Meas. temp.
 RMF .OHMM          0.117:   Rmf
 MFST.F                80:   Rmf Meas. temp.
 MFSS.               MEAS:   Source Rmf.
 RMB .OHMM         0.0886:   Rm. at BHT
 BHT .F               112:   BHT.
 TCS .HRS            0200:   Time Circ. stopped
 TLAB.HRS            0515:   Time logger at bottom
 MRT .F               112:   Maximum recorded temp.
 LUN .               5642:   Logging unit number
 LUL .               CSPR:   Logging unit location
 ENGI.            MARATIN:   Recorded By
 WITN.         PETTINGILL:   Witnessed by
 ORIG.      2.5" 5" PRINT:   Origin of data
 UWI .     49025103670000:   Unique Well ID
 DICO. A2D TECHNOLOGIES, INC.:   Digitizing Company
 PD  .                 GL:   Permanent Datum
 EPD .               5002:   Elevation Permanent Datum
 LMF .                 KB:   Log Measured From
 DMF .                 KB:   Drilling Measured From
 DAPD.                 10:   Feet Above Permanent Datum
~OTHER INFORMATION
~A   DEPT     CALD         GRD      CORR       RHOB        SPR        LL8        ILM        ILD   
# ...
 1668.0000     8.4043   137.1803     0.1223     2.5509   -85.2757     9.4450     7.6897     7.0783
 1668.5000     8.4058   138.0868     0.1155     2.5479   -84.9738     9.4430     7.6880     7.0764
 1669.0000     8.4073   134.6754     0.1185     2.5390   -84.6636     9.4753     7.6864     7.1729
 1669.5000     8.4088   136.0371     0.1104     2.5338   -84.3534     9.6104     7.6847     7.2705
 1670.0000     8.4252   137.3947     0.1102     2.5346   -84.3313     9.7106     7.7937     7.3696
 1670.5000     8.4417   138.3052     0.1179     2.5482   -84.0416     9.8481     7.7918     7.4701
 1671.0000     8.4432   137.2783     0.1231     2.5550   -83.7046     9.9876     7.9020     7.5718
 1671.5000     8.4447   134.0159     0.1172     2.5521   -83.3915    10.1706     7.9003     7.6749
 1672.0000     8.4312   131.2007     0.1120     2.5394   -82.8025    10.4639     8.0123     7.8877
 1672.5000     8.4327   129.5776     0.1172     2.5417   -82.4923    10.6131     8.1255     7.8855
 1673.0000     8.4342   128.1037     0.1233     2.5545   -82.1430    10.8718     8.3586     7.8833
 1673.5000     8.4357   127.0768     0.1255     2.5673   -81.8296    10.8691     8.4768     7.8812
 1674.0000     8.4372   126.4929     0.1241     2.5599   -81.5617    10.6640     8.5967     7.8790
 1674.5000     8.4387   126.5133     0.1159     2.5255   -81.5602    10.3131     8.7183     7.7688
 1675.0000     8.4402   130.1064     0.1078     2.5263   -81.5587     9.9231     8.8416     7.5551
 1675.5000     8.4266   137.8723     0.1085     2.5347   -81.5571     9.5040     8.8397     7.4495
 1676.0000     8.4282   142.0615     0.1107     2.5160   -81.5555     9.4127     8.8378     7.2432
 1676.5000     8.4297   141.4817     0.1176     2.5220   -81.5540     9.4106     8.8359     7.0395
 1677.0000     8.4312   135.3878     0.1205     2.5423   -81.5525     9.4086     8.1097     6.3767
 1677.5000     8.4327   130.1880     0.1146     2.5237   -81.6178     9.4563     6.9311     5.1054
 1678.0000     8.4342   126.6276     0.1169     2.5260   -81.8582     9.6774     5.6757     3.5028
 1678.5000     8.4357   127.3890     0.1166     2.5269   -82.2381     9.6750     4.5820     2.5573
 1679.0000     8.4372   128.8957     0.1027     2.5134   -82.8571     8.7850     3.6466     2.2364
 1679.5000     8.4387   126.8256     0.1020     2.4992   -83.0882     3.7755     2.9438     2.2707
 1680.0000     8.4401   128.0341     0.1296     2.4715   -82.7780     2.9138     3.1159     2.5156
 1680.5000     8.4566   127.4544     0.1424     2.4056   -84.0438     3.5476     3.6966     3.0470
 1681.0000     8.5030   126.2784     0.1656     2.3465   -86.1264     4.3779     4.4484     3.5033
 1681.5000     8.6841   124.9535     0.1604     2.2926   -88.0779     5.0608     5.2773     4.3228
 1682.0000     8.8503   125.7150     0.1455     2.2731   -90.0597     5.6740     6.0847     5.3720
 1682.5000     8.5075   128.1158     0.1156     2.3759   -91.2988     6.4532     7.1164     6.3324
 1683.0000     8.3144   129.3243     0.1089     2.5506   -92.5380     7.2355     8.0890     7.0517
 1683.5000     8.3159   130.5329     0.1149     2.5537   -93.7772     8.2209     8.6848     7.5436
 1684.0000     8.3024   130.4002     0.1120     2.5470   -94.7079     9.1653     9.0624     7.8487
 1684.5000     8.3039   127.7340     0.1090     2.5403   -95.9470     9.7787     9.3228     7.9564
 1685.0000     8.2904   128.6445     0.1068     2.5442   -96.7644    10.1380     9.4546     8.1627
 1685.5000     8.2919   129.2569     0.1076     2.5472   -97.8080    10.4304     9.4524     8.2739
 1686.0000     8.2934   130.3165     0.1144     2.5428   -98.6194    10.5067     9.4504     8.2714
 1686.5000     8.3099   128.8425     0.1121     2.5271   -99.2381    10.5779     9.3146     8.2691
 1687.0000     8.3113   130.3491     0.1069     2.5182   -99.6059    10.6532     9.3127     8.2669
 1687.5000     8.2829   133.6441     0.1055     2.5180   -98.5467    10.8041     9.3107     8.2646
 1688.0000     8.2844   134.8527     0.1175     2.5401   -96.8643    10.8018     9.3087     8.2427
 1688.5000     8.2859   130.1001     0.1213     2.5454   -95.3101    10.7995     9.3067     7.9052
 1689.0000     8.2874   131.7557     0.1107     2.5356   -93.5855    10.7971     9.3047     7.6872
 1689.5000     8.2889   133.4114     0.1137     2.5403   -92.3430    10.7948     9.3027     7.5993
 1690.0000     8.2904   131.9374     0.1220     2.5456   -90.9568    10.7925     9.1691     7.8099
 1690.5000     8.2919   133.4490     0.1236     2.5419   -89.8585    10.7902     9.1671     7.8300
 1691.0000     8.2934   134.8068     0.1214     2.5390   -89.3838    10.7879     9.1652     7.9612
 1691.5000     8.2949   134.0506     0.1042     2.5420   -89.2237    10.7856     9.0335     8.1581
 1692.0000     8.2964   129.0422     0.1125     2.5481   -89.2222    10.7833     9.0316     8.2700
 1692.5000     8.2979   129.4113     0.1215     2.5519   -89.2207    10.8688     9.0296     8.3567
 1693.0000     8.2994   132.9896     0.1237     2.5542   -88.9105    10.9337     9.0277     8.3541
 1693.5000     8.3012   135.0850     0.1230     2.5543   -88.9090    11.0886     9.0258     8.4682
 1694.0000     8.3027   135.6453     0.1185     2.5521   -88.9074    11.1797     9.0239     8.4656
 1694.5000     8.3042   132.7123     0.1111     2.5477   -88.5972    11.4049     9.0219     8.3472
 1695.0000     8.3057   126.9846     0.0991     2.5373   -88.2870    11.4680     9.0200     8.3143
 1695.5000     8.3072   128.3522     0.0969     2.5343   -87.9768    11.0786     9.0181     8.2282
 1696.0000     8.3087   131.8393     0.1007     2.5404   -87.6666    10.6118     9.0162     8.1943
 1696.5000     8.3102   132.2987     0.1090     2.5487   -87.6651    10.4591     9.1437     8.0475
 1697.0000     8.3116   129.7855     0.1188     2.5498   -87.9722    10.3086     9.1417     7.8247
 1697.5000     8.3281   131.1432     0.1247     2.5419   -88.2793    10.3064     9.1398     7.6392
 1698.0000     8.3446   134.2891     0.1172     2.5332   -88.5861    10.1581     9.1378     7.4598
 1698.5000     8.3461   136.0938     0.1136     2.5445   -89.2019    10.3024     9.1359     7.4577
 1699.0000     8.3476   137.6621     0.1219     2.5400   -89.5093    10.2998     9.1339     7.4556
 1699.5000     8.3491   139.6992     0.1061     2.5394   -90.1247    10.2976     9.1320     7.5575
 1700.0000     8.3655   138.2252     0.1055     2.5237   -90.2774    10.2868     9.0008     7.5936
 1700.5000     8.3459   138.2456     0.1115     2.5410   -90.7397    10.2577     8.9431     7.6589
 1701.0000     8.3375   139.7522     0.1160     2.5463   -91.2020    10.2286     8.8299     7.6579
 1701.5000     8.3290   141.1098     0.1199     2.5449   -91.6574    10.1994     8.7168     7.7633
 1702.0000     8.3262   139.9704     0.1214     2.5315   -91.6543    10.1703     8.6036     7.7622
 1702.5000     8.3281   136.5365     0.1117     2.5143   -91.6512    10.1412     8.4928     7.7611
 1703.0000     8.3142   136.8539     0.1089     2.5331   -91.3395    10.1120     8.3708     7.6536
 1703.5000     8.3161   136.1281     0.1134     2.5384   -90.9845    10.0829     8.2504     7.6526
 1704.0000     8.3022   136.2964     0.1150     2.5108   -90.0491    10.0538     8.1319     7.5466
 1704.5000     8.2888   138.2532     0.1127     2.5281   -88.8611    10.0246     8.0066     7.4421
 1705.0000     8.2753   141.2532     0.1091     2.5357   -88.2098     9.9914     7.7881     7.3800
 1705.5000     8.2772   143.0609     0.1061     2.5103   -87.6203     9.9900     7.7864     7.1615
 1706.0000     8.2786   140.6957     0.1092     2.4938   -87.2715     9.9885     7.6746     6.9828
 1706.5000     8.2801   141.0131     0.1152     2.5082   -86.9568     9.9871     7.5643     6.8867
 1707.0000     8.2966   143.4170     0.1244     2.5225   -86.6420     9.9857     7.5502     6.8458
 1707.5000     8.3131   144.3256     0.1304     2.5053   -86.3735     9.2963     7.4540     6.8988
 1708.0000     8.3146   144.0469     0.1343     2.4994   -86.4197     7.3964     7.4668     6.9931
