~VERSION INFORMATION
 VERS.                2.0:   CWLS LOG ASCII STANDARD - VERSION 2.0
 WRAP.                 NO:   ONE LINE PER DEPTH STEP
~WELL INFORMATION
#MNEM.UNIT      DATA TYPE    INFORMATION
#----------   ------------   ------------------------------
 STRT.F          180.0000:   START DEPTH
 STOP.F         3044.0000:   STOP DEPTH
 STEP.F            0.5000:   STEP LENGTH
 NULL.          -999.2500:   NO VALUE
 COMP.    FENIX & SCISSON:   COMPANY
 WELL.   FENIX "A" #55-29:   WELL
 FLD .           N P R #3:   FIELD
 LOC .      S29 T39N R78W:   LOCATION
 CNTY.            NATRONA:   COUNTY
 STAT.            WYOMING:   STATE
 CTRY. UNITED STATES OF AMERICA:   COUNTRY
 SRVC.              WELEX:   SERVICE COMPANY
 DATE.        21-JUL-1977:   LOGDATE
 API .     49025104020000:   API NUMBER
~CURVE INFORMATION
#MNEM.UNIT       API CODE    CURVE DESCRIPTION
#----------   ------------   ------------------------------
 DEPT.F                  :   
 CALD.IN     45 280 60 00:   CALIPER FROM DENSITY LOG
 RHOB.G/C3   45 350 01 00:   BULK DENSITY
 CORR.G/C3   45 356 01 00:   DENSITY CORRECTION
 GRD .GAPI   45 310 01 00:   GAMMA RAY FROM DENSITY LOG
 SPR .MV     07 010 01 00:   SPONTANEOUS POTENTIAL
 ILD .OHMM   07 120 46 00:   DEEP INDUCTION RESISTIVITY
 ILM .OHMM   07 120 44 00:   INDUCTION LOG MEDIUM RESISTIVITY
 SGRD.OHMM   07 220 05 00:   SHALLOW SHORT GUARD RESISTIVITY
~PARAMETER INFORMATION
#MNEM.UNIT          VALUE    DESCRIPTION
#----------   ------------   ------------------------------
 EKB .F         4995.0000:   Kelly bushing
 EGL .F         4985.0000:   Ground level
 EDF .F            0.0000:   Drilling floor
 EPD .F         4985.0000:   Permanent datum
 TD  .F         3045.0000:   Total depth
 DATE.        21-JUL-1977:   Date logged
 CLNT.            A2DTECH:   Client Code
 SL  . 2310' FSL & 2310' FEL:   Surface Location
 PD  .                 GL:   Permanent Datum
 DD  .F              3045:   Depth driller
 DL  .F              3045:   Depth logger
 BLI .F              3043:   Bottom log interval
 CS1 .IN            8.625:   Casing size
 CBD1.      8.625" @ 230':   Casing driller 1
 CBL1.F               216:   Casing logger 1
 BS1 .IN            7.875:   Bit size
 DFT .            KCL-MUD:   Type fluid in hole
 DFD .                8.8:   Density
 DFV .                 45:   Viscosity
 DFPH.                7.5:   pH
 DFL .                8.4:   Fluid loss
 MSS .           FLOWLINE:   Source of sample
 RMS .OHMM            .45:   Rm
 MST .F                86:   Rm Meas. temp.
 RMF .OHMM            .33:   Rmf
 MFST.F                86:   Rmf Meas. temp.
 RMC .OHMM            .72:   Rmc
 MCST.F                86:   Rmc Meas. temp.
 MFSS.               MEAS:   Source Rmf.
 RMB .OHMM            .30:   Rm. at BHT
 BHT .F               127:   BHT.
 TCS .HRS             2.5:   Time Circ. stopped
 MRT .F               127:   Maximum recorded temp.
 LUN .               8611:   Logging unit number
 LUL .             CASPER:   Logging unit location
 ENGI.            C. DOAK:   Recorded By
 WITN.      W. PETTINGILL:   Witnessed by
 ORIG.           5" PRINT:   Origin of data
 UWI .     49025104020000:   Unique Well ID
 DICO. A2D TECHNOLOGIES, INC.:   Digitizing Company
 DAPD.                 10:   Feet Above Permanent Datum
 BSD1.               3045:   Depth drilled with bit1
 MCSS.               MEAS:   Source Rmc.
 LMF .                 KB:   Log Measured From
 DMF .                 KB:   Drilling Measured From
 TLI .                200:   Top log interval
~OTHER INFORMATION
~A   DEPT       CALD     RHOB       CORR         GRD       SPR        ILD        ILM       SGRD   
# ...
 2083.5000     8.2410     2.4440     0.0220    90.8040   -71.6390     8.1660     9.2540    13.7360
 2084.0000     8.2340     2.4360     0.0200    89.4800   -71.7040     8.0350     9.1060    13.9900
 2084.5000     8.2270     2.4300     0.0170    89.6070   -71.7690     7.9260     8.9310    13.0010
 2085.0000     8.2200     2.4240     0.0150    90.1850   -71.8340     7.9200     8.7130    13.4370
 2085.5000     8.2130     2.4120     0.0170    90.2930   -71.8990     7.8840     8.5290    14.2480
 2086.0000     8.2050     2.4000     0.0190    89.4490   -71.9660     7.8480     8.5770    13.0440
 2086.5000     8.2020     2.3890     0.0180    91.8080   -71.9910     7.8120     8.6180    12.0820
 2087.0000     8.1990     2.3890     0.0170    93.5320   -72.0250     7.7580     8.6600    13.7940
 2087.5000     8.1960     2.3910     0.0160    93.4150   -72.0570     7.6010     8.7660    15.0540
 2088.0000     8.1930     2.3950     0.0150    91.8230   -72.0900     7.4440     8.7660    14.1180
 2088.5000     8.1900     2.4050     0.0180    88.4110   -72.1220     7.2870     8.4350    15.7600
 2089.0000     8.1870     2.4190     0.0210    85.1120   -72.1550     7.1300     8.1690    14.2480
 2089.5000     8.1840     2.4260     0.0230    81.9010   -72.1880     6.9730     7.9040    10.3390
 2090.0000     8.1890     2.4300     0.0260    77.3740   -72.2200     6.8160     7.6840    12.4180
 2090.5000     8.1960     2.4430     0.0290    75.5160   -72.2530     6.6590     7.5030    11.0240
 2091.0000     8.2030     2.4530     0.0270    76.5790   -72.2860     6.5020     7.3220    11.7490
 2091.5000     8.2090     2.4510     0.0230    75.1610   -72.3180     6.3450     7.1000    12.6480
 2092.0000     8.2160     2.4440     0.0190    76.2430   -72.3510     6.1880     6.9080    10.5980
 2092.5000     8.2220     2.4380     0.0160    79.3640   -72.3840     6.1970     6.8500     9.2620
 2093.0000     8.2280     2.4320     0.0120    82.4720   -72.4160     6.2640     6.8890     9.2620
 2093.5000     8.2330     2.4270     0.0090    85.5560   -72.4490     6.3310     6.9710     9.2620
 2094.0000     8.2390     2.4220     0.0090    85.7990   -72.4820     6.3990     7.3950    10.0520
 2094.5000     8.2430     2.4190     0.0090    80.4610   -72.5140     6.4660     7.8530    12.8990
 2095.0000     8.2340     2.4200     0.0080    79.0820   -72.5470     6.5380     8.0720    15.7920
 2095.5000     8.2250     2.4230     0.0080    78.4930   -72.5800     6.5380     7.9660    16.4990
 2096.0000     8.2160     2.4250     0.0070    77.9440   -72.6120     6.3700     7.6320    13.9410
 2096.5000     8.2080     2.4190     0.0050    77.3570   -72.6450     6.1860     7.2980    12.6750
 2097.0000     8.1990     2.4120     0.0040    77.7810   -72.6780     6.0020     6.9640    11.8540
 2097.5000     8.1900     2.4060     0.0030    77.9870   -72.7110     5.8180     6.6300    10.7490
 2098.0000     8.1820     2.4110     0.0020    79.4740   -72.7430     5.6340     6.2970     9.1650
 2098.5000     8.1750     2.4050     0.0050    84.5930   -72.7610     5.5160     6.1320     7.3650
 2099.0000     8.1680     2.3980     0.0100    87.0280   -72.6620     5.4610     6.1320     7.9420
 2099.5000     8.1610     2.3960     0.0140    89.1550   -72.5620     5.4050     6.4020     8.8470
 2100.0000     8.1540     2.4000     0.0180    87.3440   -72.4620     5.3440     6.7020     9.7430
 2100.5000     8.1470     2.4180     0.0220    85.6200   -72.3620     5.4250     6.9710    11.6550
 2101.0000     8.1400     2.4290     0.0250    87.5720   -72.2620     5.5140     6.8360    14.3800
 2101.5000     8.1340     2.4320     0.0250    89.4350   -72.1620     5.6030     6.5620    12.5740
 2102.0000     8.1270     2.4340     0.0250    91.3170   -72.0620     5.6930     6.4790     9.1910
 2102.5000     8.1250     2.4340     0.0260    93.8620   -71.9620     5.7820     6.5380     7.9990
 2103.0000     8.1240     2.4330     0.0270    96.5900   -71.8620     5.8710     6.5870    11.1250
 2103.5000     8.1250     2.4270     0.0230    96.6230   -71.7620     5.9610     6.6420    10.7390
 2104.0000     8.1250     2.4150     0.0190    96.4730   -71.6620     6.0500     6.7150     9.9470
 2104.5000     8.1250     2.4010     0.0150    96.3360   -71.5620     6.1320     6.8310     9.6960
 2105.0000     8.1250     2.3880     0.0110    96.2010   -71.4620     6.2450     7.1810    10.1600
 2105.5000     8.1250     2.3810     0.0120    96.0610   -71.3620     6.4760     7.5630    10.8330
 2106.0000     8.1250     2.3790     0.0150    95.9320   -71.2620     6.6890     7.9450    12.2360
 2106.5000     8.1250     2.3840     0.0180    95.6800   -71.1620     6.9020     8.2220    14.9160
 2107.0000     8.1250     2.4020     0.0220    92.3080   -71.0620     6.9710     8.2220    16.9590
 2107.5000     8.1250     2.4200     0.0250    88.4580   -70.9620     6.9710     8.1230    16.1990
 2108.0000     8.1250     2.4340     0.0280    85.0320   -70.8630     6.9710     7.9750    11.9710
 2108.5000     8.1250     2.4470     0.0310    83.5240   -70.7960     6.9710     7.8890    11.4350
 2109.0000     8.1250     2.4600     0.0310    82.4010   -70.8190     6.9710     7.8340    11.6890
 2109.5000     8.1250     2.4640     0.0300    82.8690   -70.8400     6.9710     7.7820    12.4180
 2110.0000     8.1250     2.4580     0.0300    85.8830   -70.8610     6.9940     7.8560    11.7610
 2110.5000     8.1250     2.4510     0.0300    85.6080   -70.8820     7.0440     7.9410    11.0240
 2111.0000     8.1260     2.4440     0.0290    82.1380   -70.9030     7.0940     8.0270    11.5830
 2111.5000     8.1290     2.4390     0.0260    78.4590   -70.9230     7.1440     8.1130    11.7380
 2112.0000     8.1330     2.4350     0.0220    74.7720   -70.9440     7.1940     8.1990    12.6760
 2112.5000     8.1360     2.4340     0.0180    73.2660   -70.9650     7.2320     8.2970    13.6460
 2113.0000     8.1400     2.4300     0.0170    73.8140   -70.9860     7.3020     8.1910    14.3800
 2113.5000     8.1430     2.4250     0.0170    73.6080   -71.0070     7.3860     8.0720    11.6470
 2114.0000     8.1470     2.4210     0.0210    73.0620   -71.0280     7.4690     8.0720    12.8020
 2114.5000     8.1510     2.4240     0.0240    73.4720   -71.0480     7.5520     8.2220    14.2480
 2115.0000     8.1540     2.4350     0.0270    79.0360   -71.0690     7.6350     7.9990    12.9370
 2115.5000     8.1580     2.4460     0.0300    84.6160   -71.0900     7.7180     8.1550    11.1250
 2116.0000     8.1610     2.4590     0.0330    88.3960   -71.1110     7.7820     8.5010    12.0090
 2116.5000     8.1630     2.4610     0.0350    84.4600   -71.1320     7.5510     8.7660    14.7800
 2117.0000     8.1550     2.4510     0.0350    80.9470   -71.1540     7.3640     8.8470    15.4730
 2117.5000     8.1480     2.4450     0.0350    80.3980   -71.1710     7.1770     8.5800    15.0740
 2118.0000     8.1410     2.4470     0.0350    81.9200   -71.1680     6.9900     8.2580    13.3060
 2118.5000     8.1330     2.4490     0.0350    84.2890   -71.3510     6.8030     7.9370    12.0820
 2119.0000     8.1260     2.4510     0.0340    86.6640   -71.2760     6.6160     7.6150    11.6600
 2119.5000     8.1170     2.4510     0.0320    87.9350   -71.2090     6.4290     7.3650    10.7320
 2120.0000     8.1080     2.4490     0.0310    89.5770   -71.1390     6.2420     7.2500     9.8760
 2120.5000     8.0980     2.4460     0.0290    94.2320   -71.0680     6.0550     7.0360     9.8760
 2121.0000     8.0890     2.4360     0.0310    98.8100   -70.9970     6.0210     6.9710     9.5460
 2121.5000     8.0850     2.4270     0.0330    99.4250   -70.9260     6.1050     6.9710     9.0110
 2122.0000     8.0850     2.4200     0.0360    99.8640   -70.8560     6.1880     7.1660     9.0110
 2122.5000     8.0850     2.4200     0.0380   100.4630   -70.7850     6.2700     7.9260    11.9190
 2123.0000     8.0910     2.4250     0.0410   100.9920   -70.7140     6.4040     7.9260    15.4730
 2123.5000     8.1130     2.4370     0.0420   100.9760   -70.6440     6.5710     7.9260    14.6460
