~VERSION INFORMATION
 VERS.                2.0:   CWLS LOG ASCII STANDARD - VERSION 2.0
 WRAP.                 NO:   ONE LINE PER DEPTH STEP
~WELL INFORMATION
#MNEM.UNIT      DATA TYPE    INFORMATION
#----------   ------------   ------------------------------
 STRT.F          620.0000:   START DEPTH
 STOP.F         4350.5000:   STOP DEPTH
 STEP.F            0.5000:   STEP LENGTH
 NULL.          -999.2500:   NO VALUE
 COMP.    FENIX & SCISSON:   COMPANY
 WELL. FENIX NPR 3 "LX" #25-10:   WELL
 FLD .                NPR:   FIELD
 LOC .      S10 T38N R78W:   LOCATION
 CNTY.            NATRONA:   COUNTY
 STAT.            WYOMING:   STATE
 CTRY. UNITED STATES OF AMERICA:   COUNTRY
 SRVC.              WELEX:   SERVICE COMPANY
 DATE.        06-MAR-1980:   LOGDATE
 API .     49025108070000:   API NUMBER
~CURVE INFORMATION
#MNEM.UNIT       API CODE    CURVE DESCRIPTION
#----------   ------------   ------------------------------
 DEPT.F                  :   
 CALD.IN     45 280 60 00:   CALIPER FROM DENSITY LOG
 GRD .GAPI   45 310 01 00:   GAMMA RAY FROM DENSITY LOG
 RHOB.G/C3   45 350 01 00:   BULK DENSITY
 CORR.G/C3   45 356 01 00:   DENSITY CORRECTION
 NPHI.DEC    42 890 03 00:   NEUTRON POROSITY SANDSTONE
 SPR .MV     07 010 01 00:   SPONTANEOUS POTENTIAL
 ILD .OHMM   07 120 46 00:   DEEP INDUCTION RESISTIVITY
 ILM .OHMM   07 120 44 00:   INDUCTION LOG MEDIUM RESISTIVITY
 SGRD.OHMM   07 220 05 00:   SHALLOW SHORT GUARD RESISTIVITY
~PARAMETER INFORMATION
#MNEM.UNIT          VALUE    DESCRIPTION
#----------   ------------   ------------------------------
 EKB .F         5247.0000:   Kelly bushing
 EGL .F         5237.0000:   Ground level
 EDF .F            0.0000:   Drilling floor
 TD  .F         4352.0000:   Total depth
 DATE.        06-MAR-1980:   Date logged
 CLNT.            A2DTECH:   Client Code
 SL  . 1075' FWL & 2450' FSL:   Surface Location
 PD  .                 GL:   Permanent Datum
 EPD .F              5237:   Elevation Permanent Datum
 LMF .                 KB:   Log Measured From
 DMF .                 KB:   Drilling Measured From
 DAPD.F                10:   Feet Above Permanent Datum
 DD  .F              4350:   Depth driller
 DL  .F              4352:   Depth logger
 BLI .F              4350:   Bottom log interval
 TLI .F               630:   Top log interval
 CS1 .IN            8.625:   Casing size
 CBD1.      8.625" @ 600':   Casing driller 1
 CBL1.F               632:   Casing logger 1
 BS1 .IN            7.875:   Bit size
 BSD1.F              4350:   Depth drilled with bit1
 DFT .           CHEM/GEL:   Type fluid in hole
 DFD .                8.9:   Density
 DFV .                 47:   Viscosity
 DFPH.               10.3:   pH
 DFL .                 10:   Fluid loss
 MSS .           FLOWLINE:   Source of sample
 RMS .OHMM            .89:   Rm
 MST .F                90:   Rm Meas. temp.
 RMF .OHMM            .71:   Rmf
 MFST.F                90:   Rmf Meas. temp.
 RMC .OHMM           1.06:   Rmc
 MCST.F                90:   Rmc Meas. temp.
 MFSS.               MEAS:   Source Rmf.
 MCSS.               MEAS:   Source Rmc.
 RMB .OHMM            .60:   Rm. at BHT
 BHT .F               112:   BHT.
 TCS .HRS               1:   Time Circ. stopped
 MRT .F               132:   Maximum recorded temp.
 LUN .               1892:   Logging unit number
 LUL .             CASPER:   Logging unit location
 ENGI.               REIN:   Recorded By
 WITN.           DINSMORE:   Witnessed by
 ORIG.           5" PRINT:   Origin of data
 UWI .     49025108070000:   Unique Well ID
 DICO. A2D TECHNOLOGIES, INC.:   Digitizing Company
~OTHER INFORMATION
~A   DEPT     CALD        GRD       RHOB       CORR       NPHI         SPR       ILD        ILM         SGRD 
  620.0000  -999.2500  -999.2500  -999.2500  -999.2500  -999.2500    -0.8930  -999.2500  -999.2500     0.4460
  620.5000  -999.2500  -999.2500  -999.2500  -999.2500  -999.2500    -0.8930  -999.2500  -999.2500     0.4460
  621.0000  -999.2500  -999.2500  -999.2500  -999.2500  -999.2500    -0.8930  -999.2500  -999.2500     0.4460
  621.5000  -999.2500  -999.2500  -999.2500  -999.2500  -999.2500    -0.8930  -999.2500  -999.2500     0.4460
  622.0000  -999.2500  -999.2500  -999.2500  -999.2500  -999.2500    -0.8930  -999.2500  -999.2500     0.4810
  622.5000  -999.2500  -999.2500  -999.2500  -999.2500  -999.2500    -0.8930  -999.2500  -999.2500     0.5600
  623.0000  -999.2500  -999.2500  -999.2500  -999.2500  -999.2500    -0.8930  -999.2500  -999.2500     0.6870
  623.5000  -999.2500  -999.2500  -999.2500  -999.2500  -999.2500    -1.1720  -999.2500  -999.2500     0.7590
  624.0000  -999.2500  -999.2500  -999.2500  -999.2500  -999.2500    -0.0890  -999.2500  -999.2500     0.9690
  624.5000  -999.2500  -999.2500  -999.2500  -999.2500  -999.2500    -8.9420  -999.2500  -999.2500     5.1370
  625.0000  -999.2500  -999.2500  -999.2500  -999.2500  -999.2500   -18.9930  -999.2500  -999.2500     7.0750
  625.5000  -999.2500  -999.2500  -999.2500  -999.2500  -999.2500   -22.9800  -999.2500  -999.2500     8.3780
  626.0000  -999.2500  -999.2500  -999.2500  -999.2500  -999.2500   -26.5170  -999.2500  -999.2500     8.7770
  626.5000  -999.2500  -999.2500  -999.2500  -999.2500  -999.2500   -29.0140     0.6920  -999.2500     9.2120
  627.0000  -999.2500  -999.2500  -999.2500  -999.2500  -999.2500   -31.4620     0.5540  -999.2500     9.3190
  627.5000  -999.2500  -999.2500  -999.2500  -999.2500  -999.2500   -33.5760     0.4410    23.5690     9.4360
  628.0000  -999.2500  -999.2500  -999.2500  -999.2500  -999.2500   -35.0250     0.3780    22.9640     9.5520
  628.5000  -999.2500  -999.2500     2.0090  -999.2500  -999.2500   -36.1590     0.5530    22.3600     9.6690
  629.0000  -999.2500  -999.2500     2.0310  -999.2500  -999.2500   -37.4340     0.7000    21.7550     9.7860
  629.5000    11.3770    61.9990     2.0460     0.0140  -999.2500   -38.7640     0.8520    21.1500     9.9030
  630.0000    11.3770    61.5940     2.0370     0.0100     0.2310   -44.6480     3.4360    20.5450    10.0200
  630.5000    11.3770    61.1880     2.0260     0.0020     0.2310   -49.0540    11.9280    19.9410    10.1370
  631.0000    11.3770    60.7820     2.0170    -0.0060     0.2330   -52.0270    11.4350    20.0470    10.2540
  631.5000    11.3770    60.4170     2.0130    -0.0140     0.2330   -53.4930    10.3520    19.0340    10.3700
  632.0000    11.3770    61.3260     2.0170    -0.0190     0.2330   -54.9940     8.8780    18.4290    10.4830
  632.5000    11.3770    62.1530     2.0220    -0.0140     0.2340   -56.4760     9.9840    17.8240    10.4250
  633.0000    11.3780    62.6320     2.0320    -0.0120     0.2350   -56.4570    11.7180    17.2190    10.3690
  633.5000    11.4310    63.3540     2.0440    -0.0080     0.2350   -55.8870    13.4520    16.6150    10.3140
  634.0000    11.4990    63.8010     2.0580    -0.0030     0.2340   -55.3410    15.1630    16.0100    10.2580
  634.5000    11.5670    63.8280     2.0710     0.0010     0.2320   -54.7720    14.5850    15.4050    10.2030
  635.0000    11.6350    63.2700     2.0850     0.0050     0.2300   -54.3160    14.0150    14.8000    10.1470
  635.5000    11.7030    62.8170     2.0980     0.0120     0.2280   -54.0890    13.4440    14.1960    10.1030
  636.0000    11.7710    62.2530     2.0960     0.0230     0.2260   -53.1630    13.1230    13.6090     9.9940
  636.5000    11.8390    62.3140     2.0940     0.0250     0.2270   -51.3790    12.6020    13.0500     9.9040
  637.0000    11.8920    62.4370     2.0920     0.0280     0.2330   -49.5610    12.0820    12.4920     9.8130
  637.5000    11.9000    62.5830     2.0880     0.0300     0.2380   -47.8700    11.5620    11.9330     9.7220
  638.0000    11.9120    62.7340     2.0720     0.0320     0.2430   -46.4170    11.0420    11.3750     9.6320
  638.5000    11.9220    62.6410     2.0490     0.0340     0.2450   -50.2820    10.5210    10.8160     9.5410
  639.0000    11.9320    62.2030     2.0250     0.0360     0.2460   -52.1240    10.0010    10.2580     9.4500
  639.5000    11.9420    61.7590     2.0130     0.0440     0.2460   -51.1640     9.4810     9.6990     9.3590
  640.0000    11.9520    61.7000     2.0190     0.0500     0.2460   -50.3420     8.9600     9.1410     9.2690
  640.5000    11.9630    61.9660     2.0280     0.0560     0.2470   -49.0290     8.7160     8.8310     9.1780
  641.0000    11.9730    62.2110     2.0370     0.0630     0.2510   -46.7860     8.6140     8.7420     9.0870
  641.5000    11.9840    63.6950     2.0450     0.0690     0.2530   -46.4820     8.5230     8.6530     9.0440
  642.0000    11.9930    65.6200     2.0520     0.0750     0.2540   -46.2210     8.4320     8.5640     9.0440
  642.5000    12.0040    67.4810     2.0480     0.0800     0.2560   -45.7650     8.3420     8.4750     9.0440
  643.0000    12.0170    69.4880     2.0380     0.0830     0.2560   -45.1120     8.2510     8.3870     9.0440
  643.5000    12.0760    70.8050     2.0280     0.0770     0.2540   -44.5020     8.1610     8.2980     9.0440
  644.0000    12.1260    70.6640     2.0170     0.0730     0.2530   -43.9210     8.0310     8.2090     8.9110
  644.5000    12.1790    69.7740     2.0080     0.0680     0.2550   -42.5830     7.8010     8.1200     8.4400
  645.0000    12.2310    68.8870     2.0030     0.0620     0.2530   -40.9770     7.5710     8.0310     8.0350
  645.5000    12.2840    67.8810     1.9980     0.0630     0.2510   -39.3060     7.3410     7.9470     7.8090
  646.0000    12.3340    67.8080     1.9930     0.0750     0.2480   -37.6980     7.1110     7.5400     7.5830
  646.5000    12.3910    68.3690     1.9890     0.0760     0.2460   -36.2950     6.8240     7.1560     7.3570
  647.0000    12.3850    68.6530     1.9850     0.0730     0.2450   -36.2520     6.4670     6.7720     7.1310
  647.5000    12.3340    67.6340     1.9860     0.0670     0.2420   -36.6400     6.1100     6.3880     6.9050
  648.0000    12.2880    67.0330     1.9760     0.0600     0.2380   -37.2660     5.7530     6.0050     6.5950
  648.5000    12.2420    67.3260     1.9690     0.0600     0.2310   -37.8240     5.3960     5.6210     6.0010
  649.0000    12.1970    67.6130     1.9670     0.0600     0.2300   -38.3970     5.0390     5.2370     5.2950
  649.5000    12.1460    67.9240     1.9850     0.0620     0.2290   -39.1880     4.8130     5.0100     5.3940
  650.0000    12.1540    68.1160     1.9860     0.0630     0.2280   -42.2170     4.7770     5.0100     5.1980
  650.5000    12.2050    67.7410     1.9790     0.0650     0.2270   -45.2360     4.7400     5.0100     8.2460
  651.0000    12.2510    67.4410     1.9790     0.0670     0.2280   -44.0450     5.0390     5.0100     8.2460
  651.5000    12.2960    67.0710     1.9850     0.0670     0.2290   -42.6580     5.3410     5.4270     8.3040
  652.0000    12.3430    67.0710     2.0130     0.0650     0.2280   -41.0130     5.6430     5.7790     8.3520
  652.5000    12.3880    67.3180     2.0200     0.0630     0.2260   -39.8190     5.9440     6.1310     8.4010
  653.0000    12.4340    67.5400     2.0210     0.0610     0.2190   -39.0640     6.2460     6.4820     8.4490
  653.5000    12.4800    67.8580     2.0090     0.0580     0.2200   -38.2140     6.5480     6.8340     8.4980
  654.0000    12.5260    68.5120     2.0010     0.0560     0.2210   -37.3890     6.8490     7.1860     8.5460
  654.5000    12.5720    69.8710     1.9920     0.0540     0.2200   -36.5450     7.1510     7.5380     8.5950
  655.0000    12.6210    69.9020     1.9980     0.0520     0.2180   -35.7400     7.4530     7.8900     8.6430
  655.5000    12.6780    69.3340     2.0240     0.0540     0.2160   -34.8830     7.7140     8.2410     8.6920
  656.0000    12.7340    68.5610     2.0480     0.0570     0.2160   -34.8930     7.8890     8.5560     8.7740
