~VERSION INFORMATION
 VERS.                2.0:   CWLS LOG ASCII STANDARD - VERSION 2.0
 WRAP.                 NO:   ONE LINE PER DEPTH STEP
~WELL INFORMATION
#MNEM.UNIT      DATA TYPE    INFORMATION
#----------   ------------   ------------------------------
 STRT.F          208.0000:   START DEPTH
 STOP.F         2980.0000:   STOP DEPTH
 STEP.F            0.5000:   STEP LENGTH
 NULL.          -999.2500:   NO VALUE
 COMP. FENIX & SCISSON INC:   COMPANY
 WELL. FENIX  32AX #28-28:   WELL
 FLD .        TEAPOT DOME:   FIELD
 LOC .      S28 T39N R78W:   LOCATION
 CNTY.            NATRONA:   COUNTY
 STAT.            WYOMING:   STATE
 CTRY. UNITED STATES OF AMERICA:   COUNTRY
 SRVC.           BIRDWELL:   SERVICE COMPANY
 DATE.        09-OCT-1977:   LOGDATE
 API .     49025104430000:   API NUMBER
~CURVE INFORMATION
#MNEM.UNIT       API CODE    CURVE DESCRIPTION
#----------   ------------   ------------------------------
 DEPT.F                  :   
 SPR .MV     05 010 01 00:   SPONTANEOUS POTENTIAL
 ILD .OHMM   05 120 46 00:   DEEP INDUCTION RESISTIVITY
 SN  .OHMM   05 040 16 00:   SHORT NORMAL
 GRD .GAPI   45 310 01 00:   GAMMA RAY FROM DENSITY LOG
 CALD.IN     45 280 60 00:   CALIPER FROM DENSITY LOG
 CORR.G/C3   45 356 01 00:   DENSITY CORRECTION
 DEN .G/C3   45 350 01 00:   BULK DENSITY
~PARAMETER INFORMATION
#MNEM.UNIT          VALUE    DESCRIPTION
#----------   ------------   ------------------------------
 EKB .F         5005.0000:   Kelly bushing
 EGL .F         4995.0000:   Ground level
 EDF .F            0.0000:   Drilling floor
 EPD .F         4995.0000:   Permanent datum
 TD  .F         2980.0000:   Total depth
 DATE.        09-OCT-1977:   Date logged
 CLNT.            A2DTECH:   Client Code
 SL  . 990' FNL & 1650' FWL:   Surface Location
 PD  .                 GL:   Permanent Datum
 DAPD.F                10:   Feet Above Permanent Datum
 DD  .F              2980:   Depth driller
 DL  .F              2979:   Depth logger
 BLI .F              2974:   Bottom log interval
 TLI .F               221:   Top log interval
 CS1 .IN            8.625:   Casing size
 CBD1.      8.625" @ 211':   Casing driller 1
 CBL1.F               221:   Casing logger 1
 BS1 .IN            7.875:   Bit size
 BSD1.F              2980:   Depth drilled with bit1
 DFT .            KCL GEL:   Type fluid in hole
 DFD .                8.8:   Density
 DFV .                 33:   Viscosity
 DFPH.                 11:   pH
 DFL .                6.4:   Fluid loss
 MSS .           FLOWLINE:   Source of sample
 RMS .OHMM            .52:   Rm
 MST .F                59:   Rm Meas. temp.
 RMF .OHMM            .67:   Rmf
 MFST.F                54:   Rmf Meas. temp.
 RMC .OHMM            .45:   Rmc
 MCST.F                56:   Rmc Meas. temp.
 MFSS.               MEAS:   Source Rmf.
 MCSS.               MEAS:   Source Rmc.
 RMB .OHMM            .35:   Rm. at BHT
 BHT .F                91:   BHT.
 TCS .HRS               3:   Time Circ. stopped
 MRT .F                91:   Maximum recorded temp.
 LUN .               2958:   Logging unit number
 LUL .             CASPER:   Logging unit location
 ENGI.                LAW:   Recorded By
 WITN.       W. PENINGELL:   Witnessed by
 ORIG.           5" PRINT:   Origin of data
 UWI .     49025104430000:   Unique Well ID
 DICO. A2D TECHNOLOGIES, INC.:   Digitizing Company
~OTHER INFORMATION
~A   DEPT      SPR        ILD         SN         GRD      CALD       CORR        DEN   
# ...
 2756.0000   -51.3530     4.6580     6.1430   162.7500     8.3360     0.0130     2.5340
 2756.5000   -51.3880     4.7780     6.3370   158.9170     8.3380     0.0100     2.5350
 2757.0000   -50.3630     4.8980     6.4640   154.9240     8.3410     0.0090     2.5360
 2757.5000   -49.7110     5.0270     6.4330   158.7210     8.3430     0.0100     2.5320
 2758.0000   -50.1020     5.1960     6.4050   150.1870     8.3460     0.0150     2.5340
 2758.5000   -50.4780     5.3300     6.4640   149.0870     8.3480     0.0180     2.5390
 2759.0000   -50.7650     5.0910     6.4640   147.5570     8.3510     0.0130     2.5280
 2759.5000   -50.6290     5.1850     6.2120   145.0350     8.3530     0.0160     2.5190
 2760.0000   -50.5230     4.9080     5.9800   159.5670     8.3550     0.0190     2.5170
 2760.5000   -50.3650     5.0450     5.7500   162.0770     8.3580     0.0220     2.5070
 2761.0000   -50.2140     4.8320     5.4390   175.4120     8.3600     0.0260     2.5030
 2761.5000   -50.0670     4.2570     5.0420   177.1640     8.3630     0.0260     2.4860
 2762.0000   -50.3340     3.6830     4.6450   181.2420     8.3630     0.0320     2.4450
 2762.5000   -51.3650     3.1980     4.2480   182.1490     8.3610     0.0380     2.4070
 2763.0000   -51.7480     2.9340     3.8510   182.9170     8.3600     0.0650     2.4460
 2763.5000   -51.3750     3.0160     3.7260   189.2460     8.3580     0.1290     2.5110
 2764.0000   -50.4780     2.9890     3.8450   194.2260     8.3560     0.0840     2.5430
 2764.5000   -50.0580     3.0120     4.0450   186.8190     8.3540     0.0390     2.5570
 2765.0000   -48.8330     3.0670     4.2450   177.2540     8.3520     0.0310     2.5700
 2765.5000   -49.9010     3.1580     4.7240   163.5550     8.3500     0.0240     2.5570
 2766.0000   -51.1810     3.6900     5.3200   146.6680     8.3490     0.0220     2.5440
 2766.5000   -52.4780     4.1930     6.0620   145.4390     8.3470     0.0250     2.5460
 2767.0000   -52.7050     4.6960     6.0490   144.0770     8.3450     0.0230     2.5460
 2767.5000   -51.0500     5.2330     6.0230   143.2000     8.3440     0.0180     2.5400
 2768.0000   -51.8050     5.4790     6.0060   139.8710     8.3440     0.0190     2.5450
 2768.5000   -52.2280     5.2330     6.0620   140.3450     8.3440     0.0300     2.5570
 2769.0000   -51.5400     5.3790     6.0620   142.9400     8.3440     0.0430     2.5710
 2769.5000   -50.8740     5.0690     6.0620   135.5710     8.3440     0.0380     2.5660
 2770.0000   -50.2070     4.8630     6.0130   140.4440     8.3440     0.0300     2.5550
 2770.5000   -50.9290     5.0450     5.9530   138.1920     8.3320     0.0240     2.5450
 2771.0000   -50.4770     4.9800     5.8970   136.2760     8.2730     0.0250     2.5400
 2771.5000   -50.3720     4.9030     5.9230   140.1620     8.2150     0.0240     2.5490
 2772.0000   -51.6430     4.8180     5.9630   140.4100     8.1840     0.0160     2.5390
 2772.5000   -51.8430     4.9190     6.0060   149.5090     8.1820     0.0110     2.5390
 2773.0000   -51.3940     5.0270     5.9630   147.3010     8.1800     0.0070     2.5400
 2773.5000   -51.2830     4.7740     5.8800   154.6430     8.1780     0.0040     2.5300
 2774.0000   -52.1490     4.9980     5.7370   154.7940     8.1770     0.0120     2.5300
 2774.5000   -51.9240     4.8170     5.5690   155.1900     8.1750     0.0210     2.5400
 2775.0000   -51.7160     4.5810     5.3780   157.6440     8.1730     0.0260     2.5410
 2775.5000   -52.1040     4.3410     5.1180   164.3530     8.1710     0.0250     2.5280
 2776.0000   -51.6390     4.0860     4.8570   174.9850     8.1690     0.0250     2.5170
 2776.5000   -51.7640     3.8310     4.5970   182.0920     8.1680     0.0270     2.5060
 2777.0000   -52.2070     3.5760     4.3550   187.3990     8.1660     0.0310     2.5000
 2777.5000   -52.3730     3.4940     4.3150   191.7700     8.1650     0.0350     2.5110
 2778.0000   -52.1170     3.6580     4.4360   198.0460     8.1650     0.0380     2.5350
 2778.5000   -50.8890     3.5590     5.1850   205.5990     8.1650     0.0210     2.5510
 2779.0000   -50.3150     3.6910     5.1380   199.7390     8.1650     0.0050     2.5420
 2779.5000   -50.9340     3.9370     5.5750   187.4380     8.1650     0.0110     2.5510
 2780.0000   -51.5340     4.2670     6.0060   174.1860     8.1650     0.0160     2.5600
 2780.5000   -51.8850     4.6510     6.1930   158.5810     8.1650     0.0160     2.5580
 2781.0000   -51.2480     4.9980     6.2940   153.2600     8.1650     0.0140     2.5530
 2781.5000   -50.6080     5.0450     6.4970   144.9140     8.1650     0.0100     2.5480
 2782.0000   -49.9750     5.0910     6.5730   143.6840     8.1650     0.0100     2.5450
 2782.5000   -50.3120     5.3530     6.7170   141.5210     8.1650     0.0130     2.5480
 2783.0000   -50.7550     5.5810     6.8930   140.6170     8.1650     0.0160     2.5500
 2783.5000   -51.2050     5.8200     6.9190   143.2850     8.1650     0.0160     2.5530
 2784.0000   -51.2420     6.0060     6.9490   144.7990     8.1650     0.0170     2.5550
 2784.5000   -50.9890     5.8960     6.9800   135.4960     8.1650     0.0180     2.5490
 2785.0000   -50.7410     5.8430     7.0510   135.3500     8.1650     0.0200     2.5470
 2785.5000   -50.4910     6.1010     7.1220   132.7930     8.1530     0.0230     2.5470
 2786.0000   -50.7420     6.2130     7.1600   129.4740     8.1400     0.0270     2.5570
 2786.5000   -51.2180     6.0060     7.1830   131.2430     8.1270     0.0320     2.5700
 2787.0000   -50.9230     6.0420     7.2070   132.9230     8.1260     0.0300     2.5610
 2787.5000   -51.6630     6.1280     7.2300   134.7110     8.1270     0.0180     2.5500
 2788.0000   -52.3180     6.1970     7.2530   137.5500     8.1280     0.0120     2.5420
 2788.5000   -51.7250     6.2480     7.2760   141.5750     8.1290     0.0120     2.5470
 2789.0000   -51.0990     6.2990     7.3510   142.8980     8.1300     0.0140     2.5510
 2789.5000   -50.8580     6.3500     7.3370   149.0550     8.1310     0.0090     2.5500
 2790.0000   -51.2720     6.4010     7.3180   154.6030     8.1330     0.0060     2.5440
 2790.5000   -50.7880     6.4520     7.2990   139.8460     8.1340     0.0070     2.5460
 2791.0000   -49.9790     6.4640     7.2670   141.3660     8.1350     0.0070     2.5400
 2791.5000   -50.6500     6.4230     7.1720   137.6380     8.1360     0.0100     2.5430
 2792.0000   -51.5760     6.3870     7.0760   134.0580     8.1370     0.0140     2.5500
 2792.5000   -51.9510     6.3520     6.9100   139.3520     8.1380     0.0180     2.5480
 2793.0000   -51.9490     6.1880     6.7010   145.3540     8.1390     0.0210     2.5450
 2793.5000   -51.7760     5.9610     6.4920   149.7090     8.1400     0.0180     2.5430
 2794.0000   -51.2200     5.7340     6.1710   151.6980     8.1410     0.0210     2.5260
 2794.5000   -51.3690     5.4790     5.8040   156.4730     8.1420     0.0110     2.5030
 2795.0000   -51.2260     4.9280     5.4040   160.3060     8.1440     0.0150     2.4790
 2795.5000   -51.0450     4.3170     4.7660   166.6310     8.1450     0.0180     2.4550
 2796.0000   -50.6300     3.7070     4.2720   172.8830     8.1660     0.0180     2.4310
 2796.5000   -50.4060     3.0970     3.8960   183.6470     8.1610     0.0250     2.4140
 2797.0000   -50.5550     2.9260     3.5590   199.9370     8.1580     0.0420     2.4440
 2797.5000   -50.0200     2.8810     3.4240   203.4380     8.1550     0.0790     2.4850
 2798.0000   -49.1160     2.8290     3.3430   216.1450     8.1510     0.0550     2.5240
 2798.5000   -49.1700     2.8720     3.4740   220.5500     8.1480     0.0160     2.5380
 2799.0000   -49.2980     2.9400     3.7950   201.9140     8.1450     0.0190     2.5470
 2799.5000   -50.3220     3.1730     4.9450   186.3370     8.1180     0.0210     2.5510
 2800.0000   -51.3210     3.8400     6.0270   152.3480     8.0860     0.0220     2.5510
 2800.5000   -50.5400     4.5060     6.5310   126.3940     8.0530     0.0160     2.5470
 2801.0000   -50.8270     5.1730     6.7060   124.9740     8.0240     0.0110     2.5430
