~VERSION INFORMATION
 VERS.                2.0:   CWLS LOG ASCII STANDARD - VERSION 2.0
 WRAP.                 NO:   ONE LINE PER DEPTH STEP
~WELL INFORMATION
#MNEM.UNIT      DATA TYPE    INFORMATION
#----------   ------------   ------------------------------
 STRT.F          210.0000:   START DEPTH
 STOP.F         3128.0000:   STOP DEPTH
 STEP.F            0.5000:   STEP LENGTH
 NULL.          -999.2500:   NO VALUE
 COMP.    PENIX & SCISSON:   COMPANY
 WELL. FENIX NPR 3 "A" #14-27:   WELL
 FLD .                NPR:   FIELD
 LOC .      S27 T39N R78W:   LOCATION
 CNTY.            NATRONA:   COUNTY
 STAT.            WYOMING:   STATE
 CTRY. UNITED STATES OF AMERICA:   COUNTRY
 SRVC.      DRESSER ATLAS:   SERVICE COMPANY
 DATE.        31-AUG-1977:   LOGDATE
 API .     49025104280000:   API NUMBER
~CURVE INFORMATION
#MNEM.UNIT       API CODE    CURVE DESCRIPTION
#----------   ------------   ------------------------------
 DEPT.F                  :   
 GRD .GAPI   45 310 01 00:   GAMMA RAY FROM DENSITY LOG
 CALD.IN     45 280 60 00:   CALIPER FROM DENSITY LOG
 RHOB.G/C3   45 350 01 00:   BULK DENSITY
 CORR.G/C3   45 356 01 00:   DENSITY CORRECTION
 NPHI.DEC    42 890 03 00:   NEUTRON POROSITY SANDSTONE
 SPR .MV     11 010 01 00:   SPONTANEOUS POTENTIAL
 RXO .OHMM   11 220 01 00:   FLUSHED ZONE RESISTIVITY
 LLD .OHMM   11 220 10 00:   LATEROLOG LOG DEEP
 LLS .OHMM   11 220 09 00:   LATEROLOG LOG SHALLOW
 TENR.LBS    11 635 01 00:   TENSION FROM RESISTIVITY
 TEND.LBS    45 635 01 00:   TENSION FROM DENSITY LOG
~PARAMETER INFORMATION
#MNEM.UNIT          VALUE    DESCRIPTION
#----------   ------------   ------------------------------
 EKB .F         5046.0000:   Kelly bushing
 EGL .F         5036.0000:   Ground level
 TD  .F         3111.0000:   Total depth
 DATE.        31-AUG-1977:   Date logged
 CLNT.            A2DTECH:   Client Code
 SL  . 2310' FNL & 330' FWL:   Surface Location
 PD  .                 GL:   Permanent Datum
 EPD .F              5036:   Elevation Permanent Datum
 LMF .                 KB:   Log Measured From
 DMF .                 KB:   Drilling Measured From
 DAPD.F                10:   Feet Above Permanent Datum
 DD  .F              3109:   Depth driller
 DL  .F              3111:   Depth logger
 BLI .F              3109:   Bottom log interval
 TLI .F               217:   Top log interval
 CS1 .IN             8.75:   Casing size
 CBD1.       8.75" @ 215':   Casing driller 1
 CBL1.F               217:   Casing logger 1
 BS1 .IN            7.875:   Bit size
 BSD1.F              3109:   Depth drilled with bit1
 DFT .                GEL:   Type fluid in hole
 DFD .                8.8:   Density
 DFV .                 35:   Viscosity
 DFPH.                 10:   pH
 DFL .                8.8:   Fluid loss
 MSS .                PIT:   Source of sample
 RMS .OHMM            .36:   Rm
 MST .F                67:   Rm Meas. temp.
 RMF .OHMM            .24:   Rmf
 MFST.F                67:   Rmf Meas. temp.
 RMC .OHMM            .51:   Rmc
 MCST.F                67:   Rmc Meas. temp.
 MFSS.               MEAS:   Source Rmf.
 MCSS.               CALC:   Source Rmc.
 RMB .OHMM            .20:   Rm. at BHT
 BHT .F               121:   BHT.
 TCS .HRS               5:   Time Circ. stopped
 MRT .F               121:   Maximum recorded temp.
 LUN .               6080:   Logging unit number
 LUL .              WLSTN:   Logging unit location
 ENGI.               BALL:   Recorded By
 WITN.         PETTINGILL:   Witnessed by
 ORIG.      2.5" 5" PRINT:   Origin of data
 UWI .     49025104280000:   Unique Well ID
 DICO. A2D TECHNOLOGIES, INC.:   Digitizing Company
~OTHER INFORMATION
~A   DEPT      GRD         CALD     RHOB       CORR       NPHI        SPR        RXO        LLD        LLS        TENR      TEND   
# ...
 2314.5000   105.0578     9.9603     2.4260     0.0453     0.3145   -32.2654     2.1915    10.0957     9.7616    94.1530    93.2520
 2315.0000   105.0609     9.4633     2.4164     0.0493     0.3130   -32.2691     2.0372     9.9123     9.2417    94.3385    93.2119
 2315.5000   104.6662     9.2645     2.4015     0.0593     0.3094   -31.8736     1.7608     9.5564     9.0739    94.5240    93.1718
 2316.0000   106.2602     9.2249     2.4217     0.0613     0.3059   -31.8774     1.5218     9.5557     9.0729    94.7095    93.1317
 2316.5000   106.2633     9.1653     2.4263     0.0514     0.2987   -31.8831     1.3153     9.5547     8.7476    94.8950    93.0916
 2317.0000   104.6753     9.1655     2.4062     0.0454     0.2793   -31.9084     0.7549     9.5536     8.9075    95.0806    89.0833
 2317.5000   103.0873     9.1656     2.3824     0.0256     0.2722   -31.9338     0.5899     9.5529     9.2374    95.2661    89.0432
 2318.0000   101.4993     9.1657     2.3414    -0.0023     0.2726   -31.9592     0.5192     9.5519     9.2364    95.4516    89.0352
 2318.5000   101.1045     9.1460     2.2645    -0.0281     0.2754   -31.9846     0.5192     9.5512     9.2357    95.6371    84.9868
 2319.0000   101.1075     9.1262     2.2385    -0.0181     0.2758   -32.0100     0.7207     9.5502     8.9043    95.8226    92.9313
 2319.5000   100.7128     9.1264     2.2854     0.0117     0.2710   -32.0354     0.9299     9.0413     8.2778    96.0081    76.9541
 2320.0000   100.7158     9.2856     2.3693     0.0237     0.2691   -32.0607     2.3547     8.7166     8.2772    96.1936    76.9461
 2320.5000    99.1276     9.5443     2.3724     0.0356     0.2738   -32.0861     3.5800     8.5586     7.9802    96.3791    76.8740
 2321.0000    95.9483     9.4052     2.3777     0.0615     0.2774   -32.1115     2.9624     8.5579     8.1260    96.5646    92.5220
 2321.5000    92.7689     9.2462     2.3942     0.0675     0.2679   -32.1369     2.0568     8.4024     7.8347    96.7501    80.7701
 2322.0000    90.7828     9.3657     2.3980     0.0834     0.2616   -32.1623     0.9295     8.5561     8.1246    96.7847    96.6350
 2322.5000    89.5923     9.4851     2.3936     0.0914     0.2576   -32.1876     0.8182     8.5555     8.1240    96.8320    72.7374
 2323.0000    88.7996     9.4853     2.3959     0.1013     0.2541   -32.2130     0.7888     8.7119     8.1231    96.8714    94.4277
 2323.5000    89.2003     9.3462     2.4191     0.1093     0.2553   -32.2384     0.8261     8.7113     8.4236    96.8951    72.6572
 2324.0000    89.9988     9.2071     2.4476     0.1014     0.2644   -32.2638     1.1991     8.7103     8.1213    96.8474    93.6600
 2324.5000    91.1952     9.2868     2.4469     0.0994     0.2743   -32.2892     1.8231     8.7097     8.1210    96.7997    84.5058
 2325.0000    91.1981     9.2670     2.4462     0.1014     0.2865   -32.3146     2.8227     7.9501     7.8296    96.7520    95.0190
 2325.5000    89.6097     9.4859     2.4553     0.1312     0.2873   -32.3399     2.8225     7.5265     6.2916    96.7043    80.4494
 2326.0000    85.2365     9.4065     2.4210     0.1333     0.2866   -32.3762     1.4382     5.6218     5.6395    96.6566   101.1874
 2326.5000    81.6588     9.3669     2.3987     0.1372     0.2826   -32.3780     1.3370     5.3221     5.2424    96.6089    84.3535
 2327.0000    80.0703     9.3670     2.3629     0.1432     0.2775   -32.3818     1.6942     5.4196     5.0220    96.5612   104.1867
 2327.5000    81.6645    10.1628     2.3062     0.1651     0.2727   -32.3874     2.5293     5.8291     5.4017    96.5135   104.1466
 2328.0000    80.8716     9.5662     2.0606     0.1313     0.2712   -31.5898     4.6138     6.6217     6.2495    96.4658   108.0828
 2328.5000    81.2722     9.2680     1.9981     0.1174     0.2724   -31.5954     4.7849     7.1218     6.8457    96.4181   104.0664
 2329.0000    81.2750     9.2084     1.9913     0.1095     0.2803   -31.5992     2.6706     7.3857     7.0993    96.3704    92.0976
 2329.5000    80.4821     9.2284     1.9913     0.1036     0.2842   -31.6049     0.8789     7.3854     7.0988    96.3227    88.0893
 2330.0000    78.4956     9.2882     1.9914     0.0658     0.2835   -31.6106     0.7596     7.3846     6.9697    96.2750    88.0492
 2330.5000    74.5203     9.3083     1.9922     0.0340     0.2783   -31.6143     0.7877     7.3838     6.8432    96.2273    91.9853
 2331.0000    72.1359     9.2288     1.9916     0.0619     0.2740   -31.6200     0.9280     7.3830     6.8425    96.1796    95.9215
 2331.5000    72.1386     8.9902     2.3598     0.0838     0.2728   -31.6238     1.0164     7.5183     7.2268    96.1319    95.8814
 2332.0000    71.3455     8.9307     2.3719     0.0639     0.2720   -31.6294     1.1337     8.2348     8.8833    96.0842    91.8491
 2332.5000    72.1440     8.8512     2.3869     0.0421     0.2685   -31.6332     1.4629     9.7022     9.7298    96.0365    95.7932
 2333.0000    74.9314     8.8514     2.4079     0.0341     0.2657   -31.6389     1.6618    10.6269    10.2753    95.9888    99.7374
 2333.5000    77.3215     8.8316     2.4206     0.0123     0.2657   -31.6427     2.8184    10.6261    10.0890    95.9411   103.6736
 2334.0000    79.3137     8.7919     2.4260     0.0103     0.2637   -31.6483     2.9764     9.1832     9.0433    95.8934    99.6573
 2334.5000    79.3165     8.7125     2.4281     0.0083     0.2630   -31.6521     2.4804     8.6939     8.2554    95.8457    91.6647
 2335.0000    79.3193     8.7126     2.4306     0.0064     0.2642   -31.6578     2.7667     8.0820     7.8154    95.7980    83.6721
 2335.5000    78.9242     8.6927     2.4336     0.0044     0.2638   -31.0610     3.2593     7.9348     8.2536    95.7503    95.5688
 2336.0000    77.3353     8.7026     2.4516     0.0064     0.2543   -31.0667     4.1779     8.0802     8.7166    95.7026    79.6157
 2336.5000    77.3381     8.7125     2.4480     0.0044     0.2464   -31.0705     6.3945    10.0548    10.0832    95.6549   115.3699
 2337.0000    78.9326     8.7224     2.4189     0.0045     0.2492   -31.0762     7.0038    10.6188    10.8446    95.6072    87.1971
 2337.5000    80.5270     8.7332     2.4055     0.0164     0.2472   -31.0800     7.6710    10.4262    10.0234    95.5595    87.4559
 2338.0000    83.7132     8.7532     2.4034     0.0164     0.2496   -31.0857     8.1013    10.0523    10.0230    95.5118    83.4316
 2338.5000    87.6948     8.7931     2.4034     0.0224     0.2539   -31.4898     8.9831     9.8696     9.8408    95.4641    91.3520
 2339.0000    91.2791     8.8330     2.3781     0.0264     0.2603   -31.4955     7.9536     9.6906    10.0212    95.4163    87.3277
 2339.5000    93.2717     8.8530     2.3545     0.0364     0.2662   -31.0989     6.7500     8.5288     9.3152    95.3686    87.2876
 2340.0000    94.4684     8.8731     2.3701     0.0503     0.2690   -31.1046     6.2752     7.9285     8.0499    95.3209   103.1846
 2340.5000    94.8693     8.8732     2.3806     0.0603     0.2698   -31.1084     5.8335     7.5057     7.4828    95.2732    95.1679
 2341.0000    96.8620     8.8932     2.3747     0.0563     0.2698   -31.1141     6.0495     7.3699     7.6199    95.2255    95.1198
 2341.5000    99.2527     8.9530     2.3217     0.0424     0.2690   -30.7176     7.7591     9.1706     8.1957    95.1778   103.0323
 2342.0000   101.2455     8.9930     2.2710     0.0265     0.2694   -30.7233     8.8675     9.3386     8.9776    95.1301    91.1205
 2342.5000   104.4316     9.0130     2.2263     0.0067     0.2805   -30.7271     8.8665     9.3379     9.1418    95.0824    79.1106
 2343.0000   106.0265     9.0529     2.1973     0.0197     0.2940   -30.7328     8.5487     8.8400     8.9760    95.0347    88.8151
 2343.5000   109.2133     9.0729     2.2608     0.0365     0.3016   -31.1368     6.8692     7.7802     7.8993    94.9870    75.0462
 2344.0000   112.7982     9.1128     2.3284     0.0922     0.3076   -31.1424     5.7247     7.3656     7.0800    94.9393    86.9669
 2344.5000   114.7912     9.1329     2.4604     0.1002     0.3060   -31.1481     5.1313     6.4826     5.6877    94.8916    78.9423
