~VERSION INFORMATION
 VERS.                2.0:   CWLS LOG ASCII STANDARD - VERSION 2.0
 WRAP.                 NO:   ONE LINE PER DEPTH STEP
~WELL INFORMATION
#MNEM.UNIT      DATA TYPE    INFORMATION
#----------   ------------   ------------------------------
 STRT.F          728.0000:   START DEPTH
 STOP.F         3296.0000:   STOP DEPTH
 STEP.F            0.5000:   STEP LENGTH
 NULL.          -999.2500:   NO VALUE
 COMP.    FENIX & SCISSON:   COMPANY
 WELL. FENIX TX "AX" #55-34:   WELL
 FLD . N. P. R. - WILDCAT:   FIELD
 LOC .      S34 T39N R78W:   LOCATION
 CNTY.            NATRONA:   COUNTY
 STAT.            WYOMING:   STATE
 CTRY. UNITED STATES OF AMERICA:   COUNTRY
 SRVC.       SCHLUMBERGER:   SERVICE COMPANY
 DATE.        22-JUL-1981:   LOGDATE
 API .     49025108770000:   API NUMBER
~CURVE INFORMATION
#MNEM.UNIT       API CODE    CURVE DESCRIPTION
#----------   ------------   ------------------------------
 DEPT.F                  :   
 TENS.LBS    60 635 01 00:   TENSION FROM SONIC LOG
 DT  .US/F   60 520 00 00:   DELTA TIME
 RHOB.G/C3   45 350 01 00:   BULK DENSITY
 TEND.LBS    45 635 01 00:   TENSION FROM DENSITY LOG
 CORR.G/C3   45 356 01 00:   DENSITY CORRECTION
 CALD.IN     45 280 60 00:   CALIPER FROM DENSITY LOG
 NPHI.DEC    42 890 03 00:   NEUTRON POROSITY SANDSTONE
 TENR.LBS    07 635 01 00:   TENSION FROM RESISTIVITY
 SPR .MV     07 010 01 00:   SPONTANEOUS POTENTIAL
 GRR .GAPI   07 310 01 00:   GAMMA RAY FROM RESISTIVITY
 SFL .OHMM   07 220 01 00:   SHALLOW FOCUSED LOG RESISTIVITY
 ILM .OHMM   07 120 44 00:   INDUCTION LOG MEDIUM RESISTIVITY
 ILD .OHMM   07 120 46 00:   DEEP INDUCTION RESISTIVITY
~PARAMETER INFORMATION
#MNEM.UNIT          VALUE    DESCRIPTION
#----------   ------------   ------------------------------
 EKB .F         5092.0000:   Kelly bushing
 EGL .F         5082.0000:   Ground level
 EDF .F            0.0000:   Drilling floor
 TD  .F         3170.0000:   Total depth
 DATE.        22-JUL-1981:   Date logged
 CLNT.            A2DTECH:   Client Code
 SL  . 2012' FSL & 2774' FWL:   Surface Location
 PD  .                 GL:   Permanent Datum
 EPD .F              5082:   Elevation Permanent Datum
 LMF .                 KB:   Log Measured From
 DMF .                 KB:   Drilling Measured From
 DAPD.F                10:   Feet Above Permanent Datum
 DD  .F              3170:   Depth driller
 DL  .F              3110:   Depth logger
 BLI .F              3104:   Bottom log interval
 TLI .F               753:   Top log interval
 CS1 .IN            9.625:   Casing size
 CBD1.      9.625" @ 751':   Casing driller 1
 CBL1.F               753:   Casing logger 1
 BS1 .IN            7.875:   Bit size
 BSD1.F              3170:   Depth drilled with bit1
 DFT .                FGM:   Type fluid in hole
 DFD .                  9:   Density
 DFV .                  9:   Viscosity
 DFPH.                9.8:   pH
 DFL .                8.6:   Fluid loss
 MSS .           MUD/TANK:   Source of sample
 RMS .OHMM           1.72:   Rm
 MST .F                72:   Rm Meas. temp.
 RMF .OHMM           1.17:   Rmf
 MFST.F                70:   Rmf Meas. temp.
 MFSS.               MEAS:   Source Rmf.
 RMB .OHMM           0.90:   Rm. at BHT
 BHT .F               144:   BHT.
 TCS .HRS            1215:   Time Circ. stopped
 TLAB.HRS            0400:   Time logger at bottom
 MRT .F               144:   Maximum recorded temp.
 LUN .               8035:   Logging unit number
 LUL .               CSPR:   Logging unit location
 ENGI.            PURPICH:   Recorded By
 WITN.           R. SCOTT:   Witnessed by
 ORIG.           5" PRINT:   Origin of data
 UWI .     49025108770000:   Unique Well ID
 DICO. A2D TECHNOLOGIES, INC.:   Digitizing Company
~OTHER INFORMATION
~A   DEPT     TENS         DT         RHOB      TEND      CORR       CALD         NPHI     TENR        SPR         GRR       SFL        ILM        ILD   
# ...
 2288.0000  1581.0670    90.5650     2.5650  1072.8740     0.0310     7.6780     0.2960   657.9930   -45.0100   111.2390     7.9940     6.5460     6.9160
 2288.5000  1611.8160    90.0060     2.5570  1072.8740     0.0330     7.6780     0.3020   658.0610   -44.9730   113.4770     7.5000     6.3880     6.7510
 2289.0000  1682.5780    89.4480     2.5380  1072.8740     0.0250     7.6790     0.3080   658.1300   -44.9350   115.2040     7.0060     6.2670     6.5610
 2289.5000  1722.0540    88.9930     2.5160  1072.8740     0.0190     7.6790     0.3150   658.1980   -45.0130   115.0350     6.5010     6.4080     6.6630
 2290.0000  1702.2360    89.0230     2.5080  1072.8740     0.0110     7.6790     0.3240   658.2670   -45.1100   114.0000     7.0400     6.5010     6.7790
 2290.5000  1676.7610    89.1680     2.4990  1072.8740     0.0060     7.6790     0.3210   658.3360   -45.2060   114.9820     8.0870     6.6750     6.8990
 2291.0000  1651.2870    89.3270     2.4940  1072.8740     0.0020     7.6800     0.3160   658.4040   -45.3030   115.7320     9.2970     6.9070     7.1510
 2291.5000  1625.8130    89.3700     2.4950  1072.8740     0.0020     7.6800     0.3120   658.4730   -45.3990   114.3240     9.1130     7.1390     7.4020
 2292.0000  1601.2080    89.2180     2.5030  1072.8740     0.0100     7.6800     0.3110   658.5410   -45.4960   112.9480     8.8810     7.3700     7.6540
 2292.5000  1613.7250    89.0940     2.5110  1072.8740     0.0210     7.6800     0.3140   658.6100   -45.5920   111.5590     8.7990     7.6020     7.9050
 2293.0000  1661.6310    89.1910     2.5120  1072.8740     0.0320     7.6810     0.3180   658.6780   -45.6880   111.5660     9.4240     7.8820     8.1770
 2293.5000  1641.5580    89.3810     2.5010  1072.8740     0.0340     7.6810     0.3220   658.7470   -45.7850   112.9580     9.8890     7.8820     8.2520
 2294.0000  1621.3490    89.5710     2.4920  1072.8740     0.0240     7.6810     0.3230   658.8160   -45.8850   114.3270    10.4750     7.8600     8.2380
 2294.5000  1682.1021    89.7600     2.4860  1072.8740     0.0140     7.6810     0.3160   658.8840   -45.8850   115.6870    10.2140     7.8170     8.1940
 2295.0000  1742.1949    89.9500     2.5010  1072.8740     0.0090     7.6820     0.3080   658.9530   -45.7420   117.0690     9.8600     7.7730     8.1490
 2295.5000  1762.3361    90.1550     2.5140  1072.8740     0.0180     7.6820     0.2970   659.0210   -45.6000   117.0520     9.5070     7.7290     8.1050
 2296.0000  1687.4120    90.2010     2.5280  1072.8740     0.0270     7.6820     0.2990   659.0900   -45.4580   116.3120     9.1530     7.6850     8.0600
 2296.5000  1646.9510    90.1560     2.5330  1072.8740     0.0270     7.6820     0.3070   659.1580   -45.3160   115.5640     8.7990     7.6410     8.0160
 2297.0000  1694.1260    90.1010     2.5130  1072.8740     0.0220     7.6830     0.3160   659.2270   -45.1740   114.8410     8.7190     7.5980     7.9710
 2297.5000  1722.0540    90.2010     2.4970  1072.8740     0.0140     7.6830     0.3170   659.2960   -45.0320   116.0100     8.6390     7.5980     7.9550
 2298.0000  1628.4850    90.6380     2.4780  1072.8740     0.0060     7.6830     0.3190   659.3640   -44.9300   118.4570     8.7990     7.5230     7.8820
 2298.5000  1609.7610    91.0380     2.4700  1072.8740     0.0030     7.6830     0.3190   659.4330   -44.9320   120.9400     9.1260     7.5270     7.8800
 2299.0000  1675.0790    91.4380     2.4650  1072.8740     0.0010     7.6840     0.3180   659.5010   -44.9320   123.3880     9.4840     7.5280     7.8820
 2299.5000  1740.3979    91.8380     2.4650  1072.8740     0.0020     7.6840     0.3120   659.5700   -44.9320   121.7420     9.8420     7.5290     7.8810
 2300.0000  1762.3361    92.2380     2.4740  1072.8740     0.0060     7.6840     0.3020   659.6380   -44.9320   116.9100    10.1910     7.3930     7.8860
 2300.5000  1762.3361    92.6380     2.4890  1072.8740     0.0120     7.6840     0.3040   659.7070   -44.9320   112.1230     9.5820     7.1910     7.6090
 2301.0000  1762.3361    93.0380     2.5020  1072.8740     0.0180     7.6850     0.3130   659.7760   -44.9320   107.7910     9.0260     6.9880     7.3970
 2301.5000  1762.3361    93.4240     2.5160  1072.8740     0.0240     7.6850     0.3210   659.8440   -44.9320   109.3170     8.4700     6.7860     7.1850
 2302.0000  1762.3361    93.2230     2.5230  1072.8740     0.0300     7.6850     0.3310   659.9130   -44.9320   112.4690     7.9140     6.5830     6.9730
 2302.5000  1739.9380    92.8520     2.5250  1072.8740     0.0350     7.6850     0.3290   659.9810   -44.9320   115.6330     7.3580     6.3800     6.7610
 2303.0000  1721.7770    92.4810     2.5220  1072.8740     0.0330     7.6850     0.3260   660.0500   -44.9320   118.3990     6.9960     6.2100     6.5490
 2303.5000  1703.6150    92.1110     2.5160  1072.8740     0.0320     7.6860     0.3320   660.1180   -44.9320   118.3330     7.2350     6.1530     6.5010
 2304.0000  1685.4530    91.7400     2.5110  1072.8740     0.0310     7.6860     0.3380   660.1870   -44.9320   118.3360     7.4410     6.1530     6.4420
 2304.5000  1667.2920    91.3090     2.5170  1072.8740     0.0310     7.6860     0.3440   660.2560   -44.9320   119.6920     7.6470     6.2460     6.5010
 2305.0000  1649.1300    91.2080     2.5240  1072.8740     0.0260     7.6860     0.3070   660.3240   -44.9320   123.5850     7.8530     6.3210     6.5880
 2305.5000  1641.4900    91.2080     2.5150  1072.8740     0.0210     7.6870     0.3090   660.3930   -44.9170   123.9880     8.0590     6.3970     6.6670
 2306.0000  1662.9410    91.2080     2.5080  1072.8740     0.0150     7.6870     0.3130   660.4610   -44.8740   121.5940     8.1770     6.5010     6.7440
 2306.5000  1701.9130    91.0010     2.5060  1072.8740     0.0100     7.6870     0.3170   660.5300   -44.8310   119.1550     8.0640     6.5610     6.8690
 2307.0000  1701.9130    90.5660     2.5060  1072.8740     0.0050     7.6870     0.3190   660.5980   -44.7880   116.6710     7.9300     6.5010     6.8330
 2307.5000  1670.5510    90.1310     2.5020  1072.8740     0.0050     7.6880     0.3210   660.6670   -44.7450   116.4650     7.7960     6.4320     6.7620
 2308.0000  1641.4900    89.6960     2.4940  1072.8740     0.0030     7.6880     0.3250   660.7360   -44.7020   117.1310     7.6690     6.3640     6.6900
 2308.5000  1675.8311    89.2950     2.4860  1073.1000     0.0050     7.6880     0.3300   660.8040   -44.6590   117.8220     7.3120     6.3250     6.6210
 2309.0000  1722.0540    89.3960     2.4820  1073.4080     0.0070     7.6880     0.3250   660.8730   -44.6160   117.9320     7.1910     6.4100     6.6210
 2309.5000  1740.7939    89.8580     2.4820  1073.7150     0.0100     7.6890     0.3180   660.9410   -44.5730   117.9320     7.7700     6.5080     6.7790
 2310.0000  1732.3669    90.3470     2.4810  1074.0220     0.0120     7.6890     0.3110   661.0100   -44.5300   118.1210     8.3020     6.6060     6.8690
 2310.5000  1723.9399    90.8360     2.4820  1074.3300     0.0150     7.6890     0.3040   661.0780   -44.4860   119.5930     8.7990     6.7050     6.9320
 2311.0000  1715.5129    91.3260     2.4830  1074.6370     0.0170     7.6890     0.3030   661.1470   -44.4430   120.2080     8.7990     6.7440     6.9320
 2311.5000  1707.0861    91.8150     2.4910  1074.9440     0.0170     7.6900     0.3030   661.2160   -44.4000   118.4410     8.5610     6.7440     6.8620
 2312.0000  1701.9130    92.3040     2.4890  1075.2520     0.0140     7.6900     0.3040   661.2840   -44.3570   116.2430     8.0920     6.6460     6.7950
 2312.5000  1701.9130    92.7930     2.4790  1075.5590     0.0100     7.6900     0.3070   661.3530   -44.3140   112.5800     7.4000     6.5380     6.7290
 2313.0000  1723.9880    93.2820     2.4640  1075.8660     0.0060     7.6900     0.3100   661.4210   -44.2710   109.0850     6.8690     6.4310     6.6630
 2313.5000  1742.1949    93.4240     2.4570  1076.1740     0.0030     7.6910     0.3080   661.4900   -44.2280   107.4310     7.1620     6.3240     6.5970
