~VERSION INFORMATION
 VERS.                2.0:   CWLS LOG ASCII STANDARD - VERSION 2.0
 WRAP.                 NO:   ONE LINE PER DEPTH STEP
~WELL INFORMATION
#MNEM.UNIT      DATA TYPE    INFORMATION
#----------   ------------   ------------------------------
 STRT.F          794.0000:   START DEPTH
 STOP.F         2828.0000:   STOP DEPTH
 STEP.F            0.5000:   STEP LENGTH
 NULL.          -999.2500:   NO VALUE
 COMP.           U S NAVY:   COMPANY
 WELL. U S NAVY NPR 3 "A" #10-33:   WELL
 FLD .        TEAPOT DOME:   FIELD
 LOC .      S33 T39N R78W:   LOCATION
 CNTY.            NATRONA:   COUNTY
 STAT.            WYOMING:   STATE
 CTRY. UNITED STATES OF AMERICA:   COUNTRY
 SRVC.         MCCULLOUGH:   SERVICE COMPANY
 DATE.        25-JUL-1968:   LOGDATE
 API .     49025102180000:   API NUMBER
~CURVE INFORMATION
#MNEM.UNIT       API CODE    CURVE DESCRIPTION
#----------   ------------   ------------------------------
 DEPT.F                  :   
 GRN .GAPI   35 310 01 00:   GAMMA RAY
 NEUT.NAPI   35 330 01 00:   NEUTRON
 TEMP.DEG    99 000 00 00:   TEMPERATURE AT TOOL
~PARAMETER INFORMATION
#MNEM.UNIT          VALUE    DESCRIPTION
#----------   ------------   ------------------------------
 EKB .F            0.0000:   Kelly bushing
 EGL .F            0.0000:   Ground level
 EDF .F            0.0000:   Drilling floor
 EPD .F            0.0000:   Permanent datum
 TD  .F         2829.0000:   Total depth
 DATE.        25-JUL-1968:   Date logged
 CLNT.            A2DTECH:   Client Code
 DL  .F              2829:   Depth logger
 BLI .F              2825:   Bottom log interval
 TLI .F               800:   Top log interval
 DFT .                DRY:   Type fluid in hole
 TCS .HRS               2:   Time Circ. stopped
 ENGI.           KIMBERRY:   Recorded By
 ORIG.        2" 5" PRINT:   Origin of data
 UWI .     49025102180000:   Unique Well ID
 DICO. A2D TECHNOLOGIES, INC.:   Digitizing Company
~OTHER INFORMATION
~A   DEPT       GRN      NEUT       TEMP   
# ...
 1431.0000    61.6090   489.8110  -999.2500
 1431.5000    61.1790   500.0170  -999.2500
 1432.0000    61.4230   508.3470  -999.2500
 1432.5000    62.0240   510.7980  -999.2500
 1433.0000    62.6200   512.0110  -999.2500
 1433.5000    63.0520   512.4330  -999.2500
 1434.0000    62.6490   506.8000  -999.2500
 1434.5000    62.1440   505.5180  -999.2500
 1435.0000    63.0440   511.2800  -999.2500
 1435.5000    62.9150   510.1420  -999.2500
 1436.0000    62.5360   499.4630  -999.2500
 1436.5000    64.0330   496.3070  -999.2500
 1437.0000    65.8080   487.6580  -999.2500
 1437.5000    66.6710   481.4630  -999.2500
 1438.0000    66.3660   480.6210  -999.2500
 1438.5000    66.3810   475.8430  -999.2500
 1439.0000    65.5550   467.4210  -999.2500
 1439.5000    64.8190   466.3870  -999.2500
 1440.0000    65.3930   462.1250  -999.2500
 1440.5000    66.5510   468.0790  -999.2500
 1441.0000    66.7810   472.6390  -999.2500
 1441.5000    65.0230   503.2570  -999.2500
 1442.0000    64.1940   509.0330  -999.2500
 1442.5000    66.0580   509.5630  -999.2500
 1443.0000    67.2180   494.7280  -999.2500
 1443.5000    67.1610   502.3000  -999.2500
 1444.0000    66.8340   508.9730  -999.2500
 1444.5000    64.8420   488.3960  -999.2500
 1445.0000    63.4020   484.4000  -999.2500
 1445.5000    63.6610   480.1260  -999.2500
 1446.0000    65.6030   480.0640  -999.2500
 1446.5000    67.0720   485.8900  -999.2500
 1447.0000    68.1300   489.6970  -999.2500
 1447.5000    68.1970   495.9360  -999.2500
 1448.0000    67.0240   488.5770  -999.2500
 1448.5000    67.6080   490.9160  -999.2500
 1449.0000    66.3400   492.6000  -999.2500
 1449.5000    65.5000   492.3240  -999.2500
 1450.0000    64.4780   483.3190  -999.2500
 1450.5000    63.6010   493.8690  -999.2500
 1451.0000    62.0290   508.9770  -999.2500
 1451.5000    63.8100   514.3470  -999.2500
 1452.0000    67.0760   515.9810  -999.2500
 1452.5000    68.2770   521.1840  -999.2500
 1453.0000    67.5610   520.8410  -999.2500
 1453.5000    67.0210   534.9570  -999.2500
 1454.0000    66.7410   544.7290  -999.2500
 1454.5000    67.6650   550.2310  -999.2500
 1455.0000    66.9590   566.0110  -999.2500
 1455.5000    65.5390   574.6060  -999.2500
 1456.0000    65.3250   566.4420  -999.2500
 1456.5000    63.9860   575.9820  -999.2500
 1457.0000    63.8940   575.8260  -999.2500
 1457.5000    64.9760   566.5570  -999.2500
 1458.0000    65.6970   550.4250  -999.2500
 1458.5000    64.6550   553.3740  -999.2500
 1459.0000    64.2750   553.4700  -999.2500
 1459.5000    65.1020   552.0790  -999.2500
 1460.0000    65.7370   531.2410  -999.2500
 1460.5000    67.3600   507.2500  -999.2500
 1461.0000    64.8440   505.4990  -999.2500
 1461.5000    62.6440   501.7430  -999.2500
 1462.0000    61.6710   496.0330  -999.2500
 1462.5000    60.9820   495.7990  -999.2500
 1463.0000    60.2750   496.5880  -999.2500
 1463.5000    60.2590   496.3370  -999.2500
 1464.0000    60.5410   487.8910  -999.2500
 1464.5000    61.2780   495.7220  -999.2500
 1465.0000    61.6030   503.9560  -999.2500
 1465.5000    61.1360   501.3310  -999.2500
 1466.0000    60.5860   495.9120  -999.2500
 1466.5000    61.0770   485.2220  -999.2500
 1467.0000    61.8370   492.0730  -999.2500
 1467.5000    62.2250   490.2040  -999.2500
 1468.0000    62.9260   483.0530  -999.2500
 1468.5000    63.1410   496.6620  -999.2500
 1469.0000    63.2290   503.9640  -999.2500
 1469.5000    63.3960   506.5850  -999.2500
 1470.0000    64.1510   498.8280  -999.2500
 1470.5000    65.6240   490.8050  -999.2500
 1471.0000    65.0300   495.6690  -999.2500
 1471.5000    64.0630   500.3140  -999.2500
 1472.0000    64.5070   509.1430  -999.2500
 1472.5000    65.9760   520.3830  -999.2500
 1473.0000    65.9220   524.8640  -999.2500
 1473.5000    65.1570   526.4540  -999.2500
 1474.0000    64.9240   526.0420  -999.2500
 1474.5000    65.1620   524.5920  -999.2500
 1475.0000    64.4820   527.2760  -999.2500
 1475.5000    65.3170   531.2180  -999.2500
 1476.0000    65.9510   517.7640  -999.2500
 1476.5000    64.7270   505.8320  -999.2500
 1477.0000    60.7210   496.3160  -999.2500
 1477.5000    58.0800   489.5030  -999.2500
 1478.0000    57.2310   483.9250  -999.2500
 1478.5000    59.2300   480.1270  -999.2500
 1479.0000    62.5420   480.9810  -999.2500
 1479.5000    64.1780   481.7200  -999.2500
 1480.0000    65.1670   481.8890  -999.2500
 1480.5000    64.5790   490.2440  -999.2500
 1481.0000    62.6860   492.6950  -999.2500
 1481.5000    60.8120   497.6950  -999.2500
 1482.0000    59.5880   502.6270  -999.2500
 1482.5000    59.4810   513.5040  -999.2500
 1483.0000    60.3840   519.3600  -999.2500
 1483.5000    61.1120   531.2130  -999.2500
 1484.0000    61.6670   526.8260  -999.2500
 1484.5000    65.0600   529.2380  -999.2500
 1485.0000    66.7220   528.5840  -999.2500
 1485.5000    68.5720   527.8800  -999.2500
 1486.0000    70.2270   523.0280  -999.2500
 1486.5000    71.5410   513.3830  -999.2500
 1487.0000    72.4980   507.2420  -999.2500
 1487.5000    73.8430   513.4510  -999.2500
 1488.0000    76.7340   485.6570  -999.2500
 1488.5000    81.9240   466.3620  -999.2500
 1489.0000    86.4310   462.4840  -999.2500
 1489.5000    90.1010   470.5530  -999.2500
 1490.0000    94.6290   489.2030  -999.2500
 1490.5000    99.1540   507.7220  -999.2500
 1491.0000    93.9200   525.6750  -999.2500
 1491.5000    87.5410   532.9710  -999.2500
 1492.0000    83.2540   531.5040  -999.2500
 1492.5000    80.8010   545.4500  -999.2500
 1493.0000    76.1480   551.7950  -999.2500
 1493.5000    67.8470   565.8840  -999.2500
 1494.0000    66.1040   588.2560  -999.2500
 1494.5000    65.9710   609.5190  -999.2500
 1495.0000    66.6880   639.1220  -999.2500
 1495.5000    66.2390   672.0600  -999.2500
 1496.0000    64.2020   697.4870  -999.2500
 1496.5000    64.3030   733.1360  -999.2500
 1497.0000    64.5020   710.3510  -999.2500
 1497.5000    66.5770   692.1000  -999.2500
 1498.0000    66.5410   639.5660  -999.2500
 1498.5000    68.6490   646.2060  -999.2500
 1499.0000    71.5500   608.2350  -999.2500
 1499.5000    75.5320   562.4390  -999.2500
 1500.0000    76.8790   527.0810  -999.2500
 1500.5000    75.2640   524.4240  -999.2500
 1501.0000    69.3250   532.3400  -999.2500
 1501.5000    68.5000   536.3650  -999.2500
 1502.0000    68.3180   517.7990  -999.2500
 1502.5000    68.1580   531.6040  -999.2500
 1503.0000    69.1320   533.8270  -999.2500
 1503.5000    68.8070   533.8370  -999.2500
 1504.0000    64.6970   542.7980  -999.2500
 1504.5000    62.3370   553.8150  -999.2500
 1505.0000    61.7380   577.9640  -999.2500
 1505.5000    61.4580   597.8430  -999.2500
 1506.0000    61.3390   608.0410  -999.2500
 1506.5000    62.3000   590.1470  -999.2500
 1507.0000    63.1490   556.0790  -999.2500
 1507.5000    63.6700   540.3880  -999.2500
 1508.0000    62.7350   531.9480  -999.2500
 1508.5000    60.1880   532.4910  -999.2500
 1509.0000    59.2530   541.6240  -999.2500
 1509.5000    59.6140   554.5580  -999.2500
 1510.0000    61.5090   533.3390  -999.2500
 1510.5000    62.7070   464.4540  -999.2500
 1511.0000    64.6620   469.3670  -999.2500
 1511.5000    65.4410   474.0890  -999.2500
 1512.0000    65.0890   472.2690  -999.2500
 1512.5000    63.8970   474.5520  -999.2500
 1513.0000    63.0440   479.9670  -999.2500
 1513.5000    62.3300   477.7520  -999.2500
 1514.0000    60.5940   474.5550  -999.2500
 1514.5000    62.2680   493.5520  -999.2500
 1515.0000    62.3870   503.8210  -999.2500
 1515.5000    61.6760   515.4250  -999.2500
 1516.0000    60.6030   513.4850  -999.2500
 1516.5000    58.5060   502.1400  -999.2500
 1517.0000    57.6900   502.5310  -999.2500
 1517.5000    57.8650   493.7900  -999.2500
 1518.0000    58.2830   492.7240  -999.2500
 1518.5000    59.3610   511.3010  -999.2500
 1519.0000    60.0790   516.0970  -999.2500
 1519.5000    59.5990   515.1730  -999.2500
 1520.0000    59.4490   481.8980  -999.2500
 1520.5000    59.6800   486.1710  -999.2500
 1521.0000    58.9040   490.5080  -999.2500
 1521.5000    57.5920   494.9170  -999.2500
