~VERSION INFORMATION
 VERS.                2.0:   CWLS LOG ASCII STANDARD - VERSION 2.0
 WRAP.                 NO:   ONE LINE PER DEPTH STEP
~WELL INFORMATION
#MNEM.UNIT      DATA TYPE    INFORMATION
#----------   ------------   ------------------------------
 STRT.F         2496.0000:   START DEPTH
 STOP.F         4120.0000:   STOP DEPTH
 STEP.F            0.5000:   STEP LENGTH
 NULL.          -999.2500:   NO VALUE
 COMP. LAWRENCE ALLISON AND ASSOCIATES:   COMPANY
 WELL. LAWRENCE "X" #85-10:   WELL
 FLD .              N P R:   FIELD
 LOC .      S10 T38N R78W:   LOCATION
 CNTY.            NATRONA:   COUNTY
 STAT.            WYOMING:   STATE
 CTRY. UNITED STATES OF AMERICA:   COUNTRY
 SRVC.      DRESSER ATLAS:   SERVICE COMPANY
 DATE.        20-JAN-1984:   LOGDATE
 API .     49025109580000:   API NUMBER
~CURVE INFORMATION
#MNEM.UNIT       API CODE    CURVE DESCRIPTION
#----------   ------------   ------------------------------
 DEPT.F                  :   
 SPR .MV     07 010 01 00:   SPONTANEOUS POTENTIAL
 TENR.LBS    07 635 01 00:   TENSION FROM RESISTIVITY
 ILD .OHMM   07 120 46 00:   DEEP INDUCTION RESISTIVITY
 ILM .OHMM   07 120 44 00:   INDUCTION LOG MEDIUM RESISTIVITY
 RFOC.OHMM   07 220 04 00:   RESISTIVITY FOCUSED LOG RES.
 GRD .GAPI   45 310 01 00:   GAMMA RAY FROM DENSITY LOG
 CALD.IN     45 280 60 00:   CALIPER FROM DENSITY LOG
 TEND.LBS    45 635 01 00:   TENSION FROM DENSITY LOG
 RHOB.G/C3   45 350 01 00:   BULK DENSITY
 CORR.G/C3   45 356 01 00:   DENSITY CORRECTION
 CN  .DEC    42 890 03 00:   NEUTRON POROSITY SANDSTONE
~PARAMETER INFORMATION
#MNEM.UNIT          VALUE    DESCRIPTION
#----------   ------------   ------------------------------
 EKB .F         5231.0000:   Kelly bushing
 EGL .F         5221.0000:   Ground level
 EDF .F            0.0000:   Drilling floor
 TD  .F         4115.0000:   Total depth
 DATE.        20-JAN-1984:   Date logged
 CLNT.            A2DTECH:   Client Code
 SL  . 2159' FSL & 292' FEL:   Surface Location
 PD  .                 GL:   Permanent Datum
 EPD .F              5221:   Elevation Permanent Datum
 LMF .                 KB:   Log Measured From
 DMF .                 KB:   Drilling Measured From
 DD  .F              4115:   Depth driller
 DL  .F              4111:   Depth logger
 BLI .F              4109:   Bottom log interval
 TLI .F              2496:   Top log interval
 CS1 .IN            8.625:   Casing size
 CBD1.       8.625 @ 537':   Casing driller 1
 BS1 .IN            7.875:   Bit size
 DFT .            GEL KCL:   Type fluid in hole
 DFD .                8.8:   Density
 DFV .                 40:   Viscosity
 DFPH.                  9:   pH
 DFL .                9.8:   Fluid loss
 MSS .           FLOWLINE:   Source of sample
 RMS .OHMM           0.61:   Rm
 MST .F                77:   Rm Meas. temp.
 RMF .OHMM           0.51:   Rmf
 MFST.F                69:   Rmf Meas. temp.
 RMC .OHMM           0.76:   Rmc
 MCST.F                77:   Rmc Meas. temp.
 MFSS.               MEAS:   Source Rmf.
 RMB .OHMM           0.38:   Rm. at BHT
 BHT .F               122:   BHT.
 TCS .HRS               4:   Time Circ. stopped
 MRT .F               122:   Maximum recorded temp.
 LUN .               6307:   Logging unit number
 LUL .               GLTE:   Logging unit location
 ENGI.            DEYOUNG:   Recorded By
 WITN.           R. SCOTT:   Witnessed by
 ORIG.           5" PRINT:   Origin of data
 UWI .     49025109580000:   Unique Well ID
 DICO. A2D TECHNOLOGIES, INC.:   Digitizing Company
 DAPD.                 10:   Feet Above Permanent Datum
 MCSS.               CALC:   Source Rmc.
~OTHER INFORMATION
~A  DEPT       SPR       TENR        ILD        ILM       RFOC        GRD       CALD       TEND       RHOB       CORR         CN   
# ...
 2801.0000   -56.0350   -23.0390     2.4810     2.8730     3.5920   152.6830     8.6280   -28.8470     2.3370     0.1560     0.2420
 2801.5000   -56.1810   -22.7520     2.8600     3.3210     5.5800   131.6820     8.6260   -28.3490     2.4030     0.1100     0.2280
 2802.0000   -56.3380   -22.4660     3.2390     3.7690     6.9130   113.8890     8.6250   -27.8500     2.4760     0.0770     0.2180
 2802.5000   -56.4930   -22.1800     3.6240     4.2170     6.2620   100.4180     8.6240   -27.3520     2.5490     0.0770     0.2220
 2803.0000   -56.6490   -21.8930     4.0230     4.6650     5.7470   101.7840     8.6230   -26.8530     2.5820     0.0760     0.2290
 2803.5000   -56.8070   -21.6070     4.4230     5.6230     6.0090   104.5470     8.6210   -26.3550     2.5820     0.0680     0.2360
 2804.0000   -56.8290   -21.3210     5.5000     6.7500     6.3580   107.0490     8.6200   -25.8560     2.5820     0.0750     0.2380
 2804.5000   -56.8430   -21.0340     6.7930     7.8780     6.7070   106.9850     8.6190   -25.3580     2.5810     0.0990     0.2080
 2805.0000   -56.8580   -20.7480     8.0860     9.0050     8.3010   104.7750     8.6170   -24.8600     2.5800     0.1090     0.1840
 2805.5000   -56.8740   -20.4610     9.3790    10.1330    10.2590    97.2280     8.6160   -24.3610     2.5860     0.1020     0.1600
 2806.0000   -56.8890   -20.1750    10.6720    11.2600    15.3620    88.9720     8.6150   -23.8630     2.6070     0.0950     0.1350
 2806.5000   -56.9040   -19.8890    11.8950    12.3880    20.9300    80.7080     8.6140   -23.3640     2.6350     0.0890     0.1120
 2807.0000   -56.9190   -19.6020    12.8380    13.5160    20.8550    74.6730     8.6120   -22.8660     2.6630     0.0950     0.1040
 2807.5000   -56.9340   -19.3160    13.9500    14.7200    20.7070    74.7290     8.6110   -22.3670     2.6720     0.1030     0.1040
 2808.0000   -56.9500   -19.0290    13.6940    15.4420    20.5620    74.7620     8.6100   -21.8690     2.6610     0.0890     0.1080
 2808.5000   -56.9650   -18.7430    13.1340    15.4420    18.6410    74.3490     8.6090   -21.6870     2.6460     0.0740     0.1130
 2809.0000   -56.9800   -18.4570    12.5730    14.5220    16.7720    73.9810     8.6070   -21.6870     2.6320     0.0760     0.1220
 2809.5000   -56.9950   -18.1700    12.0120    13.6340    14.9030    74.6310     8.6060   -21.6870     2.6190     0.0790     0.1300
 2810.0000   -57.0060   -17.8840    11.3900    12.7470    13.0340    79.4670     8.6050   -21.6870     2.6150     0.0820     0.1430
 2810.5000   -57.1670   -17.5970    10.5910    11.8590    11.9600    84.2090     8.6030   -21.6870     2.6140     0.0850     0.1550
 2811.0000   -57.3600   -17.3110     9.7920    10.9710    11.6880    86.7110     8.6020   -21.6870     2.6130     0.0800     0.1680
 2811.5000   -57.5550   -17.0250     9.0980    10.0830    11.4150    89.4550     8.6010   -21.6870     2.6130     0.0710     0.1730
 2812.0000   -57.7500   -16.7380     8.5190     9.1950    10.0770    94.6520     8.6000   -21.6870     2.6050     0.0680     0.1760
 2812.5000   -57.9440   -16.4520     7.9390     8.3070     8.6000   100.1070     8.6000   -21.6870     2.5960     0.0700     0.1870
 2813.0000   -58.1410   -16.1660     7.3070     7.8140     7.7950   105.4100     8.6000   -21.6870     2.5860     0.0810     0.2000
 2813.5000   -58.1640   -15.8790     7.2390     7.7100     7.7950   105.5940     8.6000   -21.6870     2.5850     0.0920     0.2130
 2814.0000   -58.0810   -15.5930     7.1650     7.6050     7.8860   105.2610     8.6000   -21.6870     2.5790     0.0850     0.2180
 2814.5000   -57.9980   -15.3060     7.0900     7.5010     8.0610   103.4930     8.6000   -21.6870     2.5730     0.0750     0.2150
 2815.0000   -57.9140   -15.0200     7.0160     7.3960     8.2360   101.7400     8.6000   -21.6870     2.5660     0.0620     0.2110
 2815.5000   -57.8270   -14.7340     6.9410     7.2600     8.4110    99.9820     8.6000   -21.6870     2.5670     0.0390     0.2060
 2816.0000   -57.8980   -14.4470     6.8670     6.9440     8.6280    98.6670     8.6000   -21.6870     2.5750     0.0350     0.2010
 2816.5000   -57.9970   -14.1610     6.5740     6.6280     8.5070    97.6780     8.6000   -21.6870     2.5860     0.0430     0.1970
 2817.0000   -58.0960   -13.8740     6.2110     6.3120     8.3470    96.8220     8.6000   -21.6870     2.5950     0.0540     0.1930
 2817.5000   -58.1960   -13.9860     5.8490     5.9960     8.1870    97.5250     8.6000   -21.6870     2.5980     0.0770     0.2000
 2818.0000   -58.2950   -14.1760     5.4860     5.6800     7.4740    98.4950     8.6000   -21.6870     2.5970     0.1010     0.2080
 2818.5000   -58.3940   -14.3660     5.1230     5.3640     5.8770   107.0180     8.6000   -21.6870     2.5890     0.1020     0.2250
 2819.0000   -58.4940   -14.5560     4.6900     5.0490     4.6040   116.2140     8.6000   -21.6870     2.5750     0.0810     0.2430
 2819.5000   -58.5930   -14.7460     4.7920     5.1720     5.2250   120.4300     8.6000   -21.6870     2.5580     0.0590     0.2470
 2820.0000   -58.6920   -14.9360     4.9190     5.2940     5.8900   115.3540     8.6000   -21.6870     2.5550     0.0490     0.2400
 2820.5000   -58.7920   -15.1250     5.0460     5.4160     6.5550   109.7000     8.6000   -21.8370     2.5840     0.0550     0.2320
 2821.0000   -58.8910   -15.3150     5.2200     5.6910     7.2190   105.9450     8.6000   -22.1160     2.6080     0.0860     0.2230
 2821.5000   -58.9910   -15.5050     5.5460     5.9980     7.7230   102.9300     8.6000   -22.3950     2.6260     0.1060     0.2160
 2822.0000   -59.0900   -15.6950     5.8730     6.3050     7.1690   103.5310     8.6000   -22.6740     2.6240     0.1030     0.2140
 2822.5000   -59.1890   -15.8850     6.1990     6.6120     6.7050   108.9530     8.6000   -22.9530     2.6100     0.1010     0.2110
 2823.0000   -59.2880   -16.0740     6.5650     6.9190     6.9970   111.2520     8.6000   -23.2320     2.5970     0.1020     0.2090
 2823.5000   -59.3960   -16.2640     6.9370     7.2270     7.3870   104.7960     8.6000   -23.5110     2.5870     0.1050     0.2040
 2824.0000   -59.1670   -16.4540     7.3090     7.5340     8.5950    97.5300     8.6000   -23.7900     2.6030     0.1020     0.2000
 2824.5000   -58.8090   -16.6440     7.6810     7.8410     9.8090    95.7170     8.6000   -24.0690     2.6130     0.0960     0.1960
 2825.0000   -58.4480   -16.8340     8.0530     8.1480    10.0490    97.9140     8.6000   -24.3490     2.6150     0.0880     0.1920
 2825.5000   -58.0870   -17.0230     8.2320     8.3220    10.0960   101.5040     8.6000   -24.6280     2.6160     0.0750     0.1940
 2826.0000   -57.7260   -17.2130     8.3680     8.4390     9.5580   105.1810     8.6000   -24.9070     2.6170     0.0720     0.1980
 2826.5000   -57.3640   -17.4030     8.5040     8.5570     9.1470   106.2790     8.6000   -25.1860     2.6160     0.0810     0.2030
 2827.0000   -56.9990   -17.5930     8.6390     8.6750     8.8710   106.1440     8.6000   -25.4650     2.6130     0.0860     0.2070
 2827.5000   -56.6330   -17.7830     8.7750     8.7930     8.8710   104.7800     8.6000   -25.7440     2.6090     0.0790     0.2080
 2828.0000   -56.8980   -17.9730     8.9110     8.9100     9.1390   102.5600     8.6000   -26.0230     2.6050     0.0720     0.2050
 2828.5000   -57.2130   -18.1620     9.0470     9.0280     9.6310    99.9090     8.6000   -26.3020     2.6050     0.0660     0.2000
 2829.0000   -57.5270   -18.3520     9.1830     9.1460    10.1230    97.2590     8.6000   -26.5810     2.6080     0.0720     0.1960
 2829.5000   -57.8400   -18.5420     9.3770     9.2900    10.6160    94.6180     8.6000   -26.8600     2.6150     0.1020     0.1910
 2830.0000   -58.1530   -18.7320     8.9840     8.7860    11.1080    91.9670     8.6010   -27.1390     2.6220     0.1190     0.1870
 2830.5000   -58.4660   -18.9220     8.3030     8.1350    11.7040    90.5330     8.6040   -27.4180     2.6230     0.1170     0.1920
 2831.0000   -58.7790   -19.1110     7.6210     7.4830    11.2830    94.7500     8.6080   -27.6970     2.6190     0.1070     0.2010
