~VERSION INFORMATION
 VERS.                2.0:   CWLS LOG ASCII STANDARD - VERSION 2.0
 WRAP.                 NO:   ONE LINE PER DEPTH STEP
~WELL INFORMATION
#MNEM.UNIT      DATA TYPE    INFORMATION
#----------   ------------   ------------------------------
 STRT.F          192.0000:   START DEPTH
 STOP.F         3016.0000:   STOP DEPTH
 STEP.F            0.5000:   STEP LENGTH
 NULL.          -999.2500:   NO VALUE
 COMP. FENIX & SCISSON U.S. NAVY:   COMPANY
 WELL.  FENIX "AX" #81-33:   WELL
 FLD .              NPR-3:   FIELD
 LOC .      S33 T39N R78W:   LOCATION
 CNTY.            NATRONA:   COUNTY
 STAT.            WYOMING:   STATE
 CTRY. UNITED STATES OF AMERICA:   COUNTRY
 SRVC.              WELEX:   SERVICE COMPANY
 DATE.        12-MAY-1977:   LOGDATE
 API .     49025109850000:   API NUMBER
~CURVE INFORMATION
#MNEM.UNIT       API CODE    CURVE DESCRIPTION
#----------   ------------   ------------------------------
 DEPT.F                  :   
 SPR .MV     07 010 01 00:   SPONTANEOUS POTENTIAL
 RILM.OHMM   07 120 44 00:   INDUCTION LOG MEDIUM RESISTIVITY
 RILD.OHMM   07 120 46 00:   DEEP INDUCTION RESISTIVITY
 SGRD.OHMM   07 220 05 00:   SHALLOW GUARD LOG RESISTIVITY
 NPHI.DEC    42 890 03 00:   NEUTRON POROSITY SANDSTONE
 GRD .GAPI   45 310 01 00:   GAMMA RAY FROM DENSITY LOG
 CALD.IN     45 280 60 00:   CALIPER FROM DENSITY LOG
 RHOB.G/C3   45 350 01 00:   BULK DENSITY
 DCOR.G/C3   45 356 01 00:   DENSITY CORRECTION
~PARAMETER INFORMATION
#MNEM.UNIT          VALUE    DESCRIPTION
#----------   ------------   ------------------------------
 EKB .F         5114.0000:   Kelly bushing
 EGL .F         5100.0000:   Ground level
 EDF .F         5112.0000:   Drilling floor
 TD  .F         3014.0000:   Total depth
 DATE.        12-MAY-1977:   Date logged
 CLNT.            A2DTECH:   Client Code
 SL  . 660' FEL & 660' FNL:   Surface Location
 PD  .                 GL:   Permanent Datum
 EPD .F              5100:   Elevation Permanent Datum
 LMF .                 KB:   Log Measured From
 DMF .                 KB:   Drilling Measured From
 DD  .F              3000:   Depth driller
 DL  .F              3014:   Depth logger
 BLI .F              3012:   Bottom log interval
 TLI .F              1500:   Top log interval
 CS1 .IN            8.625:   Casing size
 CBD1.      8.625" @ 217':   Casing driller 1
 CBL1.F               209:   Casing logger 1
 BS1 .IN            7.875:   Bit size
 BSD1.F              3000:   Depth drilled with bit1
 DFT .            KCL MUD:   Type fluid in hole
 DFD .                  9:   Density
 DFV .                 33:   Viscosity
 DFPH.                7.5:   pH
 DFL .                7.8:   Fluid loss
 MSS .           FLOWLINE:   Source of sample
 RMS .OHMM           0.69:   Rm
 MST .F                68:   Rm Meas. temp.
 RMF .OHMM           0.66:   Rmf
 MFST.F                68:   Rmf Meas. temp.
 RMC .OHMM           1.27:   Rmc
 MCST.F                68:   Rmc Meas. temp.
 MFSS.                 BK:   Source Rmf.
 MCSS.                 BK:   Source Rmc.
 RMB .OHMM           0.39:   Rm. at BHT
 BHT .F               118:   BHT.
 TCS .HRS               6:   Time Circ. stopped
 MRT .F               118:   Maximum recorded temp.
 LUN .               9685:   Logging unit number
 LUL .           BRIGHTON:   Logging unit location
 ENGI.          T. JOYNER:   Recorded By
 WITN.            K. JAPP:   Witnessed by
 ORIG.           5" PRINT:   Origin of data
 UWI .     49025109850000:   Unique Well ID
 DICO. A2D TECHNOLOGIES, INC.:   Digitizing Company
~OTHER INFORMATION
~A   DEPT      SPR       RILM       RILD       SGRD       NPHI         GRD        CALD       RHOB     DCOR   
# ...
 1688.5000   -24.0050     6.7920     5.6160     8.7720  -999.2500   147.1690     8.4220     2.5110     0.0350
 1689.0000   -23.9890     6.3680     5.5480     8.6860  -999.2500   148.8750     8.4350     2.5080     0.0350
 1689.5000   -23.9730     6.6680     5.5480     8.6010  -999.2500   149.9490     8.4480     2.5060     0.0320
 1690.0000   -23.9560     6.2520     5.4830     8.4680  -999.2500   149.6500     8.4610     2.5030     0.0310
 1690.5000   -23.9400     6.3410     5.2990     8.5450  -999.2500   149.3820     8.4740     2.5020     0.0350
 1691.0000   -23.9230     6.5860     5.3550     8.7160  -999.2500   149.1170     8.4870     2.5020     0.0390
 1691.5000   -23.9070     6.3940     5.4000     8.8860  -999.2500   148.8500     8.5000     2.5010     0.0390
 1692.0000   -23.8900     6.1380     5.4440     9.0230  -999.2500   148.5820     8.5130     2.5010     0.0380
 1692.5000   -23.8740     6.3680     5.4890     9.1140  -999.2500   148.3190     8.5150     2.5010     0.0360
 1693.0000   -23.8570     6.0820     5.4970     8.9710  -999.2500   148.0910     8.4940     2.5020     0.0350
 1693.5000   -23.8400     6.1380     5.4970     8.8530  -999.2500   146.8430     8.4740     2.5030     0.0360
 1694.0000   -23.8250     6.1160     5.4970     8.7360  -999.2500   145.4740     8.4540     2.5030     0.0390
 1694.5000   -23.8560     6.0790     5.4970     8.6190  -999.2500   144.0910     8.4340     2.5040     0.0420
 1695.0000   -23.8900     6.0270     5.4980     8.5500  -999.2500   142.7110     8.4130     2.5040     0.0430
 1695.5000   -23.9230     6.0460     5.4800     8.5880  -999.2500   141.3270     8.3930     2.5040     0.0390
 1696.0000   -23.9570     6.0820     5.4570     8.6180  -999.2500   139.9110     8.3890     2.5030     0.0430
 1696.5000   -23.9910     6.0230     5.4350     8.6480  -999.2500   140.1710     8.4110     2.5030     0.0490
 1697.0000   -24.0510     5.9710     5.4120     8.6790  -999.2500   140.9490     8.4330     2.5020     0.0550
 1697.5000   -24.2740     6.0240     5.2500     8.7010  -999.2500   142.4300     8.4550     2.5020     0.0610
 1698.0000   -24.5000     6.0820     5.2260     8.5110  -999.2500   143.8920     8.4770     2.5010     0.0670
 1698.5000   -24.6490     5.7920     5.1870     8.3410  -999.2500   145.3530     8.4980     2.5000     0.0660
 1699.0000   -24.7280     5.7390     5.0680     8.1710  -999.2500   146.8260     8.5200     2.4990     0.0590
 1699.5000   -24.8070     5.6360     4.9490     7.9450  -999.2500   148.3570     8.5400     2.4970     0.0520
 1700.0000   -24.8870     5.3970     4.8290     7.6670  -999.2500   149.1680     8.5300     2.4940     0.0460
 1700.5000   -24.9660     5.1200     4.6880     7.3460  -999.2500   147.7100     8.5180     2.4910     0.0480
 1701.0000   -25.0450     4.8130     4.4970     6.7650  -999.2500   146.3070     8.5070     2.4870     0.0500
 1701.5000   -25.1250     4.3690     4.3060     5.9430  -999.2500   144.8710     8.4950     2.4820     0.0520
 1702.0000   -25.1910     4.4360     4.1600     5.2020  -999.2500   145.3140     8.4840     2.4780     0.0520
 1702.5000   -25.1040     4.5710     4.1180     6.1310  -999.2500   147.7670     8.4720     2.4730     0.0490
 1703.0000   -25.0180     4.7050     4.0760     7.3770  -999.2500   150.1290     8.4610     2.4680     0.0430
 1703.5000   -24.9330     4.8230     4.0220     7.2830  -999.2500   152.4640     8.4500     2.4640     0.0370
 1704.0000   -24.8490     4.9230     4.0400     6.8140  -999.2500   154.8010     8.4380     2.4590     0.0340
 1704.5000   -24.8140     4.2110     4.0670     6.2020  -999.2500   156.7790     8.4270     2.4560     0.0410
 1705.0000   -24.8330     4.3860     4.0960     5.6510  -999.2500   156.4920     8.4150     2.4570     0.0460
 1705.5000   -24.8520     4.7930     4.1450     6.0820  -999.2500   155.5710     8.4030     2.4650     0.0430
 1706.0000   -24.8710     5.4470     4.2000     8.1620  -999.2500   154.6170     8.4170     2.4740     0.0260
 1706.5000   -24.8900     5.2610     4.2540     8.0310  -999.2500   153.6120     8.4400     2.4830     0.0220
 1707.0000   -24.9090     4.9690     4.3090     7.7680  -999.2500   154.3910     8.4630     2.4920     0.0320
 1707.5000   -24.9280     5.0740     4.3690     7.5050  -999.2500   155.5450     8.4860     2.5000     0.0320
 1708.0000   -24.9470     5.2020     4.4220     7.2420  -999.2500   156.7140     8.5100     2.5040     0.0440
 1708.5000   -24.9670     5.1080     4.4820     7.1110  -999.2500   157.9120     8.5340     2.5040     0.0440
 1709.0000   -24.9860     5.0150     4.5410     7.2780  -999.2500   157.5180     8.5090     2.5040     0.0460
 1709.5000   -24.9980     5.1010     4.6010     7.4070  -999.2500   156.6870     8.4650     2.5030     0.0480
 1710.0000   -24.9890     5.2020     4.6600     7.4450  -999.2500   154.8570     8.4220     2.5000     0.0420
 1710.5000   -24.9810     5.1280     4.7020     7.4450  -999.2500   153.0780     8.3780     2.4940     0.0390
 1711.0000   -24.9720     4.9690     4.6540     7.4450  -999.2500   151.3040     8.3320     2.4840     0.0440
 1711.5000   -24.9640     5.0520     4.6170     7.4450  -999.2500   149.5250     8.3290     2.4750     0.0480
 1712.0000   -24.9560     5.2020     4.5800     7.2030  -999.2500   147.7040     8.3390     2.4730     0.0450
 1712.5000   -24.9470     4.8780     4.5430     6.9340  -999.2500   146.5940     8.3500     2.4750     0.0460
 1713.0000   -24.9390     4.4090     4.4410     6.6650  -999.2500   145.6550     8.3610     2.4760     0.0470
 1713.5000   -24.9300     4.7020     4.3110     6.3680  -999.2500   145.2920     8.3720     2.4770     0.0450
 1714.0000   -24.9220     4.7020     4.1800     6.2820  -999.2500   145.6420     8.3830     2.4720     0.0500
 1714.5000   -24.9130     4.4730     4.0500     6.1870  -999.2500   146.2330     8.3940     2.4640     0.0540
 1715.0000   -24.9050     4.2900     3.9230     6.0820  -999.2500   146.8350     8.4050     2.4610     0.0580
 1715.5000   -24.8970     4.1330     3.7980     5.6820  -999.2500   147.4650     8.4150     2.4710     0.0620
 1716.0000   -24.8880     3.9760     3.6730     4.9800  -999.2500   147.5030     8.4260     2.4620     0.0620
 1716.5000   -24.8800     3.7710     3.6260     4.4710  -999.2500   145.2660     8.4370     2.4500     0.0520
 1717.0000   -24.8710     4.0720     3.6130     4.4090  -999.2500   143.0930     8.4480     2.4440     0.0420
 1717.5000   -24.8630     4.7890     3.6010     6.3680  -999.2500   140.9380     8.4600     2.4480     0.0390
 1718.0000   -24.8540     4.4180     3.5880     6.7290  -999.2500   138.7920     8.4550     2.4700     0.0460
 1718.5000   -24.8460     4.1340     3.5750     6.2590  -999.2500   136.8410     8.4490     2.4920     0.0550
 1719.0000   -24.8380     4.2500     3.5420     5.7030  -999.2500   136.1230     8.4420     2.4910     0.0510
 1719.5000   -24.8290     4.1580     3.4880     5.8090  -999.2500   135.4250     8.4360     2.4820     0.0470
 1720.0000   -24.8210     3.9740     3.4720     5.5730  -999.2500   135.7800     8.4300     2.4740     0.0440
 1720.5000   -24.8130     3.7710     3.4720     5.1380  -999.2500   136.5160     8.4240     2.4720     0.0480
 1721.0000   -24.7990     3.6350     3.4720     4.6590  -999.2500   138.0610     8.4180     2.4730     0.0520
 1721.5000   -24.6460     3.8370     3.4720     5.3500  -999.2500   139.5460     8.4120     2.4840     0.0570
 1722.0000   -24.4880     4.0960     3.4720     6.1950  -999.2500   141.0140     8.4060     2.4800     0.0690
 1722.5000   -24.3320     3.9210     3.4720     6.1950  -999.2500   142.4820     8.4010     2.4760     0.0820
 1723.0000   -24.1740     3.8060     3.4830     4.9690  -999.2500   143.0470     8.4120     2.4910     0.0830
 1723.5000   -24.0230     4.0890     3.5040     5.0610  -999.2500   142.7070     8.4220     2.4780     0.0810
 1724.0000   -24.0080     4.8780     3.5770     5.8270  -999.2500   142.3690     8.4330     2.4730     0.0690
 1724.5000   -23.9970     4.7550     3.6430     6.4270  -999.2500   142.0270     8.4430     2.5050     0.0680
