~VERSION INFORMATION
 VERS.                2.0:   CWLS LOG ASCII STANDARD - VERSION 2.0
 WRAP.                 NO:   ONE LINE PER DEPTH STEP
~WELL INFORMATION
#MNEM.UNIT      DATA TYPE    INFORMATION
#----------   ------------   ------------------------------
 STRT.F           30.0000:   START DEPTH
 STOP.F         3240.0000:   STOP DEPTH
 STEP.F            0.5000:   STEP LENGTH
 NULL.          -999.2500:   NO VALUE
 COMP. LAWRENCE-ALLISON ASSOCIATES WES:   COMPANY
 WELL. LAWRENCE "AX" #87AX28:   WELL
 FLD .   TEAPOT N.P.R. #3:   FIELD
 LOC .      S28 T39N R78W:   LOCATION
 CNTY.            NATRONA:   COUNTY
 STAT.            WYOMING:   STATE
 CTRY. UNITED STATES OF AMERICA:   COUNTRY
 SRVC.       SCHLUMBERGER:   SERVICE COMPANY
 DATE.        28-MAY-1982:   LOGDATE
 API .     49025108860000:   API NUMBER
~CURVE INFORMATION
#MNEM.UNIT       API CODE    CURVE DESCRIPTION
#----------   ------------   ------------------------------
 DEPT.F                  :   
 TENR.LBS    07 635 01 00:   TENSION FROM RESISTIVITY
 GRR .GAPI   07 310 01 00:   GAMMA RAY FROM RESISTIVITY
 SPR .MV     07 010 01 00:   SPONTANEOUS POTENTIAL FROM RES.
 ILD .OHMM   07 120 46 00:   DEEP INDUCTION RESISTIVITY
 ILM .OHMM   07 120 44 00:   INDUCTION LOG MEDIUM RESISTIVITY
 SFL .OHMM   07 220 01 00:   SHALLOW FOCUSED LOG RESISITIVITY
 TEND.LBS    45 635 01 00:   TENSION FORM DENSITY LOG
 NPHI.DEC    42 890 03 00:   NEUTRON POROSITY SANDSTONE
 CALD.IN     45 280 60 00:   CALIPER FROM DENSITY LOG
 CORR.G/C3   45 356 01 00:   DENSITY CORRECTION
 RHOB.G/C3   45 350 01 00:   BULK DENSITY
~PARAMETER INFORMATION
#MNEM.UNIT          VALUE    DESCRIPTION
#----------   ------------   ------------------------------
 EKB .F         5070.0000:   Kelly bushing
 EGL .F         5060.0000:   Ground level
 TD  .F         3220.0000:   Total depth
 CLNT.            A2DTECH:   Client Code
 SL  . 1341' FSL & 162' FEL:   Surface Location
 PD  .                 GL:   Permanent Datum
 EPD .F              5060:   Elevation Permanent Datum
 LMF .                 KB:   Log Measured From
 DMF .                 KB:   Drilling Measured From
 DAPD.F                10:   Feet Above Permanent Datum
 DATE.        28-MAY-1982:   Date Logged [DD-MMM-YYYY]
 DD  .F              3220:   Depth driller
 DL  .F              3215:   Depth logger
 BLI .F              3212:   Bottom log interval
 TLI .F               489:   Top log interval
 CS1 .IN            9.625:   Casing size
 CBD1.      9.625" @ 461':   Casing driller 1
 CBL1.F               489:   Casing logger 1
 BS1 .IN            9.750:   Bit size
 BSD1.F              3220:   Depth drilled with bit1
 DFT .          POLY./KCL:   Type fluid in hole
 DFD .                8.8:   Density
 DFV .                 44:   Viscosity
 DFPH.                7.0:   pH
 DFL .                8.0:   Fluid loss
 MSS .           MUD TANK:   Source of sample
 RMS .OHMM          0.778:   Rm
 MST .F                65:   Rm Meas. temp.
 RMF .OHMM          0.710:   Rmf
 MFST.F                67:   Rmf Meas. temp.
 MFSS.               MEAS:   Source Rmf.
 RMB .OHMM          0.447:   Rm. at BHT
 BHT .F               118:   BHT.
 TCS .HRS            2000:   Time Circ. stopped
 TLAB.HRS            2430:   Time logger at bottom
 MRT .F               118:   Maximum recorded temp.
 LUN .               8043:   Logging unit number
 LUL .               CSPR:   Logging unit location
 ENGI.             DENNIS:   Recorded By
 WITN.             STRONG:   Witnessed by
 ORIG.           5" PRINT:   Origin of data
 UWI .     49025108860000:   Unique Well ID
 DICO. A2D TECHNOLOGIES, INC.:   Digitizing Company
~OTHER INFORMATION
~A   DEPT     TENR         GRR       SPR        ILD        ILM        SFL       TEND       NPHI       CALD       CORR       RHOB   
# ...
 1036.5000   774.9510    91.7650   -15.7793     8.5145     7.6059     8.4394   928.4462    -0.0200    11.0694     0.0012     2.5118
 1037.0000   775.0457    93.1636   -15.9295     8.3989     7.5116     8.3261   928.5714    -0.0268    11.0716     0.0013     2.5071
 1037.5000   775.1403    95.2516   -16.2328     8.3441     7.4632     8.2721   928.5714    -0.0274    11.0993     0.0014     2.5056
 1038.0000   775.2350    98.0320   -16.8424     8.2320     7.3624     8.2783   928.5714    -0.0211    11.0990    -0.0009     2.5057
 1038.5000   775.3297   100.3508   -17.2989     8.1783     7.2642     8.2833   928.5714    -0.0095    11.1294    -0.0032     2.5042
 1039.0000   775.4243   102.4389   -17.6022     8.1830     7.2172     8.2294   928.5714     0.0075    11.1596    -0.0047     2.5019
 1039.5000   775.5189   104.5270   -17.7524     8.0719     7.1682     8.1747   928.5714     0.0203    11.1899    -0.0015     2.5012
 1040.0000   775.6136   108.0924   -17.9020     8.0193     7.0740     8.0651   928.5714     0.0306    11.2202     0.0033     2.4989
 1040.5000   775.7082   110.7828   -17.8989     8.0240     7.0797     8.0126   928.5714     0.0318    11.2505     0.0025     2.4959
 1041.0000   775.8029   110.5632   -17.8953     7.9716     7.0844     8.0175   928.5714     0.0293    11.2655     0.0019     2.4936
 1041.5000   775.8975   108.2666   -17.8923     7.9196     7.0890     7.9100   928.5714     0.0225    11.2651     0.0082     2.5084
 1042.0000   775.9921   103.6624   -17.7362     7.8132     7.0936     7.8574   928.5714     0.0207    11.2190     0.0270     2.5310
 1042.5000   776.0868   101.5966   -17.8872     7.7622     7.0982     7.8063   928.5714     0.0349    11.1575     0.0318     2.5388
 1043.0000   776.1814   100.9154   -18.0373     7.7668     7.1030     7.7556   928.5714     0.0392    11.1418     0.0310     2.5283
 1043.5000   776.2761   101.1892   -18.1868     7.7160     7.0571     7.7063   928.5714     0.0373    11.1415     0.0186     2.5079
 1044.0000   776.3707   102.0943   -18.1838     7.7207     7.0127     7.7110   928.5714     0.0299    11.1565     0.0037     2.5063
 1044.5000   776.4653   103.0285   -17.8739     7.6714     6.9674     7.7156   928.5714     0.0339    11.1715     0.0023     2.5095
 1045.0000   776.5600   104.4243   -17.8709     7.6759     6.9225     7.6122   928.5714     0.0421    11.1712     0.0016     2.5142
 1045.5000   776.6547   105.5893   -17.4086     7.6247     6.9270     7.6167   928.5714     0.0405    11.1709     0.0009     2.5205
 1046.0000   776.7493   107.4466   -17.2525     7.5760     6.8335     7.6758   928.5714     0.0205    11.1706     0.0119     2.5277
 1046.5000   776.8439   108.3808   -17.0964     7.5255     6.7412     7.7341   928.5714    -0.0041    11.1857     0.0167     2.5331
 1047.0000   776.9386   108.8539   -16.9403     7.4775     6.6978     7.5762   928.5714    -0.0096    11.1853     0.0095     2.5253
 1047.5000   777.0332   106.3289   -17.0905     7.4820     6.7032     7.4736   928.5714    -0.0078    11.1850     0.0004     2.5137
 1048.0000   777.1279   104.2631   -17.0868     7.4874     6.7076     7.4250   928.5714     0.0089    11.1847    -0.0034     2.5060
 1048.5000   777.2225   102.8897   -17.0839     7.4917     6.7600     7.3779   928.5714     0.0268    11.1997    -0.0041     2.5068
 1049.0000   777.3171   102.6672   -16.6215     7.4961     6.7162     7.4351   928.5714     0.0335    11.1993    -0.0001     2.5108
 1049.5000   777.4118   103.1427   -16.7717     7.5005     6.7208     7.4395   928.5714     0.0365    11.2144     0.0062     2.5178
 1050.0000   777.5064   104.3077   -17.2282     7.5049     6.7253     7.5508   928.5714     0.0133    11.2140     0.0094     2.5210
 1050.5000   777.6011   103.8246   -17.2251     7.5093     6.7306     7.6094   928.5714     0.0078    11.2139     0.0063     2.5203
 1051.0000   777.6957   102.0251   -17.2215     7.6217     6.7350     7.6141   928.5714     0.0199    11.2291     0.0017     2.5180
 1051.5000   777.7903   100.1900   -17.2186     7.6271     6.8361     7.6196   928.5714     0.0345    11.2442     0.0010     2.5118
 1052.0000   777.8850    99.9676   -17.5166     7.6862     6.9883     7.6787   928.5714     0.0355    11.2746     0.0049     2.5057
 1052.5000   777.9797   101.8277   -17.6653     7.6907     7.0429     7.7383   928.5714     0.0160    11.2745     0.0082     2.5090
 1053.0000   778.0743   100.2235   -17.8140     7.8057     6.9974     7.8540   928.5714     0.0119    11.2284     0.0097     2.5182
 1053.5000   778.1689    98.8500   -17.8084     7.9224     7.0532     7.9715   928.6420     0.0152    11.1977     0.0051     2.5152
 1054.0000   778.2635   102.0309   -17.8040     7.9837     7.1591     8.0334   929.0037     0.0276    11.1823    -0.0018     2.5082
 1054.5000   778.3582   105.7981   -17.6462     8.0457     7.2144     8.0968   929.3654     0.0230    11.1668    -0.0064     2.5098
 1055.0000   778.4529   106.7324   -17.7951     8.0514     7.2713     8.0430   929.7271     0.0108    11.1513    -0.0063     2.5153
 1055.5000   778.5475   104.8973   -17.7895     7.9977     7.2760     8.0490   930.0887     0.0053    11.1359    -0.0023     2.5194
 1056.0000   778.6422   103.5239   -17.7851     7.9456     7.2808     8.0538   930.4504     0.0034    11.1358     0.0055     2.5248
 1056.5000   778.7368   103.0731   -17.7806     7.9514     7.2338     8.0003   930.8120     0.0021    11.1356     0.0111     2.5256
 1057.0000   778.8314   103.5494   -17.7762     7.9560     7.2397     8.0063   931.1737    -0.0003    11.1202     0.0072     2.5249
 1057.5000   778.9261   104.7461   -17.9250     8.0210     7.2445     8.0111   931.5353    -0.0119    11.1200     0.0026     2.5249
 1058.0000   779.0208   103.3404   -17.7672     8.1387     7.2492     8.0171   931.8970    -0.0236    11.0893     0.0027     2.5304
 1058.5000   779.1154   101.2747   -17.7626     8.2604     7.3058     8.1370   932.2587    -0.0273    11.0739     0.0020     2.5360
 1059.0000   779.2100   100.3599   -17.6041     8.4439     7.3105     8.3178   932.6203    -0.0217    11.0737     0.0013     2.5414
 1059.5000   779.3046   100.8354   -17.5996     8.5701     7.2634     8.4422   932.9820    -0.0054    11.1041    -0.0010     2.5438
 1060.0000   779.3993   102.6927   -17.7494     8.3937     7.2099     8.3873   933.3436     0.0092    11.1193    -0.0025     2.5367
 1060.5000   779.4940   105.0162   -17.7439     8.1624     7.0697     8.1555   933.7053     0.0213    11.1344    -0.0001     2.5360
 1061.0000   779.5886   105.9462   -17.7394     7.9945     7.0743     7.9334   934.0670     0.0274    11.1496     0.0047     2.5391
 1061.5000   779.6832   105.7261   -17.5818     7.9435     7.0276     7.8807   934.4286     0.0261    11.1552     0.0118     2.5485
 1062.0000   779.7779   105.0449   -17.5773     7.8905     7.0333     7.8294   934.7903     0.0047    11.1798     0.0150     2.5571
 1062.5000   779.8725   106.9050   -17.7261     7.7833     7.0379     7.7785   935.1520    -0.0139    11.1950     0.0104     2.5509
 1063.0000   779.9672   110.6085   -17.7205     7.7326     6.9925     7.7844   935.5136    -0.0093    11.1948     0.0057     2.5385
 1063.5000   780.0618   111.7734   -17.8703     7.6832     6.8992     7.8447   935.8753    -0.0048    11.1946     0.0042     2.5316
 1064.0000   780.1564   110.6177   -18.1721     7.6877     6.8536     7.9621   936.2369     0.0003    11.2098     0.0067     2.5254
 1064.5000   780.2511   108.0318   -18.3208     7.5833     6.7622     7.7442   936.5986     0.0052    11.2096     0.0013     2.5168
 1065.0000   780.3457   105.1173   -18.4695     7.5339     6.7174     7.5312   936.9603     0.0061    11.2248    -0.0034     2.5105
 1065.5000   780.4404   103.7439   -18.7703     7.5394     6.7229     7.4811   937.3220     0.0081    11.2399    -0.0056     2.5046
 1066.0000   780.5350   102.1396   -18.9270     7.5438     6.7754     7.5402   937.6836     0.0124    11.2397    -0.0056     2.5054
 1066.5000   780.6296   100.9969   -19.2196     7.5482     6.7317     7.5987   938.0453     0.0330    11.2396    -0.0024     2.5039
