~VERSION INFORMATION
 VERS.                2.0:   CWLS LOG ASCII STANDARD - VERSION 2.0
 WRAP.                 NO:   ONE LINE PER DEPTH STEP
~WELL INFORMATION
#MNEM.UNIT      DATA TYPE    INFORMATION
#----------   ------------   ------------------------------
 STRT.F           11.0000:   START DEPTH
 STOP.F         3368.0000:   STOP DEPTH
 STEP.F            0.5000:   STEP LENGTH
 NULL.          -999.2500:   NO VALUE
 COMP. LAWRENCE ALLISON AND ASSOC.:   COMPANY
 WELL. LAWRENCE NPR "AX" #3-11:   WELL
 FLD .                NPR:   FIELD
 LOC .      S11 T38N R78W:   LOCATION
 CNTY.            NATRONA:   COUNTY
 STAT.            WYOMING:   STATE
 CTRY. UNITED STATES OF AMERICA:   COUNTRY
 SRVC.      DRESSER ATLAS:   SERVICE COMPANY
 DATE.        17-JAN-1986:   LOGDATE
 API .     49025110540000:   API NUMBER
~CURVE INFORMATION
#MNEM.UNIT       API CODE    CURVE DESCRIPTION
#----------   ------------   ------------------------------
 DEPT.F                  :   
 TEND.LBS    45 635 01 00:   TENSION FROM DENSITY LOG
 DEN .G/C3   45 350 01 00:   BULK DENSITY
 CORR.G/C3   45 356 01 00:   DENSITY CORRECTION
 CNC .DEC    42 890 03 00:   NEUTRON PORISITY SANDSTONE
 TENR.LBS    07 635 01 00:   TENSION FROM RESISTIVITY
 CALR.IN     07 280 01 00:   CALIPER FROM RESISTIVITY
 SPR .MV     07 010 01 00:   SPONTANEOUS POTENTIAL
 GRR .GAPI   07 310 01 00:   GAMMA RAY FROM RESISTIVITY
 RFOC.OHMM   07 220 04 00:   RESISTIVITY FOCUSED LOG RES.
 RILD.OHMM   07 120 46 00:   INDUCTION LOG DEEP RESISTIVITY
 RILM.OHMM   07 120 44 00:   INDUCTION LOG MEDIUM RESISTIVITY
 TENS.LBS    60 635 01 00:   TENSION FROM SONIC
 AC  .US/F   60 250 00 00:   ACCOUSTIC
~PARAMETER INFORMATION
#MNEM.UNIT          VALUE    DESCRIPTION
#----------   ------------   ------------------------------
 EKB .F         5195.5000:   Kelly bushing
 EGL .F         5183.2000:   Ground level
 EDF .F         5194.5000:   Drilling floor
 TD  .F         3360.0000:   Total depth
 DATE.        17-JAN-1986:   Date logged
 CLNT.            A2DTECH:   Client Code
 SL  . 2389' FSL & 461'FWL:   Surface Location
 PD  .                 GL:   Permanent Datum
 EPD .F            5183.2:   Elevation Permanent Datum
 LMF .                 KB:   Log Measured From
 DMF .                 KB:   Drilling Measured From
 DAPD.F              12.3:   Feet Above Permanent Datum
 DD  .F              3360:   Depth driller
 DL  .F              3358:   Depth logger
 BLI .F              3356:   Bottom log interval
 TLI .F               575:   Top log interval
 CS1 .IN            8.625:   Casing size
 CBD1.      8.625" @ 575':   Casing driller 1
 CBL1.F               575:   Casing logger 1
 BS1 .IN            7.875:   Bit size
 BSD1.F              3360:   Depth drilled with bit1
 DFT .        POLYMER-KCL:   Type fluid in hole
 DFD .                  9:   Density
 DFV .                 36:   Viscosity
 DFPH.                  9:   pH
 DFL .                9.5:   Fluid loss
 MSS .           FLOWLINE:   Source of sample
 RMS .OHMM           .633:   Rm
 MST .F                68:   Rm Meas. temp.
 RMF .OHMM           .475:   Rmf
 MFST.F                68:   Rmf Meas. temp.
 RMC .OHMM           .791:   Rmc
 MCST.F                68:   Rmc Meas. temp.
 RMB .OHMM            .44:   Rm. at BHT
 BHT .F                98:   BHT.
 TCS .HRS               4:   Time Circ. stopped
 MRT .F                98:   Maximum recorded temp.
 LUN .               6264:   Logging unit number
 LUL .               GLTE:   Logging unit location
 ENGI.             MILLER:   Recorded By
 WITN.             STRONG:   Witnessed by
 ORIG.        2" 5" PRINT:   Origin of data
 UWI .     49025110540000:   Unique Well ID
 DICO. A2D TECHNOLOGIES, INC.:   Digitizing Company
~OTHER INFORMATION
~A   DEPT     TEND        DEN       CORR        CNC       TENR       CALR        SPR         GRR      RFOC       RILD       RILM       TENS         AC   
# ...
 1311.0000  -999.2500  -999.2500  -999.2500  -999.2500   -86.1060     9.2240   -51.4040   101.7380     8.9190     8.2600     8.4360   -94.6890    90.0790
 1311.5000  -999.2500  -999.2500  -999.2500  -999.2500   -94.6890     9.2280   -50.9530   101.6150     8.9190     8.2080     8.4000   -94.6890    89.9470
 1312.0000  -999.2500  -999.2500  -999.2500  -999.2500   -98.8980     9.2320   -50.4970    99.6430     8.9190     8.2150     8.3610   -94.6890    89.8150
 1312.5000  -999.2500  -999.2500  -999.2500  -999.2500  -103.3430     9.2370   -50.0300    95.5240     8.9190     8.2270     8.3740   -94.6890    89.6830
 1313.0000  -999.2500  -999.2500  -999.2500  -999.2500  -107.7880     9.2410   -49.7360    91.3980     8.9190     8.2400     8.3870   -94.6890    89.5510
 1313.5000  -999.2500  -999.2500  -999.2500  -999.2500  -112.2340     9.2450   -49.4910    88.0680     8.9190     8.2520     8.4010   -94.6890    89.4190
 1314.0000  -999.2500  -999.2500  -999.2500  -999.2500  -114.4230     9.2490   -49.2500    87.4610     8.9190     8.2640     8.4140   -94.6890    89.4910
 1314.5000  -999.2500  -999.2500  -999.2500  -999.2500  -113.7250     9.2540   -49.0070    85.8170     8.9190     8.2830     8.4280   -94.6890    89.7880
 1315.0000  -999.2500  -999.2500  -999.2500  -999.2500  -113.0260     9.2580   -48.7510    85.6960     8.9190     8.2460     8.4380   -94.6890    90.0850
 1315.5000  -999.2500  -999.2500  -999.2500  -999.2500  -112.3280     9.2620   -49.0920    87.5140     8.9190     8.1490     8.3620   -94.6890    90.3820
 1316.0000  -999.2500  -999.2500  -999.2500  -999.2500  -111.6290     9.2670   -49.4490    90.8790     8.7350     8.0510     8.2970   -94.6890    90.5130
 1316.5000  -999.2500  -999.2500  -999.2500  -999.2500  -110.9300     9.2710   -49.7130    93.8710     8.5100     7.9410     8.2310   -94.6890    90.4280
 1317.0000  -999.2500  -999.2500  -999.2500  -999.2500  -110.2320     9.2750   -49.9780    94.2880     8.4430     7.8060     8.1660   -95.5110    90.3430
 1317.5000  -999.2500  -999.2500  -999.2500  -999.2500  -109.5330     9.2790   -50.2420    94.6220     8.3760     7.6710     8.1010   -97.4950    90.2500
 1318.0000  -999.2500  -999.2500  -999.2500  -999.2500  -108.8350     9.2850   -50.5060    94.3100     8.3090     7.4960     8.0360   -99.4790    90.5700
 1318.5000  -999.2500  -999.2500  -999.2500  -999.2500  -108.1360     9.3180   -50.7700    93.9790     8.2420     7.5380     7.9710  -101.4630    90.9270
 1319.0000  -999.2500  -999.2500  -999.2500  -999.2500  -107.4380     9.3510   -51.0320    94.5030     8.1750     7.6240     7.9060  -103.4470    91.2830
 1319.5000  -999.2500  -999.2500  -999.2500  -999.2500  -106.7390     9.3840   -51.2660    95.6310     8.1330     7.7090     7.8380  -104.5540    91.6400
 1320.0000  -999.2500  -999.2500  -999.2500  -999.2500  -106.0410     9.4170   -51.4890    96.4620     8.2690     7.7950     7.9390  -104.1280    92.0500
 1320.5000  -999.2500  -999.2500  -999.2500  -999.2500  -105.3420     9.4510   -51.6850    95.3690     8.4100     7.8800     8.0440  -103.7010    91.6470
 1321.0000  -999.2500  -999.2500  -999.2500  -999.2500  -104.7090     9.4840   -51.6870    93.4960     8.5510     7.9660     8.1480  -103.2740    91.1720
 1321.5000  -999.2500  -999.2500  -999.2500  -999.2500  -104.7090     9.5170   -51.6860    91.4150     8.6710     8.0510     8.2530  -102.8480    90.7680
 1322.0000  -999.2500  -999.2500  -999.2500  -999.2500  -104.7090     9.5430   -51.6870    89.4110     8.7810     8.1330     8.3580  -102.4210    90.5130
 1322.5000  -999.2500  -999.2500  -999.2500  -999.2500  -104.7090     9.5440   -51.6850    87.5600     8.8910     8.1140     8.4390  -101.9940    90.2590
 1323.0000  -999.2500  -999.2500  -999.2500  -999.2500  -104.7090     9.5450   -51.6240    86.1720     9.0020     8.0910     8.3350  -101.5680    89.9500
 1323.5000  -999.2500  -999.2500  -999.2500  -999.2500  -104.7090     9.5470   -51.2930    84.7840     8.8450     8.0680     8.2510  -101.1410    89.5500
 1324.0000  -999.2500  -999.2500  -999.2500  -999.2500  -104.7090     9.5490   -50.9730    85.5470     8.6870     7.9110     8.1670  -100.7140    89.8500
 1324.5000  -999.2500  -999.2500  -999.2500  -999.2500  -104.7090     9.5500   -50.6510    87.0960     8.5170     7.7060     8.0820  -100.2880    90.2550
 1325.0000  -999.2500  -999.2500  -999.2500  -999.2500  -104.7090     9.5520   -50.1350    91.1530     8.3730     7.5000     7.9400   -99.8610    90.6500
 1325.5000  -999.2500  -999.2500  -999.2500  -999.2500  -104.7090     9.5540   -49.4370    94.5380     8.2170     7.2950     7.7750   -99.4340    91.5680
 1326.0000  -999.2500  -999.2500  -999.2500  -999.2500  -104.7090     9.5550   -48.7390    94.6890     7.9950     7.0900     7.6100   -99.0080    92.3000
 1326.5000  -999.2500  -999.2500  -999.2500  -999.2500  -104.7090     9.5570   -48.0390    92.1880     7.6980     6.9810     7.4450   -98.5810    93.0330
 1327.0000  -999.2500  -999.2500  -999.2500  -999.2500  -104.7090     9.5580   -47.9180    88.7100     7.2800     6.9260     7.3250   -98.1540    93.7650
 1327.5000  -999.2500  -999.2500  -999.2500  -999.2500  -104.7090     9.5600   -47.8810    88.5550     7.4110     6.8710     7.2690   -97.7280    94.3500
 1328.0000  -999.2500  -999.2500  -999.2500  -999.2500  -104.7090     9.5620   -49.0530    89.8210     7.6310     6.8160     7.2130   -97.3010    94.4810
 1328.5000  -999.2500  -999.2500  -999.2500  -999.2500  -104.7090     9.5630   -49.8300    90.8560     7.9110     6.7600     7.1570   -96.8740    94.2870
 1329.0000  -999.2500  -999.2500  -999.2500  -999.2500  -104.7090     9.5650   -50.0170    91.4650     7.8310     6.7000     7.1020   -96.4480    94.0490
 1329.5000  -999.2500  -999.2500  -999.2500  -999.2500  -104.7090     9.5670   -50.1880    93.2600     7.7210     6.7120     7.0160   -96.0210    93.8120
 1330.0000  -999.2500  -999.2500  -999.2500  -999.2500  -105.6100     9.5680   -50.3560    95.6760     7.6120     6.7350     7.0260   -95.5940    93.5740
 1330.5000  -999.2500  -999.2500  -999.2500  -999.2500  -106.4380     9.5700   -50.5230    97.2040     7.5020     6.7590     7.0460   -95.1680    93.3360
 1331.0000  -999.2500  -999.2500  -999.2500  -999.2500  -107.2670     9.5720   -50.6900    94.0890     7.4160     6.7820     7.0660   -94.7410    93.2500
 1331.5000  -999.2500  -999.2500  -999.2500  -999.2500  -108.0960     9.5730   -50.8580    91.1410     7.4530     6.8060     7.0860   -94.3140    93.3920
 1332.0000  -999.2500  -999.2500  -999.2500  -999.2500  -108.9250     9.5750   -50.9170    90.3590     7.4850     6.8290     7.1060   -93.8880    93.6180
 1332.5000  -999.2500  -999.2500  -999.2500  -999.2500  -109.7530     9.5770   -50.9500    90.2650     7.5520     6.8530     7.1260   -93.4610    93.8440
 1333.0000  -999.2500  -999.2500  -999.2500  -999.2500  -110.5820     9.5780   -50.9830    92.0480     7.6210     6.8770     7.1470   -93.0340    94.0500
 1333.5000  -999.2500  -999.2500  -999.2500  -999.2500  -111.4110     9.5800   -51.0140    96.8910     7.6910     6.9110     7.1960   -92.6080    93.8800
 1334.0000  -999.2500  -999.2500  -999.2500  -999.2500  -112.2400     9.5820   -51.0460    97.6340     7.7610     6.9570     7.2490   -92.1810    93.5910
 1334.5000  -999.2500  -999.2500  -999.2500  -999.2500  -113.0690     9.5940   -51.0820    96.8960     7.8300     7.0020     7.3020   -91.7540    93.3020
 1335.0000  -999.2500  -999.2500  -999.2500  -999.2500  -113.8970     9.6060   -50.8650    97.0320     7.9000     7.0480     7.3550   -91.3280    93.0120
 1335.5000  -999.2500  -999.2500  -999.2500  -999.2500  -114.7290     9.6180   -50.5150    97.6800     7.9700     7.0930     7.4080   -90.9010    92.7230
 1336.0000  -999.2500  -999.2500  -999.2500  -999.2500  -110.9840     9.6400   -50.1630    96.1300     7.9840     7.1390     7.4850   -90.4740    92.4340
 1336.5000  -999.2500  -999.2500  -999.2500  -999.2500  -107.2220     9.6640   -49.8110    93.3410     7.9840     7.1850     7.4770   -90.0480    92.1500
