~VERSION INFORMATION
 VERS.                2.0:   CWLS LOG ASCII STANDARD - VERSION 2.0
 WRAP.                 NO:   ONE LINE PER DEPTH STEP
~WELL INFORMATION
#MNEM.UNIT      DATA TYPE    INFORMATION
#----------   ------------   ------------------------------
 STRT.F            0.0000:   START DEPTH
 STOP.F         2775.5000:   STOP DEPTH
 STEP.F            0.5000:   STEP LENGTH
 NULL.          -999.2500:   NO VALUE
 COMP.          U.S. NAVY:   COMPANY
 WELL.   U.S. "A" #107-29:   WELL
 FLD .        TEAPOT DOME:   FIELD
 LOC .      S29 T39N R78W:   LOCATION
 CNTY.            NATRONA:   COUNTY
 STAT.            WYOMING:   STATE
 CTRY. UNITED STATES OF AMERICA:   COUNTRY
 SRVC.         MCCULLOUGH:   SERVICE COMPANY
 DATE.        07-SEP-1966:   LOGDATE
 API .     49025095920000:   API NUMBER
~CURVE INFORMATION
#MNEM.UNIT       API CODE    CURVE DESCRIPTION
#----------   ------------   ------------------------------
 DEPT.F                  :   
 GR  .GAPI   30 310 01 00:   GAMMA RAY
 CALI.IN     70 280 01 00:   CALIPER
~PARAMETER INFORMATION
#MNEM.UNIT          VALUE    DESCRIPTION
#----------   ------------   ------------------------------
 EKB .F            0.0000:   Kelly bushing
 EGL .F            0.0000:   Ground level
 EDF .F            0.0000:   Drilling floor
 EPD .F            0.0000:   Permanent datum
 TD  .F         2777.5000:   Total depth
 DATE.        07-SEP-1966:   Date logged
 CLNT.            A2DTECH:   Client Code
 PD  .                 GL:   Permanent Datum
 LMF .                 GL:   Log Measured From
 DMF .                 GL:   Drilling Measured From
 DL  .F            2777.5:   Depth logger
 BLI .F              2776:   Bottom log interval
 TLI .F              2200:   Top log interval
 CS1 .IN                5:   Casing size
 CBD1.         5" @ 2722':   Casing driller 1
 DFT .              WATER:   Type fluid in hole
 RMB .OHMM           .053:   Rm. at BHT
 TCS .HRS             1.5:   Time Circ. stopped
 LUN .               1460:   Logging unit number
 ENGI.        FITZSIMMONS:   Recorded By
 WITN.             TUTTLE:   Witnessed by
 ORIG.           5" PRINT:   Origin of data
 UWI .     49025095920000:   Unique Well ID
 DICO. A2D TECHNOLOGIES, INC.:   Digitizing Company
~OTHER INFORMATION
~A    DEPT      GR         CALI 
# ...
  364.5000  -999.2500     7.2190
  365.0000  -999.2500     7.2200
  365.5000  -999.2500     7.2200
  366.0000  -999.2500     7.2200
  366.5000  -999.2500     7.1900
  367.0000  -999.2500     7.1820
  367.5000  -999.2500     7.1820
  368.0000  -999.2500     7.1830
  368.5000  -999.2500     7.1840
  369.0000  -999.2500     7.1850
  369.5000  -999.2500     7.1860
  370.0000  -999.2500     7.1870
  370.5000  -999.2500     7.1870
  371.0000  -999.2500     7.1880
  371.5000  -999.2500     7.1890
  372.0000  -999.2500     7.1900
  372.5000  -999.2500     7.1910
  373.0000  -999.2500     7.1940
  373.5000  -999.2500     7.1980
  374.0000  -999.2500     7.2000
  374.5000  -999.2500     7.1860
  375.0000  -999.2500     7.1730
  375.5000  -999.2500     7.1610
  376.0000  -999.2500     7.1630
  376.5000  -999.2500     7.1650
  377.0000  -999.2500     7.1670
  377.5000  -999.2500     7.1690
  378.0000  -999.2500     7.1710
  378.5000  -999.2500     7.1680
  379.0000  -999.2500     7.1660
  379.5000  -999.2500     7.1630
  380.0000  -999.2500     7.1610
  380.5000  -999.2500     7.1580
  381.0000  -999.2500     7.1560
  381.5000  -999.2500     7.1530
  382.0000  -999.2500     7.1510
  382.5000  -999.2500     7.1550
  383.0000  -999.2500     7.1590
  383.5000  -999.2500     7.1630
  384.0000  -999.2500     7.1660
  384.5000  -999.2500     7.1690
  385.0000  -999.2500     7.1790
  385.5000  -999.2500     7.1760
  386.0000  -999.2500     7.1730
  386.5000  -999.2500     7.1720
  387.0000  -999.2500     7.1930
  387.5000  -999.2500     7.2150
  388.0000  -999.2500     7.2220
  388.5000  -999.2500     7.2260
  389.0000  -999.2500     7.2290
  389.5000  -999.2500     7.2320
  390.0000  -999.2500     7.2350
  390.5000  -999.2500     7.2380
  391.0000  -999.2500     7.2390
  391.5000  -999.2500     7.2340
  392.0000  -999.2500     7.2280
  392.5000  -999.2500     7.2230
  393.0000  -999.2500     7.2180
  393.5000  -999.2500     7.2130
  394.0000  -999.2500     7.2080
  394.5000  -999.2500     7.2030
  395.0000  -999.2500     7.2000
  395.5000  -999.2500     7.1990
  396.0000  -999.2500     7.1980
  396.5000  -999.2500     7.1960
  397.0000  -999.2500     7.1950
  397.5000  -999.2500     7.1940
  398.0000  -999.2500     7.1930
  398.5000  -999.2500     7.1910
  399.0000  -999.2500     7.1910
  399.5000  -999.2500     7.1930
  400.0000  -999.2500     7.1940
  400.5000  -999.2500     7.1950
  401.0000  -999.2500     7.1970
  401.5000  -999.2500     7.1980
  402.0000  -999.2500     7.1990
  402.5000  -999.2500     7.2010
  403.0000  -999.2500     7.2020
  403.5000  -999.2500     7.2030
  404.0000  -999.2500     7.2050
  404.5000  -999.2500     7.2060
  405.0000  -999.2500     7.2070
  405.5000  -999.2500     7.2090
  406.0000  -999.2500     7.2100
  406.5000  -999.2500     7.2170
  407.0000  -999.2500     7.2290
  407.5000  -999.2500     7.2410
  408.0000  -999.2500     7.2540
  408.5000  -999.2500     7.2590
  409.0000  -999.2500     7.2590
  409.5000  -999.2500     7.2580
  410.0000  -999.2500     7.2570
  410.5000  -999.2500     7.2560
  411.0000  -999.2500     7.2550
  411.5000  -999.2500     7.2540
  412.0000  -999.2500     7.2540
  412.5000  -999.2500     7.2530
  413.0000  -999.2500     7.2520
  413.5000  -999.2500     7.2510
  414.0000  -999.2500     7.2500
  414.5000  -999.2500     7.2560
  415.0000  -999.2500     7.2640
  415.5000  -999.2500     7.2720
  416.0000  -999.2500     7.2820
  416.5000  -999.2500     7.3270
  417.0000  -999.2500     7.3560
  417.5000  -999.2500     7.3440
  418.0000  -999.2500     7.3340
  418.5000  -999.2500     7.2670
  419.0000  -999.2500     7.2330
  419.5000  -999.2500     7.2010
  420.0000  -999.2500     7.2000
  420.5000  -999.2500     7.2010
  421.0000  -999.2500     7.2000
  421.5000  -999.2500     7.2070
  422.0000  -999.2500     7.2160
  422.5000  -999.2500     7.2260
  423.0000  -999.2500     7.2280
  423.5000  -999.2500     7.2240
  424.0000  -999.2500     7.2190
  424.5000  -999.2500     7.1890
  425.0000  -999.2500     7.1830
  425.5000  -999.2500     7.1860
  426.0000  -999.2500     7.1900
  426.5000  -999.2500     7.1930
  427.0000  -999.2500     7.1960
  427.5000  -999.2500     7.1990
  428.0000  -999.2500     7.2030
  428.5000  -999.2500     7.2060
  429.0000  -999.2500     7.2090
  429.5000  -999.2500     7.2120
  430.0000  -999.2500     7.2150
  430.5000  -999.2500     7.2190
  431.0000  -999.2500     7.1950
  431.5000  -999.2500     7.1450
  432.0000  -999.2500     7.1310
  432.5000  -999.2500     7.1290
  433.0000  -999.2500     7.1270
  433.5000  -999.2500     7.1250
  434.0000  -999.2500     7.1240
  434.5000  -999.2500     7.1220
  435.0000  -999.2500     7.1450
  435.5000  -999.2500     7.1790
  436.0000  -999.2500     7.1850
  436.5000  -999.2500     7.1900
  437.0000  -999.2500     7.1730
  437.5000  -999.2500     7.1490
  438.0000  -999.2500     7.1300
  438.5000  -999.2500     7.1250
  439.0000  -999.2500     7.1200
  439.5000  -999.2500     7.1150
  440.0000  -999.2500     7.1130
  440.5000  -999.2500     7.1180
  441.0000  -999.2500     7.1230
  441.5000  -999.2500     7.1280
  442.0000  -999.2500     7.1430
  442.5000  -999.2500     7.1890
  443.0000  -999.2500     7.1840
  443.5000  -999.2500     7.1760
  444.0000  -999.2500     7.1680
  444.5000  -999.2500     7.1600
  445.0000  -999.2500     7.1520
  445.5000  -999.2500     7.1610
  446.0000  -999.2500     7.1730
  446.5000  -999.2500     7.1850
  447.0000  -999.2500     7.1960
  447.5000  -999.2500     7.2080
  448.0000  -999.2500     7.2200
  448.5000  -999.2500     7.2120
  449.0000  -999.2500     7.2030
  449.5000  -999.2500     7.2070
  450.0000  -999.2500     7.2150
  450.5000  -999.2500     7.2240
  451.0000  -999.2500     7.2320
  451.5000  -999.2500     7.2410
  452.0000  -999.2500     7.2500
  452.5000  -999.2500     7.2430
  453.0000  -999.2500     7.2350
  453.5000  -999.2500     7.2270
  454.0000  -999.2500     7.2200
  454.5000  -999.2500     7.2120
  455.0000  -999.2500     7.2040
  455.5000  -999.2500     7.2030
  456.0000  -999.2500     7.2080
  456.5000  -999.2500     7.2130
  457.0000  -999.2500     7.2170
  457.5000  -999.2500     7.2220
  458.0000  -999.2500     7.2270
  458.5000  -999.2500     7.2320
  459.0000  -999.2500     7.2360
  459.5000  -999.2500     7.2410
  460.0000  -999.2500     7.2460
  460.5000  -999.2500     7.2510
  461.0000  -999.2500     7.2550
  461.5000  -999.2500     7.2600
  462.0000  -999.2500     7.2650
  462.5000  -999.2500     7.2700
  463.0000  -999.2500     7.2700
  463.5000  -999.2500     7.2700
  464.0000  -999.2500     7.2700
  464.5000  -999.2500     7.2700
  465.0000  -999.2500     7.2830
  465.5000  -999.2500     7.3610
  466.0000  -999.2500     7.4330
  466.5000  -999.2500     7.4670
  467.0000  -999.2500     7.4750
  467.5000  -999.2500     7.4660
  468.0000  -999.2500     7.3860
  468.5000  -999.2500     7.3010
  469.0000  -999.2500     7.2160
  469.5000  -999.2500     7.1820
  470.0000  -999.2500     7.1840
  470.5000  -999.2500     7.1850
  471.0000  -999.2500     7.1870
  471.5000  -999.2500     7.1880
  472.0000  -999.2500     7.1900
  472.5000  -999.2500     7.1980
  473.0000  -999.2500     7.2180
  473.5000  -999.2500     7.2380
  474.0000  -999.2500     7.2490
  474.5000  -999.2500     7.2460
  475.0000  -999.2500     7.2430
  475.5000  -999.2500     7.2420
  476.0000  -999.2500     7.2130
  476.5000  -999.2500     7.1790
  477.0000  -999.2500     7.1450
  477.5000  -999.2500     7.1310
  478.0000  -999.2500     7.1310
  478.5000  -999.2500     7.1300
  479.0000  -999.2500     7.1300
  479.5000  -999.2500     7.1290
  480.0000  -999.2500     7.1290
  480.5000  -999.2500     7.1290
  481.0000  -999.2500     7.1280
  481.5000  -999.2500     7.1280
  482.0000  -999.2500     7.1270
  482.5000  -999.2500     7.1270
  483.0000  -999.2500     7.1260
  483.5000  -999.2500     7.1260
  484.0000  -999.2500     7.1250
  484.5000  -999.2500     7.1250
  485.0000  -999.2500     7.1250
  485.5000  -999.2500     7.1240
