~VERSION INFORMATION
 VERS.                2.0:   CWLS LOG ASCII STANDARD - VERSION 2.0
 WRAP.                 NO:   ONE LINE PER DEPTH STEP
~WELL INFORMATION
#MNEM.UNIT      DATA TYPE    INFORMATION
#----------   ------------   ------------------------------
 STRT.F           16.0000:   START DEPTH
 STOP.F         2834.0000:   STOP DEPTH
 STEP.F            0.5000:   STEP LENGTH
 NULL.          -999.2500:   NO VALUE
 COMP.    FENIX & SCISSON:   COMPANY
 WELL. FENIX NPR 3 "AX" #14-21:   WELL
 FLD .              N P R:   FIELD
 LOC .      S21 T39N R78W:   LOCATION
 CNTY.            NATRONA:   COUNTY
 STAT.            WYOMING:   STATE
 CTRY. UNITED STATES OF AMERICA:   COUNTRY
 SRVC.           BIRDWELL:   SERVICE COMPANY
 DATE.        26-JUL-1978:   LOGDATE
 API .     49025106740000:   API NUMBER
~CURVE INFORMATION
#MNEM.UNIT       API CODE    CURVE DESCRIPTION
#----------   ------------   ------------------------------
 DEPT.F                  :   
 GRD .GAPI   45 310 01 00:   GAMMA RAY FROM DENSITY LOG
 CALD.IN     45 280 60 00:   CALIPER FROM DENSITY LOG
 RHOB.G/C3   45 350 01 00:   BULK DENSITY
 CORR.G/C3   45 356 01 00:   DENSITY CORRECTION
 SPR .MV     05 010 01 00:   SPONTANEOUS POTENTIAL
 ILD .OHMM   05 120 46 00:   DEEP INDUCTION RESISTIVITY
 SN  .OHMM   05 040 00 00:   SHORT NORMAL
~PARAMETER INFORMATION
#MNEM.UNIT          VALUE    DESCRIPTION
#----------   ------------   ------------------------------
 EKB .F         4998.0000:   Kelly bushing
 EGL .F         4988.0000:   Ground level
 EDF .F            0.0000:   Drilling floor
 EPD .F            0.0000:   Permanent datum
 TD  .F         2850.0000:   Total depth
 DATE.        26-JUL-1978:   Date logged
 CLNT.            A2DTECH:   Client Code
 SL  . 2640' FNL & 500' FWL:   Surface Location
 PD  .                 GL:   Permanent Datum
 DD  .F              2850:   Depth driller
 DL  .F              2838:   Depth logger
 BLI .F              2832:   Bottom log interval
 CS1 .IN            8.625:   Casing size
 CBD1.      8.625" @ 208':   Casing driller 1
 BS1 .IN            7.875:   Bit size
 DFT .            MUD/GEL:   Type fluid in hole
 DFD .                9.4:   Density
 DFV .                 37:   Viscosity
 DFPH.                 11:   pH
 TCS .HRS               4:   Time Circ. stopped
 LUN .               2958:   Logging unit number
 LUL .               CASP:   Logging unit location
 ENGI.             MILLER:   Recorded By
 WITN.           MCGINLEY:   Witnessed by
 ORIG.           5" PRINT:   Origin of data
 UWI .     49025106740000:   Unique Well ID
 DICO. A2D TECHNOLOGIES, INC.:   Digitizing Company
 DAPD.                 12:   Feet Above Permanent Datum
 BSD1.               3950:   Depth drilled with bit1
 MCSS.               CALC:   Source Rmc.
 TLI .F               230:   Top log interval
~OTHER INFORMATION
~A   DEPT       GRD      CALD       RHOB       CORR        SPR        ILD         SN   
# ...
  198.0000  -999.2500  -999.2500  -999.2500    -0.0380  -999.2500  -999.2500  -999.2500
  198.5000  -999.2500  -999.2500  -999.2500    -0.0380  -999.2500  -999.2500  -999.2500
  199.0000  -999.2500  -999.2500  -999.2500    -0.0380  -999.2500  -999.2500  -999.2500
  199.5000  -999.2500  -999.2500  -999.2500    -0.0380  -999.2500  -999.2500  -999.2500
  200.0000  -999.2500  -999.2500  -999.2500    -0.0380  -999.2500  -999.2500  -999.2500
  200.5000  -999.2500  -999.2500  -999.2500    -0.0380  -999.2500  -999.2500  -999.2500
  201.0000  -999.2500  -999.2500  -999.2500    -0.0350  -999.2500  -999.2500  -999.2500
  201.5000  -999.2500  -999.2500  -999.2500    -0.0300  -999.2500  -999.2500  -999.2500
  202.0000  -999.2500  -999.2500  -999.2500    -0.0250  -999.2500  -999.2500  -999.2500
  202.5000  -999.2500  -999.2500  -999.2500    -0.0250  -999.2500  -999.2500  -999.2500
  203.0000  -999.2500  -999.2500  -999.2500    -0.0260  -999.2500  -999.2500  -999.2500
  203.5000  -999.2500  -999.2500  -999.2500    -0.0260  -999.2500  -999.2500  -999.2500
  204.0000  -999.2500  -999.2500  -999.2500    -0.0270  -999.2500  -999.2500  -999.2500
  204.5000  -999.2500  -999.2500  -999.2500    -0.0280  -999.2500  -999.2500  -999.2500
  205.0000  -999.2500  -999.2500  -999.2500    -0.0310  -999.2500  -999.2500  -999.2500
  205.5000    59.1430  -999.2500  -999.2500    -0.0340  -999.2500  -999.2500  -999.2500
  206.0000    59.7740  -999.2500  -999.2500    -0.0330  -999.2500  -999.2500  -999.2500
  206.5000    60.3830  -999.2500  -999.2500    -0.0310  -999.2500  -999.2500  -999.2500
  207.0000    60.4190  -999.2500  -999.2500    -0.0250  -999.2500  -999.2500  -999.2500
  207.5000    60.3320  -999.2500  -999.2500    -0.0200  -999.2500  -999.2500  -999.2500
  208.0000    60.2430  -999.2500  -999.2500    -0.0180  -999.2500  -999.2500  -999.2500
  208.5000    60.1570  -999.2500  -999.2500    -0.0130  -999.2500  -999.2500  -999.2500
  209.0000    60.4380  -999.2500     2.2320    -0.0070  -999.2500  -999.2500  -999.2500
  209.5000    61.2890  -999.2500     2.2450    -0.0030  -999.2500  -999.2500  -999.2500
  210.0000    62.1430  -999.2500     2.2590    -0.0030  -999.2500  -999.2500  -999.2500
  210.5000    62.4520  -999.2500     2.2740    -0.0030  -999.2500  -999.2500  -999.2500
  211.0000    62.4560  -999.2500     2.2830    -0.0030  -999.2500  -999.2500  -999.2500
  211.5000    62.4560  -999.2500     2.2770    -0.0030  -999.2500  -999.2500  -999.2500
  212.0000    62.4560  -999.2500     2.2790    -0.0030  -999.2500  -999.2500  -999.2500
  212.5000    62.4590  -999.2500     2.2840    -0.0030  -999.2500  -999.2500  -999.2500
  213.0000    62.4560  -999.2500     2.2800    -0.0040  -999.2500  -999.2500  -999.2500
  213.5000    61.6080  -999.2500     2.2710    -0.0020  -999.2500  -999.2500  -999.2500
  214.0000    60.6250     7.8660     2.2570     0.0010  -999.2500  -999.2500  -999.2500
  214.5000    59.6410     7.8880     2.2410     0.0040  -999.2500  -999.2500  -999.2500
  215.0000    59.1240     7.9110     2.2290     0.0080  -999.2500  -999.2500  -999.2500
  215.5000    59.4390     7.9370     2.2150     0.0210  -999.2500  -999.2500  -999.2500
  216.0000    60.0920     7.9500     2.2110     0.0340  -999.2500  -999.2500  -999.2500
  216.5000    60.7480     7.9880     2.2200     0.0440  -999.2500  -999.2500  -999.2500
  217.0000    61.0770     8.0330     2.2300     0.0510  -999.2500  -999.2500  -999.2500
  217.5000    61.0790     8.0480     2.2310     0.0660  -999.2500  -999.2500  -999.2500
  218.0000    61.0810     8.1260     2.2320     0.0840  -999.2500  -999.2500  -999.2500
  218.5000    61.0810     8.1960     2.2350     0.1020  -999.2500  -999.2500  -999.2500
  219.0000    61.0810     8.2050     2.2360     0.1210  -999.2500  -999.2500  -999.2500
  219.5000    61.0790     8.2120     2.2290     0.1430  -999.2500  -999.2500  -999.2500
  220.0000    61.0750     8.2430     2.1930     0.1750  -999.2500  -999.2500  -999.2500
  220.5000    61.0850     8.2770     2.1370     0.2610  -999.2500  -999.2500  -999.2500
  221.0000    61.5690     8.3400     2.1590     0.3340  -999.2500  -999.2500  -999.2500
  221.5000    65.3410     8.4180     2.2110     0.3570  -999.2500  -999.2500  -999.2500
  222.0000    70.6190     8.9980     2.2470     0.3640  -999.2500  -999.2500  -999.2500
  222.5000    75.9750     9.0700     2.2720     0.3640  -999.2500  -999.2500  -999.2500
  223.0000    80.2610     9.0900     2.3160     0.3500  -999.2500  -999.2500  -999.2500
  223.5000    82.5970     9.1730     2.3530     0.3350  -999.2500  -999.2500  -999.2500
  224.0000    84.2110     9.2010     2.3330     0.3340  -999.2500  -999.2500  -999.2500
  224.5000    84.7530     9.2260     2.3030     0.3330  -999.2500  -999.2500    10.1810
  225.0000    84.6900     9.2520     2.3120     0.3310  -999.2500  -999.2500    10.1810
  225.5000    84.4320     9.2780     2.3190     0.3300    -4.2320  -999.2500    10.2090
  226.0000    84.1670     9.3040     2.3150     0.3240    -7.2710  -999.2500    10.1810
  226.5000    84.1000     9.3300     2.3400     0.3170   -10.4700    10.6110    10.1810
  227.0000    84.1440     9.3560     2.3250     0.3190   -13.6690    10.4240    10.0310
  227.5000    84.2160     9.3820     2.3070     0.3210   -14.7610    10.2740     9.8660
  228.0000    84.3880     9.3930     2.3160     0.3210   -15.3760    10.3230     9.7010
  228.5000    82.2550     9.3970     2.3150     0.3210   -15.9930    10.1060     9.5350
  229.0000    80.8470     9.4010     2.3110     0.3220   -16.6000     9.8710     9.3700
  229.5000    79.7150     9.4060     2.3110     0.3220   -17.0880     9.6360     9.2040
  230.0000    80.4870     9.4070     2.3100     0.3230   -17.2710     9.4020     9.0390
  230.5000    81.3540     9.5600     2.3090     0.3230   -17.4570     9.1670     8.8740
  231.0000    82.7490     9.7400     2.3080     0.3230   -17.6360     8.9320     8.6720
  231.5000    83.7070     9.7800     2.3120     0.3230   -17.8540     8.6980     8.4400
  232.0000    84.5190     9.8080     2.3160     0.3230   -18.9050     8.5890     8.1040
  232.5000    85.5540     9.8190     2.3170     0.3230   -20.4270     8.5240     8.1260
  233.0000    88.1470     9.8290     2.3130     0.3230   -23.5670     8.3710     8.1780
  233.5000    89.4460     9.8390     2.3080     0.3240   -26.6310     8.0620     7.6250
  234.0000    89.1970     9.8830     2.2930     0.3260   -29.7630     7.7520     6.8970
  234.5000    88.4210     9.9260     2.2910     0.3280   -31.4890     7.4420     6.1690
  235.0000    87.6080     9.9370     2.2910     0.3360   -32.8260     7.1320     5.4230
  235.5000    87.3160     9.9500     2.2780     0.3420   -33.3440     6.8220     5.4400
  236.0000    87.4010     9.9800     2.2900     0.3450   -33.6120     6.5690     5.4580
  236.5000    88.0260    10.1290     2.3170     0.3290   -33.8690     6.5690     5.4760
  237.0000    88.2760    10.2190     2.3440     0.3180   -34.1470     6.5690     5.4940
  237.5000    88.0050    10.3340     2.3630     0.3170   -34.9590     6.8400     5.5120
  238.0000    86.1810    10.4630     2.3540     0.3170   -35.8770     7.2970     5.6750
  238.5000    84.0610     9.8560     2.3540     0.3170   -36.2650     7.7540     6.4370
  239.0000    82.4690     9.8560     2.3560     0.3140   -36.4860     8.2110     7.1990
  239.5000    81.9170     9.8490     2.3570     0.3090   -36.6970     8.6680     7.9610
  240.0000    81.7590     9.8420     2.3550     0.3070   -36.9090     9.1250     8.2530
  240.5000    80.8920     9.8350     2.3530     0.3070   -37.1190     9.2080     8.4600
  241.0000    79.5310     9.8290     2.3500     0.3070   -37.3320     9.2080     8.5910
  241.5000    78.1580     9.8230     2.3440     0.3060   -37.5890     9.2080     8.7170
  242.0000    76.8340     9.8240     2.3410     0.3040   -38.4990     9.3950     8.9310
  242.5000    76.7890     9.8260     2.3420     0.3010   -39.0830     9.5640     9.1430
  243.0000    76.7130     9.8270     2.3360     0.3090   -39.4880     9.7950     9.3550
