~VERSION INFORMATION
 VERS.                2.0:   CWLS LOG ASCII STANDARD - VERSION 2.0
 WRAP.                 NO:   ONE LINE PER DEPTH STEP
~WELL INFORMATION
#MNEM.UNIT      DATA TYPE    INFORMATION
#----------   ------------   ------------------------------
 STRT.F          600.0000:   START DEPTH
 STOP.F         3201.0000:   STOP DEPTH
 STEP.F            0.5000:   STEP LENGTH
 NULL.          -999.2500:   NO VALUE
 COMP.    FENIX & SCISSON:   COMPANY
 WELL. FENIX & SCISSON 38 "AX" #3-34:   WELL
 FLD .              NPR 3:   FIELD
 LOC .      S34 T39N R78W:   LOCATION
 CNTY.            NATRONA:   COUNTY
 STAT.            WYOMING:   STATE
 CTRY. UNITED STATES OF AMERICA:   COUNTRY
 SRVC.              WELEX:   SERVICE COMPANY
 DATE.        16-SEP-1980:   LOGDATE
 API .     49025108560000:   API NUMBER
~CURVE INFORMATION
#MNEM.UNIT       API CODE    CURVE DESCRIPTION
#----------   ------------   ------------------------------
 DEPT.F                  :   
 CORR.G/C3   45 356 01 00:   DENSITY CORRECTION
 GRD .GAPI   45 310 01 00:   GAMMA RAY FROM DENSITY LOG
 RHOB.G/C3   45 350 01 00:   BULK DENSITY
 TEND.LBS    45 635 01 00:   TENSION FORM DENSITY LOG
 CALD.IN     45 280 60 00:   CALIPER FROM DENSITY LOG
 SPR .MV     07 010 01 00:   SPONTANEOUS POTENTIAL FROM RES.
 ILD .OHMM   07 120 46 00:   DEEP INDUCTION RESISTIVITY
 ILM .OHMM   07 120 44 00:   INDUCTION LOG MEDIUM RESISTIVITY
 GURD.OHMM   07 220 05 00:   GUARD LOG RESISTIVITY
~PARAMETER INFORMATION
#MNEM.UNIT          VALUE    DESCRIPTION
#----------   ------------   ------------------------------
 EKB .F         5205.0000:   Kelly bushing
 EGL .F         5195.0000:   Ground level
 TD  .F         3202.0000:   Total depth
 CLNT.            A2DTECH:   Client Code
 SL  . 582' FSL & 1600' FWL:   Surface Location
 PD  .                 GL:   Permanent Datum
 EPD .F              5195:   Elevation Permanent Datum
 LMF .                 KB:   Log Measured From
 DMF .                 KB:   Drilling Measured From
 DAPD.F                10:   Feet Above Permanent Datum
 DATE.        16-SEP-1980:   Date Logged [DD-MMM-YYYY]
 DD  .F              3200:   Depth driller
 DL  .F              3203:   Depth logger
 BLI .F              3201:   Bottom log interval
 TLI .F               600:   Top log interval
 CS1 .IN            8.625:   Casing size
 CBD1.      8.625" @ 580':   Casing driller 1
 CBL1.F               600:   Casing logger 1
 BS1 .IN            7.875:   Bit size
 BSD1.F              3200:   Depth drilled with bit1
 DFT .          DISPERSED:   Type fluid in hole
 DFD .                8.8:   Density
 DFV .                 40:   Viscosity
 DFPH.                 11:   pH
 DFL .                  8:   Fluid loss
 MSS .           FLOWLINE:   Source of sample
 RMS .OHMM           1.33:   Rm
 MST .F                65:   Rm Meas. temp.
 RMF .OHMM           1.15:   Rmf
 MFST.F                65:   Rmf Meas. temp.
 MFSS.               MEAS:   Source Rmf.
 RMC .OHMM           1.50:   Rmc
 MCST.F                65:   Rmc Meas. temp.
 MCSS.               MEAS:   Source Rmc.
 RMB .OHMM            .75:   Rm. at BHT
 BHT .F               115:   BHT.
 TCS .HRS               8:   Time Circ. stopped
 MRT .F               115:   Maximum recorded temp.
 LUN .               1892:   Logging unit number
 LUL .             CASPER:   Logging unit location
 ENGI.    PERIMMER / REIN:   Recorded By
 WITN.              FIVAS:   Witnessed by
 ORIG.         2.5" PRINT:   Origin of data
 UWI .     49025108560000:   Unique Well ID
 DICO. A2D TECHNOLOGIES, INC.:   Digitizing Company
~OTHER INFORMATION
~A   DEPT       CORR       GRD        RHOB      TEND       CALD       SPR          ILD        ILM       GURD 
# ...
 1804.5000     0.0389    94.4413     2.4755   543.5421    10.6924   -30.3805     5.3823     5.2221     5.2948
 1805.0000     0.0419    93.0406     2.4923   513.5637    10.5718   -30.7329     5.3062     5.2188     5.2186
 1805.5000     0.0509    92.1937     2.4994   513.7057    10.4212   -31.1922     5.3781     5.2881     5.2883
 1806.0000     0.0629    93.4234     2.5017   513.8555    10.3605   -31.5076     5.4665     5.3584     5.5281
 1806.5000     0.0719    95.0880     2.5157   514.0061    10.5084   -31.8230     5.5249     5.3543     5.6597
 1807.0000     0.0815    96.2072     2.5470   514.1566    10.7181   -31.8374     5.3713     5.3869     5.4252
 1807.5000     0.0913    95.7415     2.5576   514.3073    10.3889   -31.8524     5.2948     5.4214     5.3468
 1808.0000     0.0959    94.3774     2.5365   484.3373    10.3273   -31.8675     5.2928     5.4932     5.3425
 1808.5000     0.0959    94.3646     2.5154   484.5088    10.5055   -31.8825     5.2907     5.4892     5.4139
 1809.0000     0.0928    96.2480     2.4876   484.6385    10.5883   -31.7490     5.3624     5.5621     5.4856
 1809.5000     0.0898    99.6260     2.4670   484.7891    10.3841   -31.6114     5.4429     5.6360     5.6357
 1810.0000     0.0807   103.3353     2.4321   484.9397    10.2635   -31.3272     5.5087     5.6319     5.6319
 1810.5000     0.0717   101.4841     2.4066   454.9566    10.2327   -31.0392     5.5062     5.6280     5.6280
 1811.0000     0.0507    96.9730     2.3579   455.1205    10.4708   -30.7530     5.5039     5.6241     5.6241
 1811.5000     0.0227    95.6329     2.3288   455.2711    10.5603   -30.7681     5.5012     5.4660     5.6202
 1812.0000     0.0173    95.6201     2.3468   455.4217    10.3840   -30.4804     5.4234     5.3874     5.6163
 1812.5000     0.0324    96.0586     2.4521   485.7164    10.3189   -30.7982     5.4213     5.3098     5.6914
 1813.0000     0.0504    99.1981     2.4736   485.8585    10.8268   -30.8133     5.3446     5.1613     5.6868
 1813.5000     0.0414   101.4376     2.4853   485.9940    10.7960   -30.8283     5.2689     5.1577     5.6821
 1814.0000     0.0202    98.5226     2.4935   486.1446    10.2862   -30.8456     5.2293     5.1542     5.6784
 1814.5000     0.0232    97.2049     2.5103   486.2952    10.1955   -30.8598     5.0503     5.1506     5.6747
 1815.0000     0.0292    97.0945     2.5144   486.4458    10.2385   -30.8740     5.0482     5.1877     5.6710
 1815.5000     0.0330    97.7793     2.5181   486.5964    10.4034   -30.8886     5.1875     5.2879     5.6671
 1816.0000     0.0363    96.8628     2.5181   486.7470    10.3114   -31.2048     5.2578     5.3577     5.6632
 1816.5000     0.0382    95.9491     2.5165   486.8976    10.1919   -31.2199     5.3291     5.4289     5.6593
 1817.0000     0.0381    95.8964     2.5060   487.0482    10.1910   -31.2349     5.4765     5.5075     5.6553
 1817.5000     0.0411    96.8467     2.5030   487.1988    10.2798   -31.5512     5.5507     5.5741     5.6507
 1818.0000     0.0501    99.6396     2.5099   487.3503    10.3389   -31.5687     5.5483     5.5968     5.7263
 1818.5000     0.0532   101.5316     2.5179   498.6140    10.1583   -31.5829     5.6238     5.6436     5.8827
 1819.0000     0.0690   102.6420     2.5192   517.7711    10.1275   -31.5971     5.6210     5.6390     5.8789
 1819.5000     0.0832   101.0563     2.5081   517.9217    10.1266   -31.6114     5.6183     5.6353     5.9570
 1820.0000     0.0729   100.6306     2.5089   518.0723    10.2415   -31.5864     5.5388     5.6316     5.9527
 1820.5000     0.0758   102.1468     2.5104   518.2523    10.3645   -31.3386     5.5367     5.6280     5.9223
 1821.0000     0.0951   101.2332     2.5178   518.3943    10.0942   -31.3554     5.5345     5.5371     5.7917
 1821.5000     0.1011    98.9681     2.5300   518.5364    10.0515   -31.2219     5.5322     5.3537     5.6543
 1822.0000     0.1011    96.6487     2.5449   518.6747    10.3915   -31.0843     5.5299     5.2405     5.6941
 1822.5000     0.0979    94.6509     2.5245   518.8253    10.3008   -30.8001     5.5276     5.1649     5.9318
 1823.0000     0.0890    93.0721     2.5015   536.8502    10.0605   -30.5131     5.4926     5.2333     5.9279
 1823.5000     0.0812    93.4234     2.4870   549.2470    10.0275   -30.2261     5.5230     5.2293     5.8383
 1824.0000     0.0684    98.2700     2.4696   549.3976     9.9689   -29.9391     5.4446     5.2259     5.6653
 1824.5000     0.0509    98.6013     2.4696   541.3165     9.8991   -29.9548     5.4424     5.2953     5.4754
 1825.0000     0.0316    98.3108     2.4756   519.5784     9.8473   -29.9699     5.4402     5.3657     5.3347
 1825.5000     0.0286    99.3100     2.5101   519.7441     9.9222   -29.9849     5.4380     5.3838     5.3617
 1826.0000     0.0286   100.6485     2.5116   519.8795    10.0250   -30.0000     5.4357     5.4650     5.3574
 1826.5000     0.0285    99.6487     2.5101   520.0302    10.0840   -30.0172     5.4334     5.5046     5.3539
 1827.0000     0.0290    98.3694     2.5174   520.1807     9.9634   -30.3327     5.4308     5.5003     5.3504
 1827.5000     0.0315    98.9527     2.5236   520.3313     9.8428   -30.3469     5.5043     5.5734     5.4971
 1828.0000     0.0314   100.5404     2.5129   520.4819     9.7788   -30.6627     5.5022     5.5697     5.5701
 1828.5000     0.0331   101.6329     2.5100   520.6439     9.7446   -30.7299     5.5768     5.5660     5.6647
 1829.0000     0.0344    99.2141     2.5100   520.7831     9.7604   -30.9940     5.5745     5.5621     5.8296
 1829.5000     0.0374    99.2013     2.5114   520.9517     9.8499   -31.0090     5.5721     5.5583     5.9168
 1830.0000     0.0404   100.5399     2.5129   521.0938     9.8982   -31.0241     5.6764     5.5544     5.8701
 1830.5000     0.0433   103.6803     2.5208   521.2359     9.8073   -31.0416     5.7239     5.5499     5.7856
 1831.0000     0.0433   104.1180     2.5294   521.3856     9.6867   -31.0558     5.7211     5.5462     5.6239
 1831.5000     0.0393   103.3223     2.5043   521.5362     9.6560   -31.0700     5.5626     5.5426     5.6202
 1832.0000     0.0342    98.9008     2.5023   541.9698     9.7182   -31.0842     5.5605     5.5390     5.7743
 1832.5000     0.0342    96.4189     2.5038   521.8373     9.8638   -30.7972     5.5583     5.5352     5.8703
 1833.0000     0.0372    97.3037     2.5143   522.0173     9.7654   -30.8133     5.5560     5.5314     6.1254
 1833.5000     0.0401    98.1918     2.5233   522.1594     9.7123   -30.7249     5.5537     5.5276     6.1341
 1834.0000     0.0431    99.9808     2.5293   552.4220     9.7114   -30.5803     5.5513     5.5237     5.9191
 1834.5000     0.0429    98.6167     2.5353   552.5603     9.7103   -30.2588     5.5490     5.5969     5.8338
 1835.0000     0.0364    98.1532     2.5222   552.7299     9.6795   -30.2730     5.6241     5.5926     5.7498
 1835.5000     0.0300    97.9164     2.5133   552.8615     9.6787   -29.9860     5.6215     5.5890     5.7461
 1836.0000     0.0249    97.2270     2.5112   553.0120     9.6778   -29.6988     5.6978     5.6632     5.6632
 1836.5000     0.0219    98.9189     2.5157   553.1627     9.8285   -29.7139     5.6954     5.6716     5.6425
 1837.0000     0.0279   100.3604     2.5337   553.3133     9.7852   -29.7289     5.6931     5.7347     5.5776
 1837.5000     0.0399   100.7859     2.5457   553.4639     9.6664   -29.8444     5.6679     5.7302     5.6158
 1838.0000     0.0519    96.2686     2.5562   553.6296     9.6445   -30.3614     5.6106     5.7263     5.5691
 1838.5000     0.0642    95.3549     2.5652   553.7717     9.8374   -30.5492     5.6860     5.8015     5.5654
 1839.0000     0.0699    96.2430     2.5698   553.9157     9.7621   -30.6950     5.6832     5.7977     5.7183
 1839.5000     0.0699    96.6807     2.5730   554.0663     9.6415   -31.0104     5.7603     5.7940     5.7941
 1840.0000     0.0743    97.2072     2.5766   554.2169     9.6107   -31.0246     6.0023     5.7901     6.0413
 1840.5000     0.0819    98.1464     2.5837   554.3675     9.5500   -31.3404     6.1171     5.8671     6.2338
