~VERSION INFORMATION
 VERS.                2.0:   CWLS LOG ASCII STANDARD - VERSION 2.0
 WRAP.                 NO:   ONE LINE PER DEPTH STEP
~WELL INFORMATION
#MNEM.UNIT      DATA TYPE    INFORMATION
#----------   ------------   ------------------------------
 STRT.F          176.0000:   START DEPTH
 STOP.F         3380.0000:   STOP DEPTH
 STEP.F            0.5000:   STEP LENGTH
 NULL.          -999.2500:   NO VALUE
 COMP.    PENIX & SCISSON:   COMPANY
 WELL.  FENIX "AX" #85-15:   WELL
 FLD .             NPR #3:   FIELD
 LOC .      S15 T38N R78W:   LOCATION
 CNTY.            NATRONA:   COUNTY
 STAT.            WYOMING:   STATE
 CTRY. UNITED STATES OF AMERICA:   COUNTRY
 SRVC.       SCHLUMBERGER:   SERVICE COMPANY
 DATE.        28-APR-1981:   LOGDATE
 API .     49025108700000:   API NUMBER
~CURVE INFORMATION
#MNEM.UNIT       API CODE    CURVE DESCRIPTION
#----------   ------------   ------------------------------
 DEPT.F                  :   
 TEND.LBS    45 635 01 00:   TENSION FROM DENSITY LOG
 CALD.IN     45 280 60 00:   CALIPER FROM DENSITY LOG
 CORR.G/C3   45 356 01 00:   DENSITY CORRECTION
 GRD .GAPI   45 310 01 00:   GAMMA RAY FROM DENSITY LOG
 RHOB.G/C3   45 350 01 00:   BULK DENSITY
 SFL .OHMM   07 220 01 00:   SHALLOW FOCUSED LOG RESISTIVITY
 ILD .OHMM   07 120 46 00:   INDUCTIONLOG DEEP RESISTIVITY
 ILM .OHMM   07 120 44 00:   INDUCTION LOG MEDIUM RESISTIVITY
 TENR.LBS    07 635 01 00:   TENSION FROM RESISTIVITY
 SPR .MV     07 010 01 00:   SPONTANEOUS POTENTIAL
~PARAMETER INFORMATION
#MNEM.UNIT          VALUE    DESCRIPTION
#----------   ------------   ------------------------------
 EKB .F         5259.0000:   Kelly bushing
 EGL .F         5249.0000:   Ground level
 EDF .F            0.0000:   Drilling floor
 TD  .F         3333.0000:   Total depth
 DATE.        28-APR-1981:   Date logged
 CLNT.            A2DTECH:   Client Code
 SL  . 1927' FSL & 140' FEL:   Surface Location
 PD  .                 GL:   Permanent Datum
 DD  .F              3333:   Depth driller
 DL  .F              3382:   Depth logger
 BLI .F              3376:   Bottom log interval
 TLI .F               182:   Top log interval
 CS1 .IN            8.625:   Casing size
 CBD1.      8.625" @ 181':   Casing driller 1
 CBL1.F               182:   Casing logger 1
 BS1 .IN            7.875:   Bit size
 BSD1.F              3333:   Depth drilled with bit1
 DFT .                GEL:   Type fluid in hole
 DFD .                8.7:   Density
 DFV .                 35:   Viscosity
 DFPH.                9.5:   pH
 DFL .                  7:   Fluid loss
 MSS .               TANK:   Source of sample
 RMS .OHMM           1.79:   Rm
 MST .F                58:   Rm Meas. temp.
 RMF .OHMM           1.43:   Rmf
 MFST.F                58:   Rmf Meas. temp.
 MFSS.               MEAS:   Source Rmf.
 RMB .OHMM            .93:   Rm. at BHT
 BHT .F               112:   BHT.
 TCS .HRS             800:   Time Circ. stopped
 TLAB.HRS             200:   Time logger at bottom
 MRT .F               112:   Maximum recorded temp.
 LUN .               8039:   Logging unit number
 LUL .               CAPR:   Logging unit location
 ENGI.           HARRINER:   Recorded By
 WITN.              SCOTT:   Witnessed by
 ORIG.           5" PRINT:   Origin of data
 UWI .     49025108700000:   Unique Well ID
 DICO. A2D TECHNOLOGIES, INC.:   Digitizing Company
 EPD .               5249:   Elevation Permanent Datum
 LMF .                 KB:   Log Measured From
 DMF .                 KB:   Drilling Measured From
 DAPD.                 10:   Feet Above Permanent Datum
~OTHER INFORMATION
~A   DEPT     TEND       CALD       CORR         GRD      RHOB        SFL        ILD        ILM       TENR        SPR   
# ...
  611.5000   836.1400     9.6670     0.0030    75.7550     2.3600    14.3900    14.1810    11.5100   870.6820   -27.8680
  612.0000   837.3560     9.6670     0.0050    77.1930     2.3690    14.1600    13.9270    11.3310   871.0160   -27.5730
  612.5000   838.5710     9.6670     0.0100    77.7420     2.3760    13.9300    13.6840    11.1520   871.3500   -27.2680
  613.0000   839.7860     9.6670     0.0130    78.3780     2.3860    13.6990    13.4420    10.9720   871.6850   -26.9730
  613.5000   841.0010     9.6670     0.0070    77.6930     2.3850    13.4690    13.2010    10.7930   872.0190   -26.6720
  614.0000   842.2160     9.6670     0.0000    76.6060     2.3740    13.2390    12.9600    10.6140   872.3530   -26.3750
  614.5000   843.4320     9.6670    -0.0060    74.5160     2.3630    13.0080    12.7180    10.4340   872.6870   -26.0750
  615.0000   844.6470     9.6670    -0.0040    72.6600     2.3550    12.7220    12.4770    10.2550   873.0210   -25.7730
  615.5000   845.8620     9.6670     0.0040    71.6050     2.3600    12.4940    12.2360    10.0750   873.3560   -25.4870
  616.0000   847.0770     9.6670     0.0160    71.8990     2.3770    12.4170    11.9940     9.8960   873.6900   -25.1540
  616.5000   848.2920     9.6670     0.0200    72.7060     2.3930    12.1930    11.7530     9.7170   874.0240   -24.9800
  617.0000   849.5070     9.6670     0.0150    74.7080     2.4020    11.9700    11.5120     9.5240   874.3580   -25.0860
  617.5000   850.7230     9.6670     0.0110    78.5580     2.4070    11.7470    11.2700     9.5890   874.6930   -25.4530
  618.0000   851.9380     9.6670     0.0070    80.2220     2.4130    11.5230    11.0080     9.7140   875.0270   -25.7290
  618.5000   853.1530     9.6670     0.0050    79.3900     2.4180    11.4130    11.2090     9.8380   875.3610   -26.1070
  619.0000   854.3680     9.6670     0.0080    78.6950     2.4240    11.8340    11.2270     9.8750   875.6950   -26.4640
  619.5000   855.5830     9.6670     0.0130    77.5920     2.4280    11.8340    11.2870     9.8280   876.0300   -26.8150
  620.0000   856.7980     9.6670     0.0180    76.5050     2.4280    11.5330    11.3470     9.7310   876.3640   -27.1850
  620.5000   858.0140     9.6670     0.0190    75.6220     2.4160    11.0930    11.4070     9.6340   876.6980   -27.5270
  621.0000   859.2290     9.6670     0.0150    75.7720     2.4020    10.6540    11.4680     9.5240   877.0320   -27.9000
  621.5000   860.4440     9.6670     0.0150    76.0310     2.4030    10.2390    11.5280     9.5240   877.3670   -28.2210
  622.0000   861.6590     9.6670     0.0200    76.1540     2.3960    10.5880    11.5880     9.3530   877.7010   -28.6390
  622.5000   862.8740     9.6670     0.0230    75.6860     2.3810    10.8350    11.6400     9.3710   878.0350   -28.7330
  623.0000   864.0900     9.6670     0.0200    75.1100     2.3670    11.0820    11.6800     9.4090   878.3690   -28.8910
  623.5000   865.3050     9.6670     0.0160    76.3500     2.3550    11.3290    11.7210     9.4480   878.7040   -28.9340
  624.0000   866.5200     9.6670     0.0110    77.9840     2.3540    11.6220    11.7610     9.4860   879.0380   -28.7470
  624.5000   867.7350     9.6670     0.0110    79.5160     2.3570    11.3530    11.8020     9.5240   879.3720   -28.5220
  625.0000   868.9500     9.6670     0.0110    81.2980     2.3600    11.0240    11.8340     9.6980   879.7060   -28.2930
  625.5000   870.1650     9.6670     0.0080    81.1100     2.3590    10.6940    11.6220     9.6980   880.0410   -28.0670
  626.0000   871.3810     9.6670     0.0060    80.6990     2.3540    10.4260    11.4520     9.4980   880.3750   -27.8400
  626.5000   872.5960     9.6670     0.0040    80.1950     2.3500    10.4980    11.2820     9.4540   880.7090   -27.6130
  627.0000   873.8110     9.6670     0.0040    79.7980     2.3470    10.8100    11.2090     9.4100   881.0430   -27.3860
  627.5000   875.0260     9.6670     0.0100    79.3310     2.3610    10.6160    11.2090     9.3660   881.3770   -27.1600
  628.0000   876.2410     9.6670     0.0170    79.2730     2.3760    10.6160    11.2090     9.3210   881.7120   -26.9330
  628.5000   877.4560     9.6670     0.0230    81.3480     2.3940    10.6160    11.1160     9.2770   882.0460   -26.7040
  629.0000   878.6720     9.6670     0.0170    83.7560     2.3900    10.6160    10.9930     9.2330   882.3800   -26.4830
  629.5000   879.8870     9.6670     0.0080    84.8590     2.3790    10.2990    10.8690     9.1860   882.7140   -26.2490
  630.0000   881.1020     9.6670    -0.0020    83.2600     2.3690     9.9140    10.6160     9.0210   883.0490   -26.1780
  630.5000   882.3170     9.6670     0.0010    82.3830     2.3650     9.5300    10.8100     9.0940   883.3830   -26.1950
  631.0000   883.5320     9.6670     0.0080    81.5700     2.4050     9.1860    11.1270     9.1860   883.7170   -26.3800
  631.5000   884.7480     9.6670     0.0140    83.4220     2.4270     9.6980    11.3620     9.1860   884.0860   -26.5560
  632.0000   885.9630     9.6670     0.0220    84.3510     2.4280     9.8750    11.5970     9.6350   881.5940   -26.7420
  632.5000   887.1780     9.6660     0.0270    81.9750     2.4540    10.6160    11.8320    10.1370   878.8100   -26.9220
  633.0000   888.3930     9.6720     0.0350    78.2170     2.4870    13.2100    12.0500    10.6380   876.0260   -27.1070
  633.5000   889.6080     9.6890     0.0500    74.7690     2.5210    16.1600    12.4940    11.2090   873.2420   -27.2820
  634.0000   890.8230     9.7020     0.0450    71.1950     2.5340    19.2890    12.4940    11.2090   870.4570   -27.4800
  634.5000   891.0890     9.7360     0.0340    71.1620     2.5110    19.0810    12.4940    10.8010   867.6730   -27.7120
  635.0000   891.0890     9.8030     0.0250    74.5210     2.4920    16.8390    12.4940    10.4150   864.8890   -27.9160
  635.5000   887.8690     9.8670     0.0190    77.7810     2.4710    14.5970    12.0790    10.0290   862.1050   -28.1220
  636.0000   883.6160     9.9310     0.0150    81.0300     2.4510    12.3560    11.6790     9.6430   859.3210   -27.8950
  636.5000   879.3630     9.9920     0.0100    84.4510     2.4310     9.6980    11.2800     9.1860   856.5370   -27.6370
  637.0000   875.1100    10.0600     0.0140    85.1440     2.4090     9.5240    10.8800     9.0210   853.7520   -27.3690
  637.5000   870.8570    10.1010     0.0190    83.7970     2.3960     9.3530    10.4810     8.8080   850.9680   -27.0920
  638.0000   866.6040    10.0980     0.0190    84.3510     2.3820     9.4100    10.0560     8.7220   848.1840   -26.9520
  638.5000   862.3500    10.0860     0.0080    84.6670     2.3600     9.4570    10.0560     8.6370   845.4000   -26.8820
  639.0000   858.0970    10.0530     0.0000    83.5350     2.3570     9.5040    10.0560     8.5520   844.7940   -26.8000
  639.5000   853.8440    10.0220    -0.0010    82.7400     2.3550     9.5240    10.0560     8.4670   844.7940   -26.7200
  640.0000   849.5910     9.9890     0.0010    82.8190     2.3580     9.3840    10.0560     8.3820   844.7940   -26.6340
  640.5000   845.3380     9.9840     0.0040    83.1920     2.3620     9.2640    10.0280     8.2960   844.7940   -26.5790
  641.0000   841.0850     9.9980     0.0040    83.5880     2.3640     9.0210     9.9780     8.2410   845.1450   -26.5950
  641.5000   836.8320    10.0100     0.0220    83.6720     2.3820     9.0210     9.9290     8.2410   846.1580   -26.9080
  642.0000   832.5790    10.0230     0.0230    83.1170     2.3900     9.0210     9.8750     8.2410   847.1710   -27.2260
  642.5000   828.3250    10.0360     0.0200    82.5950     2.3830     9.0210     9.8750     8.2410   848.1840   -27.5520
  643.0000   824.0720    10.0490     0.0160    82.1260     2.3780     9.1390     9.8750     8.2410   849.1970   -27.8800
  643.5000   819.8190    10.0530     0.0140    82.6400     2.3740     9.3040     9.8750     8.2410   850.2090   -28.1960
  644.0000   815.5660    10.0290     0.0130    83.7550     2.3800     9.5240    10.0560     8.3910   851.2220   -28.5210
  644.5000   811.8810    10.0200     0.0120    85.3840     2.3860     9.5240    10.0560     8.3910   852.2350   -28.5390
