~VERSION INFORMATION
 VERS.                2.0:   CWLS LOG ASCII STANDARD - VERSION 2.0
 WRAP.                 NO:   ONE LINE PER DEPTH STEP
~WELL INFORMATION
#MNEM.UNIT      DATA TYPE    INFORMATION
#----------   ------------   ------------------------------
 STRT.F            0.0000:   START DEPTH
 STOP.F         3474.0000:   STOP DEPTH
 STEP.F            0.5000:   STEP LENGTH
 NULL.          -999.2500:   NO VALUE
 COMP. LAWRENCE ALLISON & ASSOCIATES:   COMPANY
 WELL. LAWRENCE ALLISON #13-AX-14:   WELL
 FLD .            WILDCAT:   FIELD
 LOC .      S14 T38N R78W:   LOCATION
 CNTY.            NATRONA:   COUNTY
 STAT.            WYOMING:   STATE
 CTRY. UNITED STATES OF AMERICA:   COUNTRY
 SRVC.      DRESSER ATLAS:   SERVICE COMPANY
 DATE.        31-MAR-1986:   LOGDATE
 API .     49025110640000:   API NUMBER
~CURVE INFORMATION
#MNEM.UNIT       API CODE    CURVE DESCRIPTION
#----------   ------------   ------------------------------
 DEPT.F                  :   
 TEND.LBS    45 635 01 00:   TENSION FROM DENSITY LOG
 RHOB.G/C3   45 350 01 00:   BULK DENSITY
 CORR.G/C3   45 356 01 00:   DENSITY CORRECTION
 CALD.IN     45 280 60 00:   CALIPER FROM DENSITY LOG
 NPHI.DEC    42 890 00 00:   NEUTRON POROSITY
 TENR.LBS    07 635 01 00:   TENSION FROM RESISTIVITY
 RFOC.OHMM   07 220 01 00:   RESISTIVITY FOCUSED LOG RES.
 RILD.OHMM   07 120 46 00:   DEEP INDUCTION RESISTIVITY
 RILM.OHMM   07 120 44 00:   INDUCTION LOG MEDIUM RESISTIVITY
 GRR .GAPI   07 310 01 00:   GAMMA RAY FROM RESISTIVITY
 SPR .MV     07 010 01 00:   SPONTANEOUS POTENTIAL
 TENS.LBS    60 635 01 00:   TENSION FROM SONIC LOG
 DT  .US/F   60 520 00 00:   DELTA TIME
~PARAMETER INFORMATION
#MNEM.UNIT          VALUE    DESCRIPTION
#----------   ------------   ------------------------------
 EKB .F         5251.0000:   Kelly bushing
 EGL .F         5239.2000:   Ground level
 EDF .F         5248.1000:   Drilling floor
 TD  .F         3456.0000:   Total depth
 DATE.        31-MAR-1986:   Date logged
 CLNT.            A2DTECH:   Client Code
 SL  . 238' FWL & 1739' FNL:   Surface Location
 PD  .                 GL:   Permanent Datum
 EPD .F            5239.2:   Elevation Permanent Datum
 LMF .                 KB:   Log Measured From
 DMF .                 KB:   Drilling Measured From
 DAPD.F              11.8:   Feet Above Permanent Datum
 DD  .F              3450:   Depth driller
 DL  .F              3456:   Depth logger
 BLI .F              3450:   Bottom log interval
 CS1 .IN            8.625:   Casing size
 CBD1.      8.625" @ 689':   Casing driller 1
 CBL1.F               692:   Casing logger 1
 BS1 .IN            7.875:   Bit size
 BSD1.F              3450:   Depth drilled with bit1
 DFT .        POLYMER/KCL:   Type fluid in hole
 DFD .                9.1:   Density
 DFV .                 38:   Viscosity
 DFPH.                8.5:   pH
 DFL .               11.2:   Fluid loss
 MSS .           FLOWLINE:   Source of sample
 RMS .OHMM            .29:   Rm
 MST .F                65:   Rm Meas. temp.
 RMF .OHMM           .235:   Rmf
 MFST.F                65:   Rmf Meas. temp.
 RMC .OHMM           .378:   Rmc
 MCST.F                65:   Rmc Meas. temp.
 MFSS.               MEAS:   Source Rmf.
 MCSS.               MEAS:   Source Rmc.
 RMB .OHMM           .163:   Rm. at BHT
 BHT .F               115:   BHT.
 TCS .HRS               3:   Time Circ. stopped
 MRT .F               115:   Maximum recorded temp.
 LUN .            HL-6274:   Logging unit number
 LUL .           GILLETTE:   Logging unit location
 ENGI.             RAUTIO:   Recorded By
 WITN.             STRONG:   Witnessed by
 ORIG.           5" PRINT:   Origin of data
 UWI .     49025110640000:   Unique Well ID
 DICO. A2D TECHNOLOGIES, INC.:   Digitizing Company
~OTHER INFORMATION
~A    DEPT    TEND       RHOB       CORR       CALD       NPHI       TENR       RFOC       RILD       RILM          GRR      SPR       TENS         DT   
# ...
 2392.0000  -999.2500  -999.2500  -999.2500  -999.2500  -999.2500   -66.7470     9.0360     3.8690     4.1400   108.1940   -16.9540  -999.2500  -999.2500
 2392.5000  -999.2500  -999.2500  -999.2500  -999.2500  -999.2500   -66.5210     7.1470     3.6500     3.7470   109.3990   -16.6240  -999.2500  -999.2500
 2393.0000  -999.2500  -999.2500  -999.2500  -999.2500  -999.2500   -66.2950     4.7310     3.4890     3.5490   110.9440   -16.6340  -999.2500  -999.2500
 2393.5000  -999.2500  -999.2500  -999.2500  -999.2500  -999.2500   -66.0690     3.8540     3.3650     3.4190   112.4550   -16.6340  -999.2500  -999.2500
 2394.0000  -999.2500  -999.2500  -999.2500  -999.2500  -999.2500   -65.8430     3.4970     3.1500     3.3060   113.0760   -16.6330   -64.8150    93.5040
 2394.5000  -999.2500  -999.2500  -999.2500  -999.2500  -999.2500   -65.6170     3.3940     2.9350     3.1930   110.6420   -16.6350   -64.8150    93.5040
 2395.0000  -999.2500  -999.2500  -999.2500  -999.2500  -999.2500   -65.3910     4.2600     2.7200     3.0800   109.3340   -16.7880   -64.8150    93.5040
 2395.5000  -999.2500  -999.2500  -999.2500  -999.2500  -999.2500   -65.1650     4.7810     2.6690     3.0320   108.0120   -16.9590   -64.8150    93.5040
 2396.0000  -999.2500  -999.2500  -999.2500  -999.2500  -999.2500   -64.9390     5.0030     2.6690     2.9380   106.6430   -17.1310   -64.8150    93.5040
 2396.5000  -999.2500  -999.2500  -999.2500  -999.2500  -999.2500   -64.7130     4.5110     2.6950     2.8480   106.1350   -17.1950   -64.8150    93.5040
 2397.0000  -999.2500  -999.2500  -999.2500  -999.2500  -999.2500   -64.4870     4.0970     2.7540     2.8480   108.9900   -17.1120   -64.8150    93.5040
 2397.5000  -999.2500  -999.2500  -999.2500  -999.2500  -999.2500   -55.7740     3.7630     2.8130     2.8970   117.0360   -17.0320   -64.8150    93.5040
 2398.0000  -999.2500  -999.2500  -999.2500  -999.2500  -999.2500   -62.8100     3.5550     2.8740     2.9370   126.3200   -17.0480   -64.8150    93.5040
 2398.5000  -999.2500  -999.2500  -999.2500  -999.2500  -999.2500   -69.8450     3.8370     2.8740     3.0420   124.5700   -17.6470   -64.8150    93.5040
 2399.0000  -999.2500  -999.2500  -999.2500  -999.2500  -999.2500   -74.4730     4.1620     2.9670     3.1970   122.0100   -18.2860  -999.2500  -999.2500
 2399.5000  -999.2500  -999.2500  -999.2500  -999.2500  -999.2500   -74.4730     4.3160     3.0910     3.3510   121.5920   -18.9270  -999.2500  -999.2500
 2400.0000  -999.2500  -999.2500  -999.2500  -999.2500  -999.2500   -74.4730     4.4620     3.2110     3.5220   123.3950   -19.5880   -64.8150  -999.2500
 2400.5000  -999.2500  -999.2500  -999.2500  -999.2500  -999.2500   -74.4730     4.9410     3.5770     3.9300   125.7460   -19.6710   -64.8150  -999.2500
 2401.0000  -999.2500  -999.2500  -999.2500  -999.2500  -999.2500   -74.4730     5.4210     3.9290     4.3850   127.4550   -19.7340   -66.6720    93.5040
 2401.5000  -999.2500  -999.2500  -999.2500  -999.2500  -999.2500   -74.4730     5.8000     4.2820     4.8400   127.1320   -19.7940   -69.4080    93.5040
 2402.0000  -999.2500  -999.2500  -999.2500  -999.2500  -999.2500   -74.4730     5.9080     4.6340     5.1440   123.0630   -20.0530   -72.1440    93.2490
 2402.5000  -999.2500  -999.2500  -999.2500  -999.2500  -999.2500   -74.4730     6.7910     4.9110     5.2880   118.6750   -20.4110   -74.8250    92.0950
 2403.0000  -999.2500  -999.2500  -999.2500  -999.2500  -999.2500   -74.4730     7.5820     4.9880     5.2880   114.6200   -20.7720   -71.0520    91.2210
 2403.5000  -999.2500  -999.2500  -999.2500  -999.2500  -999.2500   -74.4730     7.5820     5.0630     5.2880   112.8140   -21.1370   -66.4350    90.5010
 2404.0000  -999.2500  -999.2500  -999.2500  -999.2500  -999.2500   -74.4730     6.5830     5.1910     5.2880   116.2760   -21.1880   -61.8180    90.6870
 2404.5000  -999.2500  -999.2500  -999.2500  -999.2500  -999.2500   -74.4730     5.8540     5.1910     5.3800   123.5110   -21.1490   -57.2010    91.3740
 2405.0000  -999.2500  -999.2500  -999.2500  -999.2500  -999.2500   -74.4730     5.8540     5.2880     5.5030   127.2450   -21.1070   -52.5840    92.4190
 2405.5000  -999.2500  -999.2500  -999.2500  -999.2500  -999.2500   -74.4730     6.0740     5.3870     5.5890   126.9250   -21.0640   -47.9670    93.3030
 2406.0000  -999.2500  -999.2500  -999.2500  -999.2500  -999.2500   -74.4730     6.6040     5.6960     5.9370   126.1740   -21.0150   -45.5160    93.4330
 2406.5000  -999.2500  -999.2500  -999.2500  -999.2500  -999.2500   -74.0290     7.2150     5.9760     6.3220   123.2170   -21.3690   -52.0820    93.1140
 2407.0000  -999.2500  -999.2500  -999.2500  -999.2500  -999.2500   -72.3870     7.8260     6.2560     6.7080   119.7090   -21.8800   -58.6490    92.3340
 2407.5000  -999.2500  -999.2500  -999.2500  -999.2500  -999.2500   -70.7460     8.4370     6.5370     7.0930   116.2720   -22.3950   -64.8150    91.6020
 2408.0000  -999.2500  -999.2500  -999.2500  -999.2500  -999.2500   -69.1040     9.0470     6.8170     7.4790   115.8260   -22.9130   -63.7590    91.0790
 2408.5000  -999.2500  -999.2500  -999.2500  -999.2500  -999.2500   -67.4620     9.6580     7.1040     7.8670   118.2450   -23.0050   -62.5280    90.6400
 2409.0000  -999.2500  -999.2500  -999.2500  -999.2500  -999.2500   -65.8210    10.0170     7.4190     8.0490   119.3710   -23.0080   -61.2960    90.4000
 2409.5000  -999.2500  -999.2500  -999.2500  -999.2500  -999.2500   -64.1790    10.0960     7.7340     8.2390   121.8090   -23.0080   -60.0650    90.4450
 2410.0000  -999.2500  -999.2500  -999.2500  -999.2500  -999.2500   -62.5380     9.8140     7.9610     8.3720   121.6000   -23.0310   -58.8340    90.4990
 2410.5000  -999.2500  -999.2500  -999.2500  -999.2500  -999.2500   -60.8960     9.5200     8.1090     8.5100   115.4930   -23.1940   -57.6030    90.5540
 2411.0000  -999.2500  -999.2500  -999.2500  -999.2500  -999.2500   -59.2540     9.2900     8.2570     8.5940   109.2430   -23.3620   -56.3710    90.5270
 2411.5000  -999.2500  -999.2500  -999.2500  -999.2500  -999.2500   -57.6130     9.6910     8.3930     8.6820   106.7220   -23.4040   -55.1400    89.9730
 2412.0000  -999.2500  -999.2500  -999.2500  -999.2500  -999.2500   -55.9710    10.3270     8.2910     8.7700   107.4030   -23.3840   -55.7240    89.0260
 2412.5000  -999.2500  -999.2500  -999.2500  -999.2500  -999.2500   -54.4130    10.6710     8.1630     8.8580   107.3570   -23.2930   -56.9860    88.0790
 2413.0000  -999.2500  -999.2500  -999.2500  -999.2500  -999.2500   -55.6030    10.5450     8.2290     8.8820   107.4430   -23.2050   -58.2490    87.3360
 2413.5000  -999.2500  -999.2500  -999.2500  -999.2500  -999.2500   -56.7350    10.3960     8.3770     8.9070   110.3490   -23.1150   -59.5120    87.1250
 2414.0000  -999.2500  -999.2500  -999.2500  -999.2500  -999.2500   -57.8670    10.2470     8.5260     8.9330   118.4990   -23.0190   -60.7750    87.2130
 2414.5000  -999.2500  -999.2500  -999.2500  -999.2500  -999.2500   -58.9990    10.0970     8.6750     8.9670   126.6530   -23.2260   -62.0380    87.3480
 2415.0000  -999.2500  -999.2500  -999.2500  -999.2500  -999.2500   -60.1320    10.0030     8.7090     9.0450   129.4280   -23.4940   -63.3000    87.4750
 2415.5000  -999.2500  -999.2500  -999.2500  -999.2500  -999.2500   -61.2640    10.2130     8.7890     9.1220   129.5400   -23.7580   -64.5630    87.7740
 2416.0000  -999.2500  -999.2500  -999.2500  -999.2500  -999.2500   -62.3960    10.8140     8.7260     9.2900   129.6800   -23.8360   -65.8260    88.1130
 2416.5000  -999.2500  -999.2500  -999.2500  -999.2500  -999.2500   -63.5280    11.4160     8.6400     9.1930   129.6580   -23.4240   -67.0890    88.4510
 2417.0000  -999.2500  -999.2500  -999.2500  -999.2500  -999.2500   -64.6600    11.5960     8.5530     9.0590   127.6690   -23.0240   -68.3520    88.6300
 2417.5000  -999.2500  -999.2500  -999.2500  -999.2500  -999.2500   -65.7920    11.3840     8.4670     8.9240   125.9680   -22.5910   -69.6140    88.6840
