~VERSION INFORMATION
 VERS.                2.0:   CWLS LOG ASCII STANDARD - VERSION 2.0
 WRAP.                 NO:   ONE LINE PER DEPTH STEP
~WELL INFORMATION
#MNEM.UNIT      DATA TYPE    INFORMATION
#----------   ------------   ------------------------------
 STRT.F            0.5000:   START DEPTH
 STOP.F         5663.0000:   STOP DEPTH
 STEP.F            0.5000:   STEP LENGTH
 NULL.          -999.2500:   NO VALUE
 COMP.         U. S. NAVY:   COMPANY
 WELL.         US TP #1-3:   WELL
 FLD . TEAPOT NAVAL RESERVE:   FIELD
 LOC .       S3 T38N R78W:   LOCATION
 CNTY.            NATRONA:   COUNTY
 STAT.            WYOMING:   STATE
 CTRY. UNITED STATES OF AMERICA:   COUNTRY
 SRVC.       SCHLUMBERGER:   SERVICE COMPANY
 DATE.        27-FEB-1953:   LOGDATE
 API .     49025064250000:   API NUMBER
~CURVE INFORMATION
#MNEM.UNIT       API CODE    CURVE DESCRIPTION
#----------   ------------   ------------------------------
 DEPT.F                  :   
 SPR .MV     01 010 01 00:   SPONTANEOUS POTENTIAL FROM RES.
 ASN .OHMM   01 041 16 00:   AMPLIFIED SHORT NORMAL 16"
 LAT .OHMM   01 070 00 00:   LATERAL
 LN  .OHMM   01 060 64 00:   LONG NORMAL 64"
 GRN .CPS    35 310 01 00:   GAMMA RAY
 NEUT.NAPI   35 330 01 00:   NEUTRON
~PARAMETER INFORMATION
#MNEM.UNIT          VALUE    DESCRIPTION
#----------   ------------   ------------------------------
 EKB .F            0.0000:   Kelly bushing
 EGL .F            0.0000:   Ground level
 EDF .F            0.0000:   Drilling floor
 EPD .F            0.0000:   Permanent datum
 TD  .F         5653.0000:   Total depth
 DATE.        27-FEB-1953:   Date logged
 CLNT.            A2DTECH:   Client Code
 DD  .F              5653:   Depth driller
 DL  .F              5653:   Depth logger
 BLI .F              5652:   Bottom log interval
 TLI .F               446:   Top log interval
 CBD1.F               445:   Casing driller 1
 CBL1.F               446:   Casing logger 1
 BS1 .IN                9:   Bit size
 BSD1.F              5653:   Depth drilled with bit1
 DFT .          LIMA/BASE:   Type fluid in hole
 DFD .                9.9:   Density
 DFV .                 43:   Viscosity
 RMS .OHMM            1.1:   Rm
 MST .F                55:   Rm Meas. temp.
 RMB .OHMM            .34:   Rm. at BHT
 BHT .F               166:   BHT.
 TCS .HRS               1:   Time Circ. stopped
 MRT .F               166:   Maximum recorded temp.
 LUN .                728:   Logging unit number
 LUL .               CSPR:   Logging unit location
 ENGI.            EVENSON:   Recorded By
 WITN.              MILLS:   Witnessed by
 ORIG.      1" 2.5" PRINT:   Origin of data
 UWI .     49025064250000:   Unique Well ID
 DICO. A2D TECHNOLOGIES, INC.:   Digitizing Company
~OTHER INFORMATION
~A  DEPTH      SPR        ASN        LAT         LN        GRN       NEUT
# ...
 2860.5000   -36.7486     5.9561     6.3059     5.7257    99.7875   121.6771
 2861.0000   -36.7582     5.9285     6.3046     5.7216   103.0844   136.7911
 2861.5000   -36.7677     5.9009     6.1684     5.7176   106.5769   144.3356
 2862.0000   -36.7772     5.8190     6.0135     5.7135   108.5695   134.1845
 2862.5000   -36.6281     5.7354     5.8928     5.7088   105.8120   119.3163
 2863.0000   -36.5245     5.6008     5.7599     5.7054   101.5546   106.3380
 2863.5000   -36.5354     5.4932     5.6147     5.7014    88.5471    98.7184
 2864.0000   -36.5435     5.3674     5.4728     5.6973    87.7909   103.7314
 2864.5000   -36.5530     5.2463     5.3517     5.6932    94.7810   166.8251
 2865.0000   -36.5625     5.1643     5.2156     5.6892    98.5236   212.2422
 2865.5000   -36.5720     5.1096     5.2143     5.6849    99.7661   229.8814
 2866.0000   -36.5818     5.1467     5.2129     5.6811   100.2599   226.3385
 2866.5000   -36.6988     5.2078     5.2114     5.6770   100.0012   196.9780
 2867.0000   -36.8197     5.2171     5.2102     5.6730    99.4938   146.4355
 2867.5000   -36.8818     5.1623     5.2089     5.6689    98.2098   123.6769
 2868.0000   -36.8922     5.1620     5.2075     5.6649    95.4789   141.3161
 2868.5000   -36.9008     5.2431     5.2491     5.6608    93.4715   151.3734
 2869.0000   -36.9103     5.4056     5.3396     5.6565    92.4126   181.6388
 2869.5000   -36.9198     5.4868     5.3383     5.6527    90.7066   184.5764
 2870.0000   -36.9309     5.5951     5.3925     5.6485    88.9491   172.2192
 2870.5000   -36.9386     5.6551     5.4947     5.6446    87.4429   156.2737
 2871.0000   -36.6777     5.7301     5.6037     5.6405    89.4837   125.9269
 2871.5000   -36.6870     5.7841     5.6024     5.6365    88.9268   115.7946
 2872.0000   -36.6963     5.8440     5.6373     5.6324    84.4194   135.9591
 2872.5000   -36.7056     5.8786     5.7347     5.6280    80.6619   168.7436
 2873.0000   -36.7164     5.9188     5.7332     5.6243    78.4045   199.0091
 2873.5000   -36.7242     5.9455     5.7318     5.6200    83.1470   224.2241
 2874.0000   -36.8579     5.9451     5.7305     5.7135    92.3896   206.5098
 2874.5000   -37.0160     5.9719     5.7291     5.7473    97.3821   176.1692
 2875.0000   -37.0245     5.9834     5.7278     5.7432    98.3759   145.8286
 2875.5000   -36.9513     6.0085     5.7264     5.7392    96.6160   115.4881
 2876.0000   -36.8215     6.0251     5.7251     5.7351    94.3586   112.9293
 2876.5000   -36.7812     6.0221     5.7235     5.7311    91.3511   110.3625
 2877.0000   -36.7922     5.9639     5.7224     5.7273    87.0937   109.7343
 2877.5000   -36.8003     5.8793     5.7210     5.7973    82.8362   110.2937
 2878.0000   -36.8098     5.7892     5.7325     5.8545    81.3300   115.3004
 2878.5000   -36.8193     5.6489     5.7799     5.8499    80.8213   122.8386
 2879.0000   -36.8288     5.5169     5.8273     5.8459    82.3139   135.7502
 2879.5000   -36.8385     5.4510     5.8504     5.8419    89.3064   151.4843
 2880.0000   -36.8478     5.3967     5.8491     5.8378    91.7990   170.6996
 2880.5000   -36.8573     5.3963     5.8477     5.8333    93.3231   190.8640
 2881.0000   -36.8669     5.4569     5.8363     5.9121    84.7841   213.5600
 2881.5000   -36.8764     5.6401     5.7936     6.1339    81.7767   193.3142
 2882.0000   -36.8849     5.8026     5.7508     6.3626    82.2692   190.7639
 2882.5000   -36.7644     5.9194     5.7075     6.3581    86.7618   210.9159
 2883.0000   -36.6349     6.0199     5.7062     6.3541    91.2543   215.9289
 2883.5000   -36.5313     6.1004     5.6777     6.4852    90.9969   226.6923
 2884.0000   -36.3804     6.1272     5.6011     6.4805    85.9895   238.5811
 2884.5000   -36.3899     6.1811     5.4729     6.4770    87.2320   236.0183
 2885.0000   -36.4002     6.1807     5.2964     6.3374    89.3336   232.8725
 2885.5000   -36.4090     6.1803     5.1603     6.0632    90.4671   223.3207
 2886.0000   -36.4203     6.1527     5.0701     5.7892    91.4597   213.1784
 2886.5000   -36.1563     6.1523     4.9536     5.7509    93.2022   203.0180
 2887.0000   -35.8954     6.1247     4.7458     5.6459    95.1936   180.2751
 2887.5000   -35.6998     6.1114     4.6159     5.5061    96.1718   152.4598
 2888.0000   -35.5870     6.0695     4.6006     5.5027    96.9287   112.0182
 2888.5000   -35.3791     6.0148     4.3436     5.4986    97.1737    89.2534
 2889.0000   -35.3886     5.8785     4.1894     5.4946    94.5759    74.0581
 2889.5000   -35.1264     5.6335     4.0714     5.4905    90.1563    81.5963
 2890.0000   -34.5924     5.4429     3.9353     5.4862    80.6489   111.8618
 2890.5000   -34.4977     5.0349     3.9338     5.4824    78.3914   162.3293
 2891.0000   -34.3397     4.4910     3.9326     5.4776    77.8865   205.2211
 2891.5000   -34.2705     3.7297     3.9996     5.4736    83.8765   232.9613
 2892.0000   -34.0870     3.5391     4.0647     5.4703    86.6191   255.6510
 2892.5000   -34.0969     3.5115     4.2473     5.4657    87.6129   283.3913
 2893.0000   -34.3779     3.5383     4.4661     5.3266    85.9192   301.0305
 2893.5000   -35.2039     3.7009     4.6552     5.3230    83.5968   313.6255
 2894.0000   -35.7824     4.0538     4.7419     5.4544    82.5906   314.6329
 2894.5000   -36.5802     4.4338     5.0150     5.4498    87.0819   307.4963
 2895.0000   -36.8622     4.8410     5.1839     5.5811    91.0548   293.3046
 2895.5000   -37.4144     5.2210     5.3596     5.7114    93.8170   273.0651
 2896.0000   -37.6960     5.5467     5.5647     5.7081    95.0608   237.6740
 2896.5000   -37.7068     5.6823     5.7273     5.7041    93.9668   204.8082
 2897.0000   -37.7147     5.7362     5.8750     5.7000    92.8627   184.5686
 2897.5000   -37.7253     5.7085     6.0133     5.6955    91.0372   197.1636
 2898.0000   -37.7337     5.6809     6.2047     5.6919    89.0285   171.8673
 2898.5000   -37.7439     5.5990     6.2035     5.6878    86.7711   146.5710
 2899.0000   -37.7532     5.5443     6.2022     5.6836    85.2636   161.6850
 2899.5000   -37.4907     5.4623     6.2008     5.6790    84.5062   171.7610
 2900.0000   -36.9565     5.4387     6.0647     5.6750    85.8773   192.3650
 2900.5000   -36.9565     5.3805     5.9266     5.2682    93.2486   196.9571
 2901.0000   -36.9565     5.3807     6.1355     5.2662    96.4973   181.7908
 2901.5000   -36.9565     5.3809     6.1873     5.2642    99.4961   174.1490
 2902.0000   -36.8369     5.3810     6.1833     5.2621   105.2448   151.4626
 2902.5000   -36.4130     5.3267     6.1792     5.2601   105.7438   133.7732
 2903.0000   -35.9706     5.1911     6.0398     5.2578   104.9923   121.1343
 2903.5000   -35.5978     5.0010     5.7541     5.2561   104.4911   136.2732
 2904.0000   -35.0354     4.8109     5.3581     5.2541   102.9899   148.9853
 2904.5000   -34.5109     4.5393     5.1344     5.2520   100.8664   171.6015
 2905.0000   -33.6957     4.0503     4.6764     5.2500    98.2374   196.8414
 2905.5000   -33.2819     3.4254     4.4022     5.2480    95.4861   214.5056
 2906.0000   -32.7935     3.2353     3.9940     5.2459    92.7349   219.5477
 2906.5000   -32.6087     3.2470     3.9900     5.2439    88.9837   222.0603
 2907.0000   -32.6087     3.2940     4.0330     5.3772    87.9826   205.3203
 2907.5000   -33.4239     3.4260     4.2524     5.5589    88.9001   176.5763
 2908.0000   -34.7826     3.8609     4.5633     5.7780    89.7301   148.7859
 2908.5000   -35.5978     4.1056     4.7829     5.7763    90.4787   138.6723
 2909.0000   -35.9267     4.4862     4.9600     5.9406    90.7277   149.6809
 2909.5000   -36.7942     4.8667     5.1196     6.1775    89.4760   169.3075
 2910.0000   -37.3008     5.2473     5.2740     6.3108    87.9750   186.6143
 2910.5000   -37.7717     5.5735     5.3939     6.4950    81.9735   202.0213
 2911.0000   -38.0435     5.7911     5.5713     6.7746    75.7223   229.5183
 2911.5000   -38.0435     5.9274     5.5674     6.8453    73.7213   267.3845
 2912.0000   -38.0435     6.0631     5.5633     6.9378    76.7198   282.5255
