~VERSION INFORMATION
 VERS.                2.0:   CWLS LOG ASCII STANDARD - VERSION 2.0
 WRAP.                 NO:   ONE LINE PER DEPTH STEP
~WELL INFORMATION
#MNEM.UNIT      DATA TYPE    INFORMATION
#----------   ------------   ------------------------------
 STRT.F           31.5000:   START DEPTH
 STOP.F         3370.0000:   STOP DEPTH
 STEP.F            0.5000:   STEP LENGTH
 NULL.          -999.2500:   NO VALUE
 COMP. LAWRENCE ALLISON & ASSOC - WEST:   COMPANY
 WELL. LAWRENCE "AX" #46-34:   WELL
 FLD .             NPR #3:   FIELD
 LOC .      S34 T39N R78W:   LOCATION
 CNTY.            NATRONA:   COUNTY
 STAT.            WYOMING:   STATE
 CTRY. UNITED STATES OF AMERICA:   COUNTRY
 SRVC.       SCHLUMBERGER:   SERVICE COMPANY
 DATE.        30-APR-1986:   LOGDATE
 API .     49025111380000:   API NUMBER
~CURVE INFORMATION
#MNEM.UNIT       API CODE    CURVE DESCRIPTION
#----------   ------------   ------------------------------
 DEPT.F                  :   
 TENR.LBS    07 635 01 00:   TENSION FROM RESISTIVITY
 GRR .GAPI   07 310 01 00:   GAMMA RAY FROM RESISTIVITY
 CALR.IN     07 280 01 00:   CALIPER FROM RESISTIVITY
 SPR .MV     07 010 01 00:   SPONTANEOUS POTENTIAL
 TEND.LBS    45 635 01 00:   TENSION FROM DENSITY LOG
 DEN .G/C3   45 350 01 00:   BULK DENSITY
 CORR.G/C3   45 356 01 00:   DENSITY CORRECTION
 CNC .DEC    42 890 03 00:   NEUTRON PORISITY SANDSTONE
 RFOC.OHMM   07 220 04 00:   RESISTIVITY FOCUSED LOG
 RILD.OHMM   07 120 46 00:   RESISTIVITY INDUCTION LOG DEEP
 RILM.OHMM   07 120 44 00:   RESISTIVITY INDUCTION LOG MEDIUM
~PARAMETER INFORMATION
#MNEM.UNIT          VALUE    DESCRIPTION
#----------   ------------   ------------------------------
 EKB .F         5094.0000:   Kelly bushing
 EGL .F         5082.0000:   Ground level
 EDF .F            0.0000:   Drilling floor
 TD  .F         3370.0000:   Total depth
 DATE.        30-APR-1986:   Date logged
 CLNT.            A2DTECH:   Client Code
 SL  . 2462' FWL & 1545' FSL:   Surface Location
 PD  .                 GL:   Permanent Datum
 EPD .F              5082:   Elevation Permanent Datum
 LMF .                 KB:   Log Measured From
 DMF .                 KB:   Drilling Measured From
 DAPD.F                12:   Feet Above Permanent Datum
 DD  .F              3370:   Depth driller
 DL  .F              3369:   Depth logger
 BLI .F              3367:   Bottom log interval
 CS1 .IN            8.625:   Casing size
 CBD1.      8.625" @ 642':   Casing driller 1
 CBL1.F               642:   Casing logger 1
 BS1 .IN            7.875:   Bit size
 BSD1.F              3370:   Depth drilled with bit1
 DFT .        POLYMER/KCL:   Type fluid in hole
 DFD .                8.9:   Density
 DFV .                 36:   Viscosity
 DFPH.                8.5:   pH
 DFL .               10.2:   Fluid loss
 MSS .           FLOWLINE:   Source of sample
 RMS .OHMM           .319:   Rm
 MST .F                79:   Rm Meas. temp.
 RMF .OHMM            .24:   Rmf
 MFST.F                79:   Rmf Meas. temp.
 RMC .OHMM            .40:   Rmc
 MCST.F                79:   Rmc Meas. temp.
 MFSS.               CALC:   Source Rmf.
 MCSS.               CALC:   Source Rmc.
 RMB .OHMM            .21:   Rm. at BHT
 BHT .F               117:   BHT.
 TCS .HRS               4:   Time Circ. stopped
 MRT .F               117:   Maximum recorded temp.
 LUN .            HL-6264:   Logging unit number
 LUL .           GILLETTE:   Logging unit location
 ENGI.     P. M. FAHLSING:   Recorded By
 WITN.             STRONG:   Witnessed by
 ORIG.        2" 5" PRINT:   Origin of data
 UWI .     49025111380000:   Unique Well ID
 DICO. A2D TECHNOLOGIES, INC.:   Digitizing Company
 TLI .                  0:   Top log interval
~OTHER INFORMATION
~A   DEPT     TENR        GRR       CALR        SPR       TEND        DEN       CORR        CNC       RFOC       RILD       RILM   
# ...
 1892.0000   -54.4130   116.8870     8.8540   -83.2330  -999.2500  -999.2500  -999.2500  -999.2500     7.2010     6.1380     5.9290
 1892.5000   -54.4130   119.1090     8.8520   -83.3710  -999.2500  -999.2500  -999.2500  -999.2500     7.0020     6.0670     5.8600
 1893.0000   -54.4130   118.1310     8.8510   -83.4470  -999.2500  -999.2500  -999.2500  -999.2500     6.9770     5.9830     5.7660
 1893.5000   -54.4130   116.6790     8.8500   -83.3150  -999.2500  -999.2500  -999.2500  -999.2500     6.9190     5.9280     5.7890
 1894.0000   -54.4130   121.1130     8.8510   -83.0860  -999.2500  -999.2500  -999.2500  -999.2500     6.8600     5.9750     5.8430
 1894.5000   -54.4130   124.9890     8.8520   -82.7660  -999.2500  -999.2500  -999.2500  -999.2500     6.8010     6.0310     5.8980
 1895.0000   -54.4130   124.9880     8.8530   -82.4800  -999.2500  -999.2500  -999.2500  -999.2500     6.7470     6.0860     5.9520
 1895.5000   -54.4130   123.8530     8.8550   -82.2160  -999.2500  -999.2500  -999.2500  -999.2500     6.8770     6.1420     6.0060
 1896.0000   -54.4130   123.1760     8.8560   -81.9550  -999.2500  -999.2500  -999.2500  -999.2500     7.0020     6.1980     6.0600
 1896.5000   -63.4400   123.3740     8.8570   -81.6610  -999.2500  -999.2500  -999.2500  -999.2500     7.3020     6.2660     6.0640
 1897.0000   -67.6290   124.4240     8.8580   -81.4320  -999.2500  -999.2500  -999.2500  -999.2500     7.6200     6.1970     5.9750
 1897.5000   -55.5930   127.9820     8.8590   -81.2700  -999.2500  -999.2500  -999.2500  -999.2500     7.6470     6.1060     5.8870
 1898.0000   -43.5570   129.1920     8.8610   -81.3350  -999.2500  -999.2500  -999.2500  -999.2500     7.3800     6.0150     5.7990
 1898.5000   -34.3530   127.6000     8.8620   -81.8910  -999.2500  -999.2500  -999.2500  -999.2500     7.1130     5.9250     5.7110
 1899.0000   -42.5910   126.8420     8.8630   -82.5740  -999.2500  -999.2500  -999.2500  -999.2500     6.8100     5.8340     5.6220
 1899.5000   -49.2590   125.6570     8.8640   -83.0680  -999.2500  -999.2500  -999.2500  -999.2500     6.7730     5.7430     5.5340
 1900.0000   -55.9280   124.6190     8.8660   -83.1270  -999.2500  -999.2500  -999.2500  -999.2500     6.7300     5.6520     5.4460
 1900.5000   -64.4430   125.3000     8.8670   -83.0790  -999.2500  -999.2500  -999.2500  -999.2500     6.6870     5.5610     5.3570
 1901.0000   -64.4430   124.4900     8.8680   -83.1140  -999.2500  -999.2500  -999.2500  -999.2500     6.6440     5.4710     5.2690
 1901.5000   -53.5920   120.7000     8.8690   -83.0920  -999.2500  -999.2500  -999.2500  -999.2500     6.6000     5.3800     5.1810
 1902.0000   -44.0200   117.9040     8.8690   -83.1030  -999.2500  -999.2500  -999.2500  -999.2500     6.5630     5.2890     5.0920
 1902.5000   -34.3530   117.8490     8.8680   -83.1000  -999.2500  -999.2500  -999.2500  -999.2500     6.2660     5.1980     5.0040
 1903.0000   -36.9110   120.9410     8.8670   -83.0970  -999.2500  -999.2500  -999.2500  -999.2500     6.3990     5.1080     4.9160
 1903.5000   -43.2920   124.2710     8.8650   -82.9040  -999.2500  -999.2500  -999.2500  -999.2500     6.5630     5.0190     4.8820
 1904.0000   -49.6740   124.8210     8.8640   -82.5570  -999.2500  -999.2500  -999.2500  -999.2500     6.6850     5.0190     4.9350
 1904.5000   -54.4130   124.1450     8.8630   -82.2530  -999.2500  -999.2500  -999.2500  -999.2500     6.1130     5.1450     5.0560
 1905.0000   -44.3830   122.2850     8.8610   -81.9230  -999.2500  -999.2500  -999.2500  -999.2500     5.6510     5.2940     5.1780
 1905.5000   -44.3830   120.3310     8.8600   -81.6230  -999.2500  -999.2500  -999.2500  -999.2500     5.9950     5.4420     5.3000
 1906.0000   -51.3790   117.9990     8.8580   -81.2900  -999.2500  -999.2500  -999.2500  -999.2500     6.7090     5.5910     5.4210
 1906.5000   -54.4130   115.4880     8.8570   -80.9090  -999.2500  -999.2500  -999.2500  -999.2500     7.4700     5.7400     5.5430
 1907.0000   -49.3700   115.9210     8.8560   -80.6920  -999.2500  -999.2500  -999.2500  -999.2500     7.5390     5.8890     5.6650
 1907.5000   -34.3530   116.8060     8.8540   -80.7070  -999.2500  -999.2500  -999.2500  -999.2500     7.4340     5.9720     5.7660
 1908.0000   -42.6110   117.5850     8.8530   -81.0140  -999.2500  -999.2500  -999.2500  -999.2500     7.2460     5.9400     5.7370
 1908.5000   -51.1200   118.1360     8.8510   -81.4380  -999.2500  -999.2500  -999.2500  -999.2500     7.1320     5.9070     5.7130
 1909.0000   -47.3250   116.5630     8.8500   -81.8450  -999.2500  -999.2500  -999.2500  -999.2500     7.1320     5.8750     5.6890
 1909.5000   -34.3530   114.8460     8.8560   -82.2620  -999.2500  -999.2500  -999.2500  -999.2500     7.1320     5.8430     5.6600
 1910.0000   -36.8990   116.0150     8.8620   -82.6740  -999.2500  -999.2500  -999.2500  -999.2500     7.1320     5.8190     5.6600
 1910.5000   -40.8260   119.2600     8.8680   -83.0880  -999.2500  -999.2500  -999.2500  -999.2500     7.0240     5.8190     5.6600
 1911.0000   -44.3830   120.0480     8.8740   -83.2170  -999.2500  -999.2500  -999.2500  -999.2500     6.9210     5.8240     5.6700
 1911.5000   -44.3830   118.5680     8.8800   -83.0480  -999.2500  -999.2500  -999.2500  -999.2500     6.8100     5.8330     5.6780
 1912.0000   -44.3830   117.9680     8.8860   -82.8770  -999.2500  -999.2500  -999.2500  -999.2500     6.7130     5.8420     5.6870
 1912.5000   -54.4130   119.7250     8.8890   -82.7100  -999.2500  -999.2500  -999.2500  -999.2500     6.7060     5.8500     5.6950
 1913.0000   -54.4130   121.5220     8.8860   -82.5370  -999.2500  -999.2500  -999.2500  -999.2500     6.9450     5.8590     5.7040
 1913.5000   -44.5000   121.2940     8.8830   -82.3700  -999.2500  -999.2500  -999.2500  -999.2500     7.1840     5.8680     5.7130
 1914.0000   -34.3530   121.5000     8.8800   -82.1990  -999.2500  -999.2500  -999.2500  -999.2500     7.4240     5.9110     5.7350
 1914.5000   -48.4620   123.6920     8.8760   -82.0300  -999.2500  -999.2500  -999.2500  -999.2500     7.6630     6.0070     5.7580
 1915.0000   -74.4730   124.5230     8.8730   -81.8590  -999.2500  -999.2500  -999.2500  -999.2500     7.4670     6.1020     5.8160
 1915.5000   -54.5760   122.6290     8.8700   -81.6920  -999.2500  -999.2500  -999.2500  -999.2500     7.0150     6.1970     5.8950
 1916.0000   -34.3530   120.4020     8.8670   -81.5180  -999.2500  -999.2500  -999.2500  -999.2500     6.5620     6.2660     5.9830
 1916.5000   -74.9580   113.9440     8.8640   -81.3560  -999.2500  -999.2500  -999.2500  -999.2500     6.1520     6.2440     5.9630
 1917.0000  -114.5940   107.2710     8.8610   -81.1750  -999.2500  -999.2500  -999.2500  -999.2500     7.0280     6.1980     5.9400
 1917.5000   -60.1810   108.7140     8.8580   -81.1080  -999.2500  -999.2500  -999.2500  -999.2500     8.0440     6.1510     5.9160
 1918.0000    -0.6190   114.8340     8.8550   -81.1710  -999.2500  -999.2500  -999.2500  -999.2500     7.8420     6.1050     5.8930
 1918.5000    15.7970   120.3350     8.8520   -81.3060  -999.2500  -999.2500  -999.2500  -999.2500     7.2530     6.0590     5.8740
 1919.0000   -37.6430   120.9230     8.8480   -81.6300  -999.2500  -999.2500  -999.2500  -999.2500     7.0020     6.0390     5.8190
 1919.5000   -84.5040   119.6920     8.8450   -81.9880  -999.2500  -999.2500  -999.2500  -999.2500     7.0020     5.9650     5.7220
 1920.0000   -75.6200   121.2220     8.8420   -82.3460  -999.2500  -999.2500  -999.2500  -999.2500     7.0020     5.9340     5.6390
 1920.5000   -64.4430   124.0960     8.8390   -82.6870  -999.2500  -999.2500  -999.2500  -999.2500     6.9050     5.9030     5.6420
 1921.0000   -74.4730   125.6420     8.8360   -83.1120  -999.2500  -999.2500  -999.2500  -999.2500     6.7870     5.8740     5.6950
 1921.5000   -74.4730   125.7320     8.8320   -83.4860  -999.2500  -999.2500  -999.2500  -999.2500     6.8100     5.8740     5.8710
 1922.0000   -58.2750   127.4620     8.8310   -83.5150  -999.2500  -999.2500  -999.2500  -999.2500     6.8100     6.1380     6.1110
