~VERSION INFORMATION
 VERS.                2.0:   CWLS LOG ASCII STANDARD - VERSION 2.0
 WRAP.                 NO:   ONE LINE PER DEPTH STEP
~WELL INFORMATION
#MNEM.UNIT      DATA TYPE    INFORMATION
#----------   ------------   ------------------------------
 STRT.F            9.0000:   START DEPTH
 STOP.F         2876.0000:   STOP DEPTH
 STEP.F            0.5000:   STEP LENGTH
 NULL.          -999.2500:   NO VALUE
 COMP.    FENIX & SCISSON:   COMPANY
 WELL. FENIX & SCISSON "AX" #82-29:   WELL
 FLD .        TEAPOT DOME:   FIELD
 LOC .      S29 T39N R78W:   LOCATION
 CNTY.            NATRONA:   COUNTY
 STAT.            WYOMING:   STATE
 CTRY. UNITED STATES OF AMERICA:   COUNTRY
 SRVC.           BIRDWELL:   SERVICE COMPANY
 DATE.        12-JAN-1980:   LOGDATE
 API .     49025107980000:   API NUMBER
~CURVE INFORMATION
#MNEM.UNIT       API CODE    CURVE DESCRIPTION
#----------   ------------   ------------------------------
 DEPT.F                  :   
 GRD .GAPI   45 310 01 00:   GAMMA RAY FROM DENSITY LOG
 CALD.IN     45 280 60 00:   CALIPER FROM DENSITY LOG
 CORR.G/C3   45 356 01 00:   DENSITY CORRECTION
 RHOB.G/C3   45 350 01 00:   BULK DENSITY
 SPR .MV     07 010 01 00:   SPONTANEOUS POTENTIAL
 ILD .OHMM   07 120 46 00:   DEEP INDUCTION RESISTIVITY
 SN  .OHMM   07 220 01 00:   SHALLOW FOCUSED LOG RESISTIVITY
~PARAMETER INFORMATION
#MNEM.UNIT          VALUE    DESCRIPTION
#----------   ------------   ------------------------------
 EKB .F         4985.0000:   Kelly bushing
 EGL .F         4973.0000:   Ground level
 EDF .F         4982.0000:   Drilling floor
 TD  .F         2876.0000:   Total depth
 CLNT.            A2DTECH:   Client Code
 SL  . 1821' FEL & 414' FEL:   Surface Location
 DATE.        12-JAN-1980:   Date Logged [DD-MMM-YYYY]
 DD  .F              2870:   Depth driller
 DL  .F              2876:   Depth logger
 BLI .F              2876:   Bottom log interval
 TLI .F               320:   Top log interval
 CS1 .IN            8.625:   Casing size
 CBD1.      8.625" @ 280':   Casing driller 1
 CBL1.IN              320:   Casing logger 1
 BS1 .IN            7.875:   Bit size
 BSD1.F              2870:   Depth drilled with bit1
 DFT .            GEL MUD:   Type fluid in hole
 DFD .                8.7:   Density
 DFV .                 53:   Viscosity
 DFPH.               10.5:   pH
 DFL .               15.4:   Fluid loss
 MSS .            MUD PIT:   Source of sample
 RMS .OHMM            1.8:   Rm
 MST .F                50:   Rm Meas. temp.
 RMF .OHMM            1.4:   Rmf
 MFST.F                60:   Rmf Meas. temp.
 MFSS.               MEAS:   Source Rmf.
 RMC .OHMM            1.9:   Rmc
 MCST.F                60:   Rmc Meas. temp.
 MCSS.               MEAS:   Source Rmc.
 RMB .OHMM           0.65:   Rm. at BHT
 BHT .F               138:   BHT.
 TCS .HRS              11:   Time Circ. stopped
 MRT .F               138:   Maximum recorded temp.
 LUN .               3029:   Logging unit number
 LUL .             CASPEL:   Logging unit location
 ENGI.           T. VOLFF:   Recorded By
 WITN.          MR. AMEND:   Witnessed by
 ORIG.         2.5" PRINT:   Origin of data
 UWI .     49025107980000:   Unique Well ID
 DICO. A2D TECHNOLOGIES,INC.:   Digitizing Company
 PD  .                 GL:   Permanent Datum
 EPD .F              4973:   Elevation Permanent Datum
 LMF .                 DF:   Log Measured From
 DMF .                 KB:   Drilling Measured From
 DAPD.F                 9:   Feet Above Permanent Datum
~OTHER INFORMATION
~A    DEPT      GRD      CALD       CORR       RHOB        SPR        ILD         SN   
# ...
  828.0000   113.9594     8.6861     0.0355     2.5510   -16.5570     9.5431    11.1093
  828.5000   115.2011     8.6842     0.0318     2.5453   -17.0732     9.5500    11.1112
  829.0000   115.9798     8.7128     0.0400     2.5530   -17.0732     9.5418    11.1127
  829.5000   115.9413     8.7148     0.0438     2.5543   -17.0732     9.5411    11.1142
  830.0000   113.6765     8.7396     0.0467     2.5545   -16.9004     9.5405    11.1157
  830.5000   109.7177     8.7376     0.0465     2.5587   -16.4634     9.5398    11.1172
  831.0000   107.2787     8.7358     0.0463     2.5569   -17.0732     9.5391    11.1187
  831.5000   105.7515     8.7646     0.0462     2.5444   -17.6829     9.5384    11.1202
  832.0000   107.5678     8.7624     0.0461     2.5375   -17.3780     9.5378    11.1217
  832.5000   109.3842     8.7606     0.0459     2.5418   -15.5488     9.5371    11.1234
  833.0000   110.5926     8.7585     0.0458     2.5489   -15.8537     9.5364    11.2819
  833.5000   112.1161     8.7567     0.0426     2.5492   -16.1650     9.5358    11.2453
  834.0000   113.0094     8.7549     0.0425     2.5429   -16.1056     9.4022    11.1278
  834.5000   110.6790     8.7532     0.0424     2.5398   -14.3293     9.4016    11.1296
  835.0000   108.0750     8.7514     0.0422     2.5405   -14.6341     9.2701    11.1311
  835.5000   107.2121     8.7497     0.0451     2.5411   -14.9390     9.2695    10.9777
  836.0000   108.4724     8.7479     0.0481     2.5395   -14.0244     9.3997    10.9792
  836.5000   111.4787     8.7461     0.0472     2.5364   -15.6379     9.3991    10.9811
  837.0000   115.3415     8.7388     0.0352     2.5317   -17.5233     9.3984    10.8297
  837.5000   119.7316     8.7045     0.0324     2.5225   -17.6829     9.3978    10.8312
  838.0000   117.3274     8.6400     0.0353     2.5102   -17.6829     9.3971    10.8326
  838.5000   113.1617     8.5754     0.0352     2.5040   -17.0732     9.3964    10.8341
  839.0000   110.8041     8.4806     0.0381     2.5040   -18.2927     9.3958    10.8356
  839.5000   109.8848     8.4000     0.0421     2.5024   -19.2073     9.4397    10.8371
  840.0000   109.2695     8.2481     0.0439     2.5221   -19.5122     9.5272    10.8386
  840.5000   109.5661     8.1858     0.0570     2.5465   -19.2073     9.5264    10.8401
  841.0000   112.9022     8.1234     0.0726     2.5540   -17.6829     9.5257    10.6905
  841.5000   118.0619     8.1217     0.0629     2.5367   -17.3780     9.5249    10.6540
  842.0000   120.4863     8.1199     0.0428     2.5279   -17.3395     9.5243    10.5446
  842.5000   117.7306     8.1181     0.0340     2.5342   -16.6514     9.3911    10.5463
  843.0000   114.9615     8.1467     0.0278     2.5339   -15.7755     9.2597    10.4009
  843.5000   114.0810     8.1448     0.0246     2.5335   -14.8409     9.2591    10.3285
  844.0000   116.9666     8.1431     0.0214     2.5319   -14.6341     9.2585    10.2590
  844.5000   119.2060     8.1412     0.0213     2.5272   -15.6865     9.1289    10.2607
  845.0000   120.7457     8.1394     0.0212     2.5255   -16.0111     9.1283    10.4070
  845.5000   119.1099     8.1376     0.0210     2.5244   -16.1585     9.1277    10.4084
  846.0000   117.0273     8.1357     0.0209     2.5285   -16.1585     9.1271    10.4098
  846.5000   114.9782     8.1339     0.0208     2.5334   -16.1585     8.9993    10.4112
  847.0000   113.7214     8.1321     0.0176     2.5319   -16.1585     8.7499    10.1248
  847.5000   115.5474     8.1300     0.0175     2.5271   -16.1585     8.6275     9.9829
  848.0000   119.6009     8.1282     0.0173     2.5294   -16.1585     8.6269     9.8475
  848.5000   118.5626     8.1265     0.0178     2.5341   -16.1585     8.5063     9.8293
  849.0000   116.4276     8.1247     0.0201     2.5406   -15.8425     8.3242     9.7131
  849.5000   114.5964     8.1230     0.0247     2.5451   -15.5488     8.2698     9.7146
  850.0000   113.3732     8.1212     0.0330     2.5389   -16.8190     8.1541     9.7159
  850.5000   115.1896     8.1194     0.0380     2.5282   -17.1438     8.1535     9.5817
  851.0000   117.6138     8.1218     0.0335     2.5204   -17.6829     8.1530     9.5833
  851.5000   123.6854     8.1462     0.0301     2.5274   -17.9878     8.0389     9.5847
  852.0000   124.2859     8.1527     0.0207     2.5356   -17.9878     7.9265     9.5860
  852.5000   124.3111     8.1730     0.0126     2.5238   -17.6880     7.9259     9.5876
  853.0000   125.2254     8.1709     0.0068     2.5124   -16.9035     7.8151     9.5889
  853.5000   128.2151     8.1839     0.0005     2.5202   -16.4634     7.8145     9.5902
  854.0000   126.5207     8.1976    -0.0005     2.5262   -17.0732     7.7951     9.4580
  854.5000   125.5679     8.1954     0.0155     2.5283   -17.0732     7.7047     9.4593
  855.0000   124.7315     8.1937     0.0184     2.5269   -15.5488     7.7041     9.4606
  855.5000   123.7953     8.1919     0.0183     2.5153   -15.8537     7.7431     9.4618
  856.0000   122.4052     8.1902     0.0090     2.5070   -15.8537     7.8118     9.4632
  856.5000   121.1778     8.1884     0.0058     2.5122   -15.5377     7.8113     9.4645
  857.0000   121.7766     8.1866     0.0087     2.5091   -13.6961     7.8717     9.4952
  857.5000   122.3785     8.1849     0.0148     2.5105   -13.8491     7.9204     9.6008
  858.0000   122.9777     8.1830     0.0178     2.5227   -15.5488     8.0317     9.5558
  858.5000   122.9703     8.1812     0.0175     2.5303   -15.8537     8.0310     9.4696
  859.0000   122.9629     8.1794     0.0168     2.5305   -15.9563     8.0305     9.6049
  859.5000   121.4357     8.1776     0.0135     2.5256   -16.2809     8.1433     9.7418
  860.0000   120.2125     8.1757     0.0071     2.5255   -16.9105     8.1427     9.7435
  860.5000   121.1170     8.1740     0.0097     2.5254   -17.2352     8.1422     9.8824
  861.0000   123.2636     8.1721     0.0168     2.5254   -17.6829     8.1485     9.8837
  861.5000   123.8377     8.1700     0.0197     2.5253   -17.9878     8.2560     9.8850
  862.0000   123.8298     8.1682     0.0182     2.5247   -17.6829     8.3940     9.8864
  862.5000   123.8222     8.1664     0.0118     2.5105   -17.0732     8.4896     9.8877
  863.0000   124.1195     8.1647     0.0040     2.5022   -16.4634     8.6089     9.8891
  863.5000   124.2078     8.1629     0.0130     2.5107   -15.8537     8.6082     9.8904
  864.0000   124.4087     8.1612     0.0220     2.5244   -15.8537     8.6076    10.0315
  864.5000   123.6616     8.1594     0.0250     2.5300   -15.8537     8.5467    10.0329
  865.0000   122.1276     8.1576     0.0248     2.5347   -16.1585     8.4196    10.0343
  865.5000   120.4098     8.1557     0.0247     2.5384   -16.4634     8.1364     9.8958
  866.0000   119.5122     8.1540     0.0246     2.5400   -16.7683     8.0226     9.8478
  866.5000   119.8087     8.1615     0.0244     2.5383   -17.0732     7.8002     9.7035
  867.0000   120.7132     8.1809     0.0182     2.5320   -16.5386     7.6911     9.6264
  867.5000   122.2256     8.1788     0.0150     2.5200   -15.7191     7.7992     9.5675
  868.0000   123.5765     8.1769     0.0179     2.5230   -15.8537     7.7986     9.6294
  868.5000   127.5228     8.1748     0.0239     2.5245   -16.0280     8.0198     9.7667
  869.0000   132.9889     8.1730     0.0238     2.5229   -16.4634     8.1325     9.7680
  869.5000   132.9838     8.1713     0.0267     2.5182   -16.7683     8.2627     9.9072
  870.0000   132.9787     8.1695     0.0217     2.5060   -17.0732     8.4807     9.9086
  870.5000   132.0618     8.1678     0.0097     2.4998   -16.1585     8.4800     9.9099
  871.0000   130.5370     8.1660     0.0040     2.5104   -15.8537     8.4408     9.9113
  871.5000   127.7964     8.1946     0.0048     2.5149   -15.8537     8.3154     9.9049
  872.0000   124.1439     8.1927     0.0089     2.5212   -15.8537     8.1291     9.7596
  872.5000   122.3151     8.1909     0.0176     2.5339   -16.1865     8.1285     9.6167
  873.0000   122.6140     8.1891     0.0317     2.5470   -17.0732     8.0148     9.5082
