~VERSION INFORMATION
 VERS.                2.0:   CWLS LOG ASCII STANDARD - VERSION 2.0
 WRAP.                 NO:   ONE LINE PER DEPTH STEP
~WELL INFORMATION
#MNEM.UNIT      DATA TYPE    INFORMATION
#----------   ------------   ------------------------------
 STRT.F           29.5000:   START DEPTH
 STOP.F         2719.5000:   STOP DEPTH
 STEP.F            0.5000:   STEP LENGTH
 NULL.          -999.2500:   NO VALUE
 COMP.          INTEX OIL:   COMPANY
 WELL. INTEX NPR 3 "AX" #82-20:   WELL
 FLD .             TEAPOT:   FIELD
 LOC .      S20 T39N R78W:   LOCATION
 CNTY.            NATRONA:   COUNTY
 STAT.            WYOMING:   STATE
 CTRY. UNITED STATES OF AMERICA:   COUNTRY
 SRVC.       SCHLUMBERGER:   SERVICE COMPANY
 DATE.        19-MAY-1956:   LOGDATE
 API .     49025095270000:   API NUMBER
~CURVE INFORMATION
#MNEM.UNIT       API CODE    CURVE DESCRIPTION
#----------   ------------   ------------------------------
 DEPT.F                  :   
 CALD.IN     45 280 60 00:   CALIPER FROM DENSITY LOG
 GRD .GAPI   45 310 01 00:   GAMMA RAY FROM DENSITY LOG
 CORR.G/C3   45 356 01 00:   DENSITY CORRECTION
 RHOB.G/C3   45 350 01 00:   BULK DENSITY
 SPR .MV     05 010 01 00:   SPONTANEOUS POTENTIAL
 ILD .OHMM   05 120 46 00:   DEEP INDUCTION RESISTIVITY
 SN  .OHMM   05 040 00 00:   SHORT NORMAL
~PARAMETER INFORMATION
#MNEM.UNIT          VALUE    DESCRIPTION
#----------   ------------   ------------------------------
 EKB .F         5014.3000:   Kelly bushing
 EGL .F         5004.0000:   Ground level
 EDF .F            0.0000:   Drilling floor
 TD  .F         2717.0000:   Total depth
 DATE.        19-MAY-1956:   Date logged
 CLNT.            A2DTECH:   Client Code
 PD  .                 GL:   Permanent Datum
 EPD .F              5004:   Elevation Permanent Datum
 LMF .                 KB:   Log Measured From
 DMF .                 KB:   Drilling Measured From
 DAPD.F              10.3:   Feet Above Permanent Datum
 DD  .F              2717:   Depth driller
 DL  .F              2717:   Depth logger
 BLI .F              2716:   Bottom log interval
 TLI .F               100:   Top log interval
 CS1 .IN            10.75:   Casing size
 CBD1.       10.75" @ 30':   Casing driller 1
 BS1 .IN            7.875:   Bit size
 BSD1.F              2717:   Depth drilled with bit1
 DFT .        GEL/CAUSTIC:   Type fluid in hole
 DFD .                9.7:   Density
 DFV .                 35:   Viscosity
 DFPH.                7.6:   pH
 DFL .                8.8:   Fluid loss
 MSS .           FLOWLINE:   Source of sample
 RMS .OHMM           1.68:   Rm
 MST .F                58:   Rm Meas. temp.
 RMF .OHMM           1.17:   Rmf
 MFST.F                68:   Rmf Meas. temp.
 MFSS.                 FP:   Source Rmf.
 RMB .OHMM              1:   Rm. at BHT
 BHT .F               101:   BHT.
 TCS .HRS               4:   Time Circ. stopped
 MRT .F               101:   Maximum recorded temp.
 LUN .               4507:   Logging unit number
 LUL .               CSPR:   Logging unit location
 ENGI.            MANGOLD:   Recorded By
 WITN.             TUTTLE:   Witnessed by
 ORIG.           5" PRINT:   Origin of data
 UWI .     49025095270000:   Unique Well ID
 DICO. A2D TECHNOLOGIES, INC.:   Digitizing Company
~OTHER INFORMATION
~A   DEPT     CALD         GRD      CORR       RHOB        SPR        ILD         SN   
# ...
 2168.0000     9.8680    99.2510     0.1190     2.5630   -39.2660     7.3930    10.1670
 2168.5000     9.8910    98.3360     0.1260     2.5570   -39.0790     7.3090    10.1170
 2169.0000     9.9150    97.3560     0.1050     2.5250   -38.8930     7.2150    10.0580
 2169.5000     9.9390    95.9670     0.0840     2.5110   -38.7250     7.1190    10.0790
 2170.0000     9.9620    93.8910     0.0630     2.4970   -38.8740     7.0240    10.0010
 2170.5000     9.9600    91.4460     0.0580     2.4890   -39.0320     6.9280     9.8700
 2171.0000     9.9570    92.0220     0.0640     2.5060   -39.1900     6.8330     9.8560
 2171.5000     9.9540    93.4380     0.0690     2.5190   -39.3480     6.7370     9.7480
 2172.0000     9.9500    94.8300     0.0750     2.5230   -39.5010     6.6420     9.7130
 2172.5000     9.9470    96.1960     0.0750     2.5220   -39.3830     6.5460     9.5300
 2173.0000     9.9440    97.7810     0.0670     2.5210   -39.1860     6.4510     9.3490
 2173.5000     9.9450    99.3640     0.0580     2.5200   -38.9890     6.3550     9.1710
 2174.0000     9.9230   100.9030     0.0490     2.5000   -38.7920     6.2600     8.9940
 2174.5000     9.9310   100.1750     0.0470     2.5050   -38.5930     6.1640     8.8160
 2175.0000     9.9400    98.8980     0.0670     2.5200   -38.5180     6.0700     8.6390
 2175.5000     9.9500    97.6380     0.0770     2.5130   -38.5500     6.0010     8.4610
 2176.0000     9.9590    98.2130     0.0850     2.5020   -38.5840     6.0300     8.2780
 2176.5000     9.9680   102.6820     0.0780     2.5270   -38.6190     6.0860     8.2440
 2177.0000     9.9780   107.1220     0.0750     2.5160   -38.6540     6.1410     8.2770
 2177.5000     9.9450   112.4460     0.0930     2.5090   -38.6880     6.1960     8.4170
 2178.0000     9.9070   108.6130     0.0820     2.5010   -38.7230     6.2510     8.5600
 2178.5000     9.8680    99.1970     0.0890     2.5190   -38.7580     6.3070     8.7040
 2179.0000     9.8410    98.4120     0.1010     2.5470   -38.7920     6.3620     8.8470
 2179.5000     9.8330    99.5840     0.1110     2.5570   -38.8270     6.4170     8.9920
 2180.0000     9.8240   100.6630     0.0930     2.5660   -38.8620     6.4710     9.0380
 2180.5000     9.8160    99.4340     0.0730     2.5320   -38.8960     6.4690     9.0020
 2181.0000     9.8080    97.3850     0.0740     2.5250   -38.9310     6.3710     8.9660
 2181.5000     9.8000    95.2920     0.0790     2.5200   -38.9660     6.2770     8.9290
 2182.0000     9.7910    98.4420     0.0810     2.5140   -39.0000     6.1830     8.8920
 2182.5000     9.7830   102.1150     0.0710     2.5090   -39.0350     6.0890     8.8430
 2183.0000     9.7750   103.1290     0.0840     2.5040   -39.0700     5.9950     8.7340
 2183.5000     9.7670   104.2550     0.0670     2.5010   -39.1040     5.9020     8.6240
 2184.0000     9.7590   106.4600     0.0670     2.5050   -39.1390     5.8080     8.5130
 2184.5000     9.7500   108.2530     0.0810     2.5210   -39.1740     5.9320     8.5130
 2185.0000     9.7480   104.7630     0.0920     2.5360   -39.2080     6.1510     8.5910
 2185.5000     9.7560   103.7390     0.1020     2.5280   -39.2440     6.3690     8.6670
 2186.0000     9.7630   104.0600     0.0760     2.5160   -39.2830     6.5880     8.7380
 2186.5000     9.7710   104.5730     0.0810     2.5230   -39.2830     6.8070     9.0720
 2187.0000     9.7790   105.2900     0.0870     2.5360   -38.8830     7.0270     9.4570
 2187.5000     9.7870   103.7430     0.0820     2.5310   -38.7670     7.2460     9.8450
 2188.0000     9.7950   100.8540     0.0780     2.5270   -38.6530     7.4660    10.2330
 2188.5000     9.8020    95.6580     0.0820     2.5360   -38.5410     7.6850    10.6200
 2189.0000     9.8100    90.6420     0.0920     2.5490   -38.5240     7.9040    11.0070
 2189.5000     9.8180    85.5530     0.1020     2.5600   -38.5730     8.1220    11.2210
 2190.0000     9.8260    83.6550     0.0830     2.5520   -38.6240     8.3350    11.1990
 2190.5000     9.8340    87.0500     0.0790     2.5470   -38.6740     8.4830    11.1030
 2191.0000     9.8410    91.5120     0.0830     2.5500   -38.7250     8.4480    11.0330
 2191.5000     9.8490    95.6960     0.0880     2.5400   -38.7760     8.4110    10.9650
 2192.0000     9.8570    92.9590     0.0880     2.5340   -38.8260     8.3740    10.9200
 2192.5000     9.8640    90.8060     0.0870     2.5370   -38.8770     8.3360    10.8470
 2193.0000     9.8640    89.9290     0.0710     2.5220   -38.9280     8.2970    10.8480
 2193.5000     9.8640    91.7710     0.0790     2.5140   -38.9780     8.2590    10.8740
 2194.0000     9.8640    94.9700     0.0920     2.5180   -39.0290     8.2210    10.9000
 2194.5000     9.8640    98.0790     0.0770     2.5340   -39.0800     8.1790    10.9260
 2195.0000     9.8620    98.1390     0.1000     2.5500   -39.1300     8.0460    10.9520
 2195.5000     9.8550    98.2470     0.1100     2.5610   -39.1810     7.9140    10.9780
 2196.0000     9.8490    97.1640     0.0940     2.5600   -39.2310     7.7820    11.0070
 2196.5000     9.8430    95.9510     0.0780     2.5510   -39.2810     7.6500    11.0410
 2197.0000     9.8360    94.2420     0.0680     2.5350   -39.2800     7.5180    10.9360
 2197.5000     9.8300    92.3240     0.0870     2.5380   -39.0680     7.3880    10.7230
 2198.0000     9.8240    90.3330     0.0990     2.5430   -38.8530     7.2900    10.4750
 2198.5000     9.8430    91.1900     0.0930     2.5390   -38.6400     7.2980    10.2540
 2199.0000     9.8700    95.7600     0.0840     2.5290   -38.4260     7.3210    10.1190
 2199.5000     9.8970   100.1980     0.0740     2.5190   -38.3210     7.3440    10.0650
 2200.0000     9.9240   103.0860     0.0640     2.5080   -38.3140     7.3660    10.1100
 2200.5000     9.9430   104.4570     0.0700     2.5000   -38.5380     7.3890    10.1560
 2201.0000     9.9370   105.5880     0.0780     2.5490   -38.5910     7.4110    10.2020
 2201.5000     9.9310   102.2300     0.0860     2.5300   -38.6530     7.4340    10.2480
 2202.0000     9.9260    98.8990     0.0490     2.5110   -38.7110     7.4560    10.2940
 2202.5000     9.9210    98.0540     0.0640     2.5520   -38.6790     7.4790    10.3400
 2203.0000     9.9150    96.8680     0.0820     2.5380   -38.6410     7.5020    10.3860
 2203.5000     9.9100    93.5700     0.0940     2.5210   -38.6030     7.5240    10.4330
 2204.0000     9.9050    94.0860     0.0980     2.5590   -38.5660     7.5470    10.4400
 2204.5000     9.8990    94.1770     0.0740     2.5370   -38.5280     7.5690    10.3670
 2205.0000     9.8940    92.4630     0.0780     2.5300   -38.4900     7.5920    10.3460
 2205.5000     9.8890    90.4280     0.0870     2.5500   -38.4530     7.6150    10.3460
 2206.0000     9.8840    92.4080     0.0940     2.5530   -38.4150     7.6370    10.3460
 2206.5000     9.8810    96.7510     0.0860     2.5480   -38.3770     7.6590    10.3470
 2207.0000     9.8790   100.4310     0.0670     2.5430   -38.3390     7.6760    10.3470
 2207.5000     9.8770   100.5820     0.0700     2.5530   -38.3020     7.7770    10.3470
 2208.0000     9.8750    99.4110     0.0800     2.5630   -38.2640     7.7180    10.3470
 2208.5000     9.8720    97.8160     0.0880     2.5560   -38.2260     7.6650    10.3460
 2209.0000     9.8700    96.3150     0.0970     2.5530   -38.1890     7.6130    10.3460
 2209.5000     9.8680    99.3200     0.1050     2.5630   -38.1510     7.5610    10.3410
 2210.0000     9.8650   101.6020     0.0890     2.5510   -38.1130     7.5090    10.2470
 2210.5000     9.8630    99.9580     0.0780     2.5350   -38.0750     7.4560    10.0820
 2211.0000     9.8610    99.1710     0.0900     2.5460   -38.0380     7.4030     9.9370
 2211.5000     9.8590    99.7040     0.0940     2.5540   -38.0000     7.3130     9.7930
 2212.0000     9.8560   101.5170     0.0840     2.5380   -37.9620     7.1730     9.6490
 2212.5000     9.8540   105.8000     0.0770     2.5220   -37.9200     7.0330     9.5290
 2213.0000     9.8520   111.0110     0.0720     2.5080   -38.0890     6.8920     9.4490
