~VERSION INFORMATION
 VERS.                2.0:   CWLS LOG ASCII STANDARD - VERSION 2.0
 WRAP.                 NO:   ONE LINE PER DEPTH STEP
~WELL INFORMATION
#MNEM.UNIT      DATA TYPE    INFORMATION
#----------   ------------   ------------------------------
 STRT.F          466.5000:   START DEPTH
 STOP.F         3184.0000:   STOP DEPTH
 STEP.F            0.5000:   STEP LENGTH
 NULL.          -999.2500:   NO VALUE
 COMP. LAWRENCE ALLISON AND ASSOCIATES:   COMPANY
 WELL. LAWRENCE 66 "X" #3-28:   WELL
 FLD .              N P R:   FIELD
 LOC .      S28 T39N R78W:   LOCATION
 CNTY.            NATRONA:   COUNTY
 STAT.            WYOMING:   STATE
 CTRY. UNITED STATES OF AMERICA:   COUNTRY
 SRVC.      DRESSER ATLAS:   SERVICE COMPANY
 DATE.        16-APR-1986:   LOGDATE
 API .     49025111340000:   API NUMBER
~CURVE INFORMATION
#MNEM.UNIT       API CODE    CURVE DESCRIPTION
#----------   ------------   ------------------------------
 DEPT.F                  :   
 RHOB.G/C3   45 350 01 00:   BULK DENSITY
 CORR.G/C3   45 356 01 00:   DENSITY CORRECTION
 TEND.LBS    45 635 01 00:   TENSION FROM DENSITY LOG
 NPHI.DEC    42 890 03 00:   NEUTRON POROSITY SANDSTONE
 DT  .US/F   60 520 00 00:   DELTA TIME
 TENS.LBS    51 635 01 00:   TENSION
 CALR.IN     07 280 01 00:   CALIPER FROM RESISTIVITY
 SPR .MV     07 010 01 00:   SPONTANEOUS POTENTIAL
 TENR.LBS    07 635 01 00:   TENSION FROM RESISTIVITY
 RFOC.OHMM   07 220 04 00:   RESISTIVITY FOCUSED LOG RES.
 GRR .GAPI   07 310 01 00:   GAMMA RAY FROM RESISTIVITY
 RILD.OHMM   07 120 46 00:   DEEP INDUCTION RESISTIVITY
 RILM.OHMM   07 120 44 00:   INDUCTION LOG MEDIUM RESISTIVITY
~PARAMETER INFORMATION
#MNEM.UNIT          VALUE    DESCRIPTION
#----------   ------------   ------------------------------
 EKB .F         5071.0000:   Kelly bushing
 EGL .F         5059.0000:   Ground level
 TD  .F         3176.0000:   Total depth
 DATE.        16-APR-1986:   Date logged
 CLNT.            A2DTECH:   Client Code
 SL  . 1685' FEL & 1915'FSL:   Surface Location
 PD  .                 GL:   Permanent Datum
 EPD .F              5059:   Elevation Permanent Datum
 LMF .                 KB:   Log Measured From
 DD  .F              3176:   Depth driller
 DL  .F              3176:   Depth logger
 BLI .F              3174:   Bottom log interval
 TLI .F               480:   Top log interval
 CS1 .IN            8.625:   Casing size
 BS1 .IN            7.875:   Bit size
 DFT .        POLYMER KCL:   Type fluid in hole
 DFD .                  9:   Density
 DFV .                 40:   Viscosity
 DFPH.                8.5:   pH
 DFL .               10.2:   Fluid loss
 MSS .           FLOWLINE:   Source of sample
 RMS .OHMM           .226:   Rm
 MST .F                65:   Rm Meas. temp.
 RMF .OHMM           .169:   Rmf
 MFST.F                65:   Rmf Meas. temp.
 RMC .OHMM           .283:   Rmc
 MCST.F                65:   Rmc Meas. temp.
 MFSS.               CALC:   Source Rmf.
 MCSS.               CALC:   Source Rmc.
 RMB .OHMM           .118:   Rm. at BHT
 BHT .F               125:   BHT.
 TCS .HRS               5:   Time Circ. stopped
 MRT .F               125:   Maximum recorded temp.
 LUN .               6264:   Logging unit number
 LUL .           GILLETTE:   Logging unit location
 ENGI.             MILLER:   Recorded By
 WITN.             STRONG:   Witnessed by
 ORIG.           5" PRINT:   Origin of data
 UWI .     49025111340000:   Unique Well ID
 DICO. A2D TECHNOLOGIES, INC.:   Digitizing Company
 DMF .                 KB:   Drilling Measured From
 DAPD.F                12:   Feet Above Permanent Datum
 CBD1.      8.625" @ 475':   Casing driller 1
 CBL1.F               480:   Casing logger 1
 BSD1.F              3176:   Depth drilled with bit1
~OTHER INFORMATION
~A   DEPT     RHOB       CORR       TEND       NPHI         DT       TENS       CALR        SPR       TENR       RFOC         GRR      RILD       RILM   
# ...
 2624.5000     2.4340     0.0100   -65.7470     0.2170    81.3330   -27.6700    10.2520   -83.3530   -85.0000     7.9910    93.4170     7.6390     7.8370
 2625.0000     2.4400     0.0230   -76.7590     0.2200    81.2930   -17.0280    10.2450   -82.9000   -73.6360     8.1000    92.6750     7.7100     7.9260
 2625.5000     2.4460     0.0380   -87.7700     0.2220    81.3860   -26.3650    10.2380   -82.4530   -49.9090     8.2230    93.9880     7.3770     7.7070
 2626.0000     2.4520     0.0500   -91.9120     0.2240    81.6910   -33.9820    10.2310   -82.0120   -35.9240     8.1860    98.0840     7.1180     7.4000
 2626.5000     2.4520     0.0510   -84.4400     0.2250    82.4980   -31.4140    10.2240   -81.6780   -38.4100     8.1480   104.0180     6.9610     7.1470
 2627.0000     2.4570     0.0350   -76.9680     0.2230    83.3050   -28.8470    10.2170   -81.6280   -40.8950     7.3270   105.9660     6.9350     7.0790
 2627.5000     2.4600     0.0200   -51.6940     0.2210    83.6910   -26.2790    10.2100   -81.5740   -43.3810     6.5310   101.5150     6.9030     7.0110
 2628.0000     2.4610     0.0060   -18.4100     0.2240    83.4800   -27.8190    10.2020   -81.5100   -45.0000     6.0120    98.0530     6.9670     6.9460
 2628.5000     2.4670     0.0140   -12.1240     0.2330    82.8110   -42.4920    10.1940   -81.9820   -45.0000     6.5840    98.2810     6.8470     6.8860
 2629.0000     2.4750     0.0300   -25.2000     0.2310    82.1690   -80.1710    10.1870   -82.6870   -51.3000     7.3230    99.5360     6.7690     6.8260
 2629.5000     2.4810     0.0280   -38.2770     0.2250    82.1420   -79.9100    10.1790   -83.4030   -77.4000     7.8530   100.3200     6.6530     6.7670
 2630.0000     2.4800     0.0190   -51.3530     0.2190    82.3790   -74.4730    10.1710   -84.0920  -103.5000     7.8530    98.3130     6.6790     6.7150
 2630.5000     2.4800     0.0100   -46.7540     0.2130    82.4950   -42.2430    10.1700   -84.3770   -99.0730     7.1950    96.3420     6.7290     6.7820
 2631.0000     2.4790     0.0090   -36.2930     0.2120    81.9020   -45.6440    10.1700   -84.6430   -70.6000     6.9030    94.8520     6.7770     6.8400
 2631.5000     2.4740     0.0080    -9.0850     0.2140    80.9110   -51.6580    10.1700   -84.9120   -57.7200     7.7020    97.1880     6.9960     7.0730
 2632.0000     2.4690    -0.0040    21.4260     0.2160    79.9210   -44.8110    10.1700   -85.1810   -68.1600     8.5320    99.5600     7.2280     7.3010
 2632.5000     2.4650    -0.0250    30.8950     0.2220    79.5340   -37.9640    10.1700   -85.4510   -70.8460     8.4250   101.2360     7.1380     7.3630
 2633.0000     2.4800    -0.0340    18.8040     0.2290    79.7900   -31.9260    10.1700   -85.6980   -58.8000     8.2250   100.0300     7.0570     7.2990
 2633.5000     2.4920     0.0110   -26.9540     0.2270    80.0470   -26.7900    10.1700   -85.7020   -46.7540     7.9820    98.7470     6.9770     7.1900
 2634.0000     2.5030     0.0390   -52.4450     0.2180    80.3040   -31.9460    10.1720   -85.6560   -48.6500     7.1470    97.4640     6.9030     7.0810
 2634.5000     2.4950     0.0250   -46.7940     0.2230    80.4520   -46.6180    10.1890   -85.3420   -61.7000     6.2380    96.2070     6.8320     6.9720
 2635.0000     2.4850    -0.0210   -38.0760     0.2340    80.3950   -61.2910    10.2050   -85.0280   -75.0000     6.4750    96.1810     6.7660     6.8630
 2635.5000     2.4760    -0.0340   -34.5690     0.2430    80.2310   -60.4110    10.2220   -84.7150   -82.5110     6.7150   101.7950     6.6320     6.7770
 2636.0000     2.4740    -0.0190   -82.7250     0.2410    79.9940   -55.2760    10.2370   -84.4020   -70.9110     6.9550   107.7730     6.2470     6.4630
 2636.5000     2.4780    -0.0040  -114.7290     0.2270    79.7690   -62.9590    10.2510   -84.0920   -68.2000     7.0310   111.2640     5.9020     6.0120
 2637.0000     2.4820     0.0060   -93.4420     0.2100    79.7690   -73.2300    10.2650   -83.9210   -74.7250     6.5410   108.5420     5.9020     6.0190
 2637.5000     2.4860    -0.0060   -70.1960     0.2060    79.9450   -83.5010    10.2760   -83.9860   -81.2500     6.0050   105.2630     5.9020     6.0320
 2638.0000     2.4870    -0.0190   -46.9490     0.2020    80.2020   -93.7710    10.2890   -84.0470   -94.8670     5.7950   101.6410     5.9020     6.0460
 2638.5000     2.4870    -0.0300   -34.5690     0.1990    80.4710  -104.5640    10.3020   -84.1020  -118.0670     5.8740    97.6410     5.9020     6.0590
 2639.0000     2.4860    -0.0300   -63.4800     0.1950    79.4710   -91.2690    10.3120   -84.0990  -117.8860     6.1980    97.7110     5.9990     6.1810
 2639.5000     2.4840    -0.0300   -91.3760     0.1910    76.9940   -77.2640    10.3160   -84.0920   -95.0000     6.6180    99.3180     6.1210     6.5390
 2640.0000     2.5010    -0.0210  -119.2720     0.1830    74.5170   -66.2490    10.3200   -84.1410   -69.5000     7.0390    93.6650     6.4320     6.8960
 2640.5000     2.5190    -0.0050  -114.7290     0.1820    72.1460   -55.9780    10.3240   -85.1210   -69.8000     7.4600    86.9400     6.8550     7.2530
 2641.0000     2.5320     0.0060   -97.0670     0.1850    71.3940   -59.2500    10.3280   -86.1010   -75.6000     7.8810    83.4490     7.2780     7.6100
 2641.5000     2.5210     0.0040   -80.4240     0.1880    71.8220   -64.9560    10.3300   -87.0490   -81.4000     8.5800    83.6420     7.7010     7.9680
 2642.0000     2.5140     0.0000   -63.7820     0.1930    72.6780   -70.6620    10.3300   -87.8300   -89.9500     9.3870    86.1350     8.1250     8.3250
 2642.5000     2.5080     0.0180   -47.1400     0.2000    73.5340   -68.0790    10.3300   -88.1630   -81.2860    10.1630    88.6830     8.5320     8.5630
 2643.0000     2.5040     0.0070   -66.7330     0.2060    74.3900   -48.8210    10.3300   -88.3180   -63.9080     9.8730    91.2770     8.5320     8.6390
 2643.5000     2.4990    -0.0110   -92.8860     0.2050    75.2460   -55.6740    10.3300   -88.4650   -59.8920     9.1490    91.3270     8.5230     8.6900
 2644.0000     2.4980    -0.0110  -103.1170     0.1960    76.1020   -65.5310    10.3330   -88.6130   -55.8770     8.4240    91.2080     8.4510     8.4830
 2644.5000     2.4990    -0.0010  -100.2120     0.1880    76.8790   -68.2340    10.3350   -88.7160   -64.0670     7.7000    91.1150     8.3800     8.3260
 2645.0000     2.5010     0.0060   -97.3060     0.1810    77.3920   -70.9360    10.3380   -88.7530   -75.6670     7.2950    90.8920     8.2990     8.1480
 2645.5000     2.5010    -0.0020   -94.6890     0.1790    77.6630   -73.6390    10.3400   -88.7900   -87.2670     7.4990    88.4930     8.3920     8.3150
 2646.0000     2.4970    -0.0160  -101.4560     0.1890    77.4620   -72.1060    10.3430   -88.8280   -92.1000     8.0340    86.1170     8.5290     8.5640
 2646.5000     2.4930    -0.0290  -107.6090     0.1990    76.3590   -68.6830    10.3450   -88.8690   -83.4000     8.6220    83.8590     8.6660     8.8120
 2647.0000     2.4890    -0.0310  -113.7630     0.2090    73.7640   -65.2590    10.3480   -88.8790   -75.0000     9.1150    83.4400     8.8040     9.0610
 2647.5000     2.4860    -0.0210   -97.0940     0.2150    70.9850   -74.2230    10.3500   -88.3590   -85.8000     9.5460    85.3000     9.1000     9.3100
 2648.0000     2.4820     0.0060   -58.6840     0.2130    68.2060   -83.6510    10.3500   -87.8310   -96.2400     9.9780    91.9530     8.8340     9.5290
 2648.5000     2.4780     0.0290   -29.9050     0.2110    67.1310   -79.3710    10.3500   -87.3210  -102.6000    10.2570    98.8630     8.3040     8.5250
 2649.0000     2.4880     0.0170   -63.1900     0.2210    69.8420   -75.0920    10.3490   -87.1680   -87.6860     9.5840   105.8750     7.7810     7.6390
 2649.5000     2.5000     0.0060   -94.6890     0.2250    73.0990   -87.1260    10.3260   -87.0090   -97.2360     8.3520   105.6280     7.8400     7.6970
 2650.0000     2.5170     0.0000   -77.7320     0.2210    76.3570  -101.9160    10.3010   -86.8460  -112.1600     7.1200   101.2550     7.8980     7.7540
