~VERSION INFORMATION
 VERS.                2.0:   CWLS LOG ASCII STANDARD - VERSION 2.0
 WRAP.                 NO:   ONE LINE PER DEPTH STEP
~WELL INFORMATION
#MNEM.UNIT      DATA TYPE    INFORMATION
#----------   ------------   ------------------------------
 STRT.F            0.5000:   START DEPTH
 STOP.F         4128.0000:   STOP DEPTH
 STEP.F            0.5000:   STEP LENGTH
 NULL.          -999.2500:   NO VALUE
 COMP. LAWRENCE ALLISON ASSOC WEST:   COMPANY
 WELL. LAWRENCE NPR "AX" #12-33:   WELL
 FLD .      NPR - WILDCAT:   FIELD
 LOC .      S33 T39N R78W:   LOCATION
 CNTY.            NATRONA:   COUNTY
 STAT.            WYOMING:   STATE
 CTRY. UNITED STATES OF AMERICA:   COUNTRY
 SRVC.      DRESSER ATLAS:   SERVICE COMPANY
 DATE.        04-AUG-1984:   LOGDATE
 API .     49025109720000:   API NUMBER
~CURVE INFORMATION
#MNEM.UNIT       API CODE    CURVE DESCRIPTION
#----------   ------------   ------------------------------
 DEPT.F                  :   
 CORR.G/C3   45 356 01 00:   DENSITY CORRECTION
 TEND.LBS    45 635 01 00:   TENSION FROM DENSITY LOG
 RHOB.G/C3   45 350 01 00:   BULK DENSITY
 GRR .GAPI   07 310 01 00:   GAMMA RAY FROM RESISTIVITY
 SPR .MV     07 010 01 00:   SPONTANEOUS POTENTIAL
 RFOC.OHMM   07 220 04 00:   RESISTIVITY FOCUSED LOG RES.
 RILM.OHMM   07 120 44 00:   RESISTIVITY INDUCTION LOG MEDIUM
 RILD.OHMM   07 120 46 00:   RESISTIVITY INDUCTION LOG MEDIUM
 TENR.LBS    07 635 01 00:   TENSION FROM RESISTIVITY
 CALR.IN     07 280 01 00:   CALIPER FROM RESISTIVITY
 DT  .US/F   60 520 00 00:   DELTA TIME
 TENS.LBS    60 635 01 00:   TENSION FROM SONIC
 SPHI.DEC    60 890 00 00:   SONIC POROSITY
~PARAMETER INFORMATION
#MNEM.UNIT          VALUE    DESCRIPTION
#----------   ------------   ------------------------------
 EKB .F         5170.0000:   Kelly bushing
 EGL .F         5157.0000:   Ground level
 EDF .F            0.0000:   Drilling floor
 TD  .F         4121.0000:   Total depth
 DATE.        04-AUG-1984:   Date logged
 CLNT.            A2DTECH:   Client Code
 SL  . 857' FNL & 751' FWL:   Surface Location
 PD  .                 GL:   Permanent Datum
 EPD .F              5157:   Elevation Permanent Datum
 LMF .                 KB:   Log Measured From
 DMF .                 KB:   Drilling Measured From
 DAPD.F                13:   Feet Above Permanent Datum
 DD  .F              4120:   Depth driller
 DL  .F              4121:   Depth logger
 BLI .F              4119:   Bottom log interval
 CS1 .IN            8.625:   Casing size
 CBD1.      8.625" @ 625':   Casing driller 1
 CBL1.F               624:   Casing logger 1
 BS1 .IN            7.875:   Bit size
 BSD1.F              4120:   Depth drilled with bit1
 DFT .            GEL/KCL:   Type fluid in hole
 DFD .                9.1:   Density
 DFV .                 40:   Viscosity
 DFPH.                8.5:   pH
 DFL .                 11:   Fluid loss
 MSS .               TANK:   Source of sample
 RMS .OHMM           .302:   Rm
 MST .F                84:   Rm Meas. temp.
 RMF .OHMM            .22:   Rmf
 MFST.F                84:   Rmf Meas. temp.
 RMC .OHMM            .38:   Rmc
 MCST.F                84:   Rmc Meas. temp.
 MFSS.               CALC:   Source Rmf.
 MCSS.               CALC:   Source Rmc.
 RMB .OHMM            .19:   Rm. at BHT
 BHT .F               132:   BHT.
 TCS .HRS               4:   Time Circ. stopped
 MRT .F               132:   Maximum recorded temp.
 LUN .               6307:   Logging unit number
 LUL .               GLTE:   Logging unit location
 ENGI.           FAHLSING:   Recorded By
 WITN.       ROBERT SCOTT:   Witnessed by
 ORIG.           5" PRINT:   Origin of data
 UWI .     49025109720000:   Unique Well ID
 DICO. A2D TECHNOLOGIES, INC.:   Digitizing Company
~OTHER INFORMATION
~A    DEPT    CORR       TEND       RHOB         GRR       SPR       RFOC       RILM       RILD       TENR       CALR         DT       TENS       SPHI   
# ...
 2262.5000  -999.2500  -999.2500  -999.2500   128.5010   -48.9050     5.2190     4.9670     4.4570   -54.2600     8.2620  -999.2500  -999.2500  -999.2500
 2263.0000  -999.2500  -999.2500  -999.2500   123.9450   -48.9100     5.6650     5.0770     4.4070   -54.2500     8.2560  -999.2500  -999.2500  -999.2500
 2263.5000  -999.2500  -999.2500  -999.2500   119.9890   -49.0110     5.9950     5.0770     4.3570   -54.2400     8.2380  -999.2500  -999.2500  -999.2500
 2264.0000  -999.2500  -999.2500  -999.2500   118.2350   -49.3630     6.2740     4.9990     4.3070   -54.2310     8.2220  -999.2500  -999.2500  -999.2500
 2264.5000  -999.2500  -999.2500  -999.2500   121.3580   -49.7020     6.2740     4.9170     4.2570   -54.2210     8.2210  -999.2500  -999.2500  -999.2500
 2265.0000  -999.2500  -999.2500  -999.2500   124.3250   -50.0390     6.2600     4.8350     4.2070   -54.2110     8.2160  -999.2500  -999.2500  -999.2500
 2265.5000  -999.2500  -999.2500  -999.2500   127.2740   -50.3770     6.1750     4.7530     4.1470   -54.2010     8.2080  -999.2500  -999.2500  -999.2500
 2266.0000  -999.2500  -999.2500  -999.2500   130.2270   -50.7150     6.1030     4.6710     4.1470   -54.1920     8.2010  -999.2500  -999.2500  -999.2500
 2266.5000  -999.2500  -999.2500  -999.2500   133.1560   -51.0540     5.6300     4.5890     4.1470   -54.1820     8.2010  -999.2500  -999.2500  -999.2500
 2267.0000  -999.2500  -999.2500  -999.2500   135.8430   -51.3920     5.1240     4.5050     4.1520   -54.1720     8.2060  -999.2500  -999.2500  -999.2500
 2267.5000  -999.2500  -999.2500  -999.2500   136.1430   -51.7300     5.0770     4.6840     4.1600   -54.1630     8.2150  -999.2500  -999.2500  -999.2500
 2268.0000  -999.2500  -999.2500  -999.2500   134.1190   -52.0680     5.2190     4.8690     4.1690   -54.1530     8.2210  -999.2500  -999.2500  -999.2500
 2268.5000  -999.2500  -999.2500  -999.2500   132.1170   -52.4060     5.9540     4.9780     4.1780   -54.1430     8.2210  -999.2500  -999.2500  -999.2500
 2269.0000  -999.2500  -999.2500  -999.2500   130.1090   -52.7460     6.7100     4.9070     4.2040   -54.1340     8.2210  -999.2500  -999.2500  -999.2500
 2269.5000  -999.2500  -999.2500  -999.2500   129.3880   -52.8870     7.0060     4.8510     4.3130   -54.1240     8.2210  -999.2500  -999.2500  -999.2500
 2270.0000  -999.2500  -999.2500  -999.2500   128.9800   -52.9050     6.1680     4.7610     4.4220   -54.1140     8.2210  -999.2500  -999.2500  -999.2500
 2270.5000  -999.2500  -999.2500  -999.2500   128.5880   -53.0110     5.1240     4.8540     4.5310   -54.1050     8.2210  -999.2500  -999.2500  -999.2500
 2271.0000  -999.2500  -999.2500  -999.2500   128.9770   -53.1150     5.4300     5.1000     4.6400   -54.0950     8.2210  -999.2500  -999.2500  -999.2500
 2271.5000  -999.2500  -999.2500  -999.2500   131.7070   -53.2170     6.2290     5.3450     4.7490   -54.0850     8.2210  -999.2500  -999.2500  -999.2500
 2272.0000  -999.2500  -999.2500  -999.2500   134.3460   -53.0610     6.8780     5.5910     4.8580   -54.0750     8.2210  -999.2500  -999.2500  -999.2500
 2272.5000  -999.2500  -999.2500  -999.2500   133.8930   -52.4630     6.9030     5.8360     4.9670   -54.0660     8.2210  -999.2500  -999.2500  -999.2500
 2273.0000  -999.2500  -999.2500  -999.2500   130.6260   -51.8710     7.0320     5.9920     5.0760   -54.0560     8.2210  -999.2500  -999.2500  -999.2500
 2273.5000  -999.2500  -999.2500  -999.2500   126.8540   -51.2800     7.1360     5.9920     5.1850   -54.0460     8.2210  -999.2500  -999.2500  -999.2500
 2274.0000  -999.2500  -999.2500  -999.2500   123.7350   -50.6870     6.8240     5.9160     5.2940   -54.0370     8.2210  -999.2500  -999.2500  -999.2500
 2274.5000  -999.2500  -999.2500  -999.2500   121.7660   -50.0940     6.5090     5.8210     5.3160   -54.0270     8.2210  -999.2500  -999.2500  -999.2500
 2275.0000  -999.2500  -999.2500  -999.2500   120.6900   -49.5250     6.6430     5.7250     5.2750   -54.0170     8.2210  -999.2500  -999.2500  -999.2500
 2275.5000  -999.2500  -999.2500  -999.2500   120.9690   -49.5130     6.8120     5.6300     5.2070   -54.0080     8.2210  -999.2500  -999.2500  -999.2500
 2276.0000  -999.2500  -999.2500  -999.2500   120.6710   -49.6630     6.8780     5.5340     5.1390   -53.9980     8.2210  -999.2500  -999.2500  -999.2500
 2276.5000  -999.2500  -999.2500  -999.2500   119.0430   -49.8980     6.6410     5.4650     5.0710   -53.9880     8.2210  -999.2500  -999.2500  -999.2500
 2277.0000  -999.2500  -999.2500  -999.2500   117.4370   -50.3880     5.4880     5.4150     5.0310   -53.9790     8.2210  -999.2500  -999.2500  -999.2500
 2277.5000  -999.2500  -999.2500  -999.2500   115.8340   -50.8720     5.2680     5.4150     5.0310   -53.9690     8.2210  -999.2500  -999.2500  -999.2500
 2278.0000  -999.2500  -999.2500  -999.2500   114.2550   -51.3570     6.4130     5.4150     5.0630   -53.9590     8.2210  -999.2500  -999.2500  -999.2500
 2278.5000  -999.2500  -999.2500  -999.2500   113.3590   -51.8430     7.8240     5.3550     5.0950   -53.9490     8.2210  -999.2500  -999.2500  -999.2500
 2279.0000  -999.2500  -999.2500  -999.2500   115.5970   -52.3280     7.8240     5.2680     5.1270   -53.9400     8.2230  -999.2500  -999.2500  -999.2500
 2279.5000  -999.2500  -999.2500  -999.2500   117.7950   -52.8130     7.6780     5.5540     5.1590   -53.9300     8.2290  -999.2500  -999.2500  -999.2500
 2280.0000  -999.2500  -999.2500  -999.2500   119.9820   -53.3060     7.3330     5.9370     5.1720   -53.9200     8.2340  -999.2500  -999.2500  -999.2500
 2280.5000  -999.2500  -999.2500  -999.2500   121.9420   -53.3250     6.9890     5.6500     5.1720   -53.9110     8.2390  -999.2500  -999.2500  -999.2500
 2281.0000  -999.2500  -999.2500  -999.2500   119.4040   -53.0780     6.6450     5.3010     4.9870   -53.9010     8.2410  -999.2500  -999.2500  -999.2500
 2281.5000  -999.2500  -999.2500  -999.2500   116.7290   -52.8310     6.3010     4.9850     4.7620   -53.8910     8.2410  -999.2500  -999.2500  -999.2500
 2282.0000  -999.2500  -999.2500  -999.2500   114.2110   -52.5830     5.9560     5.0110     4.5380   -53.8820     8.2410  -999.2500  -999.2500  -999.2500
 2282.5000  -999.2500  -999.2500  -999.2500   114.2420   -52.3440     5.5000     5.0310     4.1850   -53.8720     8.2410  -999.2500  -999.2500  -999.2500
 2283.0000  -999.2500  -999.2500  -999.2500   116.7930   -51.9360     4.9770     5.0050     4.2210   -53.8620     8.2410  -999.2500  -999.2500  -999.2500
 2283.5000  -999.2500  -999.2500  -999.2500   119.2250   -51.5160     4.4540     4.8920     4.3060   -53.8530     8.2410  -999.2500  -999.2500  -999.2500
 2284.0000  -999.2500  -999.2500  -999.2500   118.3660   -51.0930     4.2630     4.7610     4.3900   -53.8430     8.2330  -999.2500  -999.2500  -999.2500
 2284.5000  -999.2500  -999.2500  -999.2500   116.2760   -50.6690     5.0360     4.9690     4.4740   -53.8330     8.2210  -999.2500  -999.2500  -999.2500
 2285.0000  -999.2500  -999.2500  -999.2500   110.3610   -50.2450     6.5330     5.5660     4.5050   -53.8230     8.2040  -999.2500  -999.2500  -999.2500
 2285.5000  -999.2500  -999.2500  -999.2500   103.8800   -49.8170     7.3730     5.3520     4.2740   -53.8140     8.1870  -999.2500  -999.2500  -999.2500
 2286.0000  -999.2500  -999.2500  -999.2500   101.0990   -49.3370     7.8240     4.9360     4.0880   -53.8040     8.1840  -999.2500  -999.2500  -999.2500
 2286.5000  -999.2500  -999.2500  -999.2500   103.9610   -49.3020     7.3910     4.5200     3.9020   -53.7940     8.1870  -999.2500  -999.2500  -999.2500
 2287.0000  -999.2500  -999.2500  -999.2500   110.6050   -49.3030     6.4190     4.1050     3.7160   -53.7850     8.1910  -999.2500  -999.2500  -999.2500
 2287.5000  -999.2500  -999.2500  -999.2500   117.2280   -49.3020     5.4460     3.6890     3.5290   -53.7750     8.1940  -999.2500  -999.2500  -999.2500
 2288.0000  -999.2500  -999.2500  -999.2500   120.6130   -49.2940     4.4740     3.2950     3.3430   -53.7650     8.1980  -999.2500  -999.2500  -999.2500
