~VERSION INFORMATION
 VERS.                2.0:   CWLS LOG ASCII STANDARD - VERSION 2.0
 WRAP.                 NO:   ONE LINE PER DEPTH STEP
~WELL INFORMATION
#MNEM.UNIT      DATA TYPE    INFORMATION
#----------   ------------   ------------------------------
 STRT.F          204.0000:   START DEPTH
 STOP.F         3040.0000:   STOP DEPTH
 STEP.F            0.5000:   STEP LENGTH
 NULL.          -999.2500:   NO VALUE
 COMP.    FENIX & SCISSON:   COMPANY
 WELL.   FENIX "A" #47-21:   WELL
 FLD .            N P R 3:   FIELD
 LOC .      S21 T39N R78W:   LOCATION
 CNTY.            NATRONA:   COUNTY
 STAT.            WYOMING:   STATE
 CTRY. UNITED STATES OF AMERICA:   COUNTRY
 SRVC.              WELEX:   SERVICE COMPANY
 DATE.        20-JUN-1977:   LOGDATE
 API .     49025103820000:   API NUMBER
~CURVE INFORMATION
#MNEM.UNIT       API CODE    CURVE DESCRIPTION
#----------   ------------   ------------------------------
 DEPT.F                  :   
 SPR .MV     07 010 01 00:   SPONTANEOUS POTENTIAL
 ILM .OHMM   07 120 44 00:   INDUCTION LOG MEDIUM RESISTIVITY
 ILD .OHMM   07 120 46 00:   DEEP INDUCTION RESISTIVITY
 SGRD.OHMM   07 220 05 00:   SHALLOW GUARD LOG RESISTIVITY
 GRD .GAPI   45 310 01 00:   GAMMA RAY FROM DENSITY LOG
 CALD.IN     45 280 60 00:   CALIPER FROM DENSITY LOG
 RHOB.G/C3   45 350 01 00:   BULK DENSITY
 CORR.G/C3   45 356 01 00:   DENSITY CORRECTION
~PARAMETER INFORMATION
#MNEM.UNIT          VALUE    DESCRIPTION
#----------   ------------   ------------------------------
 EKB .F         5010.0000:   Kelly bushing
 EGL .F         5000.0000:   Ground level
 EDF .F            0.0000:   Drilling floor
 TD  .F         3050.0000:   Total depth
 DATE.        20-JUN-1977:   Date logged
 CLNT.            A2DTECH:   Client Code
 SL  . 990' FSL & 2310' FWL:   Surface Location
 PD  .                 GL:   Permanent Datum
 DD  .F              3050:   Depth driller
 DL  .F              3039:   Depth logger
 BLI .F              3037:   Bottom log interval
 CS1 .IN            8.625:   Casing size
 CBD1.      8.625" @ 210':   Casing driller 1
 CBL1.F               215:   Casing logger 1
 BS1 .IN            7.875:   Bit size
 DFT .                KCL:   Type fluid in hole
 DFD .                9.3:   Density
 DFV .                 35:   Viscosity
 DFPH.                7.5:   pH
 DFL .                7.2:   Fluid loss
 MSS .             MUDPIT:   Source of sample
 RMS .OHMM            .22:   Rm
 MST .F                80:   Rm Meas. temp.
 RMF .OHMM            .19:   Rmf
 MFST.F                80:   Rmf Meas. temp.
 RMC .OHMM            .35:   Rmc
 MCST.F                80:   Rmc Meas. temp.
 MFSS.               MEAS:   Source Rmf.
 RMB .OHMM            .15:   Rm. at BHT
 BHT .F               111:   BHT.
 TCS .HRS               4:   Time Circ. stopped
 MRT .F               111:   Maximum recorded temp.
 LUN .               8766:   Logging unit number
 LUL .             CAPSER:   Logging unit location
 ENGI.          T. JOYNER:   Recorded By
 WITN.         PETTINGILL:   Witnessed by
 ORIG.           5" PRINT:   Origin of data
 UWI .     49025103820000:   Unique Well ID
 DICO. A2D TECHNOLOGIES, INC.:   Digitizing Company
 DAPD.                 10:   Feet Above Permanent Datum
 BSD1.               3050:   Depth drilled with bit1
 MCSS.               MEAS:   Source Rmc.
 EPD .               5000:   Elevation Permanent Datum
 LMF .                 KB:   Log Measured From
 DMF .                 KB:   Drilling Measured From
 TLI .                215:   Top log interval
~OTHER INFORMATION
~A   DEPT      SPR        ILM        ILD       SGRD         GRD        CALD       RHOB      CORR  
# ...
 2431.5000   -45.1410     6.2100     5.6650     7.9550    99.9490     9.4840     2.5200     0.0180
 2432.0000   -45.0570     6.3210     5.6800     7.7500   100.6130     9.4840     2.5240     0.0190
 2432.5000   -44.9720     6.4120     5.7150     7.4150   101.1850     9.4840     2.5270     0.0200
 2433.0000   -44.8880     6.5030     5.7510     7.0810   101.7910     9.4840     2.5270     0.0200
 2433.5000   -44.8040     6.6460     5.7860     6.8690   101.7700     9.4850     2.5280     0.0210
 2434.0000   -44.7200     6.8790     5.8230     8.0830   100.9610     9.4800     2.5280     0.0210
 2434.5000   -44.6360     7.1120     5.9620     8.5610   100.4220     9.4700     2.5280     0.0220
 2435.0000   -44.5520     7.3440     6.1090     8.2530   100.9470     9.4600     2.5290     0.0230
 2435.5000   -44.4670     7.5770     6.2560     7.9550   101.5890     9.4510     2.5290     0.0230
 2436.0000   -44.3830     7.8100     6.4030     8.5250   102.2670     9.4410     2.5290     0.0240
 2436.5000   -44.2990     7.9440     6.5500     9.3380   102.6220     9.4310     2.5300     0.0240
 2437.0000   -44.2150     8.0350     6.6970    10.0980   102.0940     9.4210     2.5300     0.0240
 2437.5000   -44.1310     8.1110     6.8330     9.7470   101.5880     9.4100     2.5300     0.0240
 2438.0000   -44.0460     8.1450     6.9380     9.4190   101.0300     9.4100     2.5300     0.0240
 2438.5000   -43.9620     8.1790     7.0430     9.2970   100.5010     9.4250     2.5310     0.0240
 2439.0000   -43.8780     8.2130     7.1280     9.2970    99.3070     9.4390     2.5300     0.0240
 2439.5000   -43.7940     8.2470     7.1410     9.6710    97.9170     9.4450     2.5300     0.0240
 2440.0000   -43.7080     8.2810     7.1530    10.3790    96.4870     9.4450     2.5290     0.0230
 2440.5000   -43.6230     8.3150     7.1660    10.3540    95.2830     9.4450     2.5250     0.0230
 2441.0000   -43.5360     8.3490     7.1780    10.3210    94.0790     9.4450     2.5210     0.0220
 2441.5000   -43.4490     8.3830     7.1910    10.2870    92.8580     9.4450     2.5160     0.0220
 2442.0000   -43.3630     8.4180     7.2410    10.2540    93.0560     9.4450     2.5120     0.0220
 2442.5000   -43.2760     8.4520     7.2940    10.2210    93.8740     9.4450     2.5080     0.0210
 2443.0000   -43.1910     8.4820     7.3470    10.1880    94.6700     9.4450     2.5050     0.0210
 2443.5000   -43.1460     8.4310     7.4000    10.1550    95.3910     9.4450     2.5040     0.0200
 2444.0000   -43.2250     8.3840     7.4530    10.1220    96.1480     9.4450     2.5020     0.0200
 2444.5000   -43.3000     8.3370     7.5060    10.0980    97.0520     9.4450     2.5010     0.0190
 2445.0000   -43.3760     8.2900     7.5590    10.6580    96.8010     9.4450     2.5000     0.0190
 2445.5000   -43.4510     8.2440     7.6110    11.2220    95.8900     9.4450     2.4980     0.0180
 2446.0000   -43.5270     8.1970     7.6640    11.0120    95.8250     9.4450     2.4960     0.0180
 2446.5000   -43.6020     8.1500     7.7390    10.5920    96.1870     9.4450     2.4940     0.0180
 2447.0000   -43.6780     8.1020     7.6340    10.1710    96.4690     9.4450     2.4910     0.0170
 2447.5000   -43.7530     7.9320     7.4560     9.8230    96.7620     9.4450     2.4890     0.0170
 2448.0000   -43.8290     7.7600     7.2780     9.9740    97.1070     9.4450     2.4870     0.0160
 2448.5000   -43.9040     7.5870     7.1010     9.3860    97.0610     9.4450     2.4850     0.0160
 2449.0000   -43.9800     7.4140     6.9230     8.9310    96.5360     9.4470     2.4820     0.0150
 2449.5000   -44.0570     7.2420     6.7450     8.4760    96.0490     9.4550     2.4810     0.0150
 2450.0000   -44.1120     7.0690     6.5670     8.2520    95.5730     9.4620     2.4820     0.0140
 2450.5000   -43.8790     6.8060     6.3900     8.4170    95.0750     9.4700     2.4830     0.0140
 2451.0000   -43.6540     6.8240     6.2120     8.5440    94.6160     9.4780     2.4830     0.0150
 2451.5000   -43.4300     6.8610     6.1480     8.5610    93.5720     9.4860     2.4820     0.0150
 2452.0000   -43.2060     6.8980     6.1410     8.4010    92.4730     9.4940     2.4810     0.0160
 2452.5000   -42.9830     6.9340     6.1340     8.2750    91.4140     9.5020     2.4800     0.0160
 2453.0000   -42.7590     6.9710     6.1270     8.1770    90.3010     9.5100     2.4790     0.0170
 2453.5000   -42.5350     7.0080     6.1210     8.2580    89.5800     9.5180     2.4820     0.0170
 2454.0000   -42.3110     7.0610     6.1140     8.3920    88.0910     9.5240     2.4840     0.0180
 2454.5000   -42.0440     6.9830     6.1070     8.5260    86.7330     9.5190     2.4870     0.0180
 2455.0000   -41.6030     6.8490     6.1000     8.7190    85.3260     9.5100     2.4870     0.0190
 2455.5000   -41.1600     6.7150     6.0690     8.6270    83.9090     9.5000     2.4870     0.0190
 2456.0000   -40.7170     6.5820     6.0200     8.4590    82.5350     9.4910     2.4870     0.0200
 2456.5000   -40.2740     6.4480     5.9700     8.2920    81.1440     9.4810     2.4840     0.0200
 2457.0000   -39.8310     6.3830     5.9200     8.1250    80.3180     9.4720     2.4830     0.0210
 2457.5000   -39.3900     6.3830     5.8710     7.9580    79.1380     9.4620     2.4810     0.0210
 2458.0000   -38.9520     6.3830     5.8210     7.7910    77.9720     9.4530     2.4760     0.0220
 2458.5000   -38.5050     6.3830     5.7710     7.6680    76.7620     9.4450     2.4710     0.0220
 2459.0000   -37.5330     6.3830     5.7220     7.9860    75.5730     9.4500     2.4660     0.0230
 2459.5000   -36.5980     6.3830     5.6720     8.2370    74.4110     9.4530     2.4620     0.0230
 2460.0000   -35.6720     6.3470     5.6230     8.4820    72.2360     9.4570     2.4570     0.0230
 2460.5000   -34.6350     6.2910     5.5180     8.1710    68.4040     9.4610     2.4520     0.0240
 2461.0000   -33.4540     6.2340     5.3610     7.8660    64.6390     9.4650     2.4470     0.0240
 2461.5000   -31.9710     6.1530     5.2050     7.5600    60.7130     9.4690     2.4440     0.0250
 2462.0000   -30.0790     6.3260     5.0750     7.2550    57.0360     9.4730     2.4420     0.0250
 2462.5000   -28.1570     6.6290     5.1020     6.9960    52.6780     9.4770     2.4390     0.0260
 2463.0000   -25.2970     6.9310     5.1250     7.3530    50.2960     9.4810     2.4300     0.0260
 2463.5000   -22.3910     7.2580     5.1480     7.6620    47.5650     9.4860     2.4220     0.0260
 2464.0000   -19.4730     7.6790     5.2160     7.9720    44.9410     9.4590     2.4130     0.0250
 2464.5000   -16.2530     8.2670     5.6430     8.2520    42.3200     9.3870     2.4040     0.0240
 2465.0000   -12.7890     8.8540     6.0710     8.1180    39.9630     9.3280     2.3960     0.0230
 2465.5000    -9.1560    10.3240     6.6970     8.0280    40.9530     9.2550     2.3860     0.0220
 2466.0000    -5.4790    12.2160     7.8600     9.8350    41.9580     9.3260     2.3820     0.0210
 2466.5000    -3.1960    14.1090     9.0230    11.2580    43.1840     9.2860     2.3780     0.0200
 2467.0000    -1.5100    16.0020    10.1870    12.6820    43.7460     9.2170     2.3780     0.0190
 2467.5000    -0.7510    17.2450    11.7180    17.0240    43.6890     9.1690     2.3810     0.0180
 2468.0000    -0.0750    18.8650    13.7640    16.9760    43.6760     9.1870     2.3860     0.0180
 2468.5000     0.0000    20.4850    15.8110    16.8780    44.0880     9.2060     2.3900     0.0180
 2469.0000     0.0000    21.7640    17.5090    17.4440    45.4330     9.1850     2.3950     0.0190
 2469.5000    -0.1350    22.9480    18.6930    18.1630    46.7110     9.1690     2.4000     0.0190
 2470.0000    -0.4970    24.3370    19.9170    18.0210    48.0550     9.1940     2.3990     0.0190
 2470.5000    -0.8600    25.8960    21.1410    17.8310    48.0990     9.2090     2.3980     0.0190
 2471.0000    -1.2240    27.4550    22.2020    17.6410    47.5730     9.1900     2.3980     0.0190
 2471.5000    -1.5880    29.0140    21.9950    17.0340    47.0620     9.1710     2.3990     0.0190
