~VERSION INFORMATION
 VERS.                2.0:   CWLS LOG ASCII STANDARD - VERSION 2.0
 WRAP.                 NO:   ONE LINE PER DEPTH STEP
~WELL INFORMATION
#MNEM.UNIT      DATA TYPE    INFORMATION
#----------   ------------   ------------------------------
 STRT.F          206.0000:   START DEPTH
 STOP.F         2974.0000:   STOP DEPTH
 STEP.F            0.5000:   STEP LENGTH
 NULL.          -999.2500:   NO VALUE
 COMP.    FENIX & SCISSON:   COMPANY
 WELL.    FENIX AX #32-21:   WELL
 FLD .                NPR:   FIELD
 LOC .      S21 T39N R78W:   LOCATION
 CNTY.            NATRONA:   COUNTY
 STAT.            WYOMING:   STATE
 CTRY. UNITED STATES OF AMERICA:   COUNTRY
 SRVC.              WELEX:   SERVICE COMPANY
 DATE.        29-JUL-1977:   LOGDATE
 API .     49025104050000:   API NUMBER
~CURVE INFORMATION
#MNEM.UNIT       API CODE    CURVE DESCRIPTION
#----------   ------------   ------------------------------
 DEPT.F                  :   
 SPR .MV     07 010 01 00:   SPONTANEOUS POTENTIAL
 RILM.OHMM   07 120 44 00:   INDUCTION LOG MEDIUM RESISTIVITY
 RILD.OHMM   07 120 46 00:   INDUCTION LOG DEEP RESISTIVITY
 SGRD.OHMM   07 220 05 00:   SHALLOW GUARD LOG RESISTIVITY
 CALD.IN     45 280 60 00:   CALIPER FROM DENSITY LOG
 RHOB.G/C3   45 350 01 00:   BULK DENSITY
 DCOR.G/C3   45 356 01 00:   DENSITY CORRECTION
 GRD .GAPI   45 310 01 00:   GAMMA RAY FROM DENSITY LOG
~PARAMETER INFORMATION
#MNEM.UNIT          VALUE    DESCRIPTION
#----------   ------------   ------------------------------
 EKB .F         4995.0000:   Kelly bushing
 EGL .F         4985.0000:   Ground level
 EDF .F            0.0000:   Drilling floor
 EPD .F         4985.0000:   Permanent datum
 TD  .F         2978.0000:   Total depth
 DATE.        29-JUL-1977:   Date logged
 CLNT.            A2DTECH:   Client Code
 SL  . 1040' FNL & 1500' FWL:   Surface Location
 PD  .                 GL:   Permanent Datum
 LMF .                 KB:   Log Measured From
 DMF .                 KB:   Drilling Measured From
 DAPD.F                10:   Feet Above Permanent Datum
 DD  .F              2972:   Depth driller
 DL  .F              2978:   Depth logger
 BLI .F              2976:   Bottom log interval
 TLI .F               120:   Top log interval
 CS1 .IN            8.625:   Casing size
 CBD1.      8.625" @ 205':   Casing driller 1
 CBL1.F               220:   Casing logger 1
 BS1 .IN            7.875:   Bit size
 BSD1.F              2972:   Depth drilled with bit1
 DFT .                KCL:   Type fluid in hole
 DFD .                9.2:   Density
 DFV .                 43:   Viscosity
 DFPH.                 10:   pH
 DFL .                  8:   Fluid loss
 MSS .            MUD PIT:   Source of sample
 RMS .OHMM            .21:   Rm
 MST .F                91:   Rm Meas. temp.
 RMF .OHMM            .18:   Rmf
 MFST.F                91:   Rmf Meas. temp.
 RMC .OHMM            .23:   Rmc
 MCST.F                91:   Rmc Meas. temp.
 MFSS.               MEAS:   Source Rmf.
 MCSS.               MEAS:   Source Rmc.
 RMB .OHMM            .17:   Rm. at BHT
 BHT .F               110:   BHT.
 TCS .HRS               3:   Time Circ. stopped
 MRT .F               110:   Maximum recorded temp.
 LUN .               9685:   Logging unit number
 LUL .             CASPER:   Logging unit location
 ENGI.   T JOYNER/ E HOCH:   Recorded By
 WITN.         PETTINGILL:   Witnessed by
 ORIG.     2.5", 5" PRINT:   Origin of data
 UWI .     49025104050000:   Unique Well ID
 DICO. A2D TECHNOLOGIES, INC.:   Digitizing Company
~OTHER INFORMATION
~A   DEPT      SPR       RILM       RILD       SGRD       CALD       RHOB       DCOR         GRD  
# ...
 2028.5000   -70.4020     6.2520     5.5350     8.1960     8.4010     2.4920     0.0460   142.6200
 2029.0000   -70.3510     6.2520     5.4810     7.6000     8.3980     2.4860     0.0440   143.5720
 2029.5000   -70.2720     6.2520     5.4260     7.3820     8.3960     2.4810     0.0450   144.4880
 2030.0000   -70.1560     6.2520     5.3710     7.8800     8.3940     2.4750     0.0470   145.4450
 2030.5000   -70.0410     6.2180     5.3160     8.4760     8.3920     2.4690     0.0490   146.3870
 2031.0000   -69.9250     6.0780     5.2610     9.0440     8.3900     2.4720     0.0500   147.2680
 2031.5000   -69.8090     5.9390     5.1980     6.8560     8.3870     2.4750     0.0520   148.1590
 2032.0000   -69.6930     5.8070     5.1880     6.9290     8.3850     2.4790     0.0540   149.0850
 2032.5000   -69.5770     5.9150     5.1750     7.3180     8.3830     2.4810     0.0560   149.9470
 2033.0000   -69.4620     5.8620     5.1620     7.8260     8.3810     2.4810     0.0560   150.8080
 2033.5000   -69.3460     5.7480     5.1500     8.4000     8.3800     2.4780     0.0550   151.6830
 2034.0000   -69.2300     5.5970     5.1370     7.9190     8.3800     2.4730     0.0540   152.5550
 2034.5000   -69.1140     5.6220     5.1250     7.3660     8.3800     2.4740     0.0530   153.3170
 2035.0000   -68.9990     5.6590     5.1060     6.8560     8.3800     2.4740     0.0520   153.8210
 2035.5000   -68.8830     5.7010     5.1120     7.1590     8.3800     2.4750     0.0520   154.3150
 2036.0000   -68.7650     5.6760     5.1440     7.6030     8.3800     2.4740     0.0510   154.7980
 2036.5000   -68.6550     5.6240     5.1760     8.0960     8.3800     2.4740     0.0500   155.3710
 2037.0000   -68.5310     5.5720     5.2080     7.8470     8.3800     2.4730     0.0490   155.2010
 2037.5000   -68.4180     5.4940     5.2410     7.5680     8.3800     2.4730     0.0490   154.0680
 2038.0000   -68.3680     5.6310     5.2730     7.2890     8.3800     2.4750     0.0480   152.9690
 2038.5000   -68.7260     5.9030     5.3350     6.9840     8.3800     2.4760     0.0470   151.9390
 2039.0000   -69.0840     6.1750     5.4630     7.7910     8.3800     2.4760     0.0460   150.9250
 2039.5000   -69.1240     6.4470     5.5920     8.5600     8.3800     2.4720     0.0460   152.1330
 2040.0000   -69.1280     6.7190     5.7210     9.0700     8.3800     2.4700     0.0450   153.3560
 2040.5000   -69.1200     6.9910     5.8490     9.2120     8.3800     2.4670     0.0440   154.7780
 2041.0000   -69.1250     7.2630     5.9780     9.4520     8.3800     2.4700     0.0430   157.2180
 2041.5000   -69.1230     7.5350     6.1070     9.9070     8.3800     2.4610     0.0420   160.9040
 2042.0000   -69.1230     7.8070     6.2360    10.4370     8.3800     2.4520     0.0400   158.1890
 2042.5000   -69.1240     8.0960     6.3640    10.3420     8.3800     2.4420     0.0390   156.9930
 2043.0000   -69.1240     8.0960     6.4930    10.1510     8.3800     2.4310     0.0380   156.5800
 2043.5000   -69.1240     8.0960     6.6220    10.4680     8.3800     2.4310     0.0360   156.3700
 2044.0000   -69.1230     7.9240     6.7310    10.9580     8.3800     2.4420     0.0400   156.3570
 2044.5000   -69.1250     7.7430     6.6540    10.5590     8.3770     2.4520     0.0460   155.2340
 2045.0000   -69.1210     7.5530     6.5870     9.8690     8.3710     2.4620     0.0510   153.8260
 2045.5000   -69.1250     7.6190     6.5210     8.8780     8.3650     2.4720     0.0570   153.3550
 2046.0000   -69.1400     7.7490     6.4540     9.2470     8.3580     2.4800     0.0630   153.9430
 2046.5000   -69.3320     7.8790     6.3870     9.9180     8.3520     2.4830     0.0680   154.4850
 2047.0000   -69.4940     8.0100     6.3200     9.6990     8.3460     2.4820     0.0700   154.0980
 2047.5000   -69.6680     8.1400     6.2520     9.5580     8.3410     2.4740     0.0630   152.3520
 2048.0000   -69.8360     8.2460     6.3110    10.1090     8.3440     2.4570     0.0570   150.2080
 2048.5000   -70.0060     8.1200     6.3710    10.6780     8.3470     2.4430     0.0500   149.2490
 2049.0000   -70.1760     7.9470     6.4320    10.5000     8.3510     2.4370     0.0440   149.6810
 2049.5000   -70.3450     8.0670     6.4920    10.3190     8.3540     2.4340     0.0410   150.0330
 2050.0000   -70.5150     8.3710     6.5520    10.1030     8.3580     2.4290     0.0390   149.4020
 2050.5000   -70.6850     8.6740     6.6130    10.5530     8.3610     2.4260     0.0360   148.1990
 2051.0000   -70.8540     8.9780     6.6730    11.1180     8.3650     2.4250     0.0330   147.1390
 2051.5000   -71.0240     9.1540     6.7330    11.6820     8.3690     2.4270     0.0340   146.1040
 2052.0000   -71.1940     9.3840     6.7940    12.1510     8.3720     2.4330     0.0380   146.8750
 2052.5000   -71.3630     9.2180     6.8560    12.6080     8.3760     2.4390     0.0420   147.6760
 2053.0000   -71.5340     8.7600     6.7790    12.3770     8.3790     2.4460     0.0460   148.2950
 2053.5000   -71.7010     8.3020     6.6980    11.4960     8.3810     2.4490     0.0510   147.0920
 2054.0000   -71.8710     7.8440     6.6180    10.9030     8.3830     2.4470     0.0550   146.1050
 2054.5000   -71.9130     7.3870     6.5370    10.0780     8.3850     2.4460     0.0590   144.9560
 2055.0000   -71.9100     6.9840     6.4560     8.8530     8.3870     2.4450     0.0640   143.9510
 2055.5000   -71.7920     7.1910     6.3680     7.5190     8.3890     2.4440     0.0630   142.9180
 2056.0000   -71.6310     7.3750     6.3680     8.7090     8.3900     2.4430     0.0620   143.9150
 2056.5000   -71.4700     7.5600     6.3680    10.0150     8.3920     2.4420     0.0600   145.0020
 2057.0000   -71.3110     7.8020     6.3680    11.2860     8.3940     2.4410     0.0540   145.9600
 2057.5000   -71.1510     7.7050     6.3680    10.9270     8.3960     2.4390     0.0470   145.1410
 2058.0000   -70.9910     7.5630     6.3680    10.4020     8.3980     2.4500     0.0400   143.9300
 2058.5000   -70.8310     7.4200     6.5500     9.8780     8.4000     2.4610     0.0380   144.0370
 2059.0000   -70.6720     7.2780     6.8200     9.3840     8.4010     2.4710     0.0450   144.8280
 2059.5000   -70.5100     7.1140     7.0910     8.3930     8.4030     2.4830     0.0500   144.9450
 2060.0000   -70.3520     7.6290     7.3610     7.4550     8.4050     2.4880     0.0560   143.9440
 2060.5000   -70.1930     8.1640     7.6320     7.0730     8.4070     2.4900     0.0620   143.0400
 2061.0000   -70.0190     8.4580     7.9030     6.9840     8.4090     2.4760     0.0640   142.1140
 2061.5000   -69.9100     8.7520     8.1730     8.0240     8.4100     2.4610     0.0550   141.1900
 2062.0000   -69.9250     9.0440     8.4440     9.6980     8.4120     2.4440     0.0480   140.1700
 2062.5000   -69.9190     8.5900     8.8780    12.1510     8.4140     2.4270     0.0410   139.6110
 2063.0000   -69.9190     8.1390     8.6800    11.8160     8.4160     2.4270     0.0330   139.9140
 2063.5000   -69.9270     7.6890     8.1790    10.9700     8.4180     2.4310     0.0340   140.0890
 2064.0000   -69.9030     7.2380     7.6780    10.1030     8.4200     2.4360     0.0370   140.3690
 2064.5000   -70.0930     6.7880     7.1770     9.9540     8.4190     2.4350     0.0400   139.9670
 2065.0000   -70.4020     6.3370     6.6760     9.3830     8.4170     2.4320     0.0430   139.1050
 2065.5000   -70.6830     6.0270     6.2520     8.6850     8.4150     2.4300     0.0430   138.4000
 2066.0000   -70.9630     5.8270     5.9400     7.9470     8.4130     2.4290     0.0380   138.0240
 2066.5000   -71.2500     5.4940     5.6690     7.1550     8.4110     2.4310     0.0380   139.4850
 2067.0000   -71.5310     5.5740     5.5590     5.9150     8.4090     2.4330     0.0450   138.5990
 2067.5000   -71.8150     5.8150     5.5090     6.7290     8.4070     2.4340     0.0480   137.5450
 2068.0000   -72.1020     6.0560     5.4190     8.2800     8.4050     2.4360     0.0480   136.3620
 2068.5000   -72.3340     6.3680     5.3140     9.2060     8.4030     2.4390     0.0480   135.2740
