~VERSION INFORMATION
 VERS.                2.0:   CWLS LOG ASCII STANDARD - VERSION 2.0
 WRAP.                 NO:   ONE LINE PER DEPTH STEP
~WELL INFORMATION
#MNEM.UNIT      DATA TYPE    INFORMATION
#----------   ------------   ------------------------------
 STRT.F           70.0000:   START DEPTH
 STOP.F         2751.5000:   STOP DEPTH
 STEP.F            0.5000:   STEP LENGTH
 NULL.          -999.2500:   NO VALUE
 COMP.          INTEX OIL:   COMPANY
 WELL. INTEX N.P.R. "AX" #75-20:   WELL
 FLD .             TEAPOT:   FIELD
 LOC .      S20 T39N R78W:   LOCATION
 CNTY.            NATRONA:   COUNTY
 STAT.            WYOMING:   STATE
 CTRY. UNITED STATES OF AMERICA:   COUNTRY
 SRVC.       SCHLUMBERGER:   SERVICE COMPANY
 DATE.        06-MAY-1966:   LOGDATE
 API .     49025095120000:   API NUMBER
~CURVE INFORMATION
#MNEM.UNIT       API CODE    CURVE DESCRIPTION
#----------   ------------   ------------------------------
 DEPT.F                  :   
 CALD.IN     45 280 60 00:   CALIPER FROM DENSITY LOG
 GRD .GAPI   45 310 01 00:   GAMMA RAY FROM DENSITY LOG
 RHOB.G/C3   45 350 01 00:   BULK DENSITY
 CORR.G/C3   45 356 01 00:   DENSITY CORRECTION
 SPR .MV     05 010 01 00:   SPONTANEOUS POTENTIAL
 ILD .OHMM   05 120 46 00:   DEEP INDUCTION RESISTIVITY
 ASN .OHMM   05 041 16 00:   AMPLIFIED SHORT NORMAL 16"
~PARAMETER INFORMATION
#MNEM.UNIT          VALUE    DESCRIPTION
#----------   ------------   ------------------------------
 EKB .F         5016.3000:   Kelly bushing
 EGL .F         5006.0000:   Ground level
 EDF .F            0.0000:   Drilling floor
 TD  .F         2750.0000:   Total depth
 DATE.        06-MAY-1966:   Date logged
 CLNT.            A2DTECH:   Client Code
 PD  .                 GL:   Permanent Datum
 DD  .F              2750:   Depth driller
 DL  .F              2746:   Depth logger
 BLI .F              2745:   Bottom log interval
 CS1 .IN            10.75:   Casing size
 CBD1.       10.75" @ 30':   Casing driller 1
 BS1 .IN            7.875:   Bit size
 DFT .           OIL/EMUL:   Type fluid in hole
 DFD .                9.8:   Density
 DFV .                 43:   Viscosity
 DFPH.                  8:   pH
 DFL .               11.8:   Fluid loss
 MSS .         CIRCULATED:   Source of sample
 RMS .OHMM           1.84:   Rm
 MST .F                73:   Rm Meas. temp.
 RMF .OHMM           1.21:   Rmf
 MFST.F                74:   Rmf Meas. temp.
 MFSS.                 FP:   Source Rmf.
 RMB .OHMM           1.27:   Rm. at BHT
 BHT .F               106:   BHT.
 TCS .HRS             1.5:   Time Circ. stopped
 MRT .F               106:   Maximum recorded temp.
 LUN .               3527:   Logging unit number
 LUL .               CSPR:   Logging unit location
 ENGI.               HAUG:   Recorded By
 WITN.      TUTTLE/HUDSON:   Witnessed by
 ORIG.           5" PRINT:   Origin of data
 UWI .     49025095120000:   Unique Well ID
 DICO. A2D TECHNOLOGIES, INC.:   Digitizing Company
 DAPD.F              10.3:   Feet Above Permanent Datum
 BSD1.F              2750:   Depth drilled with bit1
 MCSS.                 FP:   Source Rmc.
 EPD .F              5006:   Elevation Permanent Datum
 LMF .                 KB:   Log Measured From
 DMF .                 KB:   Drilling Measured From
 TLI .F                88:   Top log interval
~OTHER INFORMATION
~A   DEPT     CALD        GRD       RHOB       CORR        SPR        ILD          ASN 
# ...
 2709.0000     7.7820    79.5010     2.3460     0.0270   -61.6280    10.1430    16.3340
 2709.5000     7.8560    81.5380     2.3430     0.0130   -58.6190     9.1960    15.2260
 2710.0000     7.8620    82.8300     2.3430    -0.0030   -55.6080     8.2570    14.1180
 2710.5000     7.8670    84.3170     2.3440    -0.0010   -52.5160     7.7360    13.0110
 2711.0000     7.8680    86.3200     2.3570     0.0060   -50.1040     7.3410    11.9180
 2711.5000     7.8730    91.9030     2.3760     0.0190   -47.7970     6.9470    11.0610
 2712.0000     7.8750    95.1180     2.3690     0.0100   -45.5150     6.5600    10.5630
 2712.5000     7.8780    97.5880     2.3610    -0.0030   -43.2290     6.1830    10.1420
 2713.0000     7.8820    98.5350     2.3600     0.0020   -40.8660     6.1080     9.9960
 2713.5000     7.8850    98.3550     2.3730     0.0050   -39.6350     6.0210     9.6740
 2714.0000     7.8880    97.8370     2.3760     0.0050   -38.8520     5.9330     9.3490
 2714.5000     7.8910    97.8720     2.3870     0.0010   -38.0900     5.8460     9.0240
 2715.0000     7.8930    99.1510     2.3910     0.0040   -37.3320     5.7590     8.8110
 2715.5000     7.8990   101.8540     2.4040     0.0130   -36.5800     5.6720     8.6730
 2716.0000     7.8970   106.2100     2.4160     0.0220   -35.9540     5.5850     8.5360
 2716.5000     7.9330   110.2550     2.4180     0.0210   -35.8580     5.4980     8.3940
 2717.0000     7.9410   115.4250     2.4100     0.0080   -35.4250     5.4100     8.1940
 2717.5000     7.9390   117.5400     2.4090     0.0050   -34.5380     5.3230     7.9760
 2718.0000     7.9360   116.7690     2.4150     0.0060   -34.1560     5.2530     7.5410
 2718.5000     7.9350   114.5320     2.4200     0.0110   -34.2980     5.1880     7.2020
 2719.0000     7.9320   113.3690     2.4230     0.0120   -33.6500     5.1230     7.0790
 2719.5000     7.9300   113.8470     2.4170     0.0100   -33.0160     5.0580     6.9550
 2720.0000     7.9280   113.8440     2.4100     0.0090   -32.6710     4.9930     6.8310
 2720.5000     7.9260   113.9010     2.4130     0.0070   -32.7450     4.9260     6.7070
 2721.0000     7.9240   114.4630     2.4220     0.0100   -32.8380     4.8540     6.6020
 2721.5000     7.9220   117.5580     2.4350     0.0170   -32.1550     4.6520     6.5120
 2722.0000     7.9200   119.9250     2.4400     0.0190   -31.9420     4.5770     6.4220
 2722.5000     7.9180   120.9500     2.4370     0.0130   -31.7010     4.5360     6.3320
 2723.0000     7.9160   119.0290     2.4400     0.0110   -31.4790     4.4960     6.2370
 2723.5000     7.9140   117.6480     2.4460     0.0160   -31.8850     4.4550     6.1580
 2724.0000     7.9120   116.0910     2.4510     0.0260   -31.7060     4.4140     6.1390
 2724.5000     7.9100   115.9620     2.4570     0.0240   -31.2440     4.3730     6.1220
 2725.0000     7.9080   115.7180     2.4440     0.0150   -31.3270     4.3320     6.1050
 2725.5000     7.9060   116.1840     2.4490     0.0130   -31.4390     4.2910     6.0870
 2726.0000     7.9040   116.7390     2.4570     0.0310   -31.5480     4.2500     6.0510
 2726.5000     7.9020   116.9840     2.4550     0.0410   -31.6460     4.2080     5.9910
 2727.0000     7.9000   116.8150     2.4460     0.0350   -31.4460     4.1670     5.9370
 2727.5000     7.8980   116.6020     2.4390     0.0300   -31.2320     4.1260     5.8830
 2728.0000     7.8950   116.5770     2.4310     0.0250   -31.0190     4.0860     5.8310
 2728.5000     7.8930   115.3790     2.4250     0.0190   -30.8070     4.0500     5.7780
 2729.0000     7.8910   114.4770     2.4240     0.0140   -30.5960     4.0900     5.7370
 2729.5000     7.8890   116.1320     2.4220     0.0110   -30.3860     4.2110     5.7400
 2730.0000     7.8870   116.3600     2.4280     0.0110   -30.1690     4.3540     5.8980
 2730.5000     7.8850   114.6300     2.4370     0.0150   -30.3940     4.4970     6.0800
 2731.0000     7.8830   112.9350     2.4390     0.0180   -30.9230     4.6390     6.2630
 2731.5000     7.8810   111.8890     2.4340     0.0220   -31.4250     4.7760     6.4460
 2732.0000     7.8790   112.0780     2.4300     0.0190   -30.9790     4.8970     6.6290
 2732.5000     7.8770   113.6960     2.4280     0.0170   -30.5060     4.6600     6.7920
 2733.0000     7.8750   113.6790     2.4330     0.0170   -30.9170     4.4250     6.8200
 2733.5000     7.8730   112.6430     2.4340     0.0170   -31.3810     4.1920     6.5940
 2734.0000     7.8710   110.3320     2.4410     0.0170   -31.8180     3.9670     6.1650
 2734.5000     7.8690   101.3130     2.4360     0.0260   -31.2840     3.8240     5.7410
 2735.0000     7.8670    90.5490     2.4310     0.0330   -30.6920     3.7110     5.3190
 2735.5000     7.8640    61.2280     2.4330     0.0250   -30.5180     3.9000     5.0390
 2736.0000     7.8630  -999.2500     2.4390     0.0170   -30.3620     4.1140     5.0930
 2736.5000     7.8560  -999.2500     2.4490     0.0170   -30.2050     4.3310     5.1620
 2737.0000     7.8440  -999.2500     2.4600     0.0210   -30.0460     4.5480     5.4770
 2737.5000     7.8320  -999.2500     2.4670     0.0220   -29.8920     4.7660     5.8330
 2738.0000     7.8200  -999.2500     2.4580     0.0160   -30.0210     4.9840     6.1910
 2738.5000     7.8090  -999.2500     2.4510     0.0130   -30.1690     5.1940     6.5500
 2739.0000     7.7970  -999.2500     2.4430     0.0110   -30.3180     5.1610     6.9140
 2739.5000     7.7850  -999.2500     2.4440     0.0120   -30.4600     5.0510     6.9980
 2740.0000     7.7740  -999.2500     2.4520     0.0180   -30.1990     4.9420     6.8070
 2740.5000     7.7620  -999.2500     2.4630     0.0270   -29.9070     4.8310     6.5400
 2741.0000     7.7500  -999.2500     2.4600     0.0360   -29.6160     4.7870     6.2690
 2741.5000     7.7450  -999.2500     2.4500     0.0430   -29.3260     4.7220     5.9970
 2742.0000     7.7600  -999.2500     2.4400     0.0280   -29.0330     4.7440     5.8230
 2742.5000     7.7690  -999.2500     2.4280     0.0150   -28.9340     4.7690     5.8800
 2743.0000     7.7870  -999.2500     2.4140     0.0110   -29.0010     4.7950     6.0520
 2743.5000     7.7530  -999.2500     2.3780     0.0230   -29.0680     4.8050     6.3020
 2744.0000  -999.2500  -999.2500     2.3150     0.0390   -29.1350     4.7480     6.9580
 2744.5000  -999.2500  -999.2500     2.2520     0.0690   -29.2030     4.6860     7.6210
 2745.0000  -999.2500  -999.2500     2.2340     0.1070   -29.2730     4.6230     8.2870
 2745.5000  -999.2500  -999.2500     2.2440     0.1310  -999.2500     4.6090     8.6410
 2746.0000  -999.2500  -999.2500     2.2540     0.1430  -999.2500     4.6090     8.6490
 2746.5000  -999.2500  -999.2500     2.2630     0.1570  -999.2500     4.6090     8.6510
 2747.0000  -999.2500  -999.2500     2.2730     0.1700  -999.2500     4.6090     8.6520
 2747.5000  -999.2500  -999.2500     2.2820     0.1840  -999.2500     4.6090     8.6520
 2748.0000  -999.2500  -999.2500     2.2820     0.1880  -999.2500     4.6090     8.6520
 2748.5000  -999.2500  -999.2500     2.2810     0.1860  -999.2500     4.6090     8.6520
 2749.0000  -999.2500  -999.2500     2.2810     0.1890  -999.2500     4.6090     8.6520
 2749.5000  -999.2500  -999.2500     2.2840     0.1950  -999.2500     4.6090     8.6520
 2750.0000  -999.2500  -999.2500     2.2850     0.1850  -999.2500     4.6090     8.6520
 2750.5000  -999.2500  -999.2500     2.2650     0.1600  -999.2500  -999.2500  -999.2500
 2751.0000  -999.2500  -999.2500     2.2790     0.1740  -999.2500  -999.2500  -999.2500
 2751.5000  -999.2500  -999.2500     2.2990  -999.2500  -999.2500  -999.2500  -999.2500
