~VERSION INFORMATION
 VERS.                2.0:   CWLS LOG ASCII STANDARD - VERSION 2.0
 WRAP.                 NO:   ONE LINE PER DEPTH STEP
~WELL INFORMATION
#MNEM.UNIT      DATA TYPE    INFORMATION
#----------   ------------   ------------------------------
 STRT.F           30.0000:   START DEPTH
 STOP.F         5698.0000:   STOP DEPTH
 STEP.F            0.5000:   STEP LENGTH
 NULL.          -999.2500:   NO VALUE
 COMP. LAWRRENCE-ALLISON & ASSOCIATES:   COMPANY
 WELL. LAWERNCE "X" #41-3:   WELL
 FLD .           N P R #3:   FIELD
 LOC .       S3 T38N R78W:   LOCATION
 CNTY.            NATRONA:   COUNTY
 STAT.            WYOMING:   STATE
 CTRY. UNITED STATES OF AMERICA:   COUNTRY
 SRVC.      DRESSER ATLAS:   SERVICE COMPANY
 DATE.        04-JUN-1983:   LOGDATE
 API .     49025109200000:   API NUMBER
~CURVE INFORMATION
#MNEM.UNIT       API CODE    CURVE DESCRIPTION
#----------   ------------   ------------------------------
 DEPT.F                  :   
 TENS.LBS    60 635 01 00:   TENSION FROM SONIC
 DT  .US/F   60 520 00 00:   DELTA TIME
 SPR .MV     11 010 01 00:   SPONTANEOUS POTENTIAL FROM RES.
 TENR.LBS    11 635 01 00:   TENSION FROM RES. LOG
 GRR .GAPI   11 310 01 00:   GAMMA RAY FROM RES.
 CALR.IN     11 280 01 00:   CALIPER FROM RES.
 RMLL.OHMM   11 270 04 00:   MICRO LATEROLOG
 RD  .OHMM   11 220 10 00:   RESISTIVITY DEEP
 RS  .OHMM   11 220 09 00:   RESISTIVITY SHALLOW
 TEND.LBS    45 635 01 00:   TENSION FROM DENSITY LOG
 CORR.G/C3   45 356 01 00:   DENSITY CORRECTION
 RHOB.G/C3   45 350 01 00:   BULK DENSITY
 NPHI.DEC    42 890 03 00:   NEUTRON POROSITY SANDSTONE
~PARAMETER INFORMATION
#MNEM.UNIT          VALUE    DESCRIPTION
#----------   ------------   ------------------------------
 EKB .F         5157.5000:   Kelly bushing
 EGL .F         5147.5000:   Ground level
 EDF .F            0.0000:   Drilling floor
 TD  .F         5690.0000:   Total depth
 DATE.        04-JUN-1983:   Date logged
 CLNT.            A2DTECH:   Client Code
 SL  . 2218' FWL & 287' FNL:   Surface Location
 PD  .                 GL:   Permanent Datum
 EPD .F            5147.5:   Elevation Permanent Datum
 LMF .                 KB:   Log Measured From
 DMF .                 KB:   Drilling Measured From
 DD  .F              5690:   Depth driller
 DL  .F              5685:   Depth logger
 BLI .F              5682:   Bottom log interval
 CS1 .IN            9.625:   Casing size
 CBD1.       9.625 @ 568':   Casing driller 1
 CBL1.F               568:   Casing logger 1
 BS1 .IN             8.75:   Bit size
 DFT .        KCL-DRISPAC:   Type fluid in hole
 DFD .                9.1:   Density
 DFV .                 37:   Viscosity
 DFPH.                  8:   pH
 DFL .                3.8:   Fluid loss
 MSS .               TANK:   Source of sample
 RMS .OHMM           0.41:   Rm
 MST .F                75:   Rm Meas. temp.
 RMF .OHMM           0.28:   Rmf
 MFST.F                70:   Rmf Meas. temp.
 RMC .OHMM           0.53:   Rmc
 MCST.F                75:   Rmc Meas. temp.
 MFSS.               MEAS:   Source Rmf.
 RMB .OHMM           0.18:   Rm. at BHT
 BHT .F               160:   BHT.
 TCS .HRS               5:   Time Circ. stopped
 MRT .F               166:   Maximum recorded temp.
 LUN .               6274:   Logging unit number
 LUL .               GLTE:   Logging unit location
 ENGI.             RAUTIO:   Recorded By
 WITN.             STRONG:   Witnessed by
 ORIG.     2.5", 5" PRINT:   Origin of data
 UWI .     49025109200000:   Unique Well ID
 DICO. A2D TECHNOLOGIES, INC.:   Digitizing Company
 MCSS.               CALC:   Source Rmc.
 DAPD.                 10:   Feet Above Permanent Datum
 BSD1.               5690:   Depth drilled with bit1
~OTHER INFORMATION
~A   DEPT     TENS         DT        SPR       TENR         GRR      CALR       RMLL         RD         RS       TEND       CORR       RHOB       NPHI   
# ...
 4632.0000  -999.2500  -999.2500   -80.2070   -51.3330   101.2370     9.8960    17.9030    21.2530    22.2280     6.1030     0.1250     2.6660     0.1310
 4632.5000  -999.2500  -999.2500   -80.2410   -58.7100    93.4890     9.8980    21.6440    23.0430    23.9480   -21.6910     0.1280     2.6570     0.1250
 4633.0000  -999.2500  -999.2500   -80.2750   -56.6790    92.9880     9.9000    24.6370    24.6370    24.6370   -29.4120     0.1250     2.6470     0.1250
 4633.5000  -999.2500  -999.2500   -80.3120   -55.7610    93.7810     9.9020    24.1940    23.7970    23.7830   -29.4120     0.1190     2.6440     0.1450
 4634.0000  -999.2500  -999.2500   -80.3450   -54.6280    96.2940     9.9040    22.1480    21.6980    21.6500   -29.4120     0.1130     2.6480     0.1640
 4634.5000  -999.2500  -999.2500   -80.3350   -53.3350    98.4970     9.9060    19.4630    19.6000    19.5170   -29.4120     0.1060     2.6570     0.1830
 4635.0000  -999.2500  -999.2500   -80.0700   -52.2870   100.8270     9.9080    16.6060    17.5010    17.3840   -16.1760     0.0990     2.6670     0.1960
 4635.5000  -999.2500  -999.2500   -79.7980   -51.0430   103.1680     9.9100    13.7480    15.4020    15.2500    20.8820     0.0920     2.6770     0.2040
 4636.0000  -999.2500  -999.2500   -79.5150   -49.7520   107.1570     9.9110    10.3190    14.3010    13.5440    20.1960     0.0850     2.6790     0.1890
 4636.5000  -999.2500  -999.2500   -79.2390   -49.2150   110.4360     9.9100    10.3190    14.5620    14.0480    -4.5100     0.0860     2.6740     0.1580
 4637.0000  -999.2500  -999.2500   -78.9610   -41.6310   108.3630     9.9110    10.8960    14.9650    14.6960   -29.2160     0.0930     2.6700     0.1330
 4637.5000  -999.2500  -999.2500   -78.6820   -28.8520    95.4450     9.9110    17.6860    18.6660    18.4490   -58.8240     0.0880     2.6650     0.1070
 4638.0000  -999.2500  -999.2500   -78.4040   -24.0890    83.9360     9.9110    23.3450    23.1230    22.9730   -52.7300     0.0850     2.6660     0.0990
 4638.5000  -999.2500  -999.2500   -78.1280   -19.5920    75.3850     9.9110    29.0030    27.5800    27.4980   -45.1280     0.1000     2.6700     0.0960
 4639.0000  -999.2500  -999.2500   -77.8440   -15.0930    75.3020     9.9110    28.3750    32.9280    32.9280   -37.5260     0.0910     2.6730     0.0990
 4639.5000  -999.2500  -999.2500   -77.5770   -10.5810    74.5480     9.9110    27.7470    31.7760    32.9280   -29.9250     0.0840     2.6780     0.1010
 4640.0000  -999.2500  -999.2500   -77.2640    -9.1060    78.0190     9.9110    27.1180    30.6250    29.8040   -22.3230     0.0850     2.6840     0.1030
 4640.5000  -999.2500  -999.2500   -77.2480   -14.2250    81.5120     9.9110    26.4900    27.2370    27.5200   -23.9390     0.0900     2.7060     0.1330
 4641.0000  -999.2500  -999.2500   -77.3880   -18.3110    85.7810     9.9110    24.2370    24.4140    23.8130   -30.6770     0.0960     2.7290     0.1580
 4641.5000  -999.2500  -999.2500   -77.5460   -22.7840    90.3810     9.9110    21.9840    21.5910    20.1060   -37.4150     0.1290     2.7440     0.1840
 4642.0000  -999.2500  -999.2500   -77.6970   -27.1040    96.0140     9.9110    20.1820    18.7670    15.6580   -44.1530     0.1610     2.7350     0.1740
 4642.5000  -999.2500  -999.2500   -77.8540   -31.3890   103.4410     9.9110    11.5050    15.9440    15.6580   -50.8910     0.1740     2.6960     0.1570
 4643.0000  -999.2500  -999.2500   -78.0050   -36.0010   101.7030     9.9110    11.8260    16.5330    15.6580   -57.6290     0.1500     2.6520     0.1410
 4643.5000  -999.2500  -999.2500   -78.1560   -38.7980    94.1440     9.9110    14.7970    18.1540    16.8130   -64.3670     0.1100     2.5970     0.1240
 4644.0000  -999.2500  -999.2500   -78.3330   -36.4260    82.5180     9.9110    18.7700    19.5040    18.9830   -71.1050     0.0710     2.5660     0.1080
 4644.5000  -999.2500  -999.2500   -78.2780   -32.7360    74.6290     9.9110    18.7700    20.8550    21.1540   -78.4310     0.0540     2.5570     0.0980
 4645.0000  -999.2500  -999.2500   -77.8980   -29.2640    70.1280     9.9110    18.7700    22.2060    23.7590   -76.1760     0.0470     2.5580     0.0990
 4645.5000  -999.2500  -999.2500   -77.5450   -25.6940    68.9060     9.9110    18.7700    23.5560    23.5800   -73.7060     0.0480     2.5660     0.1000
 4646.0000  -999.2500  -999.2500   -77.1870   -22.2860    68.0190     9.9110    18.7700    24.6370    23.1300   -71.2350     0.0630     2.5700     0.1010
 4646.5000  -999.2500  -999.2500   -76.8300   -18.7450    68.1680     9.9110    18.7700    24.6370    22.6810   -68.7650     0.0770     2.5750     0.1020
 4647.0000  -999.2500  -999.2500   -76.4620   -20.2900    68.4310     9.9110    18.2520    24.2450    22.1540   -66.2940     0.0670     2.5760     0.1030
 4647.5000  -999.2500  -999.2500   -76.1230   -23.3290    69.0860     9.9110    17.7330    23.5930    21.5740   -63.8240     0.0570     2.5730     0.1070
 4648.0000  -999.2500  -999.2500   -75.7160   -26.2590    71.5480     9.9110    17.2140    22.4980    20.9940   -61.3530     0.0470     2.5720     0.1110
 4648.5000  -999.2500  -999.2500   -75.7800   -29.0660    75.4790     9.9110    16.6950    21.1080    20.4140   -58.8240     0.0510     2.5760     0.1140
 4649.0000  -999.2500  -999.2500   -75.8930   -32.1190    78.1480     9.9110    16.1770    20.5510    20.1820   -65.3300     0.0530     2.5750     0.1170
 4649.5000  -999.2500  -999.2500   -76.0260   -34.7840    78.1290     9.9110    15.6580    20.7070    20.2350   -76.5600     0.0530     2.5710     0.1190
 4650.0000  -999.2500  -999.2500   -76.1410   -37.9890    78.1730     9.9110    16.3240    21.0950    20.3010   -87.7900     0.0440     2.5680     0.1220
 4650.5000  -999.2500  -999.2500   -76.2620   -34.0520    73.5170     9.9110    16.9890    21.4840    20.3680   -99.0200     0.0470     2.5640     0.1230
 4651.0000  -999.2500  -999.2500   -76.3990   -28.5150    70.7410     9.9110    17.7770    21.8720    20.4340  -104.9020     0.0520     2.5690     0.1190
 4651.5000  -999.2500  -999.2500   -76.4020   -22.6690    72.1370     9.9110    17.3500    22.5010    20.5000   -91.1760     0.0560     2.5810     0.1150
 4652.0000  -999.2500  -999.2500   -76.2230   -20.8680    74.5300     9.9110    16.8270    22.4100    20.5300   -77.4510     0.0680     2.5920     0.1150
 4652.5000  -999.2500  -999.2500   -76.0600   -28.8830    76.8510     9.9110    16.5330    22.2650    20.4370   -63.7250     0.0860     2.5980     0.1170
 4653.0000  -999.2500  -999.2500   -75.8930   -37.5390    76.5230     9.9110    16.8000    22.0970    20.3440   -60.5880     0.0950     2.5960     0.1150
 4653.5000  -999.2500  -999.2500   -75.7250   -37.8380    74.5800     9.9110    17.0560    22.7420    20.2510   -63.3330     0.0850     2.5890     0.1110
 4654.0000  -999.2500  -999.2500   -75.5590   -30.9250    72.8170     9.9110    17.7570    23.5010    20.1820   -66.0780     0.0750     2.5820     0.1120
 4654.5000  -999.2500  -999.2500   -75.3920   -23.8240    71.0630     9.9110    18.9010    24.2600    21.3730   -68.6270     0.0570     2.5810     0.1130
 4655.0000  -999.2500  -999.2500   -75.2250   -18.2440    69.7040     9.9110    20.1820    25.0200    22.9130   -48.7750     0.0430     2.5830     0.1150
 4655.5000  -999.2500  -999.2500   -75.0580   -23.2890    70.5680     9.9110    20.5510    26.0140    22.9130   -30.2450     0.0420     2.5910     0.1150
 4656.0000  -999.2500  -999.2500   -74.8920   -33.4920    71.8590     9.9110    19.9320    25.8420    22.7250    -9.8040     0.0390     2.6020     0.1130
 4656.5000  -999.2500  -999.2500   -74.7220   -43.0960    71.4660     9.9110    18.8860    25.0870    22.5010   -40.8240     0.0490     2.6140     0.1110
 4657.0000  -999.2500  -999.2500   -74.5580   -54.1920    69.8300     9.9110    19.1670    25.1530    22.5830   -78.4310     0.0740     2.6260     0.1090
 4657.5000  -999.2500  -999.2500   -74.3940   -52.5720    69.4760     9.9110    19.7280    25.3650    22.8470   -64.9020     0.0960     2.6280     0.1060
