~VERSION INFORMATION
 VERS.                2.0:   CWLS LOG ASCII STANDARD - VERSION 2.0
 WRAP.                 NO:   ONE LINE PER DEPTH STEP
~WELL INFORMATION
#MNEM.UNIT      DATA TYPE    INFORMATION
#----------   ------------   ------------------------------
 STRT.F            0.0000:   START DEPTH
 STOP.F         3040.0000:   STOP DEPTH
 STEP.F            0.5000:   STEP LENGTH
 NULL.          -999.2500:   NO VALUE
 COMP.    FENIX & SCISSON:   COMPANY
 WELL.  FENIX "AX" #43-28:   WELL
 FLD .             TEAPOT:   FIELD
 LOC .      S28 T39N R78W:   LOCATION
 CNTY.            NATRONA:   COUNTY
 STAT.            WYOMING:   STATE
 CTRY. UNITED STATES OF AMERICA:   COUNTRY
 SRVC.              WELEX:   SERVICE COMPANY
 DATE.        20-JUL-1980:   LOGDATE
 API .     49025108450000:   API NUMBER
~CURVE INFORMATION
#MNEM.UNIT       API CODE    CURVE DESCRIPTION
#----------   ------------   ------------------------------
 DEPT.F                  :   
 GRD .GAPI   45 310 01 00:   GAMMA RAY FROM DENSITY LOG
 CALD.IN     45 280 60 00:   CALIPER FROM DENSITY LOG
 RHOB.G/C3   45 350 01 00:   BULK DENSITY
 CORR.G/C3   45 356 01 00:   DENSITY CORRECTION
 SPR .MV     07 010 01 00:   SPONTANEOUS POTENTIAL
 ILD .OHMM   07 120 46 00:   DEEP INDUCTION RESISTIVITY
 ILM .OHMM   07 120 44 00:   INDUCTION LOG MEDIUM RESISTIVITY
 SGRD.OHMM   07 220 05 00:   SHALLOW SHORT GUARD RESISTIVITY
 NEUT.CPS    35 330 30 00:   NEUTRON
~PARAMETER INFORMATION
#MNEM.UNIT          VALUE    DESCRIPTION
#----------   ------------   ------------------------------
 EKB .F         5042.0000:   Kelly bushing
 EGL .F         5032.0000:   Ground level
 EDF .F            0.0000:   Drilling floor
 TD  .F         3038.0000:   Total depth
 DATE.        20-JUL-1980:   Date logged
 CLNT.            A2DTECH:   Client Code
 SL  . 1500' FNL & 2500' FWL:   Surface Location
 PD  .                 GL:   Permanent Datum
 EPD .F              5032:   Elevation Permanent Datum
 LMF .                 KB:   Log Measured From
 DMF .                 KB:   Drilling Measured From
 DD  .F              3000:   Depth driller
 DL  .F              3038:   Depth logger
 BLI .F              3036:   Bottom log interval
 TLI .F               432:   Top log interval
 CS1 .IN            8.625:   Casing size
 CBD1.      8.625" @ 443':   Casing driller 1
 CBL1.F               432:   Casing logger 1
 BS1 .IN            7.875:   Bit size
 BSD1.F              3000:   Depth drilled with bit1
 DFT .     WATER BASE MUD:   Type fluid in hole
 DFD .                9.3:   Density
 DFV .                 45:   Viscosity
 DFPH.                  9:   pH
 DFL .                  8:   Fluid loss
 MSS .                PIT:   Source of sample
 RMS .OHMM           0.85:   Rm
 MST .F                75:   Rm Meas. temp.
 RMF .OHMM           0.68:   Rmf
 MFST.F                75:   Rmf Meas. temp.
 RMC .OHMM           1.02:   Rmc
 MCST.F                75:   Rmc Meas. temp.
 MFSS.               MEAS:   Source Rmf.
 MCSS.               MEAS:   Source Rmc.
 RMB .OHMM           0.57:   Rm. at BHT
 BHT .F               112:   BHT.
 TCS .HRS               3:   Time Circ. stopped
 MRT .F               112:   Maximum recorded temp.
 LUN .               9865:   Logging unit number
 LUL .             CASPER:   Logging unit location
 ENGI.            TOTHILL:   Recorded By
 WITN.           DINSMORE:   Witnessed by
 ORIG.     2.5", 5" PRINT:   Origin of data
 UWI .     49025108450000:   Unique Well ID
 DICO. A2D TECHNOLOGIES, INC.:   Digitizing Company
~OTHER INFORMATION
~A    DEPT     GRD       CALD       RHOB       CORR        SPR        ILD        ILM       SGRD        NEUT  
# ...
 1971.0000    96.4410     9.0110     2.4860     0.0390   -23.5460     9.2220    10.5290    12.7180   245.2340
 1971.5000    96.1430     9.0020     2.4870     0.0420   -23.5090     9.2460    10.5930    15.5970   231.0160
 1972.0000    95.8450     8.9930     2.4860     0.0420   -23.5190     9.2690    10.7900    16.4830   215.4930
 1972.5000    95.5310     8.9850     2.4860     0.0410   -23.4960     9.2930    10.1890    15.8970   233.0580
 1973.0000    95.0490     8.9760     2.4850     0.0400   -23.4290     9.3120     9.6880    15.1720   252.9190
 1973.5000    94.5280     8.9680     2.4840     0.0370   -23.3680     9.1890     9.1870    14.2460   236.8590
 1974.0000    94.0050     8.9590     2.4830     0.0330   -23.3090     9.0860     8.6860    13.4600   210.8510
 1974.5000    93.4820     8.9510     2.4810     0.0290   -23.2460     8.9840     8.1850    11.3740   214.2970
 1975.0000    92.9600     8.9420     2.4810     0.0260   -23.1770     8.8820     8.8000     8.6500   230.4970
 1975.5000    92.4370     8.9330     2.4810     0.0230   -23.1470     8.7790     9.4150    12.7360   227.8560
 1976.0000    91.9140     8.9250     2.4810     0.0200   -22.8900     8.6770     9.6610    13.4800   212.9190
 1976.5000    91.3910     8.9160     2.4790     0.0190   -22.4250     8.5740     8.6500    14.2240   217.3870
 1977.0000    90.8690     8.9080     2.4750     0.0180   -21.9960     8.4920     8.8110    14.2240   235.3770
 1977.5000    90.4280     8.8970     2.4700     0.0140   -21.5740     8.6580     9.3780    13.1080   244.9130
 1978.0000    90.1820     8.8850     2.4660     0.0110   -21.1260     8.7960     9.6610    12.7360   235.9240
 1978.5000    89.9360     8.8720     2.4690     0.0110   -20.7020     8.9330     9.3120    13.2180   256.1350
 1979.0000    89.6920     8.8590     2.4720     0.0130   -20.4050     9.0710     9.3730    13.4600   249.6390
 1979.5000    89.4480     8.8470     2.4730     0.0160   -20.8930     9.2090     9.4750    13.0980   241.4780
 1980.0000    89.5880     8.8340     2.4720     0.0160   -21.2970     9.3470     9.5760    12.7360   250.5820
 1980.5000    90.1140     8.8220     2.4710     0.0170   -21.7410     9.4850     9.6780    12.8600   274.7930
 1981.0000    90.6390     8.8090     2.4710     0.0200   -22.1790     9.4850     9.7800    13.1700   258.4710
 1981.5000    91.1660     8.8000     2.4720     0.0220   -22.5900     9.4850     9.8410    13.4800   240.6040
 1982.0000    91.6940     8.7930     2.4720     0.0250   -23.0800     9.4850     9.8410    13.7900   265.4120
 1982.5000    92.2210     8.7850     2.4710     0.0230   -23.0810     9.4850     9.8230    14.1000   256.5880
 1983.0000    92.7490     8.7780     2.4650     0.0210   -23.0440     9.4850     9.8000    14.2240   227.5570
 1983.5000    93.2760     8.7700     2.4590     0.0190   -22.9860     9.4850     9.7780    14.2240   259.2970
 1984.0000    93.7480     8.7630     2.4590     0.0190   -22.9440     9.4850     9.7550    13.6930   254.4940
 1984.5000    93.7600     8.7560     2.4660     0.0240   -22.8970     9.4850     9.7330    13.1610   243.8940
 1985.0000    93.6990     8.7480     2.4710     0.0300   -22.8480     9.3550     9.7110    12.7360   233.3780
 1985.5000    93.4220     8.7380     2.4770     0.0360   -22.8000     9.2260     9.6890    13.0430   256.6820
 1986.0000    92.6220     8.7260     2.4820     0.0420   -22.7670     9.0960     9.6610    13.9650   242.5040
 1986.5000    91.8340     8.7150     2.4880     0.0430   -22.5380     8.9670     9.6640    13.7120   224.2750
 1987.0000    91.0550     8.7030     2.4840     0.0390   -22.0320     8.8110     9.6570    13.4600   237.4710
 1987.5000    90.2760     8.6920     2.4780     0.0340   -21.5360     8.7380     9.6650    13.4600   253.0230
 1988.0000    89.4970     8.6800     2.4730     0.0310   -21.1430     8.6470     9.4470    14.2240   269.4030
 1988.5000    88.7200     8.6680     2.4720     0.0290   -20.9900     8.5560     9.2320    13.0800   242.5370
 1989.0000    87.9410     8.6570     2.4720     0.0270   -20.8530     8.4650     8.9750    11.6490   250.0850
 1989.5000    87.4220     8.6450     2.4720     0.0250   -20.7360     8.3740     8.9750    10.7900   279.3530
 1990.0000    87.1590     8.6340     2.4720     0.0210   -20.5780     8.3370     8.9750    10.7900   263.9600
 1990.5000    86.8930     8.6280     2.4700     0.0160   -20.4710     8.3370     9.0660    12.1000   234.0800
 1991.0000    86.6920     8.6280     2.4640     0.0100   -20.4390     8.3370     9.1810    12.9730   283.3330
 1991.5000    87.2730     8.6280     2.4580     0.0040   -21.3870     8.3370     9.2950    12.7950   260.6110
 1992.0000    87.8390     8.6280     2.4580    -0.0010   -22.2550     8.3370     9.4100    12.7360   239.4260
 1992.5000    88.3990     8.6280     2.4590    -0.0030   -22.7500     8.3370     9.5240    13.1010   269.2620
 1993.0000    88.9580     8.6280     2.4590    -0.0050   -22.6030     8.4060     9.6610    13.4050   251.6090
 1993.5000    89.5230     8.6280     2.4570    -0.0060   -22.5470     8.5200     9.6030    13.7100   261.2290
 1994.0000    90.1370     8.6280     2.4550    -0.0050   -22.4700     8.6330     9.4590    13.5850   254.8790
 1994.5000    90.9580     8.6280     2.4530    -0.0050   -22.3890     8.7470     9.3150    13.4600   247.9960
 1995.0000    91.7650     8.6270     2.4520    -0.0030   -22.3450     8.8610     9.1420    12.5030   238.9800
 1995.5000    92.5770     8.6230     2.4530     0.0000   -22.4630     8.9750     9.1610    12.2750   243.5140
 1996.0000    93.4180     8.6190     2.4550     0.0030   -22.5790     8.8610     9.2080    12.3740   278.2540
 1996.5000    93.4660     8.6150     2.4610     0.0070   -22.6720     8.7470     9.2550    12.5380   259.1210
 1997.0000    93.4250     8.6120     2.4630     0.0110   -22.7140     8.6330     9.3120    12.7360   231.1380
 1997.5000    92.7410     8.6080     2.4650     0.0110   -21.9590     8.5200     9.2890    12.7360   295.1150
 1998.0000    92.1840     8.6040     2.4670     0.0110   -20.8890     8.4060     9.2610    12.7360   291.4860
 1998.5000    91.8900     8.6000     2.4710     0.0120   -20.3320     8.3190     9.2320    12.7360   277.9960
 1999.0000    91.5960     8.5970     2.4750     0.0140   -20.4800     8.2720     9.2040    12.4460   262.2450
 1999.5000    91.3010     8.5930     2.4790     0.0140   -20.5410     8.2260     9.1760    12.3510   280.3480
 2000.0000    91.0060     8.5890     2.4760     0.0120   -20.6030     8.1790     9.1420    12.2750   267.3070
 2000.5000    90.7120     8.5870     2.4710     0.0100   -20.6980     8.1330     9.0480    11.4710   254.5790
 2001.0000    90.4170     8.5850     2.4670     0.0070   -20.8110     8.0870     8.9310    11.1950   241.8500
 2001.5000    90.1210     8.5840     2.4670     0.0050   -21.5450     8.0400     8.8110    11.8310   260.3340
 2002.0000    89.8190     8.5820     2.4680     0.0030   -22.1580     7.9940     8.5150    11.1160   286.8160
 2002.5000    89.4750     8.5800     2.4680     0.0020   -22.8600     7.9470     8.1850     9.3120   271.7330
 2003.0000    89.1360     8.5780     2.4630     0.0040   -23.1190     7.9010     8.5680    10.0990   258.0030
 2003.5000    88.7970     8.5770     2.4590     0.0050   -23.0380     7.9670     8.9670    11.5150   236.8400
 2004.0000    88.4620     8.5750     2.4570     0.0020   -22.9970     8.0710     9.3120    12.7360   242.0390
 2004.5000    88.1130     8.5730     2.4570     0.0000   -22.9500     8.1750     9.4850    13.0270   258.7990
 2005.0000    87.3090     8.5720     2.4570    -0.0030   -22.8950     8.2790     9.4410    13.2840   276.9240
 2005.5000    86.5180     8.5700     2.4570    -0.0040   -22.8510     8.3830     9.3940    13.4600   262.0390
 2006.0000    85.7970     8.5720     2.4570    -0.0040   -22.8030     8.4870     9.3460    13.4600   243.8430
 2006.5000    85.9360     8.5790     2.4610    -0.0040   -22.7410     8.5910     9.2990    12.9580   268.7280
 2007.0000    86.0950     8.5870     2.4640    -0.0030   -22.7500     8.6950     9.2520    11.8310   260.5890
