~VERSION INFORMATION
 VERS.                2.0:   CWLS LOG ASCII STANDARD - VERSION 2.0
 WRAP.                 NO:   ONE LINE PER DEPTH STEP
~WELL INFORMATION
#MNEM.UNIT      DATA TYPE    INFORMATION
#----------   ------------   ------------------------------
 STRT.F            0.0000:   START DEPTH
 STOP.F         3110.5000:   STOP DEPTH
 STEP.F            0.5000:   STEP LENGTH
 NULL.          -999.2500:   NO VALUE
 COMP. LAWRENCE  ALLISON AND ASSOCIATES:   COMPANY
 WELL. LAWRENCE NPR 3 "X" #72-15:   WELL
 FLD .                NPR:   FIELD
 LOC .      S15 T38N R78W:   LOCATION
 CNTY.            NATRONA:   COUNTY
 STAT.            WYOMING:   STATE
 CTRY. UNITED STATES OF AMERICA:   COUNTRY
 SRVC.           WIRELINE:   SERVICE COMPANY
 DATE.        16-JAN-1988:   LOGDATE
 API .     49025111930000:   API NUMBER
~CURVE INFORMATION
#MNEM.UNIT       API CODE    CURVE DESCRIPTION
#----------   ------------   ------------------------------
 DEPT.F                  :   
 TENR.LBS    07 635 01 00:   TENSION FROM RESISTIVITY
 GRR .GAPI   07 310 01 00:   GAMMA RAY FROM RESISTIVITY
 SPR .MV     07 010 01 00:   SPONTANEOUS POTENTIAL
 RFOC.OHMM   07 220 04 00:   RESISTIVITY FOCUSED LOG RES.
 RILD.OHMM   07 120 46 00:   DEEP INDUCTION RESISTIVITY
 RILM.OHMM   07 120 44 00:   INDUCTION LOG MEDIUM RESISTIVITY
 TEND.LBS    45 635 01 00:   TENSION FROM DENSITY LOG
 RHOB.G/C3   45 350 01 00:   BULK DENSITY
 CORR.G/C3   45 356 01 00:   DENSITY CORRECTION
 CNC .DEC    42 890 03 00:   NEUTRON PORISITY SANDSTONE
 CALR.IN     07 280 01 00:   CALIPER FROM RESISTIVITY
~PARAMETER INFORMATION
#MNEM.UNIT          VALUE    DESCRIPTION
#----------   ------------   ------------------------------
 EKB .F         5240.0000:   Kelly bushing
 EGL .F         5229.0000:   Ground level
 EDF .F            0.0000:   Drilling floor
 TD  .F         3090.0000:   Total depth
 DATE.        16-JAN-1988:   Date logged
 CLNT.            A2DTECH:   Client Code
 SL  . 814' FNL & 1208' FEL:   Surface Location
 PD  .                 GL:   Permanent Datum
 DD  .F              3085:   Depth driller
 DL  .F              3090:   Depth logger
 BLI .F              3089:   Bottom log interval
 CS1 .IN            8.625:   Casing size
 CBD1.      8.625" @ 610':   Casing driller 1
 CBL1.F               613:   Casing logger 1
 BS1 .IN            7.875:   Bit size
 DFT .            KCL/GEL:   Type fluid in hole
 DFD .                8.8:   Density
 DFV .                 40:   Viscosity
 DFPH.                8.5:   pH
 DFL .                 10:   Fluid loss
 MSS .           FLOWLINE:   Source of sample
 RMS .OHMM           .543:   Rm
 MST .F                65:   Rm Meas. temp.
 RMF .OHMM           .349:   Rmf
 MFST.F                65:   Rmf Meas. temp.
 RMC .OHMM           .557:   Rmc
 MCST.F                65:   Rmc Meas. temp.
 MFSS.               CALC:   Source Rmf.
 RMB .OHMM           .258:   Rm. at BHT
 BHT .F               114:   BHT.
 TCS .HRS               5:   Time Circ. stopped
 MRT .F               114:   Maximum recorded temp.
 LUN .            HL-6321:   Logging unit number
 LUL .           GILLETTE:   Logging unit location
 ENGI.               CAIN:   Recorded By
 WITN.             STRONG:   Witnessed by
 ORIG.           5" PRINT:   Origin of data
 UWI .     49025111930000:   Unique Well ID
 DICO. A2D TECHNOLOGIES, INC.:   Digitizing Company
 DAPD.F                11:   Feet Above Permanent Datum
 BSD1.F              3085:   Depth drilled with bit1
 MCSS.               CALC:   Source Rmc.
 EPD .F              5229:   Elevation Permanent Datum
 LMF .                 KB:   Log Measured From
 DMF .                 KB:   Drilling Measured From
~OTHER INFORMATION
~A    DEPT    TENR         GRR       SPR       RFOC       RILD       RILM       TEND       RHOB       CORR        CNC       CALR   
# ...
 3050.0000   285.5360    61.4590   -68.1270    19.1860    11.1300    10.3180   296.7680     2.5860     0.0500     0.1590     8.1450
 3050.5000   285.5360    60.9110   -67.1330    24.9530    10.7060     9.8230   291.6550     2.5480     0.0360     0.1670     8.1280
 3051.0000   290.9410    60.0170   -66.1370    20.9230    10.2820     9.1820   303.9240     2.5010     0.0250     0.1750     8.1100
 3051.5000   341.1910    59.6550   -65.3480    15.2080     9.8580     8.4850   351.4730     2.4470     0.0600     0.1840     8.0920
 3052.0000   391.4410    61.1240   -64.7660    10.7220     9.4340     8.2800   399.0230     2.3930     0.0990     0.1970     8.0800
 3052.5000   415.6660    63.4660   -64.2470     8.9120     9.0100     8.0550   419.0140     2.3610     0.1260     0.2130     8.0890
 3053.0000   369.4190    65.4610   -64.2420     8.2420     8.6190     7.8310   378.3700     2.3450     0.1180     0.2280     8.0980
 3053.5000   319.1690    64.7610   -64.2450     8.2080     8.2980     7.6060   327.1630     2.3300     0.0760     0.2350     8.1060
 3054.0000   268.9190    60.6580   -64.2380     8.1780     7.9760     7.3810   278.1690     2.3210     0.0710  -999.2500     8.1150
 3054.5000   268.9190    58.4410   -64.0080     8.1780     7.6540     7.1560   270.6910     2.3360     0.0690  -999.2500     8.1240
 3055.0000   295.5460    59.5360   -63.0810     7.8510     7.3330     6.9320   276.3810     2.3500     0.0730  -999.2500     8.1320
 3055.5000   295.5460    60.6010   -61.8660     7.4080     7.0110     6.7070   282.0700     2.3930     0.0760  -999.2500     8.1390
 3056.0000   295.5460    61.7460   -59.7170     6.9640     6.7250     6.4820   287.7600     2.4330     0.0680  -999.2500     8.1390
 3056.5000   296.4960    61.8510   -57.6150     6.3760     6.5050     6.2570   293.4500     2.4690     0.0610  -999.2500     8.1390
 3057.0000   302.7780    61.7080   -55.4670     6.5320     6.2860     6.1880   299.1390     2.4710     0.0560  -999.2500     8.1390
 3057.5000   309.0590    61.5700   -54.5550     6.9730     6.1450     6.1020   304.8290     2.4710     0.0620  -999.2500     8.1390
 3058.0000   315.5660    62.5010   -54.2650     7.3210     6.1260     6.0150   318.1090     2.4710     0.0670  -999.2500     8.1330
 3058.5000   364.0140    63.5510   -53.8460     7.2080     6.1060     5.9590   343.7120     2.4710     0.0690  -999.2500     8.1240
 3059.0000   374.0780    64.6030   -53.4850     7.0820     6.0860     5.9270   357.9010     2.4760     0.0740  -999.2500     8.1140
 3059.5000   371.3620    64.7190   -53.3810     6.9560     6.0660     5.8950   354.4870     2.4790     0.0860  -999.2500     8.0930
 3060.0000   368.6460    63.8980   -53.2870     6.9270     6.0460     5.8630   351.0730     2.5070     0.0970  -999.2500     8.0730
 3060.5000   365.9290    63.0790   -53.1930     7.0120     6.0260     5.8310   348.5920     2.5360     0.0950  -999.2500     8.0530
 3061.0000   363.2130    62.2570   -53.0870     7.0560     6.0050     5.7990   353.6030     2.5490     0.0920  -999.2500     8.0330
 3061.5000   360.4970    61.4310   -52.4930     6.9440     5.9850     5.7680   358.2590     2.5600     0.0910  -999.2500     8.0130
 3062.0000   357.7810    60.5650   -51.8770     6.8010     5.8570     5.5320   362.9140     2.5700     0.1000  -999.2500     7.9930
 3062.5000   355.6060    61.0670   -51.3880     6.9200     5.5520     5.2440   367.5690     2.5720     0.1100  -999.2500     7.9730
 3063.0000   341.2480    62.0510   -50.9260     7.0690     5.2480     4.9560   353.2600     2.5700     0.1200  -999.2500     7.9530
 3063.5000   326.8910    63.0490   -50.3000     7.1880     4.9430     4.6680   332.7770     2.5670     0.1330  -999.2500     7.9320
 3064.0000   315.5660    63.9320   -49.4960     6.4780     4.6380     4.3790   312.2940     2.5620     0.1640  -999.2500     7.8900
 3064.5000   323.7340    63.8390   -48.9460     5.4210     4.3340     4.0960   314.2940     2.5450     0.1940  -999.2500     7.7670
 3065.0000   333.7840    63.7350   -48.8340     4.8620     4.0960     4.0510   328.6320     2.5290     0.2260  -999.2500     7.6440
 3065.5000   343.8340    63.6350   -48.7560     4.6170     4.0570     4.0080   342.9700     2.5140     0.2380  -999.2500     7.6170
 3066.0000   353.8840    63.5470   -48.6410     4.5750     4.0520     3.9640   357.3080     2.5140     0.2390  -999.2500     7.6160
 3066.5000   363.9340  -999.2500   -48.4000     4.8820     4.0460     3.9390   371.6460     2.5170     0.2410  -999.2500     7.6160
 3067.0000   373.9840  -999.2500   -48.1630     5.1580     4.0410     3.9250   378.7730     2.5200     0.2420  -999.2500     7.6160
 3067.5000   384.0340  -999.2500   -47.9200     5.0520     4.0360     3.9110   374.6930     2.5220     0.2410  -999.2500     7.6160
 3068.0000   366.8610  -999.2500   -47.9810     4.8800     4.0300     3.9230   368.7120     2.5260     0.2390  -999.2500     7.6160
 3068.5000   345.5960  -999.2500   -48.0660     4.8910     4.0250     3.9370   360.6140     2.5310     0.2380  -999.2500     7.6160
 3069.0000   355.7930  -999.2500   -48.1480     4.9170     4.0210     3.9490   352.0790     2.5360     0.2470  -999.2500     7.6160
 3069.5000   371.4960  -999.2500   -48.2280     4.9430     4.0460     3.9530   354.9420     2.5380     0.2560  -999.2500     7.6160
 3070.0000   387.2000  -999.2500   -48.3280     4.9680     4.0670     3.9580   386.9470     2.5360     0.2570  -999.2500     7.6160
 3070.5000   389.4530  -999.2500   -48.8210     4.9940     4.0870     3.9630   394.9030     2.5350     0.2490  -999.2500     7.6160
 3071.0000   376.0530  -999.2500   -49.2980     5.0190     4.1070     3.9680   377.8340     2.5350     0.2400  -999.2500     7.6160
 3071.5000   362.6530  -999.2500   -49.7680     5.0450     4.1340     3.9720   360.7650     2.5340     0.2460  -999.2500     7.6160
 3072.0000   358.6750  -999.2500   -50.1310     5.0630     4.1200     3.9770   367.9340     2.5340     0.2590  -999.2500     7.6160
 3072.5000   369.8420  -999.2500   -50.2170     4.8790     4.1000     3.9840   381.5900     2.5340     0.2610  -999.2500     7.6150
 3073.0000   381.0090  -999.2500   -50.3080     4.7470     4.0800     3.9780   395.2450     2.5330     0.2570  -999.2500     7.6140
 3073.5000   392.1760  -999.2500   -50.4000     4.7260     4.0610     3.9640   398.8930     2.5330     0.2510  -999.2500     7.6130
 3074.0000   414.2950  -999.2500   -50.4930     4.7030     4.0410     3.9510   398.8930     2.5320     0.2450  -999.2500     7.6120
 3074.5000   441.3530  -999.2500   -50.4540     4.8800     4.0210     3.9380   435.9410     2.5320     0.2380  -999.2500     7.6110
 3075.0000   465.7160  -999.2500   -50.4040     4.8050     4.0010     3.9240   474.3460     2.5320     0.2320  -999.2500     7.6100
 3075.5000   471.7480  -999.2500   -50.3540     4.7370     3.9810     3.9110   487.6840     2.5290     0.2260  -999.2500     7.6090
 3076.0000   478.4480  -999.2500   -50.3040     4.7030     3.9610     3.8980   483.4170     2.5250     0.2200  -999.2500     7.6080
 3076.5000   485.7360  -999.2500   -50.2540     4.8490     3.9410     3.8850   479.3760     2.5230     0.2140  -999.2500     7.6070
 3077.0000   535.7860  -999.2500   -50.2040     5.0170     3.9210     3.8700   606.4820     2.5240     0.2270  -999.2500     7.6050
 3077.5000   634.9620  -999.2500   -50.1550     4.8610     3.9010     3.8190   727.1850     2.5250     0.2510  -999.2500     7.6040
 3078.0000   743.1930  -999.2500   -50.0980     4.6440     3.8810     3.7690   821.4290     2.5250     0.2510  -999.2500     7.6030
 3078.5000   816.0660  -999.2500   -49.7010     4.4280     3.8610     3.7330   802.9800     2.5260     0.2420  -999.2500     7.6020
 3079.0000   775.9400  -999.2500   -49.5970     4.3290     3.8400     3.7250   745.3720     2.5270     0.2340  -999.2500     7.6010
 3079.5000   720.9040  -999.2500   -49.5020     4.3410     3.8330     3.7180   690.8370     2.5290     0.2280  -999.2500     7.6000
 3080.0000   665.8680  -999.2500   -49.4060     4.3530     3.8260     3.7100   618.2930     2.5310     0.2340  -999.2500     7.5990
