~VERSION INFORMATION
 VERS.                2.0:   CWLS LOG ASCII STANDARD - VERSION 2.0
 WRAP.                 NO:   ONE LINE PER DEPTH STEP
~WELL INFORMATION
#MNEM.UNIT      DATA TYPE    INFORMATION
#----------   ------------   ------------------------------
 STRT.F          700.5000:   START DEPTH
 STOP.F         3060.0000:   STOP DEPTH
 STEP.F            0.5000:   STEP LENGTH
 NULL.          -999.2500:   NO VALUE
 COMP.    FENIX & SCISSON:   COMPANY
 WELL.   FENIX "A" #23-34:   WELL
 FLD .           N P R #3:   FIELD
 LOC .      S34 T39N R78W:   LOCATION
 CNTY.            NATRONA:   COUNTY
 STAT.            WYOMING:   STATE
 CTRY. UNITED STATES OF AMERICA:   COUNTRY
 SRVC.       SCHLUMBERGER:   SERVICE COMPANY
 DATE.        23-APR-1977:   LOGDATE
 API .     49025103590000:   API NUMBER
~CURVE INFORMATION
#MNEM.UNIT       API CODE    CURVE DESCRIPTION
#----------   ------------   ------------------------------
 DEPT.F                  :   
 ILD .OHMM   07 120 46 00:   DEEP INDUCTION RESISTIVITY
 ILM .OHMM   07 120 44 00:   INDUCTION LOG MEDIUM RESISTIVITY
 LL8 .OHMM   07 220 08 00:   LATEROLOG-8 RES.
 SPR .MV     07 010 01 00:   SPONTANEOUS POTENTIAL
 GRD .GAPI   45 310 01 00:   GAMMA RAY FROM DENSITY LOG
 CALD.IN     45 280 60 00:   CALIPER FROM DENSITY LOG
 RHOB.G/C3   45 350 01 00:   BULK DENSITY
 CORR.G/C3   45 356 01 00:   DENSITY CORRECTION
~PARAMETER INFORMATION
#MNEM.UNIT          VALUE    DESCRIPTION
#----------   ------------   ------------------------------
 EKB .F         5094.0000:   Kelly bushing
 EGL .F         5082.0000:   Ground level
 EDF .F            0.0000:   Drilling floor
 EPD .F            0.0000:   Permanent datum
 TD  .F         3051.0000:   Total depth
 DATE.        23-APR-1977:   Date logged
 CLNT.            A2DTECH:   Client Code
 SL  . 990' FWL & 1650' FNL:   Surface Location
 PD  .                 GL:   Permanent Datum
 DD  .F              3050:   Depth driller
 DL  .F              3051:   Depth logger
 BLI .F              3045:   Bottom log interval
 CS1 .IN            8.625:   Casing size
 CBD1.      8.625" @ 718':   Casing driller 1
 CBL1.F               717:   Casing logger 1
 BS1 .IN            7.875:   Bit size
 DFT .                FGM:   Type fluid in hole
 DFD .                8.8:   Density
 DFV .                 34:   Viscosity
 DFPH.                8.5:   pH
 DFL .                8.2:   Fluid loss
 MSS .           FLOWLINE:   Source of sample
 RMS .OHMM           .155:   Rm
 MST .F                66:   Rm Meas. temp.
 RMF .OHMM           .152:   Rmf
 MFST.F                66:   Rmf Meas. temp.
 MFSS.               MEAS:   Source Rmf.
 RMB .OHMM           .085:   Rm. at BHT
 BHT .F               120:   BHT.
 TCS .HRS            0230:   Time Circ. stopped
 MRT .F               120:   Maximum recorded temp.
 LUN .               5642:   Logging unit number
 LUL .               CSPR:   Logging unit location
 ENGI.             TAYLOR:   Recorded By
 WITN.         HARRINGTON:   Witnessed by
 ORIG.           5" PRINT:   Origin of data
 UWI .     49025103590000:   Unique Well ID
 DICO. A2D TECHNOLOGIES, INC.:   Digitizing Company
 DAPD.                 12:   Feet Above Permanent Datum
 BSD1.               3050:   Depth drilled with bit1
 TLI .                717:   Top log interval
 TLAB.               0530:   Time logger at bottom
~OTHER INFORMATION
~A   DEPT      ILD        ILM        LL8        SPR         GRD      CALD       RHOB       CORR   
# ...
 3009.0000     5.1820     5.3420     6.0600   -74.8230   114.1440     7.9390     2.5160     0.0330
 3009.5000     5.3590     5.6720     6.4950   -74.7790   118.0340     7.9350     2.5230     0.0260
 3010.0000     5.5430     5.7230     6.9170   -74.7310   119.4270     7.9320     2.5390     0.0560
 3010.5000     5.6200     5.7780     6.9490   -74.6090   119.7750     7.9280     2.5250     0.0450
 3011.0000     5.6200     5.8340     6.6650   -74.2490   120.3400     7.9270     2.5140     0.0360
 3011.5000     5.6200     5.8860     6.4460   -73.8980   121.8300     7.9280     2.5220     0.0470
 3012.0000     5.5490     5.8860     6.1070   -73.5480   123.3040     7.9300     2.5100     0.0510
 3012.5000     5.3970     5.8420     6.1620   -73.1970   124.3010     7.9310     2.5160     0.0420
 3013.0000     5.2440     5.6710     6.2780   -72.8430   124.5260     7.9330     2.5150     0.0320
 3013.5000     5.0910     5.5000     6.3370   -72.7200   125.5950     7.9340     2.5000     0.0260
 3014.0000     4.9380     5.3290     6.0490   -72.7190   127.5970     7.9360     2.5090     0.0490
 3014.5000     4.8490     5.1580     5.5910   -72.7180   128.5360     7.9370     2.5230     0.0530
 3015.0000     4.8490     5.0780     5.1720   -72.7180   129.4450     7.9390     2.5230     0.0500
 3015.5000     4.8580     5.0780     5.0310   -72.7190   133.4430     7.9400     2.5250     0.0580
 3016.0000     4.8670     5.0780     4.9390   -72.7740   139.2920     7.9420     2.5480     0.0720
 3016.5000     4.8770     5.0780     5.2580   -73.0920   141.0710     7.9430     2.5310     0.0380
 3017.0000     4.8860     5.0780     6.3330   -73.4100   138.7420     7.9450     2.5320     0.0480
 3017.5000     4.8940     5.0780     7.0140   -73.7260   136.2800     7.9460     2.5230     0.0480
 3018.0000     4.8240     5.0130     6.4000   -74.0430   134.1570     7.9480     2.5080     0.0370
 3018.5000     4.6970     4.8810     5.7550   -74.3630   134.7920     7.9490     2.5200     0.0260
 3019.0000     4.5690     4.7500     5.3010   -74.6880   136.2150     7.9510     2.5160     0.0420
 3019.5000     4.4410     4.6190     5.1650   -74.6840   137.6520     7.9520     2.5270     0.0590
 3020.0000     4.3140     4.4880     5.0280   -74.6590   139.1010     7.9540     2.5200     0.0550
 3020.5000     4.1860     4.3570     4.8920   -74.6360   138.2560     7.9550     2.5080     0.0500
 3021.0000     4.0690     4.2260     4.6780   -74.6130   134.6550     7.9570     2.4950     0.0410
 3021.5000     4.0220     4.1830     4.3810   -74.5900   131.0290     7.9580     2.5090     0.0360
 3022.0000     3.9690     4.1500     4.5260   -74.5670   127.3180     7.9600     2.5030     0.0460
 3022.5000     3.9150     4.1180     4.9850   -74.5440   127.1060     7.9610     2.4980     0.0370
 3023.0000     3.8620     4.0690     4.7920   -74.5230   128.6510     7.9630     2.5080     0.0410
 3023.5000     3.8080     3.9970     4.5040   -74.5610   132.4700     7.9640     2.5210     0.0430
 3024.0000     3.7550     3.9160     5.0780   -74.8340   135.0080     7.9660     2.5020     0.0400
 3024.5000     3.6960     3.8360     4.5390   -75.1020   135.9880     7.9670     2.4770     0.0310
 3025.0000     3.6360     3.7550     4.2960   -75.3700   135.0360     7.9690     2.4730     0.0250
 3025.5000     3.5760     3.6750     4.1830   -75.6380   135.3200     7.9710     2.4880     0.0240
 3026.0000     3.5160     3.5940     4.2180   -75.9060   133.6890     7.9720     2.5040     0.0440
 3026.5000     3.4560     3.5140     4.2610   -76.1740   131.8100     7.9740     2.5140     0.0520
 3027.0000     3.3960     3.4460     4.1840   -76.4410   129.9570     7.9750     2.4960     0.0410
 3027.5000     3.3210     3.4460     4.0840   -76.7060   128.1050     7.9770     2.4780     0.0290
 3028.0000     3.3250     3.4150     3.9840   -76.8450   127.6140     7.9780     2.4730     0.0240
 3028.5000     3.3300     3.4190     3.9580   -76.6960   125.5010     7.9800     2.4700     0.0190
 3029.0000     3.3340     3.4250     3.9580   -76.5560   126.8570     7.9810     2.4780     0.0210
 3029.5000     3.3390     3.4310     4.0500   -76.4160   130.0650     7.9830     2.5080     0.0430
 3030.0000     3.3430     3.4360     4.2170   -76.2760   131.8330     7.9840     2.5190     0.0450
 3030.5000     3.3480     3.4420     4.3010   -76.1350   132.6940     7.9850     2.5010     0.0410
 3031.0000     3.3530     3.4480     4.1160   -75.9950   132.4750     7.9820     2.4920     0.0450
 3031.5000     3.3570     3.4540     3.9580   -75.8550   130.2900     7.9780     2.5180     0.0680
 3032.0000     3.3620     3.4600     3.9220   -75.7150  -999.2500     7.9750     2.5470     0.0900
 3032.5000     3.3670     3.4660     4.0840   -75.5760  -999.2500     7.9710     2.5430     0.0950
 3033.0000     3.3710     3.4710     4.4210   -75.5300  -999.2500     7.9670     2.5370     0.0900
 3033.5000     3.3760     3.4770     4.4210   -75.6060  -999.2500     7.9640     2.5200     0.0680
 3034.0000     3.3810     3.5430     4.0130   -75.6810  -999.2500     7.9600     2.4940     0.0430
 3034.5000     3.4150     3.8270     3.8500   -75.7570  -999.2500     7.9570     2.4980     0.0480
 3035.0000     3.5110     4.1050     3.8500   -75.8300  -999.2500     7.9530     2.5010     0.0510
 3035.5000     3.6760     4.3830     3.9950   -75.8410  -999.2500     7.9500     2.4970     0.0490
 3036.0000     3.9650     4.6610     4.6310   -75.5420  -999.2500     7.9460     2.5240     0.0570
 3036.5000     4.3410     4.9390     5.3880   -75.1800  -999.2500     7.9420     2.5010     0.0280
 3037.0000     4.7180     5.2200     6.1450   -74.5310  -999.2500     7.9390     2.5050     0.0350
 3037.5000     5.0940     5.4560     6.9010   -73.8770  -999.2500     7.9350     2.4910     0.0290
 3038.0000     5.4700     5.7020     7.5510   -73.2210  -999.2500     7.9320     2.4890     0.0190
 3038.5000     5.6720     5.9480     7.3930   -72.7940  -999.2500     7.9280     2.5070     0.0340
 3039.0000     5.8320     6.1640     7.1440   -72.5630  -999.2500     7.9240     2.5250     0.0430
 3039.5000     5.9400     6.2210     7.1720   -72.3310  -999.2500     7.9210     2.5260     0.0370
 3040.0000     5.8470     6.1290     7.2100   -72.1220  -999.2500     7.9170     2.5110     0.0540
 3040.5000     5.7440     6.0000     6.8090   -72.0550  -999.2500     7.9140     2.5020     0.0290
 3041.0000     5.6410     5.8710     6.1330   -71.9930  -999.2500     7.9100     2.5170     0.0490
 3041.5000     5.5380     5.7420     5.9590   -71.9340  -999.2500     7.9070     2.5250     0.0490
 3042.0000     5.4350     5.6130     6.0770   -72.1550  -999.2500     7.9030     2.5160     0.0480
 3042.5000     5.3320     5.4840     6.1640   -72.4200  -999.2500     7.8990     2.5050     0.0600
 3043.0000     5.2290     5.3540     6.1640   -72.6860  -999.2500     7.8960     2.4990     0.0540
 3043.5000     5.1260     5.2250     5.9300   -72.9520  -999.2500     7.8920     2.5110     0.0530
 3044.0000     5.0230     5.1250     5.7190   -73.2170  -999.2500     7.8890     2.5230     0.0730
 3044.5000     4.9200     5.0780     5.5070   -73.4820  -999.2500     7.8850     2.5080     0.0600
 3045.0000     4.8170     5.0780     5.4640   -73.7460  -999.2500     7.8810     2.4900     0.0300
 3045.5000     4.7140     5.0780     5.4580   -73.8760  -999.2500     7.8780     2.5110     0.0490
 3046.0000     4.6300     5.0780     5.4510   -73.7840  -999.2500     7.8740     2.5120     0.0660
 3046.5000     4.6300     5.0780     5.4440   -73.6950  -999.2500     7.8710     2.5170     0.0870
 3047.0000     4.6300     5.0780     5.4380   -73.6060  -999.2500     7.8690     2.5350     0.1170
 3047.5000     4.6730     5.0780     5.4310   -73.5160  -999.2500     7.7990     2.5430     0.1440
 3048.0000     4.6540     5.0780     5.4250   -73.4270  -999.2500     7.7080     2.5190     0.1410
 3048.5000     4.6270     5.0780     5.4180   -73.3380  -999.2500     7.6070     2.4950     0.1530
 3049.0000     4.6010     5.0780     5.4110   -73.2490  -999.2500     7.2800     2.4550     0.1820
