~VERSION INFORMATION
 VERS.                2.0:   CWLS LOG ASCII STANDARD - VERSION 2.0
 WRAP.                 NO:   ONE LINE PER DEPTH STEP
~WELL INFORMATION
#MNEM.UNIT      DATA TYPE    INFORMATION
#----------   ------------   ------------------------------
 STRT.F           81.0000:   START DEPTH
 STOP.F          910.0000:   STOP DEPTH
 STEP.F            0.5000:   STEP LENGTH
 NULL.          -999.2500:   NO VALUE
 COMP.         U. S. NAVY:   COMPANY
 WELL. US NAVY NPR 3 "S" #37-35:   WELL
 FLD .             TEAPOT:   FIELD
 LOC .      S35 T39N R78W:   LOCATION
 CNTY.            NATRONA:   COUNTY
 STAT.            WYOMING:   STATE
 CTRY. UNITED STATES OF AMERICA:   COUNTRY
 SRVC.       SCHLUMBERGER:   SERVICE COMPANY
 DATE.        22-JUL-1963:   LOGDATE
 API .     49025065040000:   API NUMBER
~CURVE INFORMATION
#MNEM.UNIT       API CODE    CURVE DESCRIPTION
#----------   ------------   ------------------------------
 DEPT.F                  :   
 SPR .MV     05 010 01 00:   SPONTANEOUS POTENTIAL FROM RES.
 ASN .OHMM   05 041 16 00:   AMPLIFIED SHORT NORMAL 16"
 ILD .OHMM   05 120 46 00:   INDUCTION LOG DEEP
~PARAMETER INFORMATION
#MNEM.UNIT          VALUE    DESCRIPTION
#----------   ------------   ------------------------------
 EKB .F         5113.0000:   Kelly bushing
 EGL .F         5108.0000:   Ground level
 TD  .F          900.0000:   Total depth
 DATE.        22-JUL-1963:   Date logged
 CLNT.            A2DTECH:   Client Code
 PD  .                 GL:   Permanent Datum
 EPD .F              5108:   Elevation Permanent Datum
 LMF .                 KB:   Log Measured From
 DMF .                 KB:   Drilling Measured From
 DAPD.F                 5:   Feet Above Permanent Datum
 DD  .F               900:   Depth driller
 DL  .F               900:   Depth logger
 BLI .F               899:   Bottom log interval
 TLI .F                81:   Top log interval
 BS1 .IN            7.875:   Bit size
 BSD1.F               900:   Depth drilled with bit1
 DFT .                GEL:   Type fluid in hole
 DFD .                9.6:   Density
 DFV .                 67:   Viscosity
 DFPH.                  9:   pH
 DFL .                4.8:   Fluid loss
 MSS .           FLOWLINE:   Source of sample
 RMS .OHMM            3.4:   Rm
 MST .F                77:   Rm Meas. temp.
 RMF .OHMM            3.3:   Rmf
 MFST.F                77:   Rmf Meas. temp.
 RMC .OHMM            3.8:   Rmc
 MCST.F                77:   Rmc Meas. temp.
 MFSS.                 FP:   Source Rmf.
 TCS .HRS               1:   Time Circ. stopped
 LUN .               2523:   Logging unit number
 LUL .               CSPR:   Logging unit location
 ENGI.            GIFFORD:   Recorded By
 WITN.          JORGENSON:   Witnessed by
 ORIG.           5" PRINT:   Origin of data
 UWI .     49025065040000:   Unique Well ID
 DICO. A2D TECHNOLOGIES, INC.:   Digitizing Company
~OTHER INFORMATION
~A   DEPT      SPR        ASN        ILD   
# ...
  536.0000   -41.7770     7.8250     6.7230
  536.5000   -41.6750     7.8720     6.7660
  537.0000   -41.5730     7.9190     6.8100
  537.5000   -41.4710     7.9630     6.8530
  538.0000   -41.3700     7.9800     6.8970
  538.5000   -41.4510     7.9880     6.9400
  539.0000   -41.5520     7.9950     6.9840
  539.5000   -41.6530     8.0310     7.0270
  540.0000   -41.7540     8.0630     7.0700
  540.5000   -41.8560     8.0950     7.1110
  541.0000   -41.9570     8.1270     7.2130
  541.5000   -42.0580     8.1590     7.3210
  542.0000   -42.1600     8.2060     7.4300
  542.5000   -42.2610     8.2730     7.5400
  543.0000   -42.3620     8.3370     7.6490
  543.5000   -42.4630     8.3720     7.7580
  544.0000   -42.5570     8.4070     7.8260
  544.5000   -42.5590     8.4970     7.8430
  545.0000   -42.4640     8.6770     7.8600
  545.5000   -42.3540     8.8550     7.8770
  546.0000   -42.2430     9.0400     7.8940
  546.5000   -42.1330     9.0740     7.9110
  547.0000   -42.0220     9.0360     7.9280
  547.5000   -41.9120     9.0010     7.9450
  548.0000   -41.8010     8.9640     7.9620
  548.5000   -41.6900     8.9540     7.9790
  549.0000   -41.5790     8.9890     7.9970
  549.5000   -41.6750     9.0400     8.0180
  550.0000   -41.8270     9.2080     8.0990
  550.5000   -41.9800     9.3810     8.2640
  551.0000   -42.1330     9.5540     8.4240
  551.5000   -42.2870     9.7270     8.5840
  552.0000   -42.4420     9.8990     8.7440
  552.5000   -42.5950    10.0610     8.9050
  553.0000   -42.7090    10.1530     9.0660
  553.5000   -42.4920    10.2440     9.2260
  554.0000   -42.3380    10.2820     9.3870
  554.5000   -42.1910    10.3320     9.5470
  555.0000   -42.0460    10.4070     9.7070
  555.5000   -41.9000    10.4740     9.8050
  556.0000   -41.7540    10.6070     9.7600
  556.5000   -41.6090    10.7100     9.7180
  557.0000   -41.4640    10.7060     9.6750
  557.5000   -41.3680    10.7080     9.6330
  558.0000   -41.4180    10.6870     9.5900
  558.5000   -41.5030    10.5890     9.5470
  559.0000   -41.5880    10.4460     9.5040
  559.5000   -41.6730    10.3160     9.4620
  560.0000   -41.7580    10.2160     9.4190
  560.5000   -41.8440    10.2390     9.3760
  561.0000   -41.9300    10.2560     9.3330
  561.5000   -41.9610    10.2750     9.2900
  562.0000   -41.8970    10.2940     9.2480
  562.5000   -41.8290    10.3090     9.2050
  563.0000   -41.7610    10.3090     9.1620
  563.5000   -41.6930    10.3090     9.1200
  564.0000   -41.6250    10.3080     9.1130
  564.5000   -41.5570    10.3070     9.0860
  565.0000   -41.4890    10.3100     9.0600
  565.5000   -41.4220    10.2000     9.0350
  566.0000   -41.3680    10.2280     9.0090
  566.5000   -41.3460    10.2540     8.9830
  567.0000   -41.3090    10.2780     8.9580
  567.5000   -41.2720    10.3040     8.9320
  568.0000   -41.2350    10.2180     8.8990
  568.5000   -41.1980    10.0950     8.8460
  569.0000   -41.1610    10.0090     8.7940
  569.5000   -41.1240     9.9900     8.7430
  570.0000   -41.0880     9.9810     8.6910
  570.5000   -41.0510     9.9700     8.6390
  571.0000   -41.0140     9.9580     8.6240
  571.5000   -40.9760     9.9490     8.6780
  572.0000   -41.0570     9.9240     8.7310
  572.5000   -41.1800     9.8490     8.7840
  573.0000   -41.3040     9.7760     8.8360
  573.5000   -41.4330     9.7020     8.8940
  574.0000   -41.5710     9.6400     8.8100
  574.5000   -41.2980     9.5860     8.6260
  575.0000   -41.1700     9.5340     8.3960
  575.5000   -41.0340     9.4810     8.1630
  576.0000   -40.8990     9.2500     7.9290
  576.5000   -40.7640     8.9820     7.6950
  577.0000   -40.6300     8.7120     7.4610
  577.5000   -40.4950     8.4420     7.2280
  578.0000   -40.3800     8.1730     6.9940
  578.5000   -40.4840     8.0030     6.7600
  579.0000   -40.6000     7.9320     6.7210
  579.5000   -40.7160     7.8660     6.8310
  580.0000   -40.8310     7.8070     6.9550
  580.5000   -40.9470     8.0200     7.0800
  581.0000   -41.0630     8.2530     7.2050
  581.5000   -41.1780     8.4860     7.3300
  582.0000   -41.2930     8.6620     7.4550
  582.5000   -41.3520     8.6710     7.5810
  583.0000   -41.2420     8.7320     7.7100
  583.5000   -41.1330     8.8150     7.8960
  584.0000   -41.0250     8.8950     7.8770
  584.5000   -40.9160     8.9260     7.7930
  585.0000   -40.8070     8.8170     7.7090
  585.5000   -40.6980     8.7120     7.6260
  586.0000   -40.5890     8.6080     7.5420
  586.5000   -40.4800     8.5010     7.4610
  587.0000   -40.3710     8.4770     7.4310
  587.5000   -40.2630     8.4780     7.3180
  588.0000   -40.1550     8.5290     7.3710
  588.5000   -40.0470     8.5850     7.4330
  589.0000   -40.0220     8.6410     7.4960
  589.5000   -40.1240     8.6970     7.5600
  590.0000   -40.2240     8.7540     7.6240
  590.5000   -40.3250     8.8100     7.6870
  591.0000   -40.4260     8.8700     7.7510
  591.5000   -40.5270     8.9230     7.8150
  592.0000   -40.6280     8.9820     7.8780
  592.5000   -40.7290     9.0430     7.9430
  593.0000   -40.8300     9.0550     8.0080
  593.5000   -40.9310     8.9970     7.9690
  594.0000   -41.0320     8.9280     7.9110
  594.5000   -41.1330     8.8580     7.8520
  595.0000   -41.2340     8.7890     7.7930
  595.5000   -41.3390     8.7420     7.7340
  596.0000   -41.3590     8.7780     7.6750
  596.5000   -41.1770     8.8130     7.6210
  597.0000   -40.9950     8.8480     7.6270
  597.5000   -40.8140     8.8840     7.6360
  598.0000   -40.6270     8.8720     7.6460
  598.5000   -40.5800     8.8260     7.6550
  599.0000   -40.7590     8.7800     7.6640
  599.5000   -40.9640     8.7340     7.6730
  600.0000   -41.1700     8.6880     7.6820
  600.5000   -41.3760     8.6450     7.6910
  601.0000   -41.5810     8.6880     7.7000
  601.5000   -41.7590     8.7460     7.7090
  602.0000   -41.6880     8.7740     7.7180
  602.5000   -41.6160     8.7560     7.7010
  603.0000   -41.5450     8.7240     7.6810
  603.5000   -41.4740     8.6760     7.6610
  604.0000   -41.4030     8.6060     7.6410
  604.5000   -41.3320     8.5710     7.6220
  605.0000   -41.2610     8.6350     7.6020
  605.5000   -41.1900     8.7000     7.5820
  606.0000   -41.1190     8.6720     7.5620
  606.5000   -41.0480     8.6110     7.5420
  607.0000   -40.9760     8.5960     7.5200
  607.5000   -40.9720     8.5970     7.4730
  608.0000   -40.9720     8.5460     7.4220
  608.5000   -40.9720     8.4760     7.3710
  609.0000   -40.9720     8.4060     7.3190
  609.5000   -40.9720     8.3590     7.2670
  610.0000   -40.9720     8.4170     7.2230
  610.5000   -40.9720     8.4570     7.3370
  611.0000   -40.9720     8.4560     7.4660
  611.5000   -40.9720     8.4620     7.5950
  612.0000   -40.9720     8.5710     7.7230
  612.5000   -40.9720     8.6780     7.8520
  613.0000   -40.9710     8.7830     7.9810
  613.5000   -40.9720     8.9800     8.1100
  614.0000   -40.8970     9.2680     8.2390
  614.5000   -40.7650     9.4780     8.3670
  615.0000   -40.6330     9.4720     8.4960
  615.5000   -40.5010     9.1330     8.6220
  616.0000   -40.3700     9.2990     8.6690
  616.5000   -40.2370     9.6740     8.4860
  617.0000   -40.2290     9.7780     8.3100
  617.5000   -40.3670     9.6220     8.1350
  618.0000   -40.5040     9.4390     7.9600
  618.5000   -40.6400     9.2560     7.7850
  619.0000   -40.7770     9.0730     7.6090
  619.5000   -40.9140     8.8860     7.5190
  620.0000   -41.0520     8.7760     7.4710
  620.5000   -41.1890     8.6880     7.4250
  621.0000   -41.3260     8.6010     7.3800
  621.5000   -41.4620     8.4820     7.3340
  622.0000   -41.5990     8.3480     7.2890
  622.5000   -41.7370     8.2140     7.2440
  623.0000   -41.6760     8.0810     7.1980
  623.5000   -41.4460     7.9470     7.1530
  624.0000   -41.2170     7.8140     7.1080
  624.5000   -40.9880     7.7260     7.0630
  625.0000   -40.7610     7.7630     7.0230
  625.5000   -40.5720     7.7970     7.0360
  626.0000   -40.6150     7.8450     7.0890
  626.5000   -40.6560     7.9420     7.1410
