~VERSION INFORMATION
 VERS.                2.0:   CWLS LOG ASCII STANDARD - VERSION 2.0
 WRAP.                 NO:   ONE LINE PER DEPTH STEP
~WELL INFORMATION
#MNEM.UNIT      DATA TYPE    INFORMATION
#----------   ------------   ------------------------------
 STRT.F          190.0000:   START DEPTH
 STOP.F         2998.5000:   STOP DEPTH
 STEP.F            0.5000:   STEP LENGTH
 NULL.          -999.2500:   NO VALUE
 COMP.    FENIX & SCISSON:   COMPANY
 WELL.   FENIX "A" #52-28:   WELL
 FLD .        TEAPOT DOME:   FIELD
 LOC .      S28 T39N R78W:   LOCATION
 CNTY.            NATRONA:   COUNTY
 STAT.            WYOMING:   STATE
 CTRY. UNITED STATES OF AMERICA:   COUNTRY
 SRVC.           BIRDWELL:   SERVICE COMPANY
 DATE.        14-AUG-1977:   LOGDATE
 API .     49025104130000:   API NUMBER
~CURVE INFORMATION
#MNEM.UNIT       API CODE    CURVE DESCRIPTION
#----------   ------------   ------------------------------
 DEPT.F                  :   
 SPR .MV     05 010 01 00:   SPONTANEOUS POTENTIAL FROM RES.
 SN  .OHMM   05 040 16 00:   SHORT NORMAL 16"
 ILD .OHMM   05 120 46 00:   INDUCTION LOG DEEP
 GRD .GAPI   45 310 01 00:   GAMMA RAY FROM DENSITY LOG
 CALD.IN     45 280 60 00:   CALIPER FROM DENSITY LOG
 RHOB.G/C3   45 350 01 00:   BULK DENSITY
 CORR.G/C3   45 356 01 00:   DENSITY CORRECTION
~PARAMETER INFORMATION
#MNEM.UNIT          VALUE    DESCRIPTION
#----------   ------------   ------------------------------
 EKB .F         5026.0000:   Kelly bushing
 EGL .F         5016.0000:   Ground level
 EDF .F            0.0000:   Drilling floor
 TD  .F         3000.0000:   Total depth
 DATE.        14-AUG-1977:   Date logged
 CLNT.            A2DTECH:   Client Code
 SL  . 990' FNL & 2310' FEL:   Surface Location
 PD  .                 GL:   Permanent Datum
 EPD .F              5016:   Elevation Permanent Datum
 LMF .                 KB:   Log Measured From
 DMF .                 KB:   Drilling Measured From
 DAPD.F                10:   Feet Above Permanent Datum
 DD  .F              3000:   Depth driller
 DL  .F              3000:   Depth logger
 BLI .F              2994:   Bottom log interval
 TLI .F               214:   Top log interval
 CS1 .IN            8.625:   Casing size
 CBD1.      8.625" @ 214':   Casing driller 1
 CBL1.F               212:   Casing logger 1
 BS1 .IN            7.875:   Bit size
 BSD1.F              3000:   Depth drilled with bit1
 DFT .                KCL:   Type fluid in hole
 DFD .                8.8:   Density
 DFV .                 30:   Viscosity
 DFPH.               10.5:   pH
 DFL .               10.4:   Fluid loss
 MSS .           FLOWLINE:   Source of sample
 RMS .OHMM           0.13:   Rm
 MST .F                82:   Rm Meas. temp.
 RMF .OHMM           0.12:   Rmf
 MFST.F                72:   Rmf Meas. temp.
 RMC .OHMM           0.16:   Rmc
 MCST.F                72:   Rmc Meas. temp.
 MFSS.               MEAS:   Source Rmf.
 MCSS.               MEAS:   Source Rmc.
 TCS .HRS               4:   Time Circ. stopped
 LUN .               2958:   Logging unit number
 LUL .             CASPER:   Logging unit location
 ENGI.                LAW:   Recorded By
 WITN.         PETTINGILL:   Witnessed by
 ORIG.           5" PRINT:   Origin of data
 UWI .     49025104130000:   Unique Well ID
 DICO. A2D TECHNOLOGIES, INC.:   Digitizing Company
~OTHER INFORMATION
~A   DEPT      SPR         SN        ILD         GRD      CALD       RHOB       CORR   
# ...
  918.0000   -18.9640     6.9730    10.0740   110.6030     8.9320     2.5710     0.0330
  918.5000   -17.3430     7.0000    10.0680   108.4300     8.9530     2.5630     0.0330
  919.0000   -16.8400     7.0280    10.0560   110.1270     8.9750     2.5590     0.0320
  919.5000   -16.5690     7.0560    10.0440   109.9470     8.9830     2.5530     0.0320
  920.0000   -16.3020     7.0690    10.0330   109.6900     8.9840     2.5430     0.0330
  920.5000   -16.2420     7.0240    10.0210   110.4400     8.9840     2.5420     0.0330
  921.0000   -16.2390     6.9900    10.0090   109.9200     8.9850     2.5440     0.0360
  921.5000   -16.2400     6.9570     9.9970   107.7610     8.9860     2.5490     0.0370
  922.0000   -16.2420     6.9230     9.9860   109.3430     8.9860     2.5520     0.0360
  922.5000   -16.1740     6.8890     9.9690   110.4260     8.9870     2.5500     0.0350
  923.0000   -16.0880     6.8550     9.9510   110.5240     8.9880     2.5460     0.0330
  923.5000   -16.0020     6.8220     9.9340   110.0820     8.9890     2.5400     0.0330
  924.0000   -15.9160     6.7880     9.9160   113.2900     8.9890     2.5400     0.0330
  924.5000   -15.7990     6.7540     9.8980   112.3690     8.9900     2.5410     0.0330
  925.0000   -15.5510     6.7210     9.8800   112.8490     8.9910     2.5420     0.0330
  925.5000   -15.3030     6.6940     9.8630   114.2170     8.9920     2.5420     0.0320
  926.0000   -15.1990     6.6940     9.8450   115.4900     8.9920     2.5430     0.0280
  926.5000   -15.1280     6.6940     9.8270   115.9730     8.9930     2.5430     0.0280
  927.0000   -15.0590     6.6940     9.8090   111.6880     8.9940     2.5440     0.0290
  927.5000   -15.0080     6.6940     9.7920   106.4050     8.9950     2.5420     0.0270
  928.0000   -14.9580     6.6940     9.7740   104.1020     8.9950     2.5300     0.0200
  928.5000   -14.9030     6.6940     9.7560   106.9760     8.9960     2.5150     0.0190
  929.0000   -14.8930     6.6940     9.7380   109.2950     8.9970     2.5120     0.0200
  929.5000   -15.6880     6.6940     9.7210   109.7480     8.9980     2.5130     0.0250
  930.0000   -16.4250     6.6940     9.6990   113.7340     8.9980     2.5180     0.0290
  930.5000   -16.4580     6.6940     9.6670   114.7070     8.9990     2.5210     0.0310
  931.0000   -16.4720     6.6940     9.6340   110.5940     9.0000     2.5220     0.0320
  931.5000   -16.4870     6.6950     9.6010   106.1850     9.0000     2.5240     0.0320
  932.0000   -16.5040     6.6960     9.5680   104.9320     9.0010     2.5370     0.0320
  932.5000   -16.5210     6.6050     9.5350   106.4240     9.0020     2.5390     0.0320
  933.0000   -16.5370     6.5230     9.5020   107.9730     9.0060     2.5390     0.0310
  933.5000   -16.5540     6.5120     9.4530   109.7180     9.0100     2.5350     0.0290
  934.0000   -16.5700     6.5110     9.4690   111.7570     9.0140     2.5310     0.0260
  934.5000   -16.5860     6.5090     9.4990   110.3770     9.0180     2.5320     0.0260
  935.0000   -16.6020     6.5070     9.5290   109.6050     9.0220     2.5340     0.0250
  935.5000   -16.6190     6.5060     9.5590   109.6290     9.0260     2.5290     0.0250
  936.0000   -16.7060     6.5040     9.5890   105.7930     9.0310     2.5230     0.0240
  936.5000   -17.2580     6.5020     9.6270   108.2930     9.0350     2.5210     0.0240
  937.0000   -17.7720     6.5000     9.4370   105.9890     9.0380     2.5250     0.0250
  937.5000   -18.2250     6.4990     9.1800   104.9660     9.0250     2.5280     0.0270
  938.0000   -18.2100     6.4970     9.1040   104.4830     8.9670     2.5290     0.0290
  938.5000   -18.2080     6.4950     9.0870   106.4290     8.9570     2.5310     0.0250
  939.0000   -18.2090     6.4930     9.0700   106.0800     8.9960     2.5270     0.0280
  939.5000   -18.2090     6.4920     9.0540   106.6080     9.0350     2.5300     0.0310
  940.0000   -18.2090     6.4900     9.0370   109.8500     9.0280     2.5350     0.0290
  940.5000   -18.2090     6.4880     9.0340   111.1750     9.0110     2.5360     0.0230
  941.0000   -18.2090     6.4860     9.0340   113.9350     8.9950     2.5250     0.0240
  941.5000   -18.2090     6.4850     9.0340   115.1020     8.9780     2.5220     0.0150
  942.0000   -18.2090     6.4830     9.0340   112.4460     8.9630     2.5080     0.0150
  942.5000   -18.2110     6.4810     9.0340   112.7170     8.9630     2.5130     0.0190
  943.0000   -18.1410     6.4800     9.0340   112.1850     8.9630     2.5200     0.0200
  943.5000   -18.0580     6.4780     9.0340   109.8070     8.9630     2.5200     0.0210
  944.0000   -17.7800     6.4760     9.0340   109.8280     8.9630     2.5210     0.0240
  944.5000   -17.2230     6.4740     9.0430   114.1580     8.9630     2.5280     0.0290
  945.0000   -16.9820     6.4730     9.0580   114.9220     8.9630     2.5290     0.0340
  945.5000   -16.9050     6.4710     9.0730   113.5520     8.9630     2.5370     0.0340
  946.0000   -16.8300     6.4690     9.0870   112.1400     8.9630     2.5390     0.0320
  946.5000   -16.7560     6.4670     9.1020   110.7570     8.9630     2.5380     0.0280
  947.0000   -16.6810     6.4660     9.1150   109.5860     8.9630     2.5380     0.0190
  947.5000   -16.6060     6.4640     9.0600   108.9560     8.9640     2.5230     0.0100
  948.0000   -16.5320     6.4620     9.0070   113.5400     8.9700     2.5100     0.0090
  948.5000   -16.4570     6.4610     8.9540   115.6820     8.9750     2.5060     0.0100
  949.0000   -16.3820     6.4590     8.9020   115.9830     8.9810     2.5050     0.0140
  949.5000   -16.3070     6.4570     8.8490   116.3270     8.9870     2.5110     0.0140
  950.0000   -16.2410     6.4550     8.7910   118.8480     8.9920     2.5180     0.0180
  950.5000   -16.2400     6.4390     8.7240   120.5940     8.9980     2.5190     0.0200
  951.0000   -16.2400     6.4210     8.6500   118.4260     9.0040     2.5190     0.0230
  951.5000   -16.2380     6.4020     8.5750   115.4410     9.0100     2.5320     0.0330
  952.0000   -16.2460     6.3840     8.5540   120.4610     9.0150     2.5400     0.0280
  952.5000   -16.6960     6.3660     8.5540   124.1500     9.0210     2.5400     0.0260
  953.0000   -17.1920     6.3480     8.5540   123.7690     9.0270     2.5390     0.0330
  953.5000   -17.4520     6.3300     8.5540   121.2290     9.0330     2.5480     0.0340
  954.0000   -17.5160     6.3110     8.5540   118.9550     9.0380     2.5580     0.0320
  954.5000   -17.5820     6.2930     8.5550   119.4630     9.0440     2.5640     0.0300
  955.0000   -17.8340     6.2740     8.5640   123.7420     9.0500     2.5640     0.0360
  955.5000   -18.4330     6.2510     8.5900   125.4180     9.0550     2.5800     0.0380
  956.0000   -19.8270     6.2280     8.6290   124.1390     9.0610     2.5860     0.0300
  956.5000   -21.4250     6.2060     8.5870   122.6170     9.0550     2.5840     0.0170
  957.0000   -21.6060     6.1830     8.4650   121.0910     9.0500     2.5610     0.0270
  957.5000   -20.7640     6.1610     8.3440   119.5640     9.0440     2.5610     0.0360
  958.0000   -17.9290     6.1380     8.2220   118.1380     9.0390     2.5510     0.0300
  958.5000   -18.0090     6.1160     8.1010   118.6170     9.0330     2.5360     0.0280
  959.0000   -17.8810     6.0930     8.1190   120.7110     9.0280     2.5360     0.0260
  959.5000   -17.2400     6.0710     8.1370   122.2210     9.0220     2.5360     0.0220
  960.0000   -15.3730     6.0570     8.1550   120.5200     9.0170     2.5370     0.0220
  960.5000   -15.1460     6.0550     8.1740   116.8160     9.0110     2.5420     0.0220
  961.0000   -15.2420     6.0530     8.1920   113.2340     9.0060     2.5400     0.0220
  961.5000   -15.3470     6.0510     8.2100   109.6560     9.0010     2.5360     0.0190
  962.0000   -15.4510     6.0490     8.2280   106.6110     8.9910     2.5320     0.0070
  962.5000   -15.5530     6.0470     8.2490   104.3380     8.9840     2.5260     0.0050
  963.0000   -15.6470     6.0450     8.2410   103.3680     9.0590     2.5360     0.0220
