~VERSION INFORMATION
 VERS.                2.0:   CWLS LOG ASCII STANDARD - VERSION 2.0
 WRAP.                 NO:   ONE LINE PER DEPTH STEP
~WELL INFORMATION
#MNEM.UNIT      DATA TYPE    INFORMATION
#----------   ------------   ------------------------------
 STRT.F           11.0000:   START DEPTH
 STOP.F         3368.0000:   STOP DEPTH
 STEP.F            0.5000:   STEP LENGTH
 NULL.          -999.2500:   NO VALUE
 COMP. LAWRENCE ALLISON AND ASSOC.:   COMPANY
 WELL. LAWRENCE NPR "AX" #3-11:   WELL
 FLD .                NPR:   FIELD
 LOC .      S11 T38N R78W:   LOCATION
 CNTY.            NATRONA:   COUNTY
 STAT.            WYOMING:   STATE
 CTRY. UNITED STATES OF AMERICA:   COUNTRY
 SRVC.      DRESSER ATLAS:   SERVICE COMPANY
 DATE.        17-JAN-1986:   LOGDATE
 API .     49025110540000:   API NUMBER
~CURVE INFORMATION
#MNEM.UNIT       API CODE    CURVE DESCRIPTION
#----------   ------------   ------------------------------
 DEPT.F                  :   
 TEND.LBS    45 635 01 00:   TENSION FROM DENSITY LOG
 DEN .G/C3   45 350 01 00:   BULK DENSITY
 CORR.G/C3   45 356 01 00:   DENSITY CORRECTION
 CNC .DEC    42 890 03 00:   NEUTRON PORISITY SANDSTONE
 TENR.LBS    07 635 01 00:   TENSION FROM RESISTIVITY
 CALR.IN     07 280 01 00:   CALIPER FROM RESISTIVITY
 SPR .MV     07 010 01 00:   SPONTANEOUS POTENTIAL
 GRR .GAPI   07 310 01 00:   GAMMA RAY FROM RESISTIVITY
 RFOC.OHMM   07 220 04 00:   RESISTIVITY FOCUSED LOG RES.
 RILD.OHMM   07 120 46 00:   INDUCTION LOG DEEP RESISTIVITY
 RILM.OHMM   07 120 44 00:   INDUCTION LOG MEDIUM RESISTIVITY
 TENS.LBS    60 635 01 00:   TENSION FROM SONIC
 AC  .US/F   60 250 00 00:   ACCOUSTIC
~PARAMETER INFORMATION
#MNEM.UNIT          VALUE    DESCRIPTION
#----------   ------------   ------------------------------
 EKB .F         5195.5000:   Kelly bushing
 EGL .F         5183.2000:   Ground level
 EDF .F         5194.5000:   Drilling floor
 TD  .F         3360.0000:   Total depth
 DATE.        17-JAN-1986:   Date logged
 CLNT.            A2DTECH:   Client Code
 SL  . 2389' FSL & 461'FWL:   Surface Location
 PD  .                 GL:   Permanent Datum
 EPD .F            5183.2:   Elevation Permanent Datum
 LMF .                 KB:   Log Measured From
 DMF .                 KB:   Drilling Measured From
 DAPD.F              12.3:   Feet Above Permanent Datum
 DD  .F              3360:   Depth driller
 DL  .F              3358:   Depth logger
 BLI .F              3356:   Bottom log interval
 TLI .F               575:   Top log interval
 CS1 .IN            8.625:   Casing size
 CBD1.      8.625" @ 575':   Casing driller 1
 CBL1.F               575:   Casing logger 1
 BS1 .IN            7.875:   Bit size
 BSD1.F              3360:   Depth drilled with bit1
 DFT .        POLYMER-KCL:   Type fluid in hole
 DFD .                  9:   Density
 DFV .                 36:   Viscosity
 DFPH.                  9:   pH
 DFL .                9.5:   Fluid loss
 MSS .           FLOWLINE:   Source of sample
 RMS .OHMM           .633:   Rm
 MST .F                68:   Rm Meas. temp.
 RMF .OHMM           .475:   Rmf
 MFST.F                68:   Rmf Meas. temp.
 RMC .OHMM           .791:   Rmc
 MCST.F                68:   Rmc Meas. temp.
 RMB .OHMM            .44:   Rm. at BHT
 BHT .F                98:   BHT.
 TCS .HRS               4:   Time Circ. stopped
 MRT .F                98:   Maximum recorded temp.
 LUN .               6264:   Logging unit number
 LUL .               GLTE:   Logging unit location
 ENGI.             MILLER:   Recorded By
 WITN.             STRONG:   Witnessed by
 ORIG.        2" 5" PRINT:   Origin of data
 UWI .     49025110540000:   Unique Well ID
 DICO. A2D TECHNOLOGIES, INC.:   Digitizing Company
~OTHER INFORMATION
~A   DEPT     TEND        DEN       CORR        CNC       TENR       CALR        SPR         GRR      RFOC       RILD       RILM       TENS         AC   
# ...
  583.0000  -999.2500  -999.2500  -999.2500  -999.2500   -37.5180     9.6090   -25.2950    97.0160     8.0580     9.4220     8.2840   -58.1820    95.2970
  583.5000  -999.2500  -999.2500  -999.2500  -999.2500   -37.9500     9.4840   -23.1650   101.4910     7.9400     9.3050     8.0760   -59.0310    94.2890
  584.0000  -999.2500  -999.2500  -999.2500  -999.2500   -38.3830     9.3640   -21.0300   102.8140     7.7330     9.1880     7.8990   -59.8810    94.2130
  584.5000  -999.2500  -999.2500  -999.2500  -999.2500   -38.8160     9.2810   -19.1440   100.3030     7.5260     9.0460     7.7220   -60.7300    94.8560
  585.0000  -999.2500  -999.2500  -999.2500  -999.2500   -39.2480     9.2760   -19.6270    97.6050     7.3190     8.7230     7.5460   -61.5800    95.5000
  585.5000  -999.2500  -999.2500  -999.2500  -999.2500   -39.6810     9.2710   -21.4190    94.9540     7.2040     8.3990     7.3500   -62.4290    96.1440
  586.0000  -999.2500  -999.2500  -999.2500  -999.2500   -40.1130     9.2650   -23.8030    92.8590     7.1830     8.0760     7.3640   -63.2790    96.7870
  586.5000  -999.2500  -999.2500  -999.2500  -999.2500   -40.5460     9.2660   -26.2140    90.7720     7.1630     7.7660     7.3830   -64.1280    97.2860
  587.0000  -999.2500  -999.2500  -999.2500  -999.2500   -40.9780     9.2690   -27.6200    89.6810     7.1310     7.5180     7.4010   -64.6290    97.5980
  587.5000  -999.2500  -999.2500  -999.2500  -999.2500   -41.4110     9.2720   -28.4890    89.4890     7.0570     7.2800     7.4160   -64.6290    97.9500
  588.0000  -999.2500  -999.2500  -999.2500  -999.2500   -41.8440     9.2750   -29.0410    89.5080     6.9520     6.9560     7.1300   -64.6290    97.8770
  588.5000  -999.2500  -999.2500  -999.2500  -999.2500   -42.2760     9.2780   -29.5080    90.5500     7.0070     6.6310     6.8920   -64.6290    97.7940
  589.0000  -999.2500  -999.2500  -999.2500  -999.2500   -42.7090     9.2810   -29.9750    91.9860     7.1470     6.3060     6.6550   -64.6290    97.7100
  589.5000  -999.2500  -999.2500  -999.2500  -999.2500   -43.1410     9.2850   -30.4420    92.8690     7.0630     5.9810     6.4170   -64.6290    97.7600
  590.0000  -999.2500  -999.2500  -999.2500  -999.2500   -43.5740     9.2990   -30.9160    94.0410     6.8880     5.6570     6.1800   -64.6290    98.1500
  590.5000  -999.2500  -999.2500  -999.2500  -999.2500   -44.0070     9.3120   -31.3180    96.2720     6.4720     5.3320     5.9420   -64.6290    98.4500
  591.0000  -999.2500  -999.2500  -999.2500  -999.2500   -44.4390     9.3250   -31.7280    98.4850     6.0080     5.0070     5.7050   -64.6290   101.4740
  591.5000  -999.2500  -999.2500  -999.2500  -999.2500   -44.8170     9.3390   -31.6580    97.5990     5.4690     4.7620     5.6220   -64.6290   103.9310
  592.0000  -999.2500  -999.2500  -999.2500  -999.2500   -45.1650     9.3340   -31.3980    92.2710     5.9570     5.5160     5.9160   -64.6290   104.8500
  592.5000  -999.2500  -999.2500  -999.2500  -999.2500   -45.5130     9.3190   -31.1900    88.0200     6.5400     6.0640     6.2670   -64.6290   104.5500
  593.0000  -999.2500  -999.2500  -999.2500  -999.2500   -45.8610     9.3040   -30.9790    89.5230     7.0590     6.3910     6.6180   -64.6290   101.9100
  593.5000  -999.2500  -999.2500  -999.2500  -999.2500   -46.2090     9.2900   -30.7710    93.5900     7.2910     6.7180     6.9690   -64.6290    99.5700
  594.0000  -999.2500  -999.2500  -999.2500  -999.2500   -46.5580     9.2750   -30.5600    93.0910     7.5240     7.0450     7.3200   -64.6290    97.3500
  594.5000  -999.2500  -999.2500  -999.2500  -999.2500   -46.9060     9.2600   -30.8740    89.9210     7.7560     7.3720     7.6250   -64.6290    96.6720
  595.0000  -999.2500  -999.2500  -999.2500  -999.2500   -47.2540     9.2450   -31.6430    89.6010     7.9880     7.6990     7.8910   -64.6290    96.0270
  595.5000  -999.2500  -999.2500  -999.2500  -999.2500   -47.6020     9.2500   -32.4110    91.4960     8.2210     8.0260     8.1560   -68.0910    95.3820
  596.0000  -999.2500  -999.2500  -999.2500  -999.2500   -47.9510     9.2570   -33.1820    92.5110     8.4390     8.3910     8.4210   -75.1960    94.7370
  596.5000  -999.2500  -999.2500  -999.2500  -999.2500   -48.2990     9.2640   -33.9540    89.1420     8.3980     8.7750     8.6760   -82.3010    94.0920
  597.0000  -999.2500  -999.2500  -999.2500  -999.2500   -48.6470     9.2710   -34.7260    85.8040     8.3600     8.9090     8.6320   -89.4060    93.4470
  597.5000  -999.2500  -999.2500  -999.2500  -999.2500   -48.9950     9.2770   -35.5020    87.7130     8.3210     8.9950     8.5910   -96.5110    93.0750
  598.0000  -999.2500  -999.2500  -999.2500  -999.2500   -49.3430     9.2840   -35.9770    90.2750     8.2830     9.0800     8.5490  -104.7090    93.1500
  598.5000  -999.2500  -999.2500  -999.2500  -999.2500   -49.6920     9.2900   -36.2550    92.1320     8.2440     9.1700     8.5070  -104.7090    93.4600
  599.0000  -999.2500  -999.2500  -999.2500  -999.2500   -50.0400     9.2970   -36.5330    90.3780     8.2060     9.0830     8.4660   -72.6450    93.8250
  599.5000  -999.2500  -999.2500  -999.2500  -999.2500   -50.3880     9.3030   -36.8110    90.0220     8.1670     8.9920     8.4240   -33.5670    94.1910
  600.0000  -999.2500  -999.2500  -999.2500  -999.2500   -50.7360     9.3100   -37.0910    90.8840     8.1330     8.9010     8.3830    -4.5090    94.6500
  600.5000  -999.2500  -999.2500  -999.2500  -999.2500   -51.0840     9.3160   -37.3580    92.8200     8.1490     8.8110     8.3400   -11.4350    94.5030
  601.0000  -999.2500  -999.2500  -999.2500  -999.2500   -51.4330     9.3230   -36.7170    94.7420     8.1630     8.7200     8.2970   -16.9470    94.3070
  601.5000  -999.2500  -999.2500  -999.2500  -999.2500   -51.7810     9.3680   -35.9730    96.2630     8.1770     8.6070     8.2540   -22.4590    94.0930
  602.0000  -999.2500  -999.2500  -999.2500  -999.2500   -52.1290     9.4200   -34.8010    97.3040     8.1910     8.6570     8.2100   -27.9710    93.8720
  602.5000  -999.2500  -999.2500  -999.2500  -999.2500   -52.4770     9.4710   -33.6110    95.5990     8.2080     8.7530     8.1670   -33.4830    93.6510
  603.0000  -999.2500  -999.2500  -999.2500  -999.2500   -52.8260     9.5070   -32.4140    94.3050     8.1230     8.8490     8.1240   -38.9950    93.4300
  603.5000  -999.2500  -999.2500  -999.2500  -999.2500   -53.1740     9.5450   -31.5720    94.4960     8.0170     8.9440     8.0800   -44.5080    93.5510
  604.0000  -999.2500  -999.2500  -999.2500  -999.2500   -53.5220     9.5820   -31.5120    94.5540     7.9100     9.0400     8.0370   -50.0200    93.8650
  604.5000  -999.2500  -999.2500  -999.2500  -999.2500   -53.8700     9.6200   -31.7280    93.8540     7.8100     9.0850     7.9940   -55.5320    94.1800
  605.0000  -999.2500  -999.2500  -999.2500  -999.2500   -54.2180     9.6590   -31.9330    92.0190     7.7220     8.8390     7.9510   -61.0440    94.4940
  605.5000  -999.2500  -999.2500  -999.2500  -999.2500   -54.5670     9.6630   -32.1390    90.4960     7.6350     8.6530     7.9110   -66.5560    94.8080
  606.0000  -999.2500  -999.2500  -999.2500  -999.2500   -51.9160     9.6660   -32.3450    89.0990     7.3620     8.4200     7.6150   -72.0690    95.1120
  606.5000  -999.2500  -999.2500  -999.2500  -999.2500   -48.8480     9.6690   -32.5520    88.1470     7.0640     8.0560     7.3410   -74.6490    95.6680
  607.0000  -999.2500  -999.2500  -999.2500  -999.2500   -45.7790     9.6720   -32.7550    89.4500     6.7650     7.6910     7.0670   -70.0020    96.4540
  607.5000  -999.2500  -999.2500  -999.2500  -999.2500   -42.7100     9.6740   -33.2570    90.6940     6.4670     7.3300     6.7930   -65.4580    97.2400
  608.0000  -999.2500  -999.2500  -999.2500  -999.2500   -39.6420     9.6770   -33.9360    91.1530     6.2040     6.9690     6.5190   -60.9140    98.0260
  608.5000  -999.2500  -999.2500  -999.2500  -999.2500   -36.5730     9.6790   -34.6150    90.3020     6.1000     6.2000     6.0610   -56.3700    98.8120
