~VERSION INFORMATION
 VERS.                2.0:   CWLS LOG ASCII STANDARD - VERSION 2.0
 WRAP.                 NO:   ONE LINE PER DEPTH STEP
~WELL INFORMATION
#MNEM.UNIT      DATA TYPE    INFORMATION
#----------   ------------   ------------------------------
 STRT.F          150.0000:   START DEPTH
 STOP.F         2980.0000:   STOP DEPTH
 STEP.F            0.5000:   STEP LENGTH
 NULL.          -999.2500:   NO VALUE
 COMP. FENIX & SCISSION U.S. NAVY:   COMPANY
 WELL.   FENIX "A" #84-20:   WELL
 FLD .             NPR #3:   FIELD
 LOC .      S20 T39N R78W:   LOCATION
 CNTY.            NATRONA:   COUNTY
 STAT.            WYOMING:   STATE
 CTRY. UNITED STATES OF AMERICA:   COUNTRY
 SRVC.       SCHLUMBERGER:   SERVICE COMPANY
 DATE.        21-FEB-1977:   LOGDATE
 API .     49025103020000:   API NUMBER
~CURVE INFORMATION
#MNEM.UNIT       API CODE    CURVE DESCRIPTION
#----------   ------------   ------------------------------
 DEPT.F                  :   
 NPHI.DEC    42 890 03 00:   NEUTRON POROSITY SANDSTONE
 GRD .GAPI   45 310 01 00:   GAMMA RAY FROM DENSITY LOG
 CALD.IN     45 280 60 00:   CALIPER FROM DENSITY LOG
 RHOB.G/C3   45 350 01 00:   BULK DENSITY
 DCOR.G/C3   45 356 01 00:   DENSITY CORRECTION
 SPR .MV     07 010 01 00:   SPONTANEOUS POTENTIAL
 LLD .OHMM   11 220 10 00:   LATEROLOG DEEP
 LLS .OHMM   11 220 09 00:   LATEROLOG SHALLOW
 MSFL.OHMM   07 270 04 00:   MICRO SPHERICALLY FOCUSED RES.
~PARAMETER INFORMATION
#MNEM.UNIT          VALUE    DESCRIPTION
#----------   ------------   ------------------------------
 EKB .F         5006.0000:   Kelly bushing
 EGL .F         4996.0000:   Ground level
 EDF .F            0.0000:   Drilling floor
 TD  .F         2973.0000:   Total depth
 DATE.        21-FEB-1977:   Date logged
 CLNT.            A2DTECH:   Client Code
 SL  . 330' FEL & 2310' FNL:   Surface Location
 PD  .                 GL:   Permanent Datum
 EPD .F              4996:   Elevation Permanent Datum
 LMF .                 KB:   Log Measured From
 DMF .                 KB:   Drilling Measured From
 DAPD.F                10:   Feet Above Permanent Datum
 DD  .F              2973:   Depth driller
 DL  .F              2971:   Depth logger
 BLI .F              2970:   Bottom log interval
 TLI .F               164:   Top log interval
 CS1 .IN            8.625:   Casing size
 CBD1.      8.625" @ 167':   Casing driller 1
 CBL1.F               164:   Casing logger 1
 BS1 .IN            7.875:   Bit size
 BSD1.F              2973:   Depth drilled with bit1
 DFT .            KCL MUD:   Type fluid in hole
 DFD .                9.5:   Density
 DFV .                 35:   Viscosity
 DFPH.                6.5:   pH
 DFL .                 11:   Fluid loss
 MSS .              CIRC.:   Source of sample
 RMS .OHMM           0.27:   Rm
 MST .F                72:   Rm Meas. temp.
 RMF .OHMM           0.19:   Rmf
 MFST.F                72:   Rmf Meas. temp.
 RMC .OHMM           0.35:   Rmc
 MCST.F                72:   Rmc Meas. temp.
 MFSS.               MEAS:   Source Rmf.
 MCSS.               CALC:   Source Rmc.
 RMB .OHMM           0.18:   Rm. at BHT
 BHT .F               110:   BHT.
 TCS .HRS            0300:   Time Circ. stopped
 TLAB.HRS            1000:   Time logger at bottom
 MRT .F               110:   Maximum recorded temp.
 LUN .               7711:   Logging unit number
 LUL .               CSPR:   Logging unit location
 ENGI.             SAYLER:   Recorded By
 WITN.               JAPP:   Witnessed by
 ORIG.           5" PRINT:   Origin of data
 UWI .     49025103020000:   Unique Well ID
 DICO. A2D TECHNOLOGIES, INC.:   Digitizing Company
~OTHER INFORMATION
~A   DEPT       NPHI       GRD      CALD       RHOB       DCOR        SPR        LLD        LLS       MSFL   
# ...
 1646.5000     0.3690   125.4120    10.6620     2.5250     0.0540   -37.9500     9.5460    10.9030    13.9660
 1647.0000     0.3650   124.5550    10.6810     2.5140     0.0380   -38.0340     9.4120    10.9030    13.1210
 1647.5000     0.3630   125.4510    10.6750     2.4890     0.0450   -38.1160     9.5170    10.9030    11.5220
 1648.0000     0.3630   128.2120    10.6620     2.4850     0.0480   -38.1990     9.7650    11.1670    14.1040
 1648.5000     0.3640   131.0590    10.6490     2.4750     0.0340   -38.2810    10.0140    11.4260    13.9320
 1649.0000     0.3670   131.7450    10.6360     2.4760     0.0340   -38.3640    10.2620    11.7350    13.5170
 1649.5000     0.3680   131.5140    10.6230     2.4920     0.0370   -38.4470    10.5100    11.2510    13.1040
 1650.0000     0.3670   131.2340    10.6090     2.5080     0.0470   -38.5300     9.9400    10.6520    14.6320
 1650.5000     0.3670   130.9610    10.6110     2.5220     0.0540   -38.6110     9.3730    10.0530    11.7840
 1651.0000     0.3640   130.7380    10.6190     2.5160     0.0450   -38.6960     8.8060     9.4530     8.9070
 1651.5000     0.3610   130.6340    10.6280     2.5050     0.0290   -38.7770     8.2390     8.8540    12.6310
 1652.0000     0.3620   130.8630    10.6360     2.4960     0.0160   -38.8380     7.6720     8.2550    11.9530
 1652.5000     0.3640   131.3020    10.6440     2.4920     0.0130   -38.7750     8.0520     8.7460     8.8890
 1653.0000     0.3650   130.0340    10.6520     2.4880     0.0110   -38.7220     8.6950     9.5400     6.7600
 1653.5000     0.3700   127.1800    10.6600     2.4860     0.0110   -38.6630     9.3380    10.3330    13.8470
 1654.0000     0.3770   123.3140    10.6690     2.4820     0.0140   -38.6080    10.0350    11.2540    13.7510
 1654.5000     0.3820   123.4830    10.6770     2.4770     0.0180   -38.5510     9.8560    11.1460    13.6810
 1655.0000     0.3820   124.3620    10.6840     2.4730     0.0180   -38.4940     9.4250    10.9300    13.6110
 1655.5000     0.3790   125.9710    10.6980     2.4640     0.0170   -38.4370     9.4490    10.7050    13.3650
 1656.0000     0.3790   127.6930    10.7130     2.4650     0.0220   -38.3810     9.4970    10.5760    12.8650
 1656.5000     0.3810   129.4670    10.7280     2.4830     0.0340   -38.3240     9.5450    10.4410    13.0050
 1657.0000     0.3780   130.5520    10.7430     2.4900     0.0500   -38.2670     9.5870    10.3060    13.3470
 1657.5000     0.3750   130.6980    10.7600     2.4940     0.0450   -38.2110     9.3710    10.1710    13.2080
 1658.0000     0.3790   130.8930    10.7190     2.4820     0.0380   -38.1530     9.1830     9.9460    13.1040
 1658.5000     0.3840   131.3920    10.6540     2.4990     0.0490   -38.0980     8.9070    10.0260    12.6310
 1659.0000     0.3900   131.8800    10.6450     2.5170     0.0520   -38.0540     9.0590    10.2670    10.3180
 1659.5000     0.3920   132.1440    10.6450     2.5060     0.0390   -38.1180     9.3470    10.5070    11.0700
 1660.0000     0.3920   131.7640    10.6450     2.4980     0.0370   -38.1740     9.6340    10.7480    13.8470
 1660.5000     0.3910   130.7960    10.6450     2.5010     0.0390   -38.2370     9.9460    11.1060    13.7360
 1661.0000     0.3890   129.3910    10.6280     2.4970     0.0320   -38.2960     9.8590    11.0430    13.3870
 1661.5000     0.3870   128.6860    10.6080     2.4800     0.0190   -38.3560     9.7650    10.9220    12.8650
 1662.0000     0.3810   127.8950    10.5890     2.4850     0.0150   -38.4160     9.6700    10.8000    13.5950
 1662.5000     0.3720   124.3560    10.5690     2.4950     0.0190   -38.4760     9.5750    10.6790    13.4500
 1663.0000     0.3680   122.5380    10.5690     2.4980     0.0230   -38.5370     9.4810    10.5570    12.7300
 1663.5000     0.3730   122.4470    10.5730     2.4950     0.0200   -38.5970     9.3860    10.4360    12.7460
 1664.0000     0.3770   123.4900    10.5770     2.4850     0.0200   -38.6560     9.2920    10.3150    13.1040
 1664.5000     0.3700   125.8130    10.5810     2.4840     0.0200   -38.7190     9.1970    10.1930    12.3300
 1665.0000     0.3640   128.4830    10.5850     2.4980     0.0260   -38.7750     9.0720    10.1300    11.2640
 1665.5000     0.3580   129.1400    10.5770     2.5120     0.0320   -38.8380     9.1680    10.2580    12.8650
 1666.0000     0.3640   128.7850    10.5670     2.5070     0.0380   -38.7810     9.3090    10.3760    12.7020
 1666.5000     0.3720   128.4760    10.5560     2.4940     0.0270   -38.7100     9.4120    10.5100    12.1750
 1667.0000     0.3710   128.3730    10.5460     2.4860     0.0200   -38.6350     9.3510    10.4350    12.5870
 1667.5000     0.3630   128.7670    10.5360     2.4990     0.0260   -38.5640     9.2800    10.3490    13.5950
 1668.0000     0.3660   128.8520    10.5250     2.5080     0.0310   -38.4910     9.2100    10.2630    12.5290
 1668.5000     0.3740   128.5250    10.5150     2.4960     0.0190   -38.4180     9.1390    10.1780    11.1060
 1669.0000     0.3790   128.2030    10.5070     2.4870     0.0210   -38.3460     9.0720    10.1300    12.1750
 1669.5000     0.3750   128.0020    10.5070     2.5020     0.0280   -38.2730     9.1820    10.2310    11.8750
 1670.0000     0.3710   128.7820    10.5070     2.5130     0.0340   -38.2000     9.2410    10.3270    13.3470
 1670.5000     0.3710   129.9550    10.5070     2.4920     0.0270   -38.1280     9.2860    10.4240    13.0620
 1671.0000     0.3670   130.0160    10.5070     2.4780     0.0150   -38.0550     9.3570    10.5200    12.6310
 1671.5000     0.3630   129.6150    10.4990     2.4870     0.0210   -37.9830     9.4120    10.6160    11.1060
 1672.0000     0.3640   128.7910    10.4900     2.4860     0.0240   -37.9100     9.5820    10.7120    11.6440
 1672.5000     0.3650   127.3230    10.4820     2.4940     0.0180   -37.8370     9.7870    10.8080    12.3840
 1673.0000     0.3620   126.1310    10.4740     2.4980     0.0170   -37.7650     9.9920    10.9050    11.7350
 1673.5000     0.3600   125.8490    10.4660     2.4890     0.0150   -37.6910    10.3180    11.0010    13.2820
 1674.0000     0.3590   126.3450    10.4580     2.4790     0.0250   -37.6100    10.2910    11.0970    13.1040
 1674.5000     0.3570   126.4380    10.4490     2.4880     0.0240   -37.5250    10.2240    11.1930    13.8470
 1675.0000     0.3550   126.7870    10.4410     2.4980     0.0340   -37.4270    10.1570    11.2900    13.1520
 1675.5000     0.3630   128.0480    10.4330     2.5020     0.0440   -37.3470    10.1300    11.3860    12.7190
 1676.0000     0.3680   129.5130    10.4310     2.5210     0.0510   -37.2750    10.1940    11.4820    13.6030
 1676.5000     0.3690   129.8380    10.4370     2.5130     0.0390   -37.5780    10.2740    11.5600    14.1040
 1677.0000     0.3750   130.7960    10.4440     2.4880     0.0290   -37.9190    10.3540    11.6250    14.1870
 1677.5000     0.3810   132.1640    10.4510     2.4850     0.0310   -38.0030    10.4350    11.6900    14.3650
 1678.0000     0.3860   134.0190    10.4580     2.5000     0.0300   -37.8690    10.5150    11.7550    13.9880
 1678.5000     0.3910   135.9090    10.4640     2.4920     0.0230   -37.7630    10.5950    11.8200    13.6680
 1679.0000     0.3920   137.3850    10.4710     2.4740     0.0210   -37.6540    10.6750    11.8850    14.0970
 1679.5000     0.3910   137.6180    10.4770     2.4820     0.0300   -37.5420    10.7550    11.9500    14.7490
 1680.0000     0.3860   135.7440    10.4840     2.4860     0.0320   -37.4350    10.8360    12.0150    14.9030
 1680.5000     0.3800   133.7470    10.4640     2.4830     0.0240   -37.3120    10.9030    12.0800    14.7960
 1681.0000     0.3760   131.7980    10.4250     2.4800     0.0160   -37.2790    10.8270    12.1750    14.6050
 1681.5000     0.3720   129.8240    10.3860     2.4890     0.0190   -37.3880    10.7600    12.1000    14.4130
 1682.0000     0.3590   127.8640    10.3790     2.4910     0.0220   -37.4830    10.6940    11.9630    14.2210
 1682.5000     0.3510   127.2520    10.3960     2.4830     0.0170   -37.5890    10.6280    11.8260    14.0300
