~VERSION INFORMATION
 VERS.                2.0:   CWLS LOG ASCII STANDARD - VERSION 2.0
 WRAP.                 NO:   ONE LINE PER DEPTH STEP
~WELL INFORMATION
#MNEM.UNIT      DATA TYPE    INFORMATION
#----------   ------------   ------------------------------
 STRT.F           53.0000:   START DEPTH
 STOP.F         3110.0000:   STOP DEPTH
 STEP.F            0.5000:   STEP LENGTH
 NULL.          -999.2500:   NO VALUE
 COMP. LAWRENCE ALLISON & ASSOCIATES W:   COMPANY
 WELL. LAWRENCE NPR 3 "AX" #31-34:   WELL
 FLD .      NPR - WILDCAT:   FIELD
 LOC .      S34 T39N R78W:   LOCATION
 CNTY.            NATRONA:   COUNTY
 STAT.            WYOMING:   STATE
 CTRY. UNITED STATES OF AMERICA:   COUNTRY
 SRVC.      DRESSER ATLAS:   SERVICE COMPANY
 DATE.        11-JUL-1986:   LOGDATE
 API .     49025111020000:   API NUMBER
~CURVE INFORMATION
#MNEM.UNIT       API CODE    CURVE DESCRIPTION
#----------   ------------   ------------------------------
 DEPT.F                  :   
 DEN .G/C3   45 350 01 00:   BULK DENSITY
 TEND.LBS    45 635 01 00:   TENSION FROM DENSITY LOG
 CORR.G/C3   45 356 01 00:   DENSITY CORRECTION
 NPHI.DEC    42 890 03 00:   NEUTRON POROSITY SANDSTONE
 SPR .MV     07 010 01 00:   SPONTANEOUS POTENTIAL
 RILM.OHMM   07 120 44 00:   INDUCTION LOG MEDIUM RESISTIVITY
 RILD.OHMM   07 120 46 00:   DEEP INDUCTION RESISTIVITY
 RFOC.OHMM   07 220 04 00:   RESISTIVITY FOCUSED LOG RES.
 TENR.LBS    07 635 01 00:   TENSION FROM RESISTIVITY
 GRR .GAPI   07 310 01 00:   GAMMA RAY FROM RESISTIVITY
 CALR.IN     07 280 01 00:   CALIPER FROM RESISTIVITY
~PARAMETER INFORMATION
#MNEM.UNIT          VALUE    DESCRIPTION
#----------   ------------   ------------------------------
 EKB .F          5074.800:   Kelly bushing
 EGL .F          5063.000:   Ground level
 EDF .F            0.0000:   Drilling floor
 EPD .F            0.0000:   Permanent datum
 TD  .F         3108.0000:   Total depth
 DATE.        11-JUL-1986:   Date logged
 CLNT.            A2DTECH:   Client Code
 SL  . 1796' FWL & 318' FNL:   Surface Location
 PD  .                 GL:   Permanent Datum
 DAPD.F                11:   Feet Above Permanent Datum
 DD  .F              3103:   Depth driller
 DL  .F              3108:   Depth logger
 BLI .F              3106:   Bottom log interval
 CS1 .IN            8.625:   Casing size
 CBD1.      8.625" @ 602':   Casing driller 1
 CBL1.F               596:   Casing logger 1
 BS1 .IN            7.875:   Bit size
 BSD1.F              3103:   Depth drilled with bit1
 DFT .            KCL/GEL:   Type fluid in hole
 DFD .                  9:   Density
 DFV .                 42:   Viscosity
 MSS .           MUD/TANK:   Source of sample
 RMS .OHMM           .352:   Rm
 MST .F                82:   Rm Meas. temp.
 RMF .OHMM           .264:   Rmf
 MFST.F                82:   Rmf Meas. temp.
 RMC .OHMM            .44:   Rmc
 MCST.F                82:   Rmc Meas. temp.
 MFSS.               CALC:   Source Rmf.
 MCSS.               CALC:   Source Rmc.
 RMB .OHMM            .23:   Rm. at BHT
 BHT .F               115:   BHT.
 TCS .HRS               3:   Time Circ. stopped
 MRT .F               115:   Maximum recorded temp.
 LUN .            HL-6264:   Logging unit number
 LUL .           GILLETTE:   Logging unit location
 ENGI.     P. M. FASHSING:   Recorded By
 WITN.             STRONG:   Witnessed by
 ORIG.           5" PRINT:   Origin of data
 UWI .     49025111020000:   Unique Well ID
 DICO. A2D TECHNOLOGIES, INC.:   Digitizing Company
~OTHER INFORMATION
~A   DEPT      DEN       TEND       CORR       NPHI        SPR       RILM       RILD       RFOC       TENR         GRR      CALR   
# ...
 1913.5000  -999.2500  -999.2500  -999.2500  -999.2500   -89.9980     6.1910     6.3950     8.2650   -88.9640   130.5150    10.0640
 1914.0000  -999.2500  -999.2500  -999.2500  -999.2500   -89.8490     6.2590     6.4190     8.4070   -88.9640   132.4620    10.0690
 1914.5000  -999.2500  -999.2500  -999.2500  -999.2500   -89.6990     6.2060     6.4420     8.1460   -88.9640   132.4470    10.0750
 1915.0000  -999.2500  -999.2500  -999.2500  -999.2500   -89.5500     6.1690     6.4660     8.0260   -88.9640   131.5970    10.0810
 1915.5000  -999.2500  -999.2500  -999.2500  -999.2500   -89.4000     6.1320     6.4900     8.0070   -88.9640   129.7940    10.0870
 1916.0000  -999.2500  -999.2500  -999.2500  -999.2500   -89.2510     6.0950     6.4940     7.9890   -88.9640   126.2400    10.0860
 1916.5000  -999.2500  -999.2500  -999.2500  -999.2500   -89.1010     6.0580     6.4940     7.9710   -88.9640   123.0960    10.0760
 1917.0000  -999.2500  -999.2500  -999.2500  -999.2500   -88.9520     6.0330     6.4940     7.9550   -88.9640   122.1730    10.0670
 1917.5000  -999.2500  -999.2500  -999.2500  -999.2500   -88.8020     6.0430     6.4940     7.7660   -88.9640   122.1930    10.0580
 1918.0000  -999.2500  -999.2500  -999.2500  -999.2500   -88.6580     6.0500     6.4950     7.5270   -88.9640   121.8300    10.0480
 1918.5000  -999.2500  -999.2500  -999.2500  -999.2500   -88.5970     6.0580     6.4940     7.6620   -88.9640   120.5670    10.0390
 1919.0000  -999.2500  -999.2500  -999.2500  -999.2500   -88.3250     6.0650     6.5180     7.8260   -88.9640   122.3680    10.0300
 1919.5000  -999.2500  -999.2500  -999.2500  -999.2500   -88.0700     6.0730     6.5450     7.9910   -88.9640   125.1450    10.0290
 1920.0000  -999.2500  -999.2500  -999.2500  -999.2500   -88.5400     6.0810     6.5730     8.1560   -88.9640   126.1680    10.0280
 1920.5000  -999.2500  -999.2500  -999.2500  -999.2500   -89.0670     6.0880     6.6000     8.2540   -88.9640   124.5120    10.0270
 1921.0000  -999.2500  -999.2500  -999.2500  -999.2500   -89.5900     6.0960     6.6150     8.2030   -88.9640   122.7070    10.0260
 1921.5000  -999.2500  -999.2500  -999.2500  -999.2500   -89.8410     6.1030     6.5950     8.1230   -88.9640   122.9240    10.0250
 1922.0000  -999.2500  -999.2500  -999.2500  -999.2500   -89.7620     6.1110     6.5810     8.0430   -88.9640   126.1980    10.0240
 1922.5000  -999.2500  -999.2500  -999.2500  -999.2500   -89.6860     6.1190     6.5670     7.9630   -88.9640   128.1830    10.0230
 1923.0000  -999.2500  -999.2500  -999.2500  -999.2500   -89.6100     6.1260     6.5530     7.8840   -88.9640   127.7680    10.0220
 1923.5000  -999.2500  -999.2500  -999.2500  -999.2500   -89.5350     6.1340     6.5390     7.8090   -88.9640   127.3640    10.0210
 1924.0000  -999.2500  -999.2500  -999.2500  -999.2500   -89.4590     6.1450     6.5250     7.8560   -96.4140   126.3980    10.0190
 1924.5000  -999.2500  -999.2500  -999.2500  -999.2500   -89.3830     6.1380     6.5110     7.9230  -104.8890   125.3650    10.0180
 1925.0000  -999.2500  -999.2500  -999.2500  -999.2500   -89.3080     6.1240     6.4970     7.9900  -105.6950   122.6720    10.0170
 1925.5000  -999.2500  -999.2500  -999.2500  -999.2500   -89.2320     6.1110     6.4830     8.0280   -98.7240   122.2230    10.0160
 1926.0000  -999.2500  -999.2500  -999.2500  -999.2500   -89.1570     6.0980     6.4690     7.9430  -103.0380   123.0070    10.0150
 1926.5000  -999.2500  -999.2500  -999.2500  -999.2500   -89.0810     6.0890     6.4550     7.8830  -108.4830   122.7910    10.0140
 1927.0000  -999.2500  -999.2500  -999.2500  -999.2500   -89.0050     6.0890     6.4410     7.8090  -105.8070   121.2580    10.0130
 1927.5000  -999.2500  -999.2500  -999.2500  -999.2500   -88.9300     6.0890     6.4270     7.8620  -102.1740   119.2240    10.0120
 1928.0000  -999.2500  -999.2500  -999.2500  -999.2500   -88.8540     6.0890     6.4130     7.9290   -98.7240   119.8220    10.0110
 1928.5000  -999.2500  -999.2500  -999.2500  -999.2500   -88.7780     6.0880     6.3990     8.0280  -102.7080   121.7420    10.0100
 1929.0000  -999.2500  -999.2500  -999.2500  -999.2500   -88.7040     6.0890     6.3850     7.9870  -108.6900   124.6390    10.0100
 1929.5000  -999.2500  -999.2500  -999.2500  -999.2500   -88.7160     6.1450     6.3760     7.9050  -114.6720   123.9880    10.0100
 1930.0000  -999.2500  -999.2500  -999.2500  -999.2500   -88.8920     6.2220     6.4750     7.8090  -118.1270   122.3400    10.0100
 1930.5000  -999.2500  -999.2500  -999.2500  -999.2500   -89.0680     6.2980     6.5470     7.8880  -117.5740   120.7210    10.0100
 1931.0000  -999.2500  -999.2500  -999.2500  -999.2500   -89.2480     6.3740     6.6190     8.0680  -117.0210   119.0870    10.0100
 1931.5000  -999.2500  -999.2500  -999.2500  -999.2500   -89.2590     6.4500     6.6920     8.2540  -116.4680   119.7990    10.0090
 1932.0000  -999.2500  -999.2500  -999.2500  -999.2500   -89.2570     6.5260     6.7640     8.2540  -115.9160   121.3430    10.0070
 1932.5000  -999.2500  -999.2500  -999.2500  -999.2500   -89.2570     6.6030     6.8370     8.2540  -115.3630   121.8840    10.0050
 1933.0000  -999.2500  -999.2500  -999.2500  -999.2500   -89.2570     6.6790     6.9090     8.2540  -114.8100   122.3770    10.0040
 1933.5000  -999.2500  -999.2500  -999.2500  -999.2500   -89.2570     6.7550     6.9820     8.3260  -114.2580   123.7060    10.0020
 1934.0000  -999.2500  -999.2500  -999.2500  -999.2500   -89.2570     6.8310     7.0540     8.3930  -113.7050   124.3630    10.0000
 1934.5000  -999.2500  -999.2500  -999.2500  -999.2500   -89.2570     6.8710     7.1270     8.4600  -113.1520   124.5840     9.9980
 1935.0000  -999.2500  -999.2500  -999.2500  -999.2500   -89.2310     6.8840     7.1990     8.5280  -112.6000   124.8040     9.9960
 1935.5000  -999.2500  -999.2500  -999.2500  -999.2500   -89.0960     6.8970     7.2710     8.6120  -112.0470   124.9880     9.9950
 1936.0000  -999.2500  -999.2500  -999.2500  -999.2500   -88.9650     6.9090     7.3210     8.7180  -111.4940   124.5860     9.9930
 1936.5000  -999.2500  -999.2500  -999.2500  -999.2500   -88.8350     6.9270     7.2880     8.8230  -110.9410   122.6720     9.9910
 1937.0000  -999.2500  -999.2500  -999.2500  -999.2500   -88.7030     6.8910     7.2250     8.9280  -110.3890   122.1190     9.9890
 1937.5000  -999.2500  -999.2500  -999.2500  -999.2500   -88.6550     6.8300     7.1630     8.9680  -109.8360   121.6250     9.9870
 1938.0000  -999.2500  -999.2500  -999.2500  -999.2500   -88.6540     6.7680     7.1010     8.9320  -109.2830   121.5670     9.9860
 1938.5000  -999.2500  -999.2500  -999.2500  -999.2500   -88.6550     6.5940     7.0390     8.9060  -108.7310   125.1740     9.9840
 1939.0000  -999.2500  -999.2500  -999.2500  -999.2500   -88.6770     6.3120     6.9770     8.8320  -113.1680   129.3270     9.9820
 1939.5000  -999.2500  -999.2500  -999.2500  -999.2500   -88.7420     6.0890     6.9270     8.5180  -121.6430   130.5950     9.9800
 1940.0000  -999.2500  -999.2500  -999.2500  -999.2500   -88.8060     6.1540     6.8330     8.2030  -130.1180   129.9960     9.9790
 1940.5000  -999.2500  -999.2500  -999.2500  -999.2500   -88.8700     6.2080     6.7410     7.8880  -137.7630   129.3520     9.9770
 1941.0000  -999.2500  -999.2500  -999.2500  -999.2500   -88.9340     6.2620     6.6480     7.7380  -130.5020   128.7160     9.9750
 1941.5000  -999.2500  -999.2500  -999.2500  -999.2500   -88.9980     6.3170     6.5550     8.0240  -120.3320   128.5320     9.9730
 1942.0000  -999.2500  -999.2500  -999.2500  -999.2500   -89.0620     6.4050     6.6600     8.5000  -110.1620   130.6660     9.9710
 1942.5000  -999.2500  -999.2500  -999.2500  -999.2500   -89.1260     6.5150     6.7660     8.8040  -110.7180   132.5640     9.9700
 1943.0000  -999.2500  -999.2500  -999.2500  -999.2500   -89.1910     6.6250     6.8720     8.2540  -113.3940   129.8730     9.9680
 1943.5000  -999.2500  -999.2500  -999.2500  -999.2500   -89.2560     6.6920     6.9790     8.3100  -116.0700   122.5720     9.9660
