~VERSION INFORMATION
 VERS.                2.0:   CWLS LOG ASCII STANDARD - VERSION 2.0
 WRAP.                 NO:   ONE LINE PER DEPTH STEP
~WELL INFORMATION
#MNEM.UNIT      DATA TYPE    INFORMATION
#----------   ------------   ------------------------------
 STRT.F            0.0000:   START DEPTH
 STOP.F         4022.0000:   STOP DEPTH
 STEP.F            0.5000:   STEP LENGTH
 NULL.          -999.2500:   NO VALUE
 COMP. LAWRENCE - ALLISON:   COMPANY
 WELL. LAWRENCE NPR 3 "MX" #58-10:   WELL
 FLD .                MPR:   FIELD
 LOC .      S10 T38N R78W:   LOCATION
 CNTY.            NATRONA:   COUNTY
 STAT.            WYOMING:   STATE
 CTRY. UNITED STATES OF AMERICA:   COUNTRY
 SRVC.      DRESSER ATLAS:   SERVICE COMPANY
 DATE.        12-FEB-1984:   LOGDATE
 API .     49025109610000:   API NUMBER
~CURVE INFORMATION
#MNEM.UNIT       API CODE    CURVE DESCRIPTION
#----------   ------------   ------------------------------
 DEPT.F                  :   
 GRR .GAPI   07 310 01 00:   GAMMA RAY FROM RESISTIVITY
 SPR .MV     07 010 01 00:   SPONTANEOUS POTENTIAL
 TENR.LBS    07 635 01 00:   TENSION FROM RESISTIVITY
 ILD .OHMM   07 120 46 00:   DEEP INDUCTION RESISTIVITY
 ILM .OHMM   07 120 44 00:   INDUCTION LOG MEDIUM RESISTIVITY
 SFL .OHMM   07 220 01 00:   SHALLOW FOCUSED LOG RESISTIVITY
 DT  .US/F   60 520 00 00:   DELTA TIME
 TENS.LBS    60 635 01 00:   TENSION FROM SONIC LOG
 CNC .DEC    42 890 03 00:   NEUTRON PORISITY SANDSTONE
 CALD.IN     45 280 60 00:   CALIPER FROM DENSITY LOG
 RHOB.G/C3   45 350 01 00:   BULK DENSITY
 CORR.G/C3   45 356 01 00:   DENSITY CORRECTION
 TEND.LBS    45 635 01 00:   TENSION FROM DENSITY LOG
~PARAMETER INFORMATION
#MNEM.UNIT          VALUE    DESCRIPTION
#----------   ------------   ------------------------------
 EKB .F         5218.0000:   Kelly bushing
 EGL .F         5208.0000:   Ground level
 EDF .F         5217.0000:   Drilling floor
 TD  .F         4014.0000:   Total depth
 DATE.        12-FEB-1984:   Date logged
 CLNT.            A2DTECH:   Client Code
 SL  . 500' FSL & 2150' FEL:   Surface Location
 PD  .                 GL:   Permanent Datum
 EPD .F              5208:   Elevation Permanent Datum
 LMF .                 KB:   Log Measured From
 DMF .                 KB:   Drilling Measured From
 DD  .F              4014:   Depth driller
 DL  .F              4011:   Depth logger
 BLI .F              4009:   Bottom log interval
 CS1 .IN            8.625:   Casing size
 CBD1.      8.625" @ 526':   Casing driller 1
 CBL1.F               525:   Casing logger 1
 BS1 .IN            7.875:   Bit size
 DFT .            GEL/KCL:   Type fluid in hole
 DFD .                8.9:   Density
 DFV .                 48:   Viscosity
 DFPH.                  8:   pH
 DFL .                1.3:   Fluid loss
 MSS .           MUD/TANK:   Source of sample
 RMS .OHMM           .556:   Rm
 MST .F                61:   Rm Meas. temp.
 RMF .OHMM           .423:   Rmf
 MFST.F                61:   Rmf Meas. temp.
 RMC .OHMM           .662:   Rmc
 MCST.F                61:   Rmc Meas. temp.
 MFSS.           MUD/TANK:   Source Rmf.
 RMB .OHMM            .80:   Rm. at BHT
 BHT .F               119:   BHT.
 TCS .HRS               5:   Time Circ. stopped
 MRT .F               119:   Maximum recorded temp.
 LUN .               6302:   Logging unit number
 ENGI.              GETTY:   Recorded By
 ORIG.           5" PRINT:   Origin of data
 UWI .     49025109610000:   Unique Well ID
 DICO. A2D TECHNOLOGIES, INC.:   Digitizing Company
 TLI .F                 0:   Top log interval
~OTHER INFORMATION
~A    DEPT      GRR       SPR       TENR        ILD        ILM        SFL         DT       TENS        CNC       CALD       RHOB       CORR       TEND   
# ...
 3744.0000   130.5000   -12.1550   -54.5860     3.0320     3.1080     4.2650    89.9400  -154.5430     0.2620     8.4380     2.5180    -0.0430  -145.3140
 3744.5000   124.6420   -12.1540   -51.9360     2.9990     3.0700     4.2370    87.1830  -153.3360     0.2670     8.4390     2.5330    -0.1240  -145.3140
 3745.0000   116.4250   -12.1540   -49.2860     2.9670     3.0320     4.4930    87.3840  -152.1290     0.2750     8.4570     2.5550    -0.1090  -145.3140
 3745.5000   108.5030   -12.1540   -46.6360     2.9340     2.9940     4.8410    88.3900  -150.9220     0.2790     8.4790     2.5420    -0.0740  -145.3140
 3746.0000   106.0670   -12.1550   -51.2330     2.9100     2.9340     5.0450    89.7990  -149.7150     0.2780     8.4990     2.4950    -0.0390  -145.3140
 3746.5000   109.1330   -12.1530   -60.3870     2.8850     2.9400     4.7270    93.4210  -148.5080     0.2710     8.4810     2.4410    -0.0360  -145.3140
 3747.0000   116.9760   -12.0850   -62.0900     2.8730     2.9520     4.3410    93.6220  -147.3020     0.2650     8.4610     2.4330    -0.0550  -145.3140
 3747.5000   124.7400   -11.7470   -54.1400     2.8640     2.9620     3.9730    93.6220  -146.0950     0.2590     8.4420     2.4340    -0.0420  -145.3140
 3748.0000   130.8350   -11.4150   -46.1900     2.8550     2.9180     3.9730    92.8430  -144.8880     0.2550     8.4230     2.4410    -0.0020  -145.3140
 3748.5000   131.1110   -10.6360   -38.2410     2.8000     2.8770     4.0530    92.0120  -143.6810     0.2600     8.4390     2.4490    -0.0100  -145.3140
 3749.0000   129.6030    -9.9140   -42.4240     2.7520     2.7810     4.1290    92.0120  -142.4740     0.2740     8.4600     2.4570    -0.0270  -145.3140
 3749.5000   129.4330    -9.3390   -52.4960     2.5580     2.6220     4.1980    92.8050  -141.2670     0.2880     8.4820     2.4620    -0.0370  -140.9390
 3750.0000   130.2350    -8.7610   -62.5680     2.3790     2.4570     4.1600    94.0240  -140.0600     0.3010     8.5040     2.4570    -0.0260  -136.9000
 3750.5000   130.7360    -8.0870   -54.9050     2.2220     2.3070     3.9010    98.8520  -138.8450     0.3070     8.5250     2.4390    -0.0020  -132.8610
 3751.0000   132.4110    -7.3600   -39.7710     2.0860     2.1700     3.5750   101.1670  -137.6180     0.3070     8.5420     2.4220     0.0190  -128.8220
 3751.5000   139.0380    -6.6420   -37.4780     1.9760     2.0410     3.2500   101.9380  -136.3920     0.3010     8.5500     2.4110     0.1010  -124.7830
 3752.0000   149.0560    -6.0300   -40.0000     1.9190     1.9680     2.9080   102.1060  -135.1650     0.2840     8.5580     2.4090     0.0750  -120.7450
 3752.5000   159.5260    -6.2190   -42.5220     1.8620     1.9060     2.9080   102.2740  -133.9380     0.2800     8.5660     2.4070     0.0700  -116.7060
 3753.0000   152.6670    -6.3850   -45.0450     1.8070     1.9230     2.9340   102.1730  -132.7110     0.2860     8.5730     2.3930     0.0690  -112.6670
 3753.5000   139.3690    -6.6020   -45.6130     1.8220     1.9410     2.9050   101.7710  -131.4840     0.2900     8.5750     2.3750     0.0930  -108.6280
 3754.0000   131.8320    -6.8290   -47.8070     1.8710     2.0130     2.8810   101.4690  -130.2570     0.2900     8.5460     2.3640     0.1050  -107.1950
 3754.5000   134.5120    -7.0560   -53.4120     1.9430     2.1050     3.0120    98.7530  -129.0300     0.2870     8.5170     2.4190     0.0910  -115.6200
 3755.0000   138.9600    -7.2850   -53.5230     2.0140     2.1960     3.1750    97.2430  -127.8030     0.2830     8.4890     2.4790     0.0680  -124.0450
 3755.5000   138.9180    -7.5070   -50.1600     2.0670     2.2620     3.3390    96.6400  -126.5770     0.2870     8.4600     2.5050     0.0420  -132.4690
 3756.0000   137.5500    -7.9380   -46.7960     2.1190     2.2940     3.5020    96.7400  -125.3500     0.2930     8.4120     2.5290     0.0160  -134.2700
 3756.5000   132.9170    -8.3600   -42.4990     2.1520     2.3110     3.6250    97.3440  -124.1230     0.2980     8.3640     2.5220     0.0020  -132.6390
 3757.0000   129.7850    -8.7810   -37.6940     2.1670     2.2690     3.5770    98.6020  -122.8960     0.3030     8.3170     2.5060    -0.0010  -131.0090
 3757.5000   130.2880    -8.9620   -32.8890     2.1420     2.2280     3.5220    99.8590  -121.6690     0.3090     8.2820     2.4910    -0.0010  -129.3780
 3758.0000   134.6910    -8.9070   -28.0850     2.0870     2.1800     3.4450   100.8650  -120.4420     0.3160     8.2920     2.4910     0.0000  -127.7470
 3758.5000   137.0800    -8.8520   -26.0780     2.0330     2.1280     3.3440   101.6700  -119.2150     0.3290     8.3010     2.4890    -0.0020  -126.1170
 3759.0000   136.0970    -8.8000   -26.8920     1.9930     2.0950     3.2440   102.4750  -119.2150     0.3240     8.3110     2.4760    -0.0180  -124.4860
 3759.5000   132.6430    -8.9850   -27.7060     1.9830     2.0700     3.1430   102.6760  -119.2150     0.3110     8.3200     2.4620    -0.0350  -122.8560
 3760.0000   129.3500    -9.1860   -28.5190     1.9770     2.0700     3.0420   101.8710  -119.2150     0.2880     8.3410     2.4480    -0.0360  -121.2250
 3760.5000   127.2530    -9.3060   -29.3330     2.0190     2.1270     3.0160   100.1270  -119.2150     0.2840     8.3630     2.4450     0.0050  -119.5940
 3761.0000   127.8080    -9.4230   -30.1470     2.0500     2.2530     3.0160    97.9480  -119.2150     0.2830     8.3850     2.4580     0.0010  -117.9640
 3761.5000   132.5730    -9.5430   -30.9600     2.1320     2.3780     3.1670    95.5480  -119.2150     0.2800     8.3920     2.4640    -0.0160  -116.3330
 3762.0000   138.5110    -9.5320   -31.7740     2.3000     2.5040     3.5500    92.8170  -119.2150     0.2700     8.3590     2.4650    -0.0300  -116.3090
 3762.5000   135.3130    -9.4490   -32.5880     2.4670     2.6890     3.9330    90.0860  -119.2150     0.2450     8.3270     2.4700    -0.0130  -118.4160
 3763.0000   127.8190    -9.3660   -33.4010     2.6520     3.1200     4.0840    86.7300  -119.2150     0.2180     8.2960     2.4970     0.0000  -120.5220
 3763.5000   122.8450    -9.2810   -34.2150     3.1080     3.5500     3.8650    82.9580  -119.2150     0.1910     8.2640     2.5770    -0.0020  -122.6280
 3764.0000   120.3990    -9.2000   -35.0290     3.8290     4.8220     4.4160    72.0930  -119.2150     0.1640     8.2330     2.6500    -0.0210  -124.7340
 3764.5000   111.5970    -9.4330   -35.6430     4.8990     6.2710     5.6950    67.5320  -119.2150     0.1400     8.2020     2.6590    -0.0220  -123.2620
 3765.0000    96.5000    -9.7060   -35.6430     5.9690     7.7200     9.4980    64.2450  -119.2150     0.1300     8.2010     2.6270    -0.0030  -120.2290
 3765.5000    69.4990    -9.9800   -26.9490     7.9640     9.7210    23.5950    64.4470  -119.2150     0.1330     8.2010     2.5960     0.0180  -117.1960
 3766.0000    68.7120   -10.2550   -16.8590    10.0560    11.7970    31.8620    67.0460  -119.2150     0.1370     8.2110     2.5710     0.0070  -114.1640
 3766.5000    74.9450   -10.4870   -25.6290    12.0140    13.4750    27.1750    69.6450  -119.2150     0.1550     8.2570     2.5540    -0.0020  -111.1310
 3767.0000    86.2220   -10.6870   -35.2840    12.9890    13.5620    21.4970    71.5140  -119.2150     0.1710     8.3000     2.5510     0.0040  -108.0980
 3767.5000    96.0980   -10.8870   -31.9210    12.7530    13.6000    16.3680    72.8970  -120.6190     0.1840     8.3100     2.5430     0.0100  -105.0650
 3768.0000   101.8310   -11.0890   -28.5580    11.6530    12.5960    15.3220    74.1550  -121.7890     0.1900     8.3200     2.5380     0.0170  -102.0320
 3768.5000   104.7740   -11.2060   -25.6730     9.5940    10.4860    13.9790    75.6640  -122.9590     0.1960     8.3310     2.5430     0.0230   -98.9990
 3769.0000   106.1260   -11.2730   -25.6730     8.9910     7.9110    12.4850    77.9280  -124.1280     0.2010     8.3410     2.5490     0.0250   -95.9660
 3769.5000   106.9800   -11.3470   -25.6730     8.3530     7.5020    10.7450    79.1350  -125.2980     0.2070     8.3520     2.5490     0.0210   -95.4640
