~VERSION INFORMATION
 VERS.                2.0:   CWLS LOG ASCII STANDARD - VERSION 2.0
 WRAP.                 NO:   ONE LINE PER DEPTH STEP
~WELL INFORMATION
#MNEM.UNIT      DATA TYPE    INFORMATION
#----------   ------------   ------------------------------
 STRT.F          404.0000:   START DEPTH
 STOP.F         2919.0000:   STOP DEPTH
 STEP.F            0.5000:   STEP LENGTH
 NULL.          -999.2500:   NO VALUE
 COMP.    FENIX & SCISSON:   COMPANY
 WELL. FENIX & SCISSON "AX" #27-21:   WELL
 FLD .             NPR #3:   FIELD
 LOC .      S21 T39N R78W:   LOCATION
 CNTY.            NATRONA:   COUNTY
 STAT.            WYOMING:   STATE
 CTRY. UNITED STATES OF AMERICA:   COUNTRY
 SRVC.       SCHLUMBERGER:   SERVICE COMPANY
 DATE.        21-APR-1977:   LOGDATE
 API .     49025103730000:   API NUMBER
~CURVE INFORMATION
#MNEM.UNIT       API CODE    CURVE DESCRIPTION
#----------   ------------   ------------------------------
 DEPT.F                  :   
 SPR .MV     07 010 01 00:   SPONTANEOUS POTENTIAL
 ILM .OHMM   07 120 44 00:   INDUCTION LOG MEDIUM RESISTIVITY
 ILD .OHMM   07 120 46 00:   DEEP INDUCTION RESISTIVITY
 LL8 .OHMM   07 220 08 00:   LATEROLOG-8 RES.
 GRN .GAPI   35 310 01 00:   GAMMA RAY
 CALD.IN     45 280 60 00:   CALIPER FROM DENSITY LOG
 GRD .GAPI   45 310 01 00:   GAMMA RAY FROM DENSITY LOG
 CORR.G/C3   45 356 01 00:   DENSITY CORRECTION
 RHOB.G/C3   45 350 01 00:   BULK DENSITY
~PARAMETER INFORMATION
#MNEM.UNIT          VALUE    DESCRIPTION
#----------   ------------   ------------------------------
 EKB .F         5004.0000:   Kelly bushing
 EGL .F         4994.0000:   Ground level
 TD  .F         2920.0000:   Total depth
 CLNT.            A2DTECH:   Client Code
 SL  . 991' FWL & 1090' FSL:   Surface Location
 DATE.        21-APR-1977:   Date Logged [DD-MMM-YYYY]
 DD  .F              2920:   Depth driller
 DL  .F              2920:   Depth logger
 BLI .F              2914:   Bottom log interval
 TLI .F               419:   Top log interval
 CS1 .              8.625:   Casing size
 CBD1.      8.625" @ 425':   Casing driller 1
 CBL1.IN              419:   Casing logger 1
 BS1 .IN            7.875:   Bit size
 BSD1.F              2920:   Depth drilled with bit1
 DFT .                FGM:   Type fluid in hole
 DFD .                9.0:   Density
 DFV .                 34:   Viscosity
 DFPH.                8.0:   pH
 DFL .                8.0:   Fluid loss
 MSS .                PIT:   Source of sample
 RMS .OHMM          0.158:   Rm
 MST .F                72:   Rm Meas. temp.
 RMF .OHMM          0.158:   Rmf
 MFST.F                72:   Rmf Meas. temp.
 MFSS.               MEAS:   Source Rmf.
 RMB .OHMM          0.102:   Rm. at BHT
 BHT .F               112:   BHT.
 TCS .HRS            0500:   Time Circ. stopped
 TLAB.HRS            0700:   Time logger at bottom
 MRT .F               112:   Maximum recorded temp.
 LUN .               5642:   Logging unit number
 LUL .               CSPR:   Logging unit location
 ENGI.             TAYLOR:   Recorded By
 WITN.          PETTINGIL:   Witnessed by
 ORIG.      2.5" 5" PRINT:   Origin of data
 UWI .     49025103730000:   Unique Well ID
 DICO. A2D TECHNOLOGIES, INC.:   Digitizing Company
 PD  .                 GL:   Permanent Datum
 EPD .F              4994:   Elevation Permanent Datum
 LMF .                 KB:   Log Measured From
 DMF .                 KB:   Drilling Measured From
 DAPD.F                10:   Feet Above Permanent Datum
~OTHER INFORMATION
~A   DEPT      SPR        ILM        ILD        LL8        GRN       CALD         GRD      CORR       RHOB   
# ...
 1243.5000   -72.5413     8.0061     7.1323     8.6789   115.5536     8.6926    75.6481     0.0428     2.5572
 1244.0000   -72.5119     7.9608     6.9163     8.6107   109.7468     8.6932    75.6555     0.0206     2.5407
 1244.5000   -72.2556     7.8966     6.8836     8.4940   106.1855     8.6938    76.2581     0.0116     2.5348
 1245.0000   -72.2619     7.8966     6.8256     8.6131   105.3110     8.6944    76.5631     0.0161     2.5288
 1245.5000   -72.2679     7.8966     6.8278     8.7339   108.9432     8.6950    76.5705     0.0162     2.5229
 1246.0000   -72.2738     7.8966     6.8297     8.8564   111.4447     8.6956    77.4707     0.0102     2.5169
 1246.5000   -72.2797     7.8966     6.9262     8.8576   110.8026     8.6961    74.7995     0.0118     2.5349
 1247.0000   -72.3035     7.8966     6.9281     8.8588   109.7114     8.6967    74.2117     0.0178     2.5275
 1247.5000   -72.5892     7.9368     6.9299     8.8601   107.9465     8.6973    75.7071     0.0148     2.5155
 1248.0000   -72.5952     8.0461     6.9651     8.8176   107.7456     8.6979    77.2026     0.0059     2.5096
 1248.5000   -72.8988     8.1568     7.0297     8.7409   108.7042     8.6985    78.4005     0.0149     2.5066
 1249.0000   -73.2024     8.3838     7.1290     8.8637   109.6357     8.6991    77.2174     0.0119     2.5067
 1249.5000   -73.2083     8.4594     7.2297     8.8649   110.3432     8.6997    76.0343     0.0069     2.5157
 1250.0000   -73.2143     8.4985     7.3317     8.8662   111.0508     8.7003    75.4464     0.0405     2.5561
 1250.5000   -73.2203     8.5766     7.3673     8.9905   111.3106     8.7009    75.1562     0.0466     2.5816
 1251.0000   -72.9285     8.5766     7.5403     9.0318   110.2271     8.7015    74.8561     0.0421     2.5847
 1251.5000   -72.3394     8.5766     7.6468     9.3254   107.8003     8.7021    71.8493     0.0362     2.5830
 1252.0000   -72.3454     8.5766     7.6489     9.9056   106.2601     8.7027    66.6185     0.0287     2.5695
 1252.5000   -72.0536     8.5415     7.6509     9.5979   114.5885     8.7034    66.5801     0.0197     2.5482
 1253.0000   -71.7621     8.4594     7.5163     9.3019   120.6692     8.7040    69.7172     0.0137     2.5376
 1253.5000   -71.4705     8.3437     7.4161     8.9978   124.2872     8.7046    73.0283     0.0213     2.5377
 1254.0000   -71.1788     8.3437     7.3476     8.9992   125.2187     8.7051    74.9503     0.0363     2.5483
 1254.5000   -71.1848     8.3437     7.2493     9.0005   125.0217     8.7057    72.9984     0.0409     2.5475
 1255.0000   -71.1908     8.3437     7.1523     9.0017   124.6098     8.7063    71.6518     0.0424     2.5535
 1255.5000   -71.1968     8.3437     7.1839     9.0030   124.4219     8.7069    72.8693     0.0425     2.5541
 1256.0000   -71.2027     8.3651     7.2851     9.0042   126.9295     8.7075    75.2777     0.0393     2.5491
 1256.5000   -71.8040     8.3990     7.3580     9.1304   128.9803     8.7081    76.8973     0.0332     2.5402
 1257.0000   -72.1076     8.4330     7.4619     9.1317   130.6625     8.7087    76.8303     0.0241     2.5252
 1257.5000   -72.4112     8.4670     7.4640     9.1329   132.4850     8.7092    73.7973     0.0166     2.5208
 1258.0000   -72.7148     8.5009     7.4660     9.1342   133.7821     8.7098    70.8051     0.0111     2.5253
 1258.5000   -73.3160     8.5349     7.4681     9.1079   133.3335     8.7104    70.1017     0.0183     2.5358
 1259.0000   -73.3220     8.5689     7.4702     9.0115   131.9599     8.7110    72.0103     0.0262     2.5344
 1259.5000   -73.0303     8.5481     7.4722     9.0128   128.3881     8.7116    73.5057     0.0224     2.5119
 1260.0000   -72.7387     8.5112     7.4743     9.0141   124.6268     8.7122    74.7036     0.0152     2.5195
 1260.5000   -72.4471     8.4743     7.3740     9.0153   122.0680     8.7424    73.5205     0.0110     2.5255
 1261.0000   -72.4530     8.4594     7.3501     9.0166   121.2348     8.7430    73.8255     0.0113     2.5165
 1261.5000   -72.1607     8.4594     7.1530     9.0178   122.8619     8.7436    74.1305     0.0140     2.5121
 1262.0000   -72.1674     8.4797     6.9852     9.0191   123.7693     8.7442    74.7331     0.0242     2.5302
 1262.5000   -71.8757     8.5766     6.8684     9.1455   122.8730     8.7448    71.4667     0.0284     2.5284
 1263.0000   -71.5841     8.5956     6.7768     9.1468   121.1062     8.7454    66.1169     0.0315     2.5240
 1263.5000   -71.2925     8.6984     6.9425     9.1481   119.1477     8.7460    63.7433     0.0345     2.5210
 1264.0000   -71.0008     8.7364     7.4631     9.1493   121.2748     8.7498    67.9174     0.0569     2.5371
 1264.5000   -71.0068     8.7743     7.8598     9.1506   124.1927     8.7768    70.3057     0.1303     2.5902
 1265.0000   -71.0128     8.8161     8.2519     9.1519   125.3358     8.7774    71.2060     0.0963     2.5560
 1265.5000   -71.3164     8.6955     8.2283     9.2965   125.3642     8.7432    72.4038     0.0117     2.5017
 1266.0000   -71.9176     8.5766     7.9831     9.5410   125.4000     8.7192    72.1136     0.0421     2.5465
 1266.5000   -72.2212     8.3437     7.7930     9.8090   122.7552     8.6901    70.0376     0.0478     2.5723
 1267.0000   -72.2272     8.3437     7.5841     9.5296   118.9852     8.6611    67.9617     0.0363     2.5694
 1267.5000   -72.5308     8.2296     7.4024     9.2726   117.2300     8.6320    67.9439     0.0336     2.5724
 1268.0000   -72.5368     8.3437     7.3034     9.0339   119.9525     8.6244    70.0598     0.0359     2.5712
 1268.5000   -72.2452     8.4594     7.3056     9.0353   120.6511     8.6035    71.5553     0.0117     2.5534
 1269.0000   -72.2511     8.4594     7.3076     9.0365   119.3527     8.6042    72.4555     0.0007     2.5189
 1269.5000   -71.9595     8.5766     7.3096     9.0377   118.0363     8.6047    73.3557     0.0031     2.5127
 1270.0000   -71.4881     8.6955     7.4128     9.0389   119.8723     8.6053    76.0417     0.0068     2.5127
 1270.5000   -71.3750     8.8161     7.4149     9.0402   118.1171     8.6059    77.2446     0.0076     2.5183
 1271.0000   -71.0833     8.8161     7.4169     9.0414   116.5769     8.6065    77.8521     0.0121     2.5275
 1271.5000   -71.0893     8.8161     7.4190     9.0427   119.3083     8.6071    76.5696     0.0181     2.5308
 1272.0000   -70.9286     8.8161     7.5237     9.0489   121.5831     8.6077    73.3533     0.0077     2.5293
 1272.5000   -70.8036     8.6955     7.5258     9.4316   121.1622     8.6083    72.5071     0.0017     2.5249
 1273.0000   -70.5119     8.5766     7.5279     9.7029   123.8937     8.6089    71.8001     0.0062     2.5249
 1273.5000   -70.5179     8.4594     7.5300    10.1028   127.0092     8.6095    68.4450     0.0168     2.5280
 1274.0000   -70.5238     8.4594     7.5320     9.5585   129.3732     8.6101    65.9027     0.0228     2.5445
 1274.5000   -70.5297     8.3437     7.5166     9.0494   129.0643     8.6107    66.2124     0.0124     2.5340
 1275.0000   -70.6845     8.2296     7.4331     8.8053   126.5671     8.6113    69.3208     0.0049     2.5236
 1275.5000   -71.1369     8.1171     7.4187     8.5670   122.5820     8.6120    73.2315     0.0184     2.5386
 1276.0000   -71.5834     8.0061     7.3356     8.4508   120.0058     8.6126    76.7855     0.0380     2.5731
 1276.5000   -72.0417     8.0061     7.3379     8.5693   118.4793     8.6132    79.1138     0.0440     2.5656
 1277.0000   -72.3453     8.1171     7.3399     8.6895   117.9033     8.6137    75.5704     0.0396     2.5537
 1277.5000   -72.3512     8.3437     7.3419     8.8114   118.6120     8.5846    73.0281     0.0306     2.5552
 1278.0000   -72.3571     8.4594     7.3588     9.0590   116.1613     8.5852    70.8634     0.0261     2.5598
 1278.5000   -72.3631     8.4594     7.6703     9.0602   117.1812     8.5858    69.9171     0.0307     2.5688
 1279.0000   -71.9465     8.5766     7.8708     9.3148   118.9821     8.5864    71.6816     0.0472     2.5718
 1279.5000   -71.6577     8.8161     7.9819     9.5766   120.1008     8.5573    72.9081     0.0352     2.5584
