~VERSION INFORMATION
 VERS.                2.0:   CWLS LOG ASCII STANDARD - VERSION 2.0
 WRAP.                 NO:   ONE LINE PER DEPTH STEP
~WELL INFORMATION
#MNEM.UNIT      DATA TYPE    INFORMATION
#----------   ------------   ------------------------------
 STRT.F          213.5000:   START DEPTH
 STOP.F         3198.0000:   STOP DEPTH
 STEP.F            0.5000:   STEP LENGTH
 NULL.          -999.2500:   NO VALUE
 COMP.    FENIX & SCISSON:   COMPANY
 WELL.   FENIX "AX" #14-2:   WELL
 FLD .              NPR-3:   FIELD
 LOC .       S2 T38N R78W:   LOCATION
 CNTY.            NATRONA:   COUNTY
 STAT.            WYOMING:   STATE
 CTRY. UNITED STATES OF AMERICA:   COUNTRY
 SRVC.              WELEX:   SERVICE COMPANY
 DATE.        14-MAY-1977:   LOGDATE
 API .     49025103620000:   API NUMBER
~CURVE INFORMATION
#MNEM.UNIT       API CODE    CURVE DESCRIPTION
#----------   ------------   ------------------------------
 DEPT.F                  :   
 GRD .GAPI   45 310 01 00:   GAMMA RAY FROM DENSITY LOG
 CALD.IN     45 280 60 00:   CALIPER FROM DENSITY LOG
 CORR.G/C3   45 356 01 00:   DENSITY CORRECTION
 RHOB.G/C3   45 350 01 00:   BULK DENSITY
 SPR .MV     07 010 01 00:   SPONTANEOUS POTENTIAL FROM RES.
 ILD .OHMM   07 120 46 00:   DEEP INDUCTION RESISTIVITY
 ILM .OHMM   07 120 44 00:   INDUCTION LOG MEDIUM RESISTIVITY
 SGRD.OHMM   07 220 05 00:   SHALLOW SHORT GUARD RESISTIVITY
~PARAMETER INFORMATION
#MNEM.UNIT          VALUE    DESCRIPTION
#----------   ------------   ------------------------------
 EKB .F         5119.0000:   Kelly bushing
 EGL .F         5110.0000:   Ground level
 TD  .F         3200.0000:   Total depth
 CLNT.            A2DTECH:   Client Code
 SL  . 2400' FNL & 150' FWL:   Surface Location
 PD  .                 GL:   Permanent Datum
 EPD .F              5110:   Elevation Permanent Datum
 LMF .                 KB:   Log Measured From
 DMF .                 KB:   Drilling Measured From
 DAPD.F                 9:   Feet Above Permanent Datum
 DATE.        14-MAY-1977:   Date Logged [DD-MMM-YYYY]
 DD  .F              3200:   Depth driller
 DL  .F              3199:   Depth logger
 BLI .F              3197:   Bottom log interval
 TLI .F               217:   Top log interval
 CS1 .IN            8.625:   Casing size
 BS1 .IN            7.875:   Bit size
 BSD1.F              3200:   Depth drilled with bit1
 DFT .            KCL MUD:   Type fluid in hole
 DFD .                8.8:   Density
 TCS .HRS             2.5:   Time Circ. stopped
 MRT .F               130:   Maximum recorded temp.
 ENGI.          T. JOYNER:   Recorded By
 WITN.      W. PETTINGILL:   Witnessed by
 ORIG.           5" PRINT:   Origin of data
 UWI .     49025103620000:   Unique Well ID
 DICO. A2D TECHNOLOGIES, INC.:   Digitizing Company
 DFV .                 31:   Viscosity
 DFPH.                7.5:   pH
 DFL .                6.4:   Fluid loss
 MSS .          FLOW LINE:   Source of sample
 RMS .OHMM            .13:   Rm
 MST .F               62.:   Rm Meas. temp.
 RMF .OHMM            .12:   Rmf
 MFST.F                62:   Rmf Meas. temp.
 MFSS.           FANN KIT:   Source Rmf.
 RMC .OHMM            .28:   Rmc
 MCST.F                62:   Rmc Meas. temp.
 RMB .OHMM            .06:   Rm. at BHT
 BHT .F               130:   BHT.
~OTHER INFORMATION
~A   DEPT      GRD       CALD       CORR       RHOB        SPR        ILD        ILM       SGRD   
# ...
 2562.5000   129.2986     8.2303     0.0807     2.5019   -48.2618     5.0493     7.6164     9.1194
 2563.0000   128.7181     8.2317     0.0793     2.5019   -48.2456     4.9871     7.5452     8.9403
 2563.5000   126.9418     8.2476     0.0854     2.5035   -48.3741     4.9928     7.4492     8.7024
 2564.0000   124.8430     8.2635     0.0900     2.5043   -48.3609     4.9251     7.4019     8.5334
 2564.5000   125.4864     8.2647     0.0871     2.5044   -48.3447     4.8789     7.2062     8.6019
 2565.0000   128.1944     8.2659     0.0872     2.5022   -48.3252     4.8396     7.0144     8.6095
 2565.5000   130.0056     8.2673     0.0858     2.4970   -48.3121     4.7732     6.8595     8.6170
 2566.0000   130.3176     8.2684     0.0859     2.4911   -48.2959     4.7510     6.7433     8.6246
 2566.5000   129.1436     8.2545     0.0876     2.4926   -48.2796     4.7242     6.5597     8.6321
 2567.0000   129.4600     8.2559     0.0877     2.4979   -48.2632     4.6852     6.4637     8.6397
 2567.5000   130.9723     8.2571     0.0893     2.5040   -48.2470     4.6373     6.3454     8.4700
 2568.0000   133.0824     8.2582     0.0909     2.5100   -48.2308     4.6110     6.3062     8.0774
 2568.5000   132.4818     8.2594     0.0910     2.5070   -48.2145     4.5537     6.3559     7.8068
 2569.0000   131.9215     8.2606     0.0911     2.4997   -48.1958     4.5262     6.4049     7.5383
 2569.5000   134.0360     8.2620     0.0912     2.4967   -48.1819     4.5002     6.4536     7.1538
 2570.0000   136.1461     8.2631     0.0913     2.5020   -48.1657     4.4442     6.5035     6.6824
 2570.5000   137.9573     8.2643     0.0899     2.5066   -48.1494     4.4178     6.5088     6.2420
 2571.0000   137.9747     8.2504     0.0900     2.5119   -48.1331     4.4242     6.4592     6.9292
 2571.5000   137.9922     8.2370     0.0886     2.5157   -48.0695     4.4601     6.4082     7.6391
 2572.0000   137.4111     8.2382     0.0887     2.5053   -47.9527     4.5119     6.3449     8.0800
 2572.5000   137.4292     8.2393     0.0903     2.5045   -47.9364     4.5492     6.2622     8.3135
 2573.0000   137.7639     8.2405     0.0934     2.5137   -47.9171     4.5750     6.2236     8.4950
 2573.5000   138.0628     8.2417     0.0950     2.5199   -47.9039     4.6562     6.2294     8.3839
 2574.0000   138.0839     8.2448     0.0981     2.5280   -47.8854     4.7091     6.2340     8.2062
 2574.5000   137.8024     8.2590     0.0998     2.5310   -47.8713     4.7474     6.1951     8.0042
 2575.0000   137.5165     8.2601     0.1029     2.5341   -47.8537     4.7195     6.1855     8.0685
 2575.5000   137.2350     8.2613     0.1060     2.5379   -47.8388     4.6613     6.1364     8.0755
 2576.0000   137.8547     8.2624     0.1046     2.5424   -47.8225     4.6025     6.0824     8.0252
 2576.5000   138.1711     8.2636     0.1017     2.5395   -47.8062     4.5445     6.0858     7.9221
 2577.0000   137.8896     8.2720     0.0973     2.5358   -47.7899     4.5181     6.0487     7.8220
 2577.5000   136.9955     8.2807     0.0944     2.5329   -47.7718     4.5645     5.9700     7.7212
 2578.0000   136.7287     8.2821     0.0960     2.5331   -47.7574     4.6238     5.9183     7.7283
 2578.5000   137.6474     8.2830     0.0961     2.5345   -47.7411     4.6938     5.8163     7.8427
 2579.0000   138.2628     8.2874     0.0977     2.5368   -47.7229     4.7498     5.7804     7.9041
 2579.5000   138.2802     8.3003     0.0978     2.5331   -47.7071     4.7715     5.7843     7.9125
 2580.0000   138.2977     8.3162     0.0979     2.5317   -47.7466     4.8017     5.8698     7.9743
 2580.5000   138.9131     8.3173     0.0980     2.5325   -47.8240     4.8825     6.1235     7.9246
 2581.0000   139.8274     8.3185     0.0966     2.5341   -47.8075     4.9100     6.3860     8.1555
 2581.5000   140.4428     8.3344     0.0967     2.5341   -47.9396     4.9619     6.6209     8.6859
 2582.0000   138.3557     8.3356     0.0968     2.5342   -47.9231     5.0434     6.7702     9.1872
 2582.5000   135.9040     8.3368     0.0954     2.5351   -47.9068     5.0884     6.8632     9.7848
 2583.0000   132.4277     8.3381     0.0910     2.5366   -47.8880     5.1422     6.9642    10.1373
 2583.5000   130.0536     8.3393     0.0881     2.5374   -47.8743     5.2330     7.0666    10.2874
 2584.0000   127.9784     8.3404     0.0852     2.5374   -47.8580     5.2488     7.0719    10.0763
 2584.5000   128.5937     8.3416     0.0793     2.5345   -47.8405     5.3188     7.0776     9.6866
 2585.0000   130.4049     8.3427     0.0749     2.5285   -47.8254     5.3617     7.0821     9.6262
 2585.5000   133.4119     8.3587     0.0735     2.5226   -47.8075     5.4065     7.0875     9.8385
 2586.0000   131.3367     8.3450     0.0751     2.5174   -47.7929     5.4882     7.0938     9.9840
 2586.5000   127.4408     8.3317     0.0783     2.5137   -47.6279     5.5327     7.0986    10.0620
 2587.0000   125.9904     8.3328     0.0829     2.5148   -47.6094     5.5383     7.1039    10.0708
 2587.5000   127.8060     8.3340     0.0874     2.5214   -47.7454     5.5448     7.1092    10.0796
 2588.0000   131.1119     8.3201     0.0928     2.5259   -47.8735     5.5130     7.1146    10.0189
 2588.5000   132.3208     8.3065     0.0983     2.5297   -47.8999     5.4767     7.1202     9.8881
 2589.0000   130.2456     8.3079     0.1013     2.5350   -47.9924     5.4500     7.1750     9.8309
 2589.5000   133.2570     8.3090     0.1029     2.5381   -47.9749     5.4566     7.1805     9.9098
 2590.0000   134.4659     8.3102     0.1014     2.5408   -47.9586     5.4080     7.1860     9.9185
 2590.5000   132.6940     8.2966     0.0986     2.5449   -47.9422     5.3557     7.1673     9.9272
 2591.0000   130.6128     8.2980     0.0957     2.5489   -48.0740     5.3259     7.1471     9.8654
 2591.5000   127.7904     8.2841     0.0913     2.5430   -48.0577     5.2926     7.1527     9.7386
 2592.0000   125.5714     8.2855     0.0899     2.5363   -48.0439     5.2299     7.1591     9.5665
 2592.5000   128.5828     8.2716     0.0930     2.5289   -48.1731     5.2204     7.1644     9.2974
 2593.0000   131.5898     8.2580     0.0931     2.5244   -48.2171     5.2043     7.1697     9.1147
 2593.5000   130.4115     8.2594     0.0962     2.5215   -48.2885     5.1753     7.2254     9.1881
 2594.0000   131.0268     8.2606     0.0978     2.5217   -48.2722     5.1446     7.2299     9.3867
 2594.5000   132.8380     8.2470     0.0994     2.5277   -48.2552     5.1307     7.2354     9.5274
 2595.0000   134.6492     8.2482     0.0995     2.5307   -48.3087     5.1221     7.2410     9.5357
 2595.5000   136.7653     8.2345     0.0997     2.5331   -48.3715     5.1282     7.2473     9.4763
 2596.0000   136.7052     8.2359     0.0968     2.5331   -48.3550     5.1699     7.2019     9.2922
 2596.5000   134.1080     8.2371     0.0939     2.5317   -48.3358     5.1955     7.2074     9.3648
 2597.0000   131.7338     8.2382     0.0895     2.5273   -48.1746     5.2181     7.2129     9.4380
 2597.5000   131.1490     8.2394     0.0851     2.5155   -48.1562     5.2288     7.2225     9.5117
 2598.0000   135.0572     8.2405     0.0822     2.5090   -48.1403     5.2677     7.2747     9.5860
 2598.5000   132.9820     8.2417     0.0823     2.5105   -48.1245     5.2738     7.3308     9.6609
 2599.0000   130.9068     8.2428     0.0824     2.5067   -47.9607     5.2799     7.4386     9.7363
 2599.5000   128.8316     8.2442     0.0840     2.5022   -47.7969     5.2860     7.6005     9.4794
 2600.0000   127.0553     8.2454     0.0871     2.5045   -47.7811     5.2921     7.8200     9.3576
 2600.5000   128.0361     8.2465     0.0887     2.5135   -47.7648     5.2982     7.9962     9.3678
 2601.0000   131.5789     8.2625     0.0918     2.5225   -47.7758     5.3043     8.1077     9.5064
 2601.5000   133.9880     8.2636     0.0949     2.5307   -47.8103     5.3473     8.2333     9.5806
 2602.0000   133.2662     8.2648     0.0965     2.5391   -47.8448     5.3535     8.3562     9.5890
 2602.5000   132.2589     8.2511     0.1012     2.5459   -47.8792     5.3279     8.4203     9.4007
