~VERSION INFORMATION
 VERS.                2.0:   CWLS LOG ASCII STANDARD - VERSION 2.0
 WRAP.                 NO:   ONE LINE PER DEPTH STEP
~WELL INFORMATION
#MNEM.UNIT      DATA TYPE    INFORMATION
#----------   ------------   ------------------------------
 STRT.F           11.5000:   START DEPTH
 STOP.F         1726.0000:   STOP DEPTH
 STEP.F            0.5000:   STEP LENGTH
 NULL.          -999.2500:   NO VALUE
 COMP. LAWRENCE ALLISON & ASSOC WEST:   COMPANY
 WELL. LAWRENCE NPR 3 "X" #51-26:   WELL
 FLD .                NPR:   FIELD
 LOC .      S26 T38N R78W:   LOCATION
 CNTY.            NATRONA:   COUNTY
 STAT.            WYOMING:   STATE
 CTRY. UNITED STATES OF AMERICA:   COUNTRY
 SRVC.      DRESSER ATLAS:   SERVICE COMPANY
 DATE.        13-AUG-1983:   LOGDATE
 API .     49025109270000:   API NUMBER
~CURVE INFORMATION
#MNEM.UNIT       API CODE    CURVE DESCRIPTION
#----------   ------------   ------------------------------
 DEPT.F                  :   
 CALD.IN     45 280 60 00:   CALIPER FROM DENSITY LOG
 RHOB.G/C3   45 350 01 00:   BULK DENSITY
 CORR.G/C3   45 356 01 00:   DENSITY CORRECTION
 TEND.LBS    45 635 01 00:   TENSION FROM DENSITY LOG
 GRR .GAPI   07 310 01 00:   GAMMA RAY FROM RESISTIVITY
 RILD.OHMM   07 120 46 00:   INDUCTION LOG DEEP RESISTIVITY
 RILM.OHMM   07 120 44 00:   INDUCTION LOG MEDIUM RESISTIVITY
 TENR.LBS    07 635 01 00:   TENSION
~PARAMETER INFORMATION
#MNEM.UNIT          VALUE    DESCRIPTION
#----------   ------------   ------------------------------
 EKB .F         5455.0000:   Kelly bushing
 EGL .F         5444.0000:   Ground level
 EDF .F            0.0000:   Drilling floor
 EPD .F         5444.0000:   Permanent datum
 TD  .F         1726.0000:   Total depth
 DATE.        13-AUG-1983:   Date logged
 CLNT.            A2DTECH:   Client Code
 PD  .                 GL:   Permanent Datum
 LMF .                 KB:   Log Measured From
 DMF .                 KB:   Drilling Measured From
 DAPD.F                11:   Feet Above Permanent Datum
 DD  .F              1726:   Depth driller
 DL  .F              1724:   Depth logger
 BLI .F              1718:   Bottom log interval
 CBD1.F                47:   Casing driller 1
 CBL1.F                48:   Casing logger 1
 BS1 .IN            12.25:   Bit size
 BSD1.F              1726:   Depth drilled with bit1
 DFT .           AIR/FOAM:   Type fluid in hole
 TCS .HRS               1:   Time Circ. stopped
 MRT .F                85:   Maximum recorded temp.
 LUN .               6270:   Logging unit number
 LUL .              WLSTN:   Logging unit location
 ENGI.            QUICKEL:   Recorded By
 WITN.           JENNINGS:   Witnessed by
 ORIG.           5" PRINT:   Origin of data
 UWI .     49025109270000:   Unique Well ID
 DICO. A2D TECHNOLOGIES, INC.:   Digitizing Company
~OTHER INFORMATION
~A   DEPT     CALD       RHOB       CORR       TEND         GRR      RILD       RILM       TENR   
# ...
 1226.5000    13.2070     2.5020     0.1170   -63.9370   132.7610     7.6340     8.0140   -76.2950
 1227.0000    13.2070     2.4960     0.1010   -63.5510   133.8810     7.7220     8.0050   -76.2560
 1227.5000    13.2070     2.4920     0.0820   -63.1660   132.2620     7.8100     7.9930   -76.2160
 1228.0000    13.2070     2.4880     0.0810   -62.7800   128.3990     7.8670     7.9810   -76.1770
 1228.5000    13.2070     2.4850     0.0820   -62.3940   126.2450     7.8670     7.9690   -76.1370
 1229.0000    13.2070     2.4820     0.0830   -62.0090   128.7040     7.8640     7.9560   -76.0980
 1229.5000    13.2070     2.4770     0.0850   -61.6230   132.5050     7.8420     7.9440   -76.0580
 1230.0000    13.2070     2.4710     0.0690   -61.2370   136.3400     7.8200     7.9320   -76.0190
 1230.5000    13.2070     2.4670     0.0480   -60.8520   138.2850     7.7980     7.9200   -75.9800
 1231.0000    13.2070     2.4740     0.0290   -60.4660   135.4030     7.7760     7.9080   -75.9400
 1231.5000    13.2070     2.4870     0.0320   -60.0800   133.1150     7.7540     7.8960   -75.9010
 1232.0000    13.2070     2.5010     0.0670   -59.6950   131.7880     7.7330     7.8830   -75.8610
 1232.5000    13.2070     2.5100     0.1040   -59.3090   133.0220     7.7110     7.8710   -75.8220
 1233.0000    13.2070     2.5100     0.1170   -58.9240   135.7100     7.6890     7.8590   -75.7820
 1233.5000    13.2070     2.5100     0.1040   -58.5380   137.9580     7.6670     7.8470   -75.7430
 1234.0000    13.2070     2.5060     0.0870   -58.1520   136.2820     7.6450     7.8350   -75.7030
 1234.5000    13.2070     2.5010     0.0700   -57.7670   133.3070     7.6240     7.8230   -75.6640
 1235.0000    13.2070     2.4960     0.0540   -57.3810   134.4090     7.6020     7.8110   -75.6250
 1235.5000    13.2070     2.4900     0.0460   -56.9950   135.7710     7.5800     7.7980   -75.5850
 1236.0000    13.2070     2.4860     0.0480   -57.0680   134.7120     7.5580     7.7860   -75.5460
 1236.5000    13.2070     2.4880     0.0500   -58.1910   132.9030     7.5360     7.7740   -75.5060
 1237.0000    13.2070     2.4930     0.0530   -59.3140   131.4320     7.5140     7.7620   -75.4670
 1237.5000    13.2070     2.5170     0.0610   -60.4370   132.1630     7.4930     7.7500   -75.4270
 1238.0000    13.2070     2.5410     0.0680   -61.5590   132.9310     7.4710     7.7380   -75.3880
 1238.5000    13.2070     2.5600     0.0800   -62.6820   132.0940     7.4490     7.7250   -75.3480
 1239.0000    13.2070     2.5430     0.1160   -63.8050   130.2970     7.4100     7.7130   -75.3090
 1239.5000    13.2070     2.5270     0.1380   -64.9280   130.5240     7.3650     7.7010   -75.2700
 1240.0000    13.2070     2.5110     0.1150   -66.0510   132.8400     7.3200     7.6890   -75.2300
 1240.5000    13.2070     2.4980     0.0970   -67.1740   135.0540     7.2740     7.6770   -75.1910
 1241.0000    13.2070     2.4990     0.0800   -68.2970   134.4990     7.2290     7.6650   -75.1510
 1241.5000    13.2070     2.5000     0.0620   -69.4200   134.4160     7.1840     7.6520   -75.1120
 1242.0000    13.2070     2.5000     0.0520   -70.5420   136.6640     7.1390     7.5640   -75.0720
 1242.5000    13.2070     2.4970     0.0710   -71.6650   140.3690     7.0930     7.4740   -75.0330
 1243.0000    13.2070     2.4920     0.0950   -71.7870   142.2600     7.0480     7.3830   -74.9930
 1243.5000    13.2070     2.4860     0.1120   -71.7870   141.3570     7.0030     7.2920   -74.9540
 1244.0000    13.2070     2.4810     0.0890   -71.7870   141.2020     6.9570     7.2010   -74.9140
 1244.5000    13.2070     2.4860     0.0610   -71.7870   147.1380     6.9130     7.1100   -74.8750
 1245.0000    13.2070     2.4980     0.0700   -71.7870   149.6170     6.7770     7.0190   -74.8360
 1245.5000    13.2070     2.5100     0.0870   -71.7870   147.5380     6.6100     6.9280   -74.7960
 1246.0000    13.2070     2.5130     0.1040   -71.7870   145.0190     6.4430     6.7870   -74.7570
 1246.5000    13.2070     2.5020     0.1210   -71.7870   143.8390     6.2770     6.5870   -74.7170
 1247.0000    13.2070     2.4940     0.1330   -71.7870   145.3570     6.1100     6.3880   -74.6780
 1247.5000    13.2070     2.4900     0.1100   -71.7870   147.2180     5.9430     6.1880   -74.6380
 1248.0000    13.2070     2.4850     0.0870   -71.7870   147.5320     5.8410     5.9730   -74.5990
 1248.5000    13.2070     2.4830     0.0640   -71.7870   145.0510     5.7920     6.0340   -74.5590
 1249.0000    13.2070     2.4830     0.0330   -71.7870   142.2390     5.7470     6.1150   -74.5200
 1249.5000    13.2070     2.4980     0.0490   -71.7870   140.1500     5.8340     6.1970   -74.4810
 1250.0000    13.2070     2.5120     0.0800   -71.7870   140.1210     5.9330     6.2780   -74.4410
 1250.5000    13.2070     2.5000     0.1190   -71.7870   139.9940     6.0600     6.4390   -74.4020
 1251.0000    13.2070     2.4880     0.1100   -71.7870   137.4300     6.2530     6.6330   -74.3620
 1251.5000    13.2070     2.4760     0.0950   -71.5390   134.5860     6.4450     6.8270   -74.3230
 1252.0000    13.2070     2.4640     0.0790   -70.7920   132.9490     6.6380     7.1070   -74.2830
 1252.5000    13.2070     2.4630     0.0610   -70.0450   132.7980     6.7240     7.0940   -74.2440
 1253.0000    13.2070     2.4750     0.0590   -69.2980   135.7890     6.7240     7.0570   -74.2040
 1253.5000    13.2070     2.4880     0.0620   -68.5510   139.2500     6.7240     6.9770   -74.1650
 1254.0000    13.2070     2.5000     0.0640   -67.8040   140.9660     6.6340     6.9150   -74.1260
 1254.5000    13.2070     2.4950     0.0540   -67.0560   141.0150     6.5190     6.8100   -74.0860
 1255.0000    13.2070     2.4890     0.0450   -66.3090   140.7390     6.4040     6.7040   -74.0470
 1255.5000    13.2070     2.4880     0.0450   -65.5620   140.2570     6.3030     6.5990   -74.0070
 1256.0000    13.2070     2.4890     0.0610   -64.8150   135.8230     6.1900     6.5400   -73.9680
 1256.5000    13.2070     2.4960     0.0790   -64.0680   131.2020     6.1300     6.5400   -73.9280
 1257.0000    13.2070     2.5020     0.0970   -63.3210   132.6430     6.1300     6.5400   -73.8890
 1257.5000    13.2070     2.4970     0.1130   -62.5740   134.5360     6.1470     6.5400   -73.8490
 1258.0000    13.2070     2.4730     0.0860   -61.8270   129.9870     6.1710     6.5400   -73.8100
 1258.5000    13.2070     2.4470     0.0500   -54.6560   124.8010     6.1950     6.5400   -73.7710
 1259.0000    13.2070     2.4450     0.0140   -46.7180   122.5010     6.2190     6.5400   -73.7310
 1259.5000    13.2070     2.4590    -0.0090   -38.7800   124.1950     6.2450     6.5390   -73.6920
 1260.0000    13.2070     2.4800     0.0150   -40.3610   131.2210     6.3470     6.5360   -73.6520
 1260.5000    13.2070     2.5000     0.0380   -45.4420   138.5510     6.4570     6.6980   -73.6130
 1261.0000    13.2070     2.5050     0.0620   -50.5220   141.2760     6.5670     6.8170   -73.5730
 1261.5000    13.2070     2.5020     0.0930   -47.8110   138.3060     6.6780     6.9360   -73.5340
 1262.0000    13.2070     2.4940     0.0690   -42.7310   135.2530     6.7860     7.0540   -73.4940
 1262.5000    13.2070     2.4860     0.0260   -37.6510   133.2330     6.7860     7.1730   -73.4550
 1263.0000    13.2070     2.4780    -0.0020   -38.6500   135.1750     6.7860     7.1480   -73.4150
 1263.5000    13.2110     2.4740     0.0190   -41.9640   138.6670     6.8050     7.1160   -73.3760
 1264.0000    13.2220     2.4780     0.0350   -45.2770   140.0140     6.8490     7.0840   -73.3370
 1264.5000    13.2320     2.4820     0.0470   -48.5900   140.6590     6.7850     7.0530   -73.2970
 1265.0000    13.2420     2.4820     0.0370   -51.7070   140.6530     6.7230     7.0420   -73.2580
 1265.5000    13.2530     2.4810     0.0480   -48.3430   137.7330     6.6610     7.0270   -73.2180
 1266.0000    13.2630     2.4800     0.0620   -45.1680   134.7890     6.5990     6.9740   -73.1790
 1266.5000    13.2740     2.4720     0.0800   -41.9930   138.7140     6.5370     6.9210   -73.1390
