~VERSION INFORMATION
 VERS.                2.0:   CWLS LOG ASCII STANDARD - VERSION 2.0
 WRAP.                 NO:   ONE LINE PER DEPTH STEP
~WELL INFORMATION
#MNEM.UNIT      DATA TYPE    INFORMATION
#----------   ------------   ------------------------------
 STRT.F           31.5000:   START DEPTH
 STOP.F         4204.0000:   STOP DEPTH
 STEP.F            0.5000:   STEP LENGTH
 NULL.          -999.2500:   NO VALUE
 COMP.   LAWRENCE ALLISON:   COMPANY
 WELL. LAWRENCE 3 "X" #32-10:   WELL
 FLD .                NPR:   FIELD
 LOC .      S10 T38N R78W:   LOCATION
 CNTY.            NATRONA:   COUNTY
 STAT.            WYOMING:   STATE
 CTRY. UNITED STATES OF AMERICA:   COUNTRY
 SRVC.      DRESSER ATLAS:   SERVICE COMPANY
 DATE.        05-NOV-1983:   LOGDATE
 API .     49025109460000:   API NUMBER
~CURVE INFORMATION
#MNEM.UNIT       API CODE    CURVE DESCRIPTION
#----------   ------------   ------------------------------
 DEPT.F                  :   
 CALD.IN     45 280 60 00:   CALIPER FROM DENSITY LOG
 CNC .DEC    42 890 01 00:   NEUTRON POROSITY LIMESTONE
 CORR.G/C3   45 356 01 00:   DENSITY CORRECTION
 TEND.LBS    45 635 01 00:   TENSION FORM DENSITY LOG
 RHOB.G/C3   45 350 01 00:   BULK DENSITY
 DT  .US/F   60 520 00 00:   DELTA TIME
 TENS.LBS    60 635 01 00:   TENSION FROM SONIC
 GRR .GAPI   07 310 01 00:   GAMMA RAY FROM RESISTIVITY
 TENR.LBS    06 635 01 00:   TENSION FROM RESISTIVITY
 RFOC.OHMM   07 220 04 00:   RESISTIVITY FOCUSED LOG RES.
 RILM.OHMM   07 120 44 00:   INDUCTION LOG MEDIUM RESISTIVITY
 RILD.OHMM   07 120 46 00:   DEEP INDUCTION RESISTIVITY
 SPR .MV     07 010 01 00:   SPONTANEOUS POTENTIAL
~PARAMETER INFORMATION
#MNEM.UNIT          VALUE    DESCRIPTION
#----------   ------------   ------------------------------
 EKB .F         5237.0000:   Kelly bushing
 EGL .F         5227.0000:   Ground level
 TD  .F         4202.0000:   Total depth
 CLNT.            A2DTECH:   Client Code
 SL  . 1871' FWL & 1152' FNL:   Surface Location
 PD  .                 GL:   Permanent Datum
 EPD .F              5227:   Elevation Permanent Datum
 LMF .                 KB:   Log Measured From
 DMF .                 KB:   Drilling Measured From
 DAPD.F                10:   Feet Above Permanent Datum
 DATE.        05-NOV-1983:   Date Logged [DD-MMM-YYYY]
 DD  .F              4200:   Depth driller
 DL  .F              4202:   Depth logger
 BLI .F              4200:   Bottom log interval
 TLI .F                30:   Top log interval
 CS1 .IN            8.625:   Casing size
 CBD1.      8.625" @ 545':   Casing driller 1
 CBL1.F               545:   Casing logger 1
 BS1 .IN            7.875:   Bit size
 BSD1.F              4200:   Depth drilled with bit1
 DFT .            GEL KCL:   Type fluid in hole
 DFD .                8.9:   Density
 DFV .                 42:   Viscosity
 DFPH.                8.5:   pH
 DFL .               12.4:   Fluid loss
 MSS .           FLOWLINE:   Source of sample
 RMS .OHMM           0.43:   Rm
 MST .F                97:   Rm Meas. temp.
 RMF .OHMM           0.42:   Rmf
 MFST.F                74:   Rmf Meas. temp.
 MFSS.               MEAS:   Source Rmf.
 RMC .OHMM           0.53:   Rmc
 MCST.F                97:   Rmc Meas. temp.
 MCSS.               CALC:   Source Rmc.
 RMB .OHMM           0.32:   Rm. at BHT
 BHT .F               131:   BHT.
 TCS .HRS               3:   Time Circ. stopped
 MRT .F               131:   Maximum recorded temp.
 LUN .               6307:   Logging unit number
 LUL .               GLTE:   Logging unit location
 ENGI.            DEYOUNG:   Recorded By
 WITN.             STRONG:   Witnessed by
 ORIG.        2" 5" PRINT:   Origin of data
 UWI .     49025109460000:   Unique Well ID
 DICO. A2D TECHNOLOGIES, INC.:   Digitizing Company
~OTHER INFORMATION
~A   DEPT     CALD        CNC       CORR       TEND       RHOB         DT       TENS         GRR      TENR       RFOC       RILM       RILD        SPR   
# ...
 4191.5000     8.0344     0.1331     0.0081   -28.0393     2.5967  -999.2500   -14.0176    92.9684   -21.0841    12.8534     8.2945     7.9357   -34.7166
 4192.0000     8.0344     0.1331     0.0342   -28.1136     2.5967  -999.2500   -13.9003    92.9886   -19.0693    12.1566     7.6827     7.2997   -35.1552
 4192.5000     8.0344     0.1331     0.0496   -28.1879     2.5975  -999.2500   -13.7830    93.0048   -17.0545     9.7761     6.8691     6.8583   -35.4464
 4193.0000     8.0344     0.1331     0.0342   -28.2642     2.5975  -999.2500   -13.6657    93.0211   -15.9836     8.6166     6.1417     6.5352   -35.7344
 4193.5000     8.0344     0.1332     0.0082   -28.3550     2.5937  -999.2500   -13.5266    93.0377   -15.9836     7.5254     5.6089     6.2714   -35.8690
 4194.0000     8.0344     0.1332     0.0036   -28.4294     2.5860  -999.2500   -13.4124    93.0574   -36.4754     6.6612     5.3819     6.0609   -35.8552
 4194.5000     8.0344     0.1332     0.0082   -28.5036     2.5791  -999.2500   -13.2983    93.0736   -36.4754     5.9426     5.2376     5.8575   -35.8419
 4195.0000     8.0344     0.1329     0.0128   -25.4872     2.5713  -999.2500   -13.1842    93.2404   -36.5579     5.6205     5.2062     5.7010   -35.8132
 4195.5000     8.0344     0.1329     0.0159   -22.4892     2.5653  -999.2500     4.5254    93.4072   -36.4232     5.5057     5.1752     5.6643   -35.6615
 4196.0000     8.0344     0.1329     0.0206   -19.5099     2.5622  -999.2500    28.0999    93.4234   -11.4143     5.5887     5.1444     5.6340   -35.6482
 4196.5000     8.0344     0.1329     0.0267   -19.4118     2.5683  -999.2500    51.6746    93.5902    12.7049  -999.2500     5.1501     5.7223   -35.4844
 4197.0000     8.0344     0.1329     0.0467     1.8283     2.5822  -999.2500    63.5661    93.6063    45.4918  -999.2500     5.1568     5.8103   -35.4711
 4197.5000     8.0344     0.1329     0.0590    47.8369     2.5983  -999.2500    81.5732    93.6225    70.0820  -999.2500     5.1260     5.9835   -35.4578
 4198.0000     8.0344     0.1329     0.0683    87.7012     2.6175  -999.2500    93.0792    93.6387    78.2787  -999.2500     5.1359     6.2938   -35.4446
 4198.5000     8.0344     0.1329     0.0714    99.9342     2.6259  -999.2500    93.1965    93.6551    78.2787  -999.2500     5.1505     6.8097   -35.4313
 4199.0000     8.0344     0.1329     0.0714   106.0044     2.6267  -999.2500    91.9974    93.6717    78.2787  -999.2500     5.1652     7.4726   -35.4181
 4199.5000     8.0344     0.1330     0.0714   105.9115     2.6267  -999.2500    87.5501    93.6913    70.0820  -999.2500     5.1798  -999.2500   -35.4048
 4200.0000     8.0344     0.1326     0.0730   105.8371     2.6267  -999.2500    72.3874    93.7075    53.6885  -999.2500     4.2287  -999.2500   -35.3916
 4200.5000  -999.2500  -999.2500  -999.2500    93.0504  -999.2500  -999.2500    50.6508  -999.2500  -999.2500  -999.2500  -999.2500  -999.2500  -999.2500
 4201.0000  -999.2500  -999.2500  -999.2500    68.8036  -999.2500  -999.2500    28.9142  -999.2500  -999.2500  -999.2500  -999.2500  -999.2500  -999.2500
 4201.5000  -999.2500  -999.2500  -999.2500    50.2962  -999.2500  -999.2500     7.1777  -999.2500  -999.2500  -999.2500  -999.2500  -999.2500  -999.2500
 4202.0000  -999.2500  -999.2500  -999.2500    28.7165  -999.2500  -999.2500   -15.0259  -999.2500  -999.2500  -999.2500  -999.2500  -999.2500  -999.2500
 4202.5000  -999.2500  -999.2500  -999.2500  -999.2500  -999.2500  -999.2500   -28.5639  -999.2500  -999.2500  -999.2500  -999.2500  -999.2500  -999.2500
 4203.0000  -999.2500  -999.2500  -999.2500  -999.2500  -999.2500  -999.2500   -42.3991  -999.2500  -999.2500  -999.2500  -999.2500  -999.2500  -999.2500
 4203.5000  -999.2500  -999.2500  -999.2500  -999.2500  -999.2500  -999.2500   -56.2343  -999.2500  -999.2500  -999.2500  -999.2500  -999.2500  -999.2500
 4204.0000  -999.2500  -999.2500  -999.2500  -999.2500  -999.2500  -999.2500   -70.0696  -999.2500  -999.2500  -999.2500  -999.2500  -999.2500  -999.2500
