~VERSION INFORMATION
 VERS.                2.0:   CWLS LOG ASCII STANDARD - VERSION 2.0
 WRAP.                 NO:   ONE LINE PER DEPTH STEP
~WELL INFORMATION
#MNEM.UNIT      DATA TYPE    INFORMATION
#----------   ------------   ------------------------------
 STRT.F            7.0000:   START DEPTH
 STOP.F         3304.0000:   STOP DEPTH
 STEP.F            0.5000:   STEP LENGTH
 NULL.          -999.2500:   NO VALUE
 COMP. LAWRENCE ALLISON ASSOC. WEST:   COMPANY
 WELL. LAWRENCE NPR  "X" #18-2:   WELL
 FLD .              N P R:   FIELD
 LOC .       S2 T38N R78W:   LOCATION
 CNTY.            NATRONA:   COUNTY
 STAT.            WYOMING:   STATE
 CTRY. UNITED STATES OF AMERICA:   COUNTRY
 SRVC.      DRESSER ATLAS:   SERVICE COMPANY
 DATE.        28-APR-1986:   LOGDATE
 API .     49025110710000:   API NUMBER
~CURVE INFORMATION
#MNEM.UNIT       API CODE    CURVE DESCRIPTION
#----------   ------------   ------------------------------
 DEPT.F                  :   
 TEND.LBS    45 635 01 00:   TENSION FROM DENSITY LOG
 DEN .G/C3   45 635 01 00:   DENSITY
 CORR.G/C3   45 356 01 00:   DENSITY CORRECTION
 CNC .DEC    42 890 03 00:   NEUTRON PORISITY SANDSTONE
 TENR.LBS    07 635 01 00:   TENSION FROM RESISTIVITY
 CALR.IN     07 280 01 00:   CALIPER FROM RESISTIVITY
 SPR .MV     07 010 01 00:   SPONTANEOUS POTENTIAL
 GRR .GAPI   07 310 01 00:   GAMMA RAY FROM RESISTIVITY
 RFOC.OHMM   07 220 04 00:   RESISTIVITY FOCUSED LOG RES.
 RILD.OHMM   07 120 46 00:   DEEP INDUCTION RESISTIVITY
 RILM.OHMM   07 120 44 00:   INDUCTION LOG MEDIUM RESISTIVITY
 TENS.LBS    60 635 01 00:   TENSION
 AC  .US/F   60 250 00 00:   ACCOUSTIC
~PARAMETER INFORMATION
#MNEM.UNIT          VALUE    DESCRIPTION
#----------   ------------   ------------------------------
 EKB .F         5142.0000:   Kelly bushing
 EGL .F         5130.0000:   Ground level
 EDF .F            0.0000:   Drilling floor
 EPD .F         5130.0000:   Permanent datum
 TD  .F         3296.0000:   Total depth
 DATE.        28-APR-1986:   Date logged
 CLNT.            A2DTECH:   Client Code
 SL  . 210' FSL & 204' FWL:   Surface Location
 PD  .                 GL:   Permanent Datum
 DD  .F              3295:   Depth driller
 DL  .F              3290:   Depth logger
 BLI .F              3296:   Bottom log interval
 CS1 .IN            8.625:   Casing size
 CBD1.      8.625" @ 563':   Casing driller 1
 CBL1.F               560:   Casing logger 1
 BS1 .IN            7.875:   Bit size
 BSD1.F              3295:   Depth drilled with bit1
 DFT .        POLYMER KCL:   Type fluid in hole
 DFD .                8.9:   Density
 DFV .                 38:   Viscosity
 DFPH.                8.5:   pH
 DFL .                9.2:   Fluid loss
 MSS .           FLOWLINE:   Source of sample
 RMS .OHMM           .435:   Rm
 MST .F                74:   Rm Meas. temp.
 RMF .OHMM            .33:   Rmf
 MFST.F                74:   Rmf Meas. temp.
 RMC .OHMM            .54:   Rmc
 MCST.F                74:   Rmc Meas. temp.
 MFSS.               CALC:   Source Rmf.
 MCSS.               CALC:   Source Rmc.
 RMB .OHMM            .77:   Rm. at BHT
 BHT .F               119:   BHT.
 TCS .HRS               4:   Time Circ. stopped
 MRT .F               119:   Maximum recorded temp.
 LUN .            HL 6264:   Logging unit number
 LUL .           GILLETTE:   Logging unit location
 ENGI.      P.M. FAHLSING:   Recorded By
 WITN.             STRONG:   Witnessed by
 ORIG.         2.5" PRINT:   Origin of data
 UWI .     49025110710000:   Unique Well ID
 DICO. A2D TECHNOLOGIES, INC.:   Digitizing Company
 DAPD.                 12:   Feet Above Permanent Datum
~OTHER INFORMATION
~A    DEPT    TEND        DEN       CORR        CNC       TENR       CALR        SPR         GRR      RFOC       RILD       RILM       TENS         AC   
# ...
  579.0000  -999.2500  -999.2500  -999.2500  -999.2500   -63.7250    11.9470   -22.5480    80.7840     7.8350     7.0560     8.2600  -999.2500  -999.2500
  579.5000  -999.2500  -999.2500  -999.2500  -999.2500   -63.7250    11.5580   -23.4800    80.0390     8.0340     7.2910     8.7940  -999.2500  -999.2500
  580.0000  -999.2500  -999.2500  -999.2500  -999.2500   -63.7250    11.1710   -22.3410    81.3460     8.0340     7.5260     8.7940  -999.2500  -999.2500
  580.5000  -999.2500  -999.2500  -999.2500  -999.2500   -63.7250    10.8740   -19.8250    80.1720     8.0340     7.8310     9.1220  -999.2500  -999.2500
  581.0000  -999.2500  -999.2500  -999.2500  -999.2500   -63.7250    10.8200   -18.1810    80.8220     8.0340     8.1750     9.4380  -999.2500  -999.2500
  581.5000  -999.2500  -999.2500  -999.2500  -999.2500   -63.7250    10.8240   -16.3590    83.1180     8.0200     8.5190     9.8000  -999.2500  -999.2500
  582.0000  -999.2500  -999.2500  -999.2500  -999.2500   -63.7250    10.8380   -14.5470    85.4450     8.0060     8.8620     9.8000  -999.2500  -999.2500
  582.5000  -999.2500  -999.2500  -999.2500  -999.2500   -63.7250    10.8480   -10.2230    86.5900     7.9920     9.1170     9.8000  -999.2500  -999.2500
  583.0000  -999.2500  -999.2500  -999.2500  -999.2500   -63.7250    10.8600    -5.9580    85.1160     7.9780     8.9420     9.6690  -999.2500  -999.2500
  583.5000  -999.2500  -999.2500  -999.2500  -999.2500   -63.7250    10.8720    -4.4360    84.6600     7.9640     8.7940     9.5180  -999.2500  -999.2500
  584.0000  -999.2500  -999.2500  -999.2500  -999.2500   -63.7250    10.8840    -5.2370    85.8900     7.9500     8.7940     9.3660  -999.2500  -999.2500
  584.5000  -999.2500  -999.2500  -999.2500  -999.2500   -63.7250    10.8960    -6.1340    87.2700     7.9370     8.7940     9.2140  -999.2500  -999.2500
  585.0000  -999.2500  -999.2500  -999.2500  -999.2500   -63.7250    10.9070    -7.0210    88.5230     7.9230     8.7940     9.0630  -999.2500  -999.2500
  585.5000  -999.2500  -999.2500  -999.2500  -999.2500   -63.7250    10.9190    -9.7330    88.6600     7.9090     8.7940     8.9540  -999.2500  -999.2500
  586.0000  -999.2500  -999.2500  -999.2500  -999.2500   -63.7250    10.9300   -12.2780    87.1090     7.8930     8.6360     8.9540  -999.2500  -999.2500
  586.5000  -999.2500  -999.2500  -999.2500  -999.2500   -63.7250    10.9420   -14.9280    83.2920     7.9090     8.4820     8.9540  -999.2500  -999.2500
  587.0000  -999.2500  -999.2500  -999.2500  -999.2500   -63.7250    10.9540   -17.4200    83.1990     7.9410     8.4820     8.9540  -999.2500  -999.2500
  587.5000  -999.2500  -999.2500  -999.2500  -999.2500   -63.7250    10.9650   -19.4580    84.0910     7.9720     8.3300     8.9540  -999.2500  -999.2500
  588.0000  -999.2500  -999.2500  -999.2500  -999.2500   -63.7250    10.9770   -21.3190    85.3460     8.0020     8.3300     8.9540  -999.2500  -999.2500
  588.5000  -999.2500  -999.2500  -999.2500  -999.2500   -63.7250    10.9750   -23.0900    85.1320     8.0340     8.1810     9.0170  -999.2500  -999.2500
  589.0000  -999.2500  -999.2500  -999.2500  -999.2500   -63.7250    10.9660   -24.8220    84.1260     7.9800     8.0340     9.1170  -999.2500  -999.2500
  589.5000  -999.2500  -999.2500  -999.2500  -999.2500   -63.7250    10.9580   -26.6050    83.1620     7.9200     7.8910     9.1170  -999.2500  -999.2500
  590.0000  -999.2500  -999.2500  -999.2500  -999.2500   -63.7250    10.9500   -28.4430    83.3000     7.7710     7.7490     9.1170  -999.2500  -999.2500
  590.5000  -999.2500  -999.2500  -999.2500  -999.2500   -63.7250    10.9420   -27.1020    86.2230     7.5410     7.4740     8.9180  -999.2500  -999.2500
  591.0000  -999.2500  -999.2500  -999.2500  -999.2500   -63.7250    10.9330   -22.3570    88.6080     7.3110     7.3410     7.8910  -999.2500  -999.2500
  591.5000  -999.2500  -999.2500  -999.2500  -999.2500   -63.7250    10.9250   -17.6620    89.2280     7.0810     7.0800     8.0340  -999.2500  -999.2500
  592.0000  -999.2500  -999.2500  -999.2500  -999.2500   -63.7250    10.9160   -14.6680    87.0610     6.8510     6.8290     7.5830  -999.2500  -999.2500
  592.5000  -999.2500  -999.2500  -999.2500  -999.2500   -63.7250    10.9080   -14.7250    84.0170     6.6210     6.5870     7.0980  -999.2500  -999.2500
  593.0000  -999.2500  -999.2500  -999.2500  -999.2500   -63.7250    10.9020   -15.2190    81.5350     6.3910     6.3530     6.6130  -999.2500  -999.2500
  593.5000  -999.2500  -999.2500  -999.2500  -999.2500   -63.7250    10.8990   -15.7270    81.7740     6.1610     6.0180     6.1290  -999.2500  -999.2500
  594.0000  -999.2500  -999.2500  -999.2500  -999.2500   -63.7250    10.9370   -16.0400    82.4370     5.9310     5.4730     5.5910  -999.2500  -999.2500
  594.5000  -999.2500  -999.2500  -999.2500  -999.2500   -63.7250    10.9940   -16.3680    84.9180     5.7000     4.8980     5.0100  -999.2500  -999.2500
  595.0000  -999.2500  -999.2500  -999.2500  -999.2500   -63.7250    11.0470   -16.2860    86.9850     5.2600     4.3230     4.4300  -999.2500  -999.2500
  595.5000  -999.2500  -999.2500  -999.2500  -999.2500   -63.7250    11.2740   -15.8910    89.4480     4.7220     3.7480     3.8490  -999.2500  -999.2500
  596.0000  -999.2500  -999.2500  -999.2500  -999.2500   -63.7250    11.4290   -15.5310    89.4260     4.2040     3.1730     3.2680  -999.2500  -999.2500
  596.5000  -999.2500  -999.2500  -999.2500  -999.2500   -63.7250    11.6050   -15.1200    87.4900     3.6870     2.5980     2.6870  -999.2500  -999.2500
  597.0000  -999.2500  -999.2500  -999.2500  -999.2500   -63.7250    11.7650   -14.7700    85.9180     3.1690     2.3230     2.4270  -999.2500  -999.2500
  597.5000  -999.2500  -999.2500  -999.2500  -999.2500   -63.7250    11.7960   -14.4250    81.4580     2.6520     2.2700     2.3960  -999.2500  -999.2500
  598.0000  -999.2500  -999.2500  -999.2500  -999.2500   -63.7250    11.5380   -15.0460    78.2930     2.2290     2.3110     2.4170  -999.2500  -999.2500
  598.5000  -999.2500  -999.2500  -999.2500  -999.2500   -63.7250    11.2740   -15.7050    77.7380     2.3110     2.7470     2.6700  -999.2500  -999.2500
  599.0000  -999.2500  -999.2500  -999.2500  -999.2500   -63.7250    11.0010   -16.4060    80.4400     3.0110     3.5420     3.0850  -999.2500  -999.2500
  599.5000  -999.2500  -999.2500  -999.2500  -999.2500   -63.7250    10.9210   -17.0810    86.1750     4.0550     4.3360     3.7900  -999.2500  -999.2500
  600.0000  -999.2500  -999.2500  -999.2500  -999.2500   -63.7250    10.8650   -17.7550    89.8910     5.3030     5.1310     4.3810  -999.2500  -999.2500
  600.5000  -999.2500  -999.2500  -999.2500  -999.2500   -63.7250    10.8640   -18.4560    87.6870     5.4000     5.8100     4.9730  -999.2500  -999.2500
  601.0000  -999.2500  -999.2500  -999.2500  -999.2500   -63.7250    10.8550   -18.7370    84.1590     5.7290     6.3230     5.5640  -999.2500  -999.2500
  601.5000  -999.2500  -999.2500  -999.2500  -999.2500   -63.7250    10.8460   -18.7810    83.9140     5.8490     6.8360     6.1560  -999.2500  -999.2500
  602.0000  -999.2500  -999.2500  -999.2500  -999.2500   -63.7250    10.8360   -18.8490    84.3620     5.9690     7.3490     6.5030  -999.2500  -999.2500
  602.5000  -999.2500  -999.2500  -999.2500  -999.2500   -63.7250    10.8260   -18.9190    84.5630     6.0890     7.6110     6.7070  -999.2500  -999.2500
  603.0000  -999.2500  -999.2500  -999.2500  -999.2500   -63.7250    10.8230   -18.9810    83.0300     6.2090     7.7490     6.8350  -999.2500  -999.2500
  603.5000  -999.2500  -999.2500  -999.2500  -999.2500   -63.7250    10.8230   -19.0570    81.5410     6.3280     8.0340     6.9510  -999.2500  -999.2500
  604.0000  -999.2500  -999.2500  -999.2500  -999.2500   -63.7250    10.8230   -19.0980    82.2230     6.4480     8.1810     7.0680  -999.2500  -999.2500
  604.5000  -999.2500  -999.2500  -999.2500  -999.2500   -63.7250    10.8230   -19.0860    84.8690     6.5680     8.1810     7.1840  -999.2500  -999.2500
