~VERSION INFORMATION
 VERS.                2.0:   CWLS LOG ASCII STANDARD - VERSION 2.0
 WRAP.                 NO:   ONE LINE PER DEPTH STEP
~WELL INFORMATION
#MNEM.UNIT      DATA TYPE    INFORMATION
#----------   ------------   ------------------------------
 STRT.F            4.0000:   START DEPTH
 STOP.F         5696.0000:   STOP DEPTH
 STEP.F            0.5000:   STEP LENGTH
 NULL.          -999.2500:   NO VALUE
 COMP.       FLUOR DANIEL:   COMPANY
 WELL.   FLUOR "X" #72-10:   WELL
 FLD .             NPR #3:   FIELD
 LOC .      S10 T38N R78W:   LOCATION
 CNTY.            NATRONA:   COUNTY
 STAT.            WYOMING:   STATE
 CTRY. UNITED STATES OF AMERICA:   COUNTRY
 SRVC.      WESTERN ATLAS:   SERVICE COMPANY
 DATE.        26-SEP-1996:   LOGDATE
 API .     49025228080000:   API NUMBER
~CURVE INFORMATION
#MNEM.UNIT       API CODE    CURVE DESCRIPTION
#----------   ------------   ------------------------------
 DEPT.F                  :   
 GRR .GAPI   07 310 01 00:   GAMMA RAY FROM RESISTIVITY
 SPR .MV     07 010 01 00:   SPONTANEOUS POTENTIAL
 CALR.IN     07 280 01 00:   CALIPER FROM RESISTIVITY
 RD  .OHMM   07 220 10 00:   RESISTIVITY DEEP
 RS  .OHMM   07 220 09 00:   RESISTIVITY SHALLOW
 TENR.LBS    07 635 01 00:   TENSION FROM RESISTIVITY
~PARAMETER INFORMATION
#MNEM.UNIT          VALUE    DESCRIPTION
#----------   ------------   ------------------------------
 EKB .F         5178.0000:   Kelly bushing
 EGL .F         5168.0000:   Ground level
 EDF .F         5177.0000:   Drilling floor
 TD  .F         5698.0000:   Total depth
 CLNT.            A2DTECH:   Client Code
 SL  . 687' FNL & 1002' FEL:   Surface Location
 PD  .                 GL:   Permanent Datum
 EPD .F              5168:   Elevation Permanent Datum
 LMF .                 KB:   Log Measured From
 DMF .                 KB:   Drilling Measured From
 DAPD.F                10:   Feet Above Permanent Datum
 DATE.        26-SEP-1996:   Date Logged [DD-MMM-YYYY]
 DD  .F              5698:   Depth driller
 DL  .F              5697:   Depth logger
 BLI .F              5685:   Bottom log interval
 CS1 .IN            9.625:   Casing size
 CBD1.      9.625" @ 526':   Casing driller 1
 CBL1.F               526:   Casing logger 1
 BS1 .IN             8.75:   Bit size
 BSD1.F              5698:   Depth drilled with bit1
 DFT .               CHEM:   Type fluid in hole
 DFD .                9.1:   Density
 DFV .                 60:   Viscosity
 DFPH.                9.5:   pH
 DFL .                7.6:   Fluid loss
 MSS .               CIRC:   Source of sample
 RMS .OHMM           0.82:   Rm
 MST .F                64:   Rm Meas. temp.
 RMF .OHMM           0.64:   Rmf
 MFST.F                64:   Rmf Meas. temp.
 MFSS.               CALC:   Source Rmf.
 RMC .OHMM           1.08:   Rmc
 MCST.F                64:   Rmc Meas. temp.
 MCSS.               CALC:   Source Rmc.
 RMB .OHMM           0.29:   Rm. at BHT
 BHT .F               183:   BHT.
 TCS .HRS               5:   Time Circ. stopped
 MRT .F               183:   Maximum recorded temp.
 LUN .            HL-6530:   Logging unit number
 LUL .             CASPER:   Logging unit location
 ENGI.           BROWNLOW:   Recorded By
 ORIG.        2" 5" PRINT:   Origin of data
 UWI .     49025228080000:   Unique Well ID
 WITN.              HARDY:   Witnessed by
 DICO. A2D TECHNOLOGIES, INC.:   Digitizing Company
~OTHER INFORMATION
~A  DEPTH      GRR        SPR       CALR         RD         RS       TENR
# ...
 3904.0000    85.4818   -53.9812     9.2700     3.3736     2.3202     6.9558
 3904.5000    89.1321   -53.9712     9.2559     3.4925     2.3517   -38.5696
 3905.0000    92.7751   -53.8102     9.2577     3.3736     2.2881   -84.0951
 3905.5000    96.4182   -53.7981     9.2591     3.2815     2.2106   -76.5901
 3906.0000   101.2661   -53.6375     9.2609     3.2815     2.1658   -76.6787
 3906.5000   104.3264   -53.6274     9.2774     3.3043     2.1815   -76.7496
 3907.0000   105.5474   -53.6174     9.2940     3.3503     2.2435   -69.2424
 3907.5000   105.8772   -53.6049     9.2803     3.5168     2.4220   -61.7398
 3908.0000   105.9058   -53.5949     9.2821     3.8480     2.7069   -61.8284
 3908.5000   103.2236   -53.5849     9.2680     4.4197     3.0528   -61.8992
 3909.0000    92.7406   -53.5749     9.2697     4.9396     3.5009   -84.6973
 3909.5000    90.3606   -53.5648     9.2712     5.4780     3.7533  -115.0889
 3910.0000    91.6026   -53.7055     9.2729     5.6710     3.7805  -100.0083
 3910.5000    93.4395   -53.5424     9.2744     5.5544     3.7814   -69.7761
 3911.0000    95.2690   -53.5324     9.2758     5.4402     3.7048   -54.6954
 3911.5000    93.4985   -53.8236     9.2620     5.4402     3.7058   -69.9355
 3912.0000    91.4276   -53.8133     9.2638     5.5544     3.7067   -77.5821
 3912.5000    93.5658   -54.1022     9.2652     5.5930     3.7077   -70.0772
 3913.0000    98.4148   -54.2428     9.2515     5.5090     3.7087   -24.7113
 3913.5000   101.7577   -54.2914     9.2836     5.2551     3.6082   -17.1887
 3914.0000   106.9153   -54.3694     9.2850     5.1115     3.5350   -24.8530
 3914.5000   111.4631   -54.4474     9.2864     5.0412     3.4632    -1.8490
 3915.0000   116.0109   -54.5192     9.3045     5.0412     3.4163    65.8967
 3915.5000   119.0552   -54.5016     9.3351     5.0762     3.4173    80.9951
 3916.0000   118.1862   -54.4875     9.3516     5.1470     3.4422    -2.4269
 3916.5000   115.5050   -54.4729     9.3531     5.2551     3.5155   -48.9489
 3917.0000   112.5227   -54.4557     9.3245     5.3654     3.5409   -63.1923
 3917.5000   109.2019   -54.4416     9.3104     5.3284     3.5173   -63.2632
 3918.0000   106.5580   -54.4275     9.2967     5.2188     3.3750   -78.4855
 3918.5000   106.5951   -54.4098     9.2985     5.0762     3.3292   -86.1499
 3919.0000   105.4200   -54.3957     9.3154     4.9719     3.3303   -86.2207
 3919.5000   102.6493   -54.3816     9.3168     4.9375     3.2853  -101.4431
 3920.0000   101.2626   -54.3675     9.3183     4.5438     3.1904  -109.0909
 3920.5000   106.4202   -54.1992     9.3348     4.2105     2.9831   -94.0268
 3921.0000   110.9680   -54.0345     9.3366     3.8215     2.6738   -63.7946
 3921.5000   115.5356   -53.7192     9.3380     3.6660     2.4167   -56.2879
 3922.0000   120.2696   -53.3936     9.3394     3.6660     2.3838   -41.2091
 3922.5000   125.0036   -53.0850     9.3412     3.7171     2.3844   -71.6006
 3923.0000   128.5641   -53.3756     9.3426     3.7951     2.4692   -86.8230
 3923.5000   127.9071   -53.6592     9.3440     3.8748     2.5041   -86.8939
 3924.0000   125.3177   -53.6446     9.3455     3.9836     2.5751   -86.9825
 3924.5000   122.6366   -53.9286     9.3472     4.0997     2.7253   -87.0533
 3925.0000   119.3530   -53.9145     9.3335     4.2989     2.8786   -94.6999
 3925.5000   115.4745   -54.0512     9.3349     4.5125     2.9193   -86.3728
 3926.0000   113.0946   -54.0333     9.3212     4.7695     3.0229   -56.9628
 3926.5000   110.4134   -53.8686     9.3230     5.0492     3.2458   -41.8822
 3927.0000   105.6239   -53.8545     9.3089     5.4027     3.4264   -41.9708
 3927.5000    96.9261   -53.8404     9.3258     5.5544     3.4749   -64.7866
 3928.0000    94.5461   -53.9768     9.3273     5.6319     3.4998   -87.5847
 3928.5000    98.7927   -53.9592     9.3745     5.0762     3.1548   -87.6556
 3929.0000   109.0634   -53.9451     9.4365     4.4504     2.8634   -79.7885
 3929.5000   116.9318   -53.9257     9.5137     4.0672     2.6353   -57.5120
 3930.0000   122.0820   -53.7651     9.6366     3.9561     2.5460   -42.4313
 3930.5000   123.6178   -53.7486     9.6987     3.9836     2.5643   -34.9264
 3931.0000   123.9638   -53.5815     9.7304     4.1240     2.6369   -42.5908
 3931.5000   127.6003   -53.4187     9.7471     4.2398     2.6929   -42.6616
 3932.0000   128.8348   -53.2530     9.7942     4.2989     2.7311   -57.8840
 3932.5000   129.7681   -53.0862     9.8411     4.1815     2.7507   -65.5306
 3933.0000   129.7982   -52.9215     9.9182     4.0672     2.6946   -65.6192
 3933.5000   128.6301   -52.9038     9.9830     3.9836     2.6764   -65.6900
 3934.0000   126.8526   -52.8897    10.0578     4.0117     2.6583   -65.7609
 3934.5000   123.2679   -52.8756    10.0138     4.1526     2.8109   -58.2560
 3935.0000   115.6428   -52.9618     9.9243     4.4504     3.0555   -58.3446
 3935.5000   102.5516   -52.9979     9.8651     4.7366     3.2081   -58.4154
 3936.0000    95.0512   -52.9803    10.0638     4.9035     3.2762   -50.9105
 3936.5000    87.8520   -52.9662    10.2622     4.8696     3.1653   -43.4056
 3937.0000    86.9438   -52.9518    10.3697     4.8027     3.1007   -35.9184
 3937.5000    81.8947   -52.9344    10.3260     5.2188     3.3705   -28.3958
 3938.0000    75.5991   -53.0744     9.8123     6.0516     4.0561   -20.7035
 3938.5000    67.4963   -53.0568     9.5410     6.9323     5.0417    -5.8457
 3939.0000    62.4129   -53.0422     9.5888     7.2767     5.2570     1.6769
 3939.5000    61.5316   -53.0271     9.6805     7.2831     5.0788     1.5884
 3940.0000    65.1832   -53.0120     9.7880     6.9260     5.0098   -22.2243
 3940.5000    68.8274   -52.9968     9.9258     6.7429     5.3709   -44.0256
 3941.0000    69.4595   -52.9791    10.5266     7.8526     5.7978   -51.6722
 3941.5000    68.2918   -52.9650    10.8532     8.5331     6.0036   -59.3188
 3942.0000    68.0129   -52.9509    11.5213     8.6521     5.6417   -59.4074
 3942.5000    69.8572   -53.0873    11.6137     6.9805     4.8108   -59.4782
 3943.0000    73.2076   -53.0697    11.3124     6.5135     4.6799   -59.5491
 3943.5000    74.4421   -53.2097    10.9502     6.7429     4.7794   -67.1970
 3944.0000    71.4598   -53.4933    10.3001     7.9621     6.0100   -74.8600
 3944.5000    63.9594   -53.6298     9.5402    10.0064     7.5572   -90.0824
 3945.0000    57.0688   -53.7662     9.2575    11.8978     9.1153   -97.7290
 3945.5000    54.6889   -54.0498     9.2895    12.9287     9.5045  -112.9691
 3946.0000    54.1162   -54.1867     9.3516    12.4887     7.9934   -90.3127
 3946.5000    60.7951   -54.4734     9.3833    10.0064     6.6297   -75.2321
 3947.0000    66.5324   -54.7604     9.4154     8.6521     6.1864   -60.0566
 3947.5000    68.9718   -54.8969     9.4471     8.0713     6.0186   -29.9192
 3948.0000    68.7003   -55.0299     9.4182     7.7446     5.7747    -7.2805
 3948.5000    68.1276   -55.0122     9.3442     7.4294     5.4263     7.8001
 3949.0000    67.8635   -54.9981     9.3002     7.1270     5.1702    30.4566
 3949.5000    68.1944   -55.1381     9.2710     6.7362     4.9579     7.6407
 3950.0000    69.1277   -55.2711     9.2576     6.5135     4.8930   -15.1574
 3950.5000    71.0205   -55.4040     9.2438     6.6964     5.0319   -22.8040
 3951.0000    71.9054   -55.3899     9.2456     6.8370     5.1745   -22.8926
 3951.5000    71.6265   -55.3758     9.2315     6.9323     5.3211   -22.9634
 3952.0000    75.2781   -55.2108     9.2333     7.0290     4.9314   -23.0343
 3952.5000    81.7843   -54.8922     9.2502     6.4731     4.6662   -23.1061
 3953.0000    86.1883   -54.8781     9.2820     5.8757     4.4459   -23.1937
 3953.5000    87.1216   -54.7134     9.2834     5.3337     4.0076   -30.8404
 3954.0000    86.5489   -54.6988     9.2851     5.0469     3.8184   -53.6385
 3954.5000    85.3813   -54.6816     9.2809     4.9436     3.7404   -68.8786
 3955.0000    83.6037   -54.8216     9.2577     4.9788     3.7673   -38.6464
 3955.5000    81.8262   -54.9548     9.2440     5.2632     3.9557    -8.4142
