~VERSION INFORMATION
 VERS.                2.0:   CWLS LOG ASCII STANDARD - VERSION 2.0
 WRAP.                 NO:   ONE LINE PER DEPTH STEP
~WELL INFORMATION
#MNEM.UNIT      DATA TYPE    INFORMATION
#----------   ------------   ------------------------------
 STRT.F          230.0000:   START DEPTH
 STOP.F         3480.0000:   STOP DEPTH
 STEP.F            0.5000:   STEP LENGTH
 NULL.          -999.2500:   NO VALUE
 COMP.    FENIX & SCISSON:   COMPANY
 WELL. FENIX NPR 3 "AX" #33-15:   WELL
 FLD .                NPR:   FIELD
 LOC .      S15 T38N R78W:   LOCATION
 CNTY.            NATRONA:   COUNTY
 STAT.            WYOMING:   STATE
 CTRY. UNITED STATES OF AMERICA:   COUNTRY
 SRVC.       SCHLUMBERGER:   SERVICE COMPANY
 DATE.        19-MAR-1981:   LOGDATE
 API .     49025108760000:   API NUMBER
~CURVE INFORMATION
#MNEM.UNIT       API CODE    CURVE DESCRIPTION
#----------   ------------   ------------------------------
 DEPT.F                  :   
 TENR.LBS    07 635 01 00:   TENSION
 SFL .OHMM   07 220 01 00:   SHALLOW FOCUSED LOG RESISTIVITY
 ILM .OHMM   07 120 44 00:   INDUCTION LOG MEDIUM RESISTIVITY
 ILD .OHMM   07 120 46 00:   INDUCTION LOG DEEP RESISTIVITY
 SPR .MV     07 010 01 00:   SPONTANEOUS POTENTIAL
 CALD.IN     45 280 60 00:   CALIPER FROM DENSITY LOG
 GRD .GAPI   45 310 01 00:   GAMMA RAY FROM DENSITY LOG
 CORR.G/C3   45 356 01 00:   DENSITY CORRECTION
 RHOB.G/C3   45 350 01 00:   BULK DENSITY
~PARAMETER INFORMATION
#MNEM.UNIT          VALUE    DESCRIPTION
#----------   ------------   ------------------------------
 EKB .F         5286.0000:   Kelly bushing
 EGL .F         5276.0000:   Ground level
 EDF .F            0.0000:   Drilling floor
 TD  .F         3500.0000:   Total depth
 DATE.        19-MAR-1981:   Date logged
 CLNT.            A2DTECH:   Client Code
 SL  . 1545' FNL & 1467' FWL:   Surface Location
 PD  .                 GL:   Permanent Datum
 EPD .F              5276:   Elevation Permanent Datum
 LMF .                 KB:   Log Measured From
 DMF .                 KB:   Drilling Measured From
 DAPD.F                10:   Feet Above Permanent Datum
 DD  .F              3500:   Depth driller
 DL  .F              3476:   Depth logger
 BLI .F              3470:   Bottom log interval
 TLI .F               234:   Top log interval
 CS1 .IN            8.625:   Casing size
 CBD1.      8.625" @ 250':   Casing driller 1
 CBL1.F               234:   Casing logger 1
 BS1 .IN            7.875:   Bit size
 BSD1.F              3500:   Depth drilled with bit1
 DFT .                FGM:   Type fluid in hole
 DFD .                8.9:   Density
 DFV .                 39:   Viscosity
 DFPH.                9.5:   pH
 DFL .                 10:   Fluid loss
 MSS .               TANK:   Source of sample
 RMS .OHMM           2.26:   Rm
 MST .F                54:   Rm Meas. temp.
 RMF .OHMM           1.60:   Rmf
 MFST.F                54:   Rmf Meas. temp.
 MFSS.               MEAS:   Source Rmf.
 RMB .OHMM            .87:   Rm. at BHT
 BHT .F               140:   BHT.
 TCS .HRS            1030:   Time Circ. stopped
 TLAB.HRS            1300:   Time logger at bottom
 MRT .F               140:   Maximum recorded temp.
 LUN .               8039:   Logging unit number
 LUL .               CSPR:   Logging unit location
 ENGI.           C. PFARR:   Recorded By
 WITN.           R. SCOTT:   Witnessed by
 ORIG.     2.5", 5" PRINT:   Origin of data
 UWI .     49025108760000:   Unique Well ID
 DICO. A2D TECHNOLOGIES, INC.:   Digitizing Company
~OTHER INFORMATION
~A   DEPT     TENR          SFL      ILM        ILD        SPR         CALD       GRD      CORR         RHOB 
# ...
 2602.5000  1471.5370    11.9040     6.7270     7.1040   -32.6640     8.4790   125.2780     0.0050     2.4810
 2603.0000  1471.8070    11.6850     6.6130     7.0340   -32.8580     8.4800   119.9950     0.0030     2.4830
 2603.5000  1472.0780    10.7490     6.5000     6.9640   -33.0660     8.4950   118.7130     0.0050     2.4860
 2604.0000  1472.3480     9.6130     6.3390     6.8940   -33.1410     8.5000   122.1330     0.0080     2.4880
 2604.5000  1472.6180     8.4780     6.3390     6.8270   -33.1340     8.5000   129.4080     0.0080     2.4870
 2605.0000  1472.8879     8.0660     6.2230     6.7350   -33.1350     8.5000   130.9880     0.0050     2.4830
 2605.5000  1473.1591     7.9180     6.1890     6.6450   -33.1360     8.5000   132.7650     0.0060     2.4790
 2606.0000  1473.4290     9.1470     6.1120     6.5560   -33.1320     8.5000   134.6020     0.0060     2.4850
 2606.5000  1473.6990    10.2630     6.0350     6.4670   -33.1440     8.5000   135.2630     0.0100     2.4910
 2607.0000  1473.9700    10.4550     5.9580     6.3780   -33.0440     8.5000   134.8760     0.0130     2.4970
 2607.5000  1474.2400     9.9580     5.8820     6.2890   -32.8760     8.5000   131.7450     0.0160     2.5030
 2608.0000  1474.5100     9.2760     5.8050     6.2230   -32.7220     8.5000   130.4210     0.0210     2.5060
 2608.5000  1474.7800     8.3080     5.7280     6.1680   -32.5670     8.5000   137.2510     0.0230     2.5000
 2609.0000  1475.0510     7.2170     5.6720     6.1050   -32.4100     8.5000   141.8650     0.0210     2.4920
 2609.5000  1475.3210     7.2170     5.4660     6.0420   -32.2550     8.5000   146.8420     0.0200     2.4840
 2610.0000  1475.5909     7.2170     5.5210     5.9960   -32.0990     8.5000   147.8650     0.0190     2.4780
 2610.5000  1475.8610     7.2170     5.6020     6.0380   -31.9440     8.5000   142.1540     0.0180     2.4760
 2611.0000  1476.1320     7.4530     5.6830     6.0850   -31.7880     8.5000   135.9350     0.0160     2.4860
 2611.5000  1476.4020     8.2760     5.7640     6.1330   -31.6330     8.5000   135.5370     0.0200     2.4990
 2612.0000  1476.6720     9.1830     5.8460     6.1800   -31.4750     8.5000   136.7220     0.0250     2.5110
 2612.5000  1476.9430     9.4280     5.9270     6.2230   -31.3220     8.5000   136.0230     0.0300     2.5200
 2613.0000  1477.2130     9.5300     6.0080     6.3040   -31.1630     8.5000   133.6660     0.0360     2.5090
 2613.5000  1477.4830     9.2200     6.0890     6.3770   -31.1620     8.5000   132.2600     0.0250     2.4840
 2614.0000  1477.7531     8.6080     6.1700     6.4510   -31.2950     8.5000   135.1150     0.0130     2.4590
 2614.5000  1478.0240     8.0660     6.2520     6.5240   -31.4240     8.5000   141.1570     0.0050     2.4490
 2615.0000  1478.2939     8.5730     6.3390     6.5980   -31.5550     8.5000   144.9300     0.0060     2.4580
 2615.5000  1478.5640     9.2090     6.4580     6.6710   -31.6840     8.5000   146.3040     0.0110     2.4750
 2616.0000  1478.8340     9.8450     6.5060     6.7440   -31.8140     8.5000   142.5520     0.0170     2.4840
 2616.5000  1479.1050    10.6510     6.5500     6.8180   -31.9440     8.5000   137.8800     0.0240     2.4930
 2617.0000  1479.3750    10.4970     6.5790     6.8910   -32.0760     8.5000   133.6840     0.0300     2.5060
 2617.5000  1479.6450    10.0360     6.5790     6.9550   -32.2020     8.5000   135.5860     0.0320     2.5090
 2618.0000  1479.9160     9.5760     6.5600     6.9310   -32.3350     8.5000   137.9650     0.0280     2.5030
 2618.5000  1480.1860     9.1830     6.5350     6.8600   -32.3170     8.5000   137.4930     0.0230     2.4950
 2619.0000  1480.4561     9.5160     6.5090     6.7890   -32.2710     8.5000   136.2470     0.0190     2.4840
 2619.5000  1480.7260     9.8070     6.4840     6.7190   -32.2220     8.5000   135.5790     0.0140     2.4780
 2620.0000  1480.9969    10.0970     6.4580     6.7020   -32.1780     8.5000   136.5620     0.0100     2.4740
 2620.5000  1481.2670    10.3870     6.4580     6.7860   -32.1310     8.5000   138.6620     0.0110     2.4780
 2621.0000  1481.5370    10.1500     6.4580     6.8730   -32.0840     8.5000   140.6610     0.0140     2.4860
 2621.5000  1481.8070     9.7510     6.5000     6.9600   -32.0380     8.5000   141.3030     0.0160     2.4960
 2622.0000  1482.0780     9.1830     6.5430     7.0480   -31.9920     8.5000   141.9220     0.0190     2.4940
 2622.5000  1482.3480     9.4970     6.5790     7.1590   -31.9450     8.5000   142.2540     0.0130     2.4790
 2623.0000  1482.6180    10.0390     6.7870     7.2890   -31.8990     8.5000   142.2500     0.0100     2.4780
 2623.5000  1482.8890    10.3570     6.9640     7.4180   -31.8530     8.5000   141.6700     0.0120     2.4850
 2624.0000  1483.1591    10.6450     7.1410     7.5470   -31.8060     8.5000   139.6920     0.0140     2.4930
 2624.5000  1483.4290    11.1310     7.3180     7.6760   -31.7600     8.5000   137.7190     0.0160     2.4930
 2625.0000  1483.6990    11.6170     7.4950     7.8050   -31.7130     8.5000   136.5580     0.0180     2.4880
 2625.5000  1483.9700    12.1020     7.6720     7.9340   -31.6670     8.5000   139.4220     0.0150     2.4820
 2626.0000  1484.2400    12.5840     7.8490     8.0640   -31.6220     8.5000   142.3480     0.0120     2.4750
 2626.5000  1484.5100    12.5010     7.9180     8.2170   -31.5720     8.5000   147.1360     0.0080     2.4690
 2627.0000  1484.7800    12.4180     7.9180     8.0040   -31.5450     8.5000   149.0250     0.0070     2.4660
 2627.5000  1485.0510    12.1740     7.8400     7.7420   -31.5480     8.5000   148.3580     0.0050     2.4630
 2628.0000  1485.3210    11.3590     7.4810     7.4800   -31.5480     8.5000   146.2810     0.0090     2.4720
 2628.5000  1485.5909    10.7400     7.1230     7.2190   -31.5470     8.5000   145.4360     0.0180     2.4840
 2629.0000  1485.8621    10.3730     6.7650     6.9570   -31.5490     8.5000   143.7630     0.0200     2.4840
 2629.5000  1486.1320    10.1820     6.4070     6.6950   -31.5470     8.5000   140.6380     0.0220     2.4840
 2630.0000  1486.4020     9.6260     6.0490     6.4330   -31.5460     8.5000   137.2950     0.0280     2.4900
 2630.5000  1486.6720     8.6010     5.7570     6.2110   -31.5580     8.5000   141.3030     0.0340     2.4960
 2631.0000  1486.9430     7.5770     5.6720     6.1630   -31.4290     8.5000   141.8000     0.0370     2.4960
 2631.5000  1487.2130     7.2170     5.8860     6.1090   -31.1360     8.5010   137.5140     0.0350     2.4960
 2632.0000  1487.4830     8.1290     5.9540     6.1090   -30.8490     8.5010   133.3330     0.0300     2.5000
 2632.5000  1487.7540     9.1990     6.0340     6.2990   -30.7490     8.5020   133.0420     0.0250     2.5030
 2633.0000  1488.0240    10.2690     6.1090     6.4790   -30.7510     8.5030   141.3920     0.0190     2.4980
 2633.5000  1488.2939    11.0530     6.3600     6.6600   -30.7920     8.5040   144.0510     0.0120     2.4930
 2634.0000  1488.5640    11.0530     6.5790     6.8270   -30.8600     8.5050   143.4000     0.0060     2.4850
 2634.5000  1488.8350    10.4240     6.5510     6.7220   -30.9240     8.5060   141.0750     0.0040     2.4780
 2635.0000  1489.1050     9.8380     6.4580     6.5790   -30.9860     8.5070   138.7910     0.0040     2.4710
 2635.5000  1489.3750     9.1830     6.0410     6.2390   -31.0510     8.5070   136.5190     0.0060     2.4770
 2636.0000  1489.6450     9.0150     5.6560     5.9250   -31.1140     8.5080   134.2150     0.0110     2.5080
 2636.5000  1489.9160     8.5830     5.2700     5.6100   -31.1780     8.5090   133.0920     0.0370     2.5420
 2637.0000  1490.1860     7.6680     4.9640     5.2960   -31.2410     8.5100   134.3050     0.0480     2.5620
 2637.5000  1490.4561     6.7530     4.7380     5.0750   -31.3050     8.5110   135.4940     0.0600     2.5680
 2638.0000  1490.7271     5.8380     4.6260     5.0060   -31.3680     8.5120   136.9060     0.0610     2.5590
 2638.5000  1490.9969     5.5680     4.7200     4.9280   -31.4320     8.5130   140.2770     0.0280     2.5440
