~VERSION INFORMATION
 VERS.                2.0:   CWLS LOG ASCII STANDARD - VERSION 2.0
 WRAP.                 NO:   ONE LINE PER DEPTH STEP
~WELL INFORMATION
#MNEM.UNIT      DATA TYPE    INFORMATION
#----------   ------------   ------------------------------
 STRT.F           40.0000:   START DEPTH
 STOP.F         3032.5000:   STOP DEPTH
 STEP.F            0.5000:   STEP LENGTH
 NULL.          -999.2500:   NO VALUE
 COMP.   TESORO PETROLEUM:   COMPANY
 WELL. TESORO NPR 3 "AX" #51-15:   WELL
 FLD .        TEAPOT DOME:   FIELD
 LOC .      S15 T38N R78W:   LOCATION
 CNTY.            NATRONA:   COUNTY
 STAT.            WYOMING:   STATE
 CTRY. UNITED STATES OF AMERICA:   COUNTRY
 SRVC.       SCHLUMBERGER:   SERVICE COMPANY
 DATE.        21-JUL-1969:   LOGDATE
 API .     49025100240000:   API NUMBER
~CURVE INFORMATION
#MNEM.UNIT       API CODE    CURVE DESCRIPTION
#----------   ------------   ------------------------------
 DEPT.F                  :   
 CALD.IN     45 280 60 00:   CALIPER FROM DENSITY LOG
 GRD .GAPI   45 310 01 00:   GAMMA RAY FROM DENSITY LOG
 RHOB.G/C3   45 350 01 00:   BULK DENSITY
 CORR.G/C3   45 356 01 00:   DENSITY CORRECTION
 GR  .GAPI   35 310 01 00:   GAMMA RAY FROM GAMMA RAY LOG
 SPR .MV     05 010 01 00:   SPONTANEOUS POTENTIAL
 ASN .OHMM   05 041 16 00:   AMPLIFIED SHORT NORMAL 16"
 ILD .OHMM   05 120 46 00:   DEEP INDUCTION RESISTIVITY
~PARAMETER INFORMATION
#MNEM.UNIT          VALUE    DESCRIPTION
#----------   ------------   ------------------------------
 EKB .F         5235.0000:   Kelly bushing
 EGL .F         5222.0000:   Ground level
 EDF .F            0.0000:   Drilling floor
 TD  .F         3027.0000:   Total depth
 DATE.        21-JUL-1969:   Date logged
 CLNT.            A2DTECH:   Client Code
 SL  . 2000' FEL & 660' FNL:   Surface Location
 PD  .                 GL:   Permanent Datum
 EPD .F              5222:   Elevation Permanent Datum
 LMF .                 KB:   Log Measured From
 DMF .                 KB:   Drilling Measured From
 DAPD.F                13:   Feet Above Permanent Datum
 DD  .F              3027:   Depth driller
 DL  .F              3025:   Depth logger
 BLI .F              3024:   Bottom log interval
 TLI .F              2604:   Top log interval
 CS1 .IN            10.75:   Casing size
 CBD1.      10.75" @ 622':   Casing driller 1
 BS1 .IN                9:   Bit size
 BSD1.F              3027:   Depth drilled with bit1
 DFT .          FRESH/GEL:   Type fluid in hole
 DFD .                9.7:   Density
 DFV .                 65:   Viscosity
 DFPH.                9.5:   pH
 DFL .                  7:   Fluid loss
 MSS .           FLOWLINE:   Source of sample
 RMS .OHMM           2.48:   Rm
 MST .F                80:   Rm Meas. temp.
 RMF .OHMM           2.80:   Rmf
 MFST.F                80:   Rmf Meas. temp.
 MFSS.               MEAS:   Source Rmf.
 RMB .OHMM           2.20:   Rm. at BHT
 BHT .F               106:   BHT.
 TCS .HRS               1:   Time Circ. stopped
 MRT .F               106:   Maximum recorded temp.
 LUN .               4507:   Logging unit number
 LUL .               CSPR:   Logging unit location
 ENGI.           CHAMPLIN:   Recorded By
 WITN.                MAY:   Witnessed by
 ORIG.           5" PRINT:   Origin of data
 UWI .     49025100240000:   Unique Well ID
 DICO. A2D TECHNOLOGIES, INC.:   Digitizing Company
~OTHER INFORMATION
~A   DEPT     CALD        GRD       RHOB       CORR         GR        SPR        ASN          ILD 
# ...
 2065.0000     9.3850   114.0620     2.4700     0.0070  -999.2500   -37.4450    17.1210    13.1860
 2065.5000     9.3840   107.7510     2.4770     0.0100  -999.2500   -37.5740    17.6450    13.7570
 2066.0000     9.3830   106.2240     2.4680     0.0220  -999.2500   -37.4270    18.1790    14.0610
 2066.5000     9.3820   108.6350     2.4600     0.0300  -999.2500   -37.0690    18.6870    14.4480
 2067.0000     9.3800   111.4170     2.4590     0.0270  -999.2500   -36.7390    19.2660    14.5890
 2067.5000     9.3790   112.4910     2.4530     0.0300  -999.2500   -36.4130    19.5580    14.5540
 2068.0000     9.3780   112.5520     2.4640     0.0320  -999.2500   -36.0630    19.5000    14.3240
 2068.5000     9.3770   115.8910     2.4520     0.0280  -999.2500   -35.9420    18.8890    13.9970
 2069.0000     9.3750   119.4330     2.4700     0.0090  -999.2500   -35.7330    18.0530    13.5670
 2069.5000     9.3740   120.3480     2.4640     0.0360  -999.2500   -35.5410    17.2830    13.1460
 2070.0000     9.3730   114.6030     2.4390     0.0490  -999.2500   -35.3430    16.4000    12.7180
 2070.5000     9.3720   108.4920     2.4460     0.0230  -999.2500   -35.0570    16.1240    12.2940
 2071.0000     9.3700   106.6410     2.4760     0.0110  -999.2500   -34.6270    15.8080    11.8660
 2071.5000     9.3690   108.7850     2.5050     0.0340  -999.2500   -34.4340    15.4790    11.4480
 2072.0000     9.3680   110.3710     2.4570     0.0480  -999.2500   -34.5220    15.1750    11.0010
 2072.5000     9.3670   111.7480     2.4450     0.0370  -999.2500   -34.6020    14.9050    10.8010
 2073.0000     9.3650   115.2850     2.4540     0.0260  -999.2500   -34.6980    14.6150    10.9070
 2073.5000     9.3640   118.6530     2.4630     0.0140  -999.2500   -34.8000    14.4000    11.0130
 2074.0000     9.3630   121.5790     2.4700     0.0040  -999.2500   -34.6020    14.3780    11.1390
 2074.5000     9.3610   123.4210     2.4580     0.0070  -999.2500   -33.7400    14.4810    11.2340
 2075.0000     9.3600   125.1160     2.4370     0.0230  -999.2500   -33.9700    14.6870    11.3840
 2075.5000     9.3590   121.8300     2.4350     0.0390  -999.2500   -34.3650    14.8690    11.2550
 2076.0000     9.3580   116.8160     2.4800     0.0550  -999.2500   -34.7770    15.0120    11.1850
 2076.5000     9.3560   112.0240     2.5080     0.0710  -999.2500   -35.1780    14.7320    10.9640
 2077.0000     9.3550   106.8440     2.5100     0.0880  -999.2500   -35.2470    14.2630    10.7320
 2077.5000     9.3540   106.6170     2.5110     0.1010  -999.2500   -34.9900    13.8400    10.4880
 2078.0000     9.3480   110.8950     2.4960     0.0910  -999.2500   -34.1820    13.3990    10.2570
 2078.5000     9.3370   115.1820     2.4630     0.0790  -999.2500   -32.6220    12.9710    10.0140
 2079.0000     9.3270   119.7680     2.4210     0.0480  -999.2500   -31.3480    12.5370     9.7860
 2079.5000     9.3170   119.7610     2.4370    -0.0120  -999.2500   -30.9420    12.3860     9.5280
 2080.0000     9.3060   113.4080     2.4580     0.0030  -999.2500   -30.9600    12.4770     9.4640
 2080.5000     9.2960   109.7990     2.4650     0.0130  -999.2500   -31.7840    12.6340     9.5830
 2081.0000     9.2860   108.8130     2.5050     0.0240  -999.2500   -32.1090    12.7770     9.6760
 2081.5000     9.2760   107.6220     2.4940     0.0380  -999.2500   -32.0770    12.9350     9.7780
 2082.0000     9.2730   106.3590     2.4830     0.0420  -999.2500   -32.0540    13.0030     9.8780
 2082.5000     9.2730   105.6910     2.4730     0.0280  -999.2500   -32.0290    12.9820     9.9800
 2083.0000     9.2730   104.0590     2.4770     0.0210  -999.2500   -32.0010    12.9500    10.0720
 2083.5000     9.2730   101.1400     2.4850     0.0200  -999.2500   -31.9780    12.9170    10.1970
 2084.0000     9.2730    98.1000     2.4930     0.0240  -999.2500   -31.9520    12.8820    10.0180
 2084.5000     9.2730    97.7640     2.5010     0.0300  -999.2500   -31.9280    12.8530     9.6440
 2085.0000     9.2730    97.5630     2.5050     0.0250  -999.2500   -31.9040    12.8090     9.7330
 2085.5000     9.2730    97.3260     2.5040     0.0330  -999.2500   -31.8790    12.8620     9.8200
 2086.0000     9.2730    98.2420     2.4880     0.0230  -999.2500   -31.8540    13.0270     9.9340
 2086.5000     9.2730   100.9860     2.4790     0.0180  -999.2500   -31.8290    13.1810    10.0250
 2087.0000     9.2730   104.2530     2.4700     0.0160  -999.2500   -31.8050    13.3360    10.1180
 2087.5000     9.2710   107.9480     2.4680     0.0130  -999.2500   -31.7800    13.4960    10.2990
 2088.0000     9.2690   111.2680     2.4510     0.0030  -999.2500   -31.7540    13.6520    10.6490
 2088.5000     9.2680   113.6480     2.4560    -0.0030  -999.2500   -31.7340    13.7660    10.5940
 2089.0000     9.2660   112.2130     2.4650     0.0050  -999.2500   -31.6960    13.5830    10.5640
 2089.5000     9.2650   111.0770     2.4510    -0.0040  -999.2500   -31.7790    13.4120    10.4650
 2090.0000     9.2630   111.5030     2.4560     0.0040  -999.2500   -31.9660    13.2250    10.3860
 2090.5000     9.2620   114.8740     2.4890     0.0170  -999.2500   -32.1390    13.0550    10.3020
 2091.0000     9.2600   113.6090     2.4900     0.0100  -999.2500   -32.3100    12.8630    10.2190
 2091.5000     9.2590   111.3700     2.4770     0.0130  -999.2500   -32.4950    12.8040    10.1320
 2092.0000     9.2570   108.8730     2.4890     0.0130  -999.2500   -32.6570    12.9230    10.0620
 2092.5000     9.2560   108.4270     2.5030     0.0160  -999.2500   -32.8410    12.9580     9.8970
 2093.0000     9.2540   109.1270     2.4990     0.0410  -999.2500   -32.5280    12.6120     9.6560
 2093.5000     9.2530   109.4330     2.4920     0.0480  -999.2500   -32.0930    12.3200     9.4390
 2094.0000     9.2510   108.1130     2.5000     0.0370  -999.2500   -31.6670    11.9990     9.2400
 2094.5000     9.2490   102.4600     2.4920     0.0290  -999.2500   -31.2490    11.6950     9.2290
 2095.0000     9.2480   102.2100     2.4840     0.0190  -999.2500   -30.7800    11.4290     9.2240
 2095.5000     9.2460   100.6530     2.4860     0.0140  -999.2500   -30.4960    11.4020     9.2340
 2096.0000     9.2450    96.7310     2.4970     0.0120  -999.2500   -30.4430    11.5230     9.2150
 2096.5000     9.2430    96.8360     2.4920     0.0100  -999.2500   -30.0530    11.7900     9.3520
 2097.0000     9.2420    97.5390     2.4940     0.0200  -999.2500   -30.0690    12.0370     9.5750
 2097.5000     9.2400    97.9910     2.5010     0.0280  -999.2500   -29.9980    12.2820     9.7680
 2098.0000     9.2390    98.3770     2.4920     0.0220  -999.2500   -29.9690    12.5320     9.9650
 2098.5000     9.2370   104.8650     2.4880     0.0180  -999.2500   -29.9210    12.4680    10.0250
 2099.0000     9.2360   109.3670     2.4910     0.0120  -999.2500   -29.8830    12.2750    10.0220
 2099.5000     9.2340   114.1380     2.4670     0.0190  -999.2500   -29.8370    12.0990    10.1040
 2100.0000     9.2330   115.1230     2.4660     0.0280  -999.2500   -29.8020    11.9020    10.1780
 2100.5000     9.2350   114.4510     2.4770     0.0220  -999.2500   -29.7560    11.7960    10.1870
 2101.0000     9.2370   106.9040     2.4840     0.0230  -999.2500   -29.6890    11.8070     9.9040
 2101.5000     9.2390   104.3770     2.4620     0.0230  -999.2500   -29.2690    11.8050     9.7460
 2102.0000     9.2410   101.9130     2.4690     0.0230  -999.2500   -28.9250    11.8050     9.5590
 2102.5000     9.2430   103.0220     2.4840     0.0270  -999.2500   -28.5520    11.7890     9.3940
 2103.0000     9.2450   105.1760     2.4930     0.0280  -999.2500   -28.6790    11.5570     9.2120
 2103.5000     9.2470   106.1220     2.4720     0.0300  -999.2500   -28.9350    11.3110     9.0450
 2104.0000     9.2490   102.1150     2.4560     0.0330  -999.2500   -29.1990    11.0630     8.8500
 2104.5000     9.2510    99.0760     2.4540     0.0260  -999.2500   -29.3270    10.8120     8.8330
 2105.0000     9.2530   101.0190     2.4750     0.0170  -999.2500   -29.0800    10.6160     8.8280
