~VERSION INFORMATION
 VERS.                2.0:   CWLS LOG ASCII STANDARD - VERSION 2.0
 WRAP.                 NO:   ONE LINE PER DEPTH STEP
~WELL INFORMATION
#MNEM.UNIT      DATA TYPE    INFORMATION
#----------   ------------   ------------------------------
 STRT.F          600.0000:   START DEPTH
 STOP.F         3201.0000:   STOP DEPTH
 STEP.F            0.5000:   STEP LENGTH
 NULL.          -999.2500:   NO VALUE
 COMP.    FENIX & SCISSON:   COMPANY
 WELL. FENIX & SCISSON 38 "AX" #3-34:   WELL
 FLD .              NPR 3:   FIELD
 LOC .      S34 T39N R78W:   LOCATION
 CNTY.            NATRONA:   COUNTY
 STAT.            WYOMING:   STATE
 CTRY. UNITED STATES OF AMERICA:   COUNTRY
 SRVC.              WELEX:   SERVICE COMPANY
 DATE.        16-SEP-1980:   LOGDATE
 API .     49025108560000:   API NUMBER
~CURVE INFORMATION
#MNEM.UNIT       API CODE    CURVE DESCRIPTION
#----------   ------------   ------------------------------
 DEPT.F                  :   
 CORR.G/C3   45 356 01 00:   DENSITY CORRECTION
 GRD .GAPI   45 310 01 00:   GAMMA RAY FROM DENSITY LOG
 RHOB.G/C3   45 350 01 00:   BULK DENSITY
 TEND.LBS    45 635 01 00:   TENSION FORM DENSITY LOG
 CALD.IN     45 280 60 00:   CALIPER FROM DENSITY LOG
 SPR .MV     07 010 01 00:   SPONTANEOUS POTENTIAL FROM RES.
 ILD .OHMM   07 120 46 00:   DEEP INDUCTION RESISTIVITY
 ILM .OHMM   07 120 44 00:   INDUCTION LOG MEDIUM RESISTIVITY
 GURD.OHMM   07 220 05 00:   GUARD LOG RESISTIVITY
~PARAMETER INFORMATION
#MNEM.UNIT          VALUE    DESCRIPTION
#----------   ------------   ------------------------------
 EKB .F         5205.0000:   Kelly bushing
 EGL .F         5195.0000:   Ground level
 TD  .F         3202.0000:   Total depth
 CLNT.            A2DTECH:   Client Code
 SL  . 582' FSL & 1600' FWL:   Surface Location
 PD  .                 GL:   Permanent Datum
 EPD .F              5195:   Elevation Permanent Datum
 LMF .                 KB:   Log Measured From
 DMF .                 KB:   Drilling Measured From
 DAPD.F                10:   Feet Above Permanent Datum
 DATE.        16-SEP-1980:   Date Logged [DD-MMM-YYYY]
 DD  .F              3200:   Depth driller
 DL  .F              3203:   Depth logger
 BLI .F              3201:   Bottom log interval
 TLI .F               600:   Top log interval
 CS1 .IN            8.625:   Casing size
 CBD1.      8.625" @ 580':   Casing driller 1
 CBL1.F               600:   Casing logger 1
 BS1 .IN            7.875:   Bit size
 BSD1.F              3200:   Depth drilled with bit1
 DFT .          DISPERSED:   Type fluid in hole
 DFD .                8.8:   Density
 DFV .                 40:   Viscosity
 DFPH.                 11:   pH
 DFL .                  8:   Fluid loss
 MSS .           FLOWLINE:   Source of sample
 RMS .OHMM           1.33:   Rm
 MST .F                65:   Rm Meas. temp.
 RMF .OHMM           1.15:   Rmf
 MFST.F                65:   Rmf Meas. temp.
 MFSS.               MEAS:   Source Rmf.
 RMC .OHMM           1.50:   Rmc
 MCST.F                65:   Rmc Meas. temp.
 MCSS.               MEAS:   Source Rmc.
 RMB .OHMM            .75:   Rm. at BHT
 BHT .F               115:   BHT.
 TCS .HRS               8:   Time Circ. stopped
 MRT .F               115:   Maximum recorded temp.
 LUN .               1892:   Logging unit number
 LUL .             CASPER:   Logging unit location
 ENGI.    PERIMMER / REIN:   Recorded By
 WITN.              FIVAS:   Witnessed by
 ORIG.         2.5" PRINT:   Origin of data
 UWI .     49025108560000:   Unique Well ID
 DICO. A2D TECHNOLOGIES, INC.:   Digitizing Company
~OTHER INFORMATION
~A   DEPT       CORR       GRD        RHOB      TEND       CALD       SPR          ILD        ILM       GURD 
# ...
 1293.5000     0.1186    37.5584     2.5485   502.2591    11.0452   -35.9880     6.5999     6.2501     6.5211
 1294.0000     0.1155    38.5043     2.5389   503.0121    11.1976   -36.0000     6.5969     6.3341     6.5171
 1294.5000     0.1124    41.7177     2.5293   503.7650    11.1961   -35.7130     6.5938     6.3303     6.5130
 1295.0000     0.1063    42.0738     2.5230   504.5180    11.1527   -35.7243     6.5906     6.3267     6.5090
 1295.5000     0.1032    40.7027     2.5178   505.2711    11.0734   -35.1332     6.5874     6.3232     6.5042
 1296.0000     0.1001    40.8768     2.5252   506.0241    11.0291   -34.5422     6.5842     6.4073     6.5003
 1296.5000     0.1000    42.0540     2.5162   506.9126    10.9805   -34.2153     6.5810     6.4040     6.4965
 1297.0000     0.0988    45.6006     2.4980   507.5302    11.0087   -33.6612     6.5778     6.4007     6.5832
 1297.5000     0.0954    46.4865     2.4935   478.2254    11.1570   -33.6747     6.5746     6.3929     6.4887
 1298.0000     0.0907    46.4674     2.4956   478.9420    11.1856   -33.6867     6.6634     6.3058     6.4847
 1298.5000     0.0876    46.4504     2.4994   495.1578    11.1242   -33.7009     6.6304     6.3023     6.4806
 1299.0000     0.0845    46.9310     2.4994   510.5421    11.0629   -34.0135     6.5257     6.2988     6.4766
 1299.5000     0.0814    48.6685     2.4963   511.2952    11.0680   -34.3260     6.3826     6.2953     6.4236
 1300.0000     0.0783    46.6957     2.4962   512.0023    11.1231   -34.3373     6.2454     6.2127     6.2710
 1300.5000     0.0830    45.7190     2.4970   512.4662    11.1427   -34.6894     6.0951     6.1083     6.2027
 1301.0000     0.0878    45.0000     2.5114   512.9301    11.1126   -35.0415     6.0315     6.0315     6.1148
 1301.5000     0.0911    44.5238     2.5217   513.3940    11.0552   -35.2885     6.0295     6.1132     6.1123
 1302.0000     0.0973    44.0521     2.5165   513.8555    11.1436   -35.3027     6.0274     6.1112     6.1097
 1302.5000     0.0991    43.5804     2.5165   530.1186    11.1722   -35.3170     6.1089     6.2808     6.1919
 1303.0000     0.0990    42.6577     2.5307   544.9589    11.1694   -35.3313     6.1921     6.2787     6.3633
 1303.5000     0.0990    42.1847     2.5337   545.3882    11.1392   -35.3464     6.2764     6.2766     6.5395
 1304.0000     0.0959    42.1622     2.5337   545.8174    11.1078   -35.3614     6.3619     6.2502     6.6281
 1304.5000     0.0989    43.4128     2.5306   546.2468    11.0944   -35.3765     6.3597     6.1859     6.5342
 1305.0000     0.0988    45.3001     2.5228   546.6868    11.0749   -35.0904     6.3575     6.2283     6.4417
 1305.5000     0.0953    46.5954     2.5161   547.1385    11.1030   -35.1084     6.2679     6.2679     6.4123
 1306.0000     0.0824    45.2228     2.4981   539.7585    11.1316   -34.8193     6.2278     6.2655     6.3112
 1306.5000     0.0685    43.8502     2.4818   517.8434    11.2499   -34.5331     6.1774     6.1773     6.1718
 1307.0000     0.0654    42.9219     2.4818   518.3735    11.1587   -34.2470     6.0900     6.0903     6.0003
 1307.5000     0.0711    42.4550     2.5064   518.8253    11.0974   -34.2618     5.8402     5.9130     5.8341
 1308.0000     0.0837    45.0272     2.5124   549.4663    11.1325   -33.9316     5.7580     5.8384     5.9133
 1308.5000     0.0803    46.1816     2.5109   549.8956    11.1544   -33.3103     5.7561     5.8364     5.9942
 1309.0000     0.0772    45.3183     2.5094   550.3248    11.0789   -33.0998     5.8474     5.8721     6.0745
 1309.5000     0.0982    44.6130     2.5210   550.7541    11.1210   -33.4187     5.9964     5.9957     6.0718
 1310.0000     0.1102    45.9431     2.5430   551.2048    11.1287   -34.0390     5.9941     5.9938     6.0693
 1310.5000     0.1071    48.1741     2.5559   551.6566    11.0583   -34.0532     5.9920     5.9918     6.0667
 1311.0000     0.1041    49.5045     2.5462   552.1085    11.0269   -34.3687     5.9072     5.9075     5.9803
 1311.5000     0.1107    49.4400     2.5438   552.5602    11.0620   -34.3830     5.8240     5.9010     5.8147
 1312.0000     0.1160    48.9130     2.5528   553.0120    11.2387   -34.3976     5.7420     5.8222     5.8124
 1312.5000     0.1160    47.9354     2.5618   523.4240    11.2059   -34.1103     5.7402     5.8202     5.8101
 1313.0000     0.1113    46.5075     2.5558   523.8532    11.0386   -34.0422     5.8183     5.8182     5.8950
 1313.5000     0.0978    46.2387     2.5302   524.2469    11.0195   -33.7218     5.8162     5.8162     5.9846
 1314.0000     0.0796    46.2130     2.5227   524.6988    11.1075   -33.7068     5.9249     5.8138     6.0756
 1314.5000     0.0675    44.3899     2.5227   525.1507    11.0762   -34.1744     6.0154     5.8932     6.2053
 1315.0000     0.0584    43.4678     2.5189   555.7230    11.0149   -34.4899     6.0567     6.0565     6.4374
 1315.5000     0.0523    42.0706     2.4933   556.1747    11.0135   -34.8053     6.0782     6.2246     6.3853
 1316.0000     0.0523    42.1502     2.4835   556.6265    11.1318   -34.8196     6.0523     6.2225     6.2950
 1316.5000     0.0528    43.5331     2.4865   557.0784    11.1231   -34.5326     6.0503     6.2000     6.2060
 1317.0000     0.0560    44.2837     2.4955   557.5302    11.0283   -34.5482     6.0483     6.1326     6.1182
 1317.5000     0.0612    44.4671     2.5150   558.0517    10.9633   -34.2599     6.0630     6.0905     6.1037
 1318.0000     0.0611    44.2305     2.5180   558.4338    10.9758   -33.8514     6.1287     6.0437     6.0290
 1318.5000     0.0610    44.2093     2.5165   558.8856    11.0941   -33.5312     6.1263     6.1263     6.0265
 1319.0000     0.0670    42.3863     2.5223   559.3395    11.0979   -33.7074     6.2962     6.2095     6.0240
 1319.5000     0.0790    40.5570     2.5396   559.7892    11.0015   -33.7216     6.3817     6.2940     6.1055
 1320.0000     0.0823    39.6396     2.5435   560.2410    11.0339   -33.7359     6.4685     6.3796     6.3616
 1320.5000     0.0698    39.6171     2.5185   560.6927    11.1184   -34.0513     6.4662     6.3773     6.4478
 1321.0000     0.0607    41.0001     2.4863   561.1447    11.0777   -34.3675     6.4640     6.3751     6.4889
 1321.5000     0.0611    44.2927     2.4787   561.5964    11.0254   -34.3825     6.4618     6.3729     6.5405
 1322.0000     0.0644    45.4054     2.4772   562.1298    11.0563   -34.4941     6.4596     6.3707     6.6211
 1322.5000     0.0706    44.4791     2.4922   562.5591    11.2318   -34.7139     6.4573     6.3681     6.6180
 1323.0000     0.0769    43.1066     2.5076   562.9518    11.2004   -34.7289     6.4551     6.3661     6.6153
 1323.5000     0.0801    42.6349     2.5165   563.4036    11.0793   -34.7464     6.4525     6.3640     6.4712
 1324.0000     0.0845    44.0479     2.5158   548.1953    11.0180   -34.7607     6.4504     6.3619     6.4288
 1324.5000     0.0814    44.8446     2.5126   534.1556    11.0165   -34.7749     6.4483     6.3597     6.3379
 1325.0000     0.0753    43.7688     2.5102   534.6385    11.0898   -34.7892     6.4462     6.4686     6.4238
 1325.5000     0.0752    42.1368     2.5101   535.0904    11.1335   -34.7702     6.5467     6.7518     6.6969
 1326.0000     0.0752    40.4625     2.5116   535.5422    11.0719   -34.5165     6.7389     6.9505     6.9749
 1326.5000     0.0785    39.7940     2.5161   535.9940    11.0701   -34.5331     6.8405     7.0950     7.0694
 1327.0000     0.0841    40.2252     2.5191   506.3253    11.1585   -34.5482     6.9950     7.0923     7.0661
 1327.5000     0.0840    40.2020     2.5191   506.8254    11.1571   -34.2620     6.9921     7.0899     7.0632
 1328.0000     0.0827    42.0300     2.5205   507.2547    11.0958   -33.9759     6.8937     6.9901     7.0597
 1328.5000     0.0794    42.8622     2.5186   537.8044    11.0321   -33.9924     6.7967     6.8843     7.0570
 1329.0000     0.0688    40.0575     2.5139   538.2531    10.9255   -33.7048     6.6088     6.7945     6.7671
 1329.5000     0.0597    37.6742     2.5048   538.7048    10.8820   -33.7199     6.5085     6.7627     6.6714
