~VERSION INFORMATION
 VERS.                2.0:   CWLS LOG ASCII STANDARD - VERSION 2.0
 WRAP.                 NO:   ONE LINE PER DEPTH STEP
~WELL INFORMATION
#MNEM.UNIT      DATA TYPE    INFORMATION
#----------   ------------   ------------------------------
 STRT.F          520.0000:   START DEPTH
 STOP.F         3092.0000:   STOP DEPTH
 STEP.F            0.5000:   STEP LENGTH
 NULL.          -999.2500:   NO VALUE
 COMP.    FENIX & SCISSON:   COMPANY
 WELL. FENIX 87 "AX" #3-3:   WELL
 FLD .              N P R:   FIELD
 LOC .       S3 T38N R78W:   LOCATION
 CNTY.            NATRONA:   COUNTY
 STAT.            WYOMING:   STATE
 CTRY. UNITED STATES OF AMERICA:   COUNTRY
 SRVC.              WELEX:   SERVICE COMPANY
 DATE.        30-OCT-1980:   LOGDATE
 API .     49025108510000:   API NUMBER
~CURVE INFORMATION
#MNEM.UNIT       API CODE    CURVE DESCRIPTION
#----------   ------------   ------------------------------
 DEPT.F                  :   
 CALD.IN     45 280 60 00:   CALIPER FROM DENSITY LOG
 GRD .GAPI   45 310 01 00:   GAMMA RAY FROM DENSITY LOG
 RHOB.G/C3   45 350 01 00:   BULK DENSITY
 CORR.G/C3   45 356 01 00:   DENSITY CORRECTION
 SPR .MV     07 010 01 00:   SPONTANEOUS POTENTIAL
 ILD .OHMM   07 120 46 00:   DEEP INDUCTION RESISTIVITY
 ILM .OHMM   07 120 44 00:   INDUCTION LOG MEDIUM RESISTIVITY
 SGRD.OHMM   07 220 05 00:   SHALLOW SHORT GUARD RESISTIVITY
~PARAMETER INFORMATION
#MNEM.UNIT          VALUE    DESCRIPTION
#----------   ------------   ------------------------------
 EKB .F         5131.0000:   Kelly bushing
 EGL .F         5121.0000:   Ground level
 TD  .F         3095.0000:   Total depth
 DATE.        30-OCT-1980:   Date logged
 CLNT.            A2DTECH:   Client Code
 SL  . 910' FWL & 95' FEL:   Surface Location
 PD  .                 GL:   Permanent Datum
 EPD .F              5121:   Elevation Permanent Datum
 LMF .                 KB:   Log Measured From
 DMF .                 KB:   Drilling Measured From
 DD  .F              3095:   Depth driller
 DL  .F              3094:   Depth logger
 BLI .F              3092:   Bottom log interval
 TLI .F               525:   Top log interval
 CS1 .IN            9.625:   Casing size
 CBD1.      9.625" @ 525':   Casing driller 1
 CBL1.F               525:   Casing logger 1
 BS1 .IN            7.875:   Bit size
 DFT .          DISPERSED:   Type fluid in hole
 DFD .                  9:   Density
 DFV .                 40:   Viscosity
 DFPH.                 10:   pH
 DFL .                  8:   Fluid loss
 MSS .             MUDPIT:   Source of sample
 RMS .OHMM           2.40:   Rm
 MST .F                68:   Rm Meas. temp.
 MFST.F                68:   Rmf Meas. temp.
 RMC .OHMM            2.8:   Rmc
 MCST.F                68:   Rmc Meas. temp.
 MFSS.F              MEAS:   Source Rmf.
 RMB .OHMM           1.36:   Rm. at BHT
 BHT .F               120:   BHT.
 TCS .HRS             5.5:   Time Circ. stopped
 MRT .F               120:   Maximum recorded temp.
 LUN .               1891:   Logging unit number
 LUL .             CASPER:   Logging unit location
 ENGI.          PFERIMMER:   Recorded By
 WITN.              FIVAS:   Witnessed by
 ORIG.           5" PRINT:   Origin of data
 UWI .     49025108510000:   Unique Well ID
 DICO. A2D TECHNOLOGIES, INC.:   Digitizing Company
 DAPD.F                10:   Feet Above Permanent Datum
 BSD1.F              3095:   Depth drilled with bit1
 RMF .OHMM           1.92:   Rmf
 MCSS.               MEAS:   Source Rmc.
~OTHER INFORMATION
~A   DEPT     CALD        GRD       RHOB       CORR        SPR          ILD        ILM      SGRD  
# ...
 1370.5000     8.9190    81.8940     2.5180     0.0230   -26.9980     7.4250     9.4130    10.4380
 1371.0000     8.9170    81.9160     2.5330     0.0190   -26.9980     7.3910     9.4130    10.4660
 1371.5000     8.9150    81.9230     2.5370     0.0160   -26.9980     7.3470     9.4430    10.4950
 1372.0000     8.9120    82.2310     2.5330     0.0160   -26.9980     7.3030     9.5080    10.5240
 1372.5000     8.9100    82.2020     2.5230     0.0190   -26.9980     7.2660     9.5730    10.5520
 1373.0000     8.9080    81.3540     2.5230     0.0220   -26.9980     7.2660     9.6380    10.5810
 1373.5000     8.9060    80.4240     2.5170     0.0250   -26.9980     7.2660     9.6780    10.6100
 1374.0000     8.9030    79.4930     2.5120     0.0280   -26.9980     7.2660     9.6140    10.7140
 1374.5000     8.9010    78.5580     2.5190     0.0260   -26.9980     7.2660     9.5100    10.6060
 1375.0000     8.8990    77.7700     2.5270     0.0220   -26.9980     7.2660     9.4060    10.4400
 1375.5000     8.8970    77.7690     2.5250     0.0170   -26.9980     7.2660     9.3030    10.2730
 1376.0000     8.8940    78.7700     2.5180     0.0210   -26.9980     7.2660     9.1990    10.2300
 1376.5000     8.8920    79.8360     2.5110     0.0270   -26.9980     7.2660     9.1550    10.3850
 1377.0000     8.8900    79.8450     2.4940     0.0320   -26.9980     7.2660     9.1550    10.5430
 1377.5000     8.8880    79.5360     2.4830     0.0320   -26.9980     7.2660     9.1790    10.7000
 1378.0000     8.8850    79.1580     2.4900     0.0300   -27.0000     7.2660     9.2320    10.8130
 1378.5000     8.8830    78.6410     2.4980     0.0290   -27.0320     7.2560     9.2850    10.6700
 1379.0000     8.8810    79.5170     2.5060     0.0280   -27.0640     7.2380     9.3380    10.5590
 1379.5000     8.8790    80.6160     2.5150     0.0260   -27.0950     7.2190     9.3920    10.4470
 1380.0000     8.8760    81.7220     2.5070     0.0220   -27.1270     7.2010     9.4130    10.3360
 1380.5000     8.8740    82.8290     2.5000     0.0180   -27.1580     7.1830     9.3260    10.2300
 1381.0000     8.8720    83.9330     2.5030     0.0130   -27.1900     7.1640     9.1370    10.3880
 1381.5000     8.8700    84.8720     2.4900     0.0090   -27.1930     7.1460     9.0990    10.6170
 1382.0000     8.8670    84.5300     2.4910     0.0200   -27.1940     7.1270     9.0610    10.8130
 1382.5000     8.8650    84.1870     2.5110     0.0200   -27.1050     7.1090     9.0230    10.5630
 1383.0000     8.8630    83.8480     2.5030     0.0170   -26.9500     7.0910     8.9850    10.2620
 1383.5000     8.8610    83.5080     2.4950     0.0130   -26.8040     7.0720     8.9470     9.9620
 1384.0000     8.8580    83.1580     2.5060     0.0100   -26.9300     7.0540     8.9090     9.7680
 1384.5000     8.8560    83.0970     2.5210     0.0100   -27.2060     7.0350     8.8710     9.9440
 1385.0000     8.8540    83.3060     2.5240     0.0130   -27.1610     7.0170     8.8320    10.1180
 1385.5000     8.8520    83.6230     2.5200     0.0160   -27.0890     6.9960     8.8230    10.3250
 1386.0000     8.8490    83.9800     2.5160     0.0190   -27.0360     6.9610     8.8340    10.4210
 1386.5000     8.8470    84.3450     2.5120     0.0220   -26.7880     6.9260     8.8480    10.3610
 1387.0000     8.8450    84.7110     2.5080     0.0250   -26.7890     6.8910     8.8620    10.3020
 1387.5000     8.8420    85.0760     2.5080     0.0280   -26.7740     6.8570     8.8760    10.2430
 1388.0000     8.8400    85.4420     2.5190     0.0310   -26.7600     6.8220     8.8900    10.1840
 1388.5000     8.8380    85.8080     2.5210     0.0230   -26.7470     6.7870     8.9050    10.1250
 1389.0000     8.8360    86.1740     2.5120     0.0150   -26.7340     6.7520     8.9100    10.0650
 1389.5000     8.8330    86.5410     2.5020     0.0110   -26.7210     6.7170     8.9410    10.0420
 1390.0000     8.8400    86.9020     2.4910     0.0170   -26.7070     6.6830     8.9710    10.0700
 1390.5000     8.8490    86.6990     2.4790     0.0230   -26.6940     6.6480     9.0010    10.0890
 1391.0000     8.8580    86.3400     2.4800     0.0290   -26.6810     6.6040     9.0310    10.1090
 1391.5000     8.8670    85.9900     2.4860     0.0340   -26.6680     6.5420     9.0610    10.1280
 1392.0000     8.8760    85.9420     2.4880     0.0390   -26.6550     6.4790     9.0910    10.1480
 1392.5000     8.8850    86.6340     2.4730     0.0350   -26.6410     6.4170     9.1210    10.1670
 1393.0000     8.8940    86.0570     2.4570     0.0270   -26.6300     6.3540     9.1510    10.1860
 1393.5000     8.9030    85.1720     2.4430     0.0190   -26.6030     6.2920     9.2400    10.2060
 1394.0000     8.9110    85.3190     2.4450     0.0240   -26.8420     6.2290     9.1920    10.2250
 1394.5000     8.8910    85.4550     2.4530     0.0310   -26.9210     6.1520     9.1590    10.2450
 1395.0000     8.8900    84.6760     2.4570     0.0380   -27.0140     6.1570     9.1260    10.2640
 1395.5000     8.8890    83.6240     2.4570     0.0330   -27.1060     6.1680     9.0930    10.2840
 1396.0000     8.8870    82.8120     2.4570     0.0280   -27.1930     6.1780     9.0600    10.3030
 1396.5000     8.8850    82.9610     2.4630     0.0220   -27.1230     6.1890     9.0270    10.3220
 1397.0000     8.8830    83.7640     2.4820     0.0160   -27.0380     6.1990     8.9940    10.3250
 1397.5000     8.8810    84.2840     2.5020     0.0200   -26.9540     6.2090     8.9610    10.3200
 1398.0000     8.8800    83.9060     2.5080     0.0260   -26.8700     6.2200     8.9280    10.3040
 1398.5000     8.8780    83.2300     2.5120     0.0340   -26.7860     6.2300     8.8950    10.2880
 1399.0000     8.8760    82.7900     2.5150     0.0410   -26.7020     6.2400     8.8620    10.2720
 1399.5000     8.8740    82.7950     2.4900     0.0420   -26.6180     6.2510     8.8290    10.2560
 1400.0000     8.8720    82.7940     2.4770     0.0400   -26.6170     6.2610     8.7960    10.2410
 1400.5000     8.8700    82.7940     2.4900     0.0370   -26.6280     6.2660     8.7630    10.2250
 1401.0000     8.8690    82.7940     2.5000     0.0350   -26.6390     6.3130     8.7300    10.2090
 1401.5000     8.8670    82.7940     2.5100     0.0330   -26.6500     6.3770     8.6970    10.1930
 1402.0000     8.8650    82.7940     2.5200     0.0300   -26.6600     6.4410     8.6640    10.1770
 1402.5000     8.8630    82.7940     2.5300     0.0280   -26.6710     6.5020     8.6310    10.1620
 1403.0000     8.8610    82.7940     2.5260     0.0270   -26.6820     6.5390     8.5980    10.1460
 1403.5000     8.8590    82.7930     2.5190     0.0250   -26.6930     6.5830     8.5810    10.1300
 1404.0000     8.8580    82.7860     2.5130     0.0230   -26.7030     6.6260     8.6160    10.1140
 1404.5000     8.8560    82.8580     2.5080     0.0210   -26.7140     6.6700     8.6640    10.0980
 1405.0000     8.8540    83.1600     2.5110     0.0200   -26.7250     6.7130     8.7120    10.0830
 1405.5000     8.8530    83.5990     2.5130     0.0210   -26.7350     6.7570     8.7610    10.0670
 1406.0000     8.8530    83.6890     2.5060     0.0260   -26.7460     6.8000     8.8090    10.0510
 1406.5000     8.8530    83.6770     2.4990     0.0300   -26.7570     6.8440     8.8570    10.0420
 1407.0000     8.8520    83.3810     2.4960     0.0320   -26.7680     6.8870     8.9060    10.0420
 1407.5000     8.8510    82.9730     2.4980     0.0300   -26.7780     6.9310     8.9540    10.0420
 1408.0000     8.8500    82.6610     2.4990     0.0290   -26.7890     6.9740     9.0030    10.0420
 1408.5000     8.8490    82.3490     2.4930     0.0270   -26.8000     7.0020     9.0510    10.0420
 1409.0000     8.8480    81.6320     2.5030     0.0260   -26.8100     6.8330     9.2400    10.1360
 1409.5000     8.8470    80.4700     2.5130     0.0250   -26.8210     6.7440     9.2400    10.2300
 1410.0000     8.8460    79.3140     2.5220     0.0260   -26.8320     6.6550     9.1980    10.1040
 1410.5000     8.8450    78.1560     2.5520     0.0280   -26.8430     6.5650     9.1030    10.0010
