~VERSION INFORMATION
 VERS.                2.0:   CWLS LOG ASCII STANDARD - VERSION 2.0
 WRAP.                 NO:   ONE LINE PER DEPTH STEP
~WELL INFORMATION
#MNEM.UNIT      DATA TYPE    INFORMATION
#----------   ------------   ------------------------------
 STRT.F           36.0000:   START DEPTH
 STOP.F         3488.0000:   STOP DEPTH
 STEP.F            0.5000:   STEP LENGTH
 NULL.          -999.2500:   NO VALUE
 COMP. LAWRENCE - ALLISON  & ASSOCIATE:   COMPANY
 WELL. LAWRENCE "STX" #76-23:   WELL
 FLD .              NPR 3:   FIELD
 LOC .      S23 T38N R78W:   LOCATION
 CNTY.            NATRONA:   COUNTY
 STAT.            WYOMING:   STATE
 CTRY. UNITED STATES OF AMERICA:   COUNTRY
 SRVC.       SCHLUMBERGER:   SERVICE COMPANY
 DATE.        07-MAY-1982:   LOGDATE
 API .     49025108920000:   API NUMBER
~CURVE INFORMATION
#MNEM.UNIT       API CODE    CURVE DESCRIPTION
#----------   ------------   ------------------------------
 DEPT.F                  :   
 CORR.G/C3   45 356 01 00:   DENSITY CORRECTION
 CALD.IN     45 280 60 00:   CALIPER FROM DENSITY LOG
 GRD .GAPI   45 310 01 00:   GAMMA RAY FROM DENSITY LOG
 RHOB.G/C3   45 350 01 00:   BULK DENSITY
 SFL .OHMM   07 220 01 00:   SHALLOW FOCUSED LOG RESISTIVITY
 ILD .OHMM   07 120 46 00:   DEEP INDUCTION RESISTIVITY
 ILM .OHMM   07 120 44 00:   INDUCTION LOG MEDIUM RESISTIVITY
 TENR.LBS    07 635 01 00:   TENSION
 SPR .MV     07 010 01 00:   SPONTANEOUS POTENTIAL
 NPHI.DEC    42 890 03 00:   NEUTRON POROSITY SANDSTONE
 TEND.LBS    45 635 01 00:   TENSION FROM DENSITY LOG
~PARAMETER INFORMATION
#MNEM.UNIT          VALUE    DESCRIPTION
#----------   ------------   ------------------------------
 EKB .F         5441.0000:   Kelly bushing
 EGL .F         5431.0000:   Ground level
 EDF .F            0.0000:   Drilling floor
 EPD .F            0.0000:   Permanent datum
 TD  .F         3788.0000:   Total depth
 DATE.        07-MAY-1982:   Date logged
 CLNT.            A2DTECH:   Client Code
 SL  . 1327' FSL & 1190' FEL:   Surface Location
 PD  .                 GL:   Permanent Datum
 DAPD.F                10:   Feet Above Permanent Datum
 DD  .F              3788:   Depth driller
 DL  .F              3478:   Depth logger
 BLI .F              3471:   Bottom log interval
 TLI .F              1615:   Top log interval
 CS1 .IN            9.625:   Casing size
 CBD1.     9.625" @ 1603':   Casing driller 1
 CBL1.F              1615:   Casing logger 1
 BS1 .IN            7.875:   Bit size
 BSD1.F              3788:   Depth drilled with bit1
 DFT .                AIR:   Type fluid in hole
 TCS .HRS            1230:   Time Circ. stopped
 TLAB.HRS            1500:   Time logger at bottom
 MRT .F               125:   Maximum recorded temp.
 LUN .               8035:   Logging unit number
 LUL .               CSPR:   Logging unit location
 ENGI.              PENNY:   Recorded By
 WITN.    JENNINGS/STRONG:   Witnessed by
 ORIG.       2.5"5" PRINT:   Origin of data
 UWI .     49025108920000:   Unique Well ID
 DICO. A2D TECHNOLOGIES, INC.:   Digitizing Company
~OTHER INFORMATION
~A   DEPT       CORR     CALD        GRD         RHOB      SFL        ILD        ILM       TENR        SPR        NPHI      TEND   
# ...
 2293.0000     0.0570    11.0040   132.5300     2.5650  -999.2500     8.9980     8.9980  1969.1270  -999.2500  -999.2500  -999.2500
 2293.5000     0.0430    10.9970   134.5840     2.5570  -999.2500     9.0440     9.0440  1968.7321  -999.2500  -999.2500  -999.2500
 2294.0000     0.0290    10.9890   135.4320     2.5430  -999.2500     9.0890     9.0890  1968.3361  -999.2500  -999.2500  -999.2500
 2294.5000     0.0240    10.9810   133.4000     2.5360  -999.2500     9.1350     9.1350  1967.9399  -999.2500  -999.2500  -999.2500
 2295.0000     0.0370    10.9740   134.1460     2.5540  -999.2500     9.1810     9.1810  1967.5439  -999.2500  -999.2500  -999.2500
 2295.5000     0.0500    10.9660   135.5010     2.5680  -999.2500     9.2270     9.2270  1967.1479  -999.2500  -999.2500  -999.2500
 2296.0000     0.0570    10.9590   135.7380     2.5820  -999.2500     9.2730     9.2730  1966.7520  -999.2500  -999.2500  -999.2500
 2296.5000     0.0490    10.9510   135.4820     2.5860  -999.2500     9.3260     9.3260  1966.3571  -999.2500  -999.2500  -999.2500
 2297.0000     0.0420    10.9430   134.1790     2.5710  -999.2500     9.2060     9.2060  1965.9611  -999.2500  -999.2500  -999.2500
 2297.5000     0.0350    10.9360   132.8510     2.5600  -999.2500     9.0620     9.0620  1965.5649  -999.2500  -999.2500  -999.2500
 2298.0000     0.0340    10.9280   132.6990     2.5500  -999.2500     8.9180     8.9180  1965.1689  -999.2500  -999.2500  -999.2500
 2298.5000     0.0480    10.9190   135.3820     2.5510  -999.2500     8.7980     8.7980  1964.7729  -999.2500  -999.2500  -999.2500
 2299.0000     0.0590    10.9110   138.8650     2.5530  -999.2500     8.7310     8.7310  1964.3770  -999.2500  -999.2500  -999.2500
 2299.5000     0.0560    10.9030   142.3540     2.5460  -999.2500     8.6630     8.6630  1963.9821  -999.2500  -999.2500  -999.2500
 2300.0000     0.0540    10.8940   144.0580     2.5410  -999.2500     8.5960     8.5960  1963.5861  -999.2500  -999.2500  -999.2500
 2300.5000     0.0760    10.8860   140.1260     2.5510  -999.2500     8.5280     8.5280  1963.1899  -999.2500  -999.2500  -999.2500
 2301.0000     0.1020    10.8770   136.4320     2.5650  -999.2500     8.4610     8.4610  1962.7939  -999.2500  -999.2500  -999.2500
 2301.5000     0.1420    10.8720   133.9550     2.5860  -999.2500     8.3930     8.3930  1962.3979  -999.2500  -999.2500  -999.2500
 2302.0000     0.2420    10.8850   133.8490     2.6190  -999.2500     8.3260     8.3260  1962.0020  -999.2500  -999.2500  -999.2500
 2302.5000     0.2370    10.8990   134.7680     2.5850  -999.2500     8.2580     8.2580  1961.6060  -999.2500  -999.2500  -999.2500
 2303.0000     0.2390    10.9130   135.7100     2.4950  -999.2500     8.1910     8.1910  1961.2111  -999.2500  -999.2500  -999.2500
 2303.5000     0.1440    10.9270   135.8820     2.3680  -999.2500     8.1230     8.1230  1960.8149  -999.2500  -999.2500  -999.2500
 2304.0000     0.0720    10.9300   136.0350     2.3430  -999.2500     8.0560     8.0560  1960.4189  -999.2500  -999.2500  -999.2500
 2304.5000     0.1380    10.9300   135.3830     2.4690  -999.2500     7.9880     7.9880  1960.0229  -999.2500  -999.2500  -999.2500
 2305.0000     0.2060    10.9300   134.4850     2.5380  -999.2500     7.9200     7.9200  1959.5959  -999.2500  -999.2500  -999.2500
 2305.5000     0.2280    10.9300   133.5530     2.5480  -999.2500     7.8710     7.8710  1959.5959  -999.2500  -999.2500  -999.2500
 2306.0000     0.2330    10.9300   133.8080     2.5170  -999.2500     7.8370     7.8370  1959.5959  -999.2500  -999.2500  -999.2500
 2306.5000     0.1930    10.9300   134.3590     2.5030  -999.2500     7.8030     7.8030  1959.5959  -999.2500  -999.2500  -999.2500
 2307.0000     0.2080    10.9410   136.5040     2.4980  -999.2500     7.7690     7.7690  1959.5959  -999.2500  -999.2500  -999.2500
 2307.5000     0.2220    11.0170   139.0580     2.4670  -999.2500     7.7350     7.7350  1959.5959  -999.2500  -999.2500  -999.2500
 2308.0000     0.2360    11.0940   141.7860     2.4290  -999.2500     7.7010     7.7010  1959.5959  -999.2500  -999.2500  -999.2500
 2308.5000     0.2400    11.1020   148.1910     2.3930  -999.2500     7.6670     7.6670  1959.5959  -999.2500  -999.2500  -999.2500
 2309.0000     0.2430    11.0910   151.2360     2.3570  -999.2500     7.6330     7.6330  1959.5959  -999.2500  -999.2500  -999.2500
 2309.5000     0.1970    11.0800   151.9970     2.3280  -999.2500     7.5990     7.5990  1959.5959  -999.2500  -999.2500  -999.2500
 2310.0000     0.2120    11.0750   153.4630     2.3560  -999.2500     7.5640     7.5640  1959.5959  -999.2500  -999.2500  -999.2500
 2310.5000     0.2350    11.2310   153.1770     2.4200  -999.2500     7.5300     7.5300  1959.5959  -999.2500  -999.2500  -999.2500
 2311.0000     0.2410    11.3940   150.7940     2.4720  -999.2500     7.4960     7.4960  1959.5959  -999.2500  -999.2500  -999.2500
 2311.5000     0.2420    11.5370   150.1420     2.4580  -999.2500     7.4620     7.4620  1959.5959  -999.2500  -999.2500  -999.2500
 2312.0000     0.2420    11.3970   147.9440     2.4430  -999.2500     7.4280     7.4280  1959.5959  -999.2500  -999.2500  -999.2500
 2312.5000     0.2270    11.1480   144.8540     2.4950  -999.2500     7.3940     7.3940  1959.5959  -999.2500  -999.2500  -999.2500
 2313.0000     0.2400    11.0440   142.0940     2.5510  -999.2500     7.3600     7.3600  1959.5959  -999.2500  -999.2500  -999.2500
 2313.5000     0.2400    11.0230   141.2330     2.5150  -999.2500     7.3260     7.3260  1959.5959  -999.2500  -999.2500  -999.2500
 2314.0000     0.2380    11.3130   140.3190     2.3980  -999.2500     7.2920     7.2920  1959.5959  -999.2500  -999.2500  -999.2500
 2314.5000     0.2290    11.6570   138.6710     2.2510  -999.2500     7.2580     7.2580  1959.5959  -999.2500  -999.2500  -999.2500
 2315.0000     0.2350    11.9410   136.6510     2.2600  -999.2500     7.2240     7.2240  1959.5959  -999.2500  -999.2500  -999.2500
 2315.5000     0.2400    11.7640   135.3030     2.3290  -999.2500     7.1900     7.1900  1959.5959  -999.2500  -999.2500  -999.2500
 2316.0000     0.2400    11.6590   134.6670     2.3230  -999.2500     7.1560     7.1560  1959.5959  -999.2500  -999.2500  -999.2500
 2316.5000     0.2400    11.7930   136.8170     2.3050  -999.2500     7.1220     7.1220  1959.5959  -999.2500  -999.2500  -999.2500
 2317.0000     0.2370    11.8120   138.5280     2.2860  -999.2500     7.0890     7.0890  1959.5959  -999.2500  -999.2500  -999.2500
 2317.5000     0.1950    11.6800   139.3210     2.2780  -999.2500     7.0560     7.0560  1959.5959  -999.2500  -999.2500  -999.2500
 2318.0000     0.2070    11.5500   140.5490     2.3300  -999.2500     7.0560     7.0560  1959.5959  -999.2500  -999.2500  -999.2500
 2318.5000     0.2410    11.4590   143.1950     2.3910  -999.2500     7.0550     7.0550  1959.5959  -999.2500  -999.2500  -999.2500
 2319.0000     0.2420    11.5130   145.6050     2.4160  -999.2500     7.0550     7.0550  1959.5959  -999.2500  -999.2500  -999.2500
 2319.5000     0.2420    11.5630   143.9120     2.3800  -999.2500     7.0550     7.0550  1959.5959  -999.2500  -999.2500  -999.2500
 2320.0000     0.2410    11.6140   141.8560     2.3370  -999.2500     7.0550     7.0550  1959.5959  -999.2500  -999.2500  -999.2500
 2320.5000     0.2300    11.6630   140.0230     2.2930  -999.2500     7.0550     7.0550  1959.5959  -999.2500  -999.2500  -999.2500
 2321.0000     0.2020    11.5270   140.9650     2.2760  -999.2500     7.0550     7.0550  1959.5959  -999.2500  -999.2500  -999.2500
 2321.5000     0.1800    11.3620   141.9410     2.3090  -999.2500     7.0550     7.0550  1959.5959  -999.2500  -999.2500  -999.2500
 2322.0000     0.2300    11.2150   142.6680     2.4050  -999.2500     7.0550     7.0550  1959.5959  -999.2500  -999.2500  -999.2500
 2322.5000     0.2410    11.2830   142.6520     2.4590  -999.2500     7.0550     7.0550  1959.5959  -999.2500  -999.2500  -999.2500
 2323.0000     0.2410    11.3540   142.6420     2.4420  -999.2500     7.0520     7.0520  1959.5959  -999.2500  -999.2500  -999.2500
