~VERSION INFORMATION
 VERS.                2.0:   CWLS LOG ASCII STANDARD - VERSION 2.0
 WRAP.                 NO:   ONE LINE PER DEPTH STEP
~WELL INFORMATION
#MNEM.UNIT      DATA TYPE    INFORMATION
#----------   ------------   ------------------------------
 STRT.F          190.0000:   START DEPTH
 STOP.F         3215.0000:   STOP DEPTH
 STEP.F            0.5000:   STEP LENGTH
 NULL.          -999.2500:   NO VALUE
 COMP.    FENIX & SCISSON:   COMPANY
 WELL.  FENIX "AX" #78-34:   WELL
 FLD . NAVAL PET. RES. NO. 3:   FIELD
 LOC .      S34 T39N R78W:   LOCATION
 CNTY.            NATRONA:   COUNTY
 STAT.            WYOMING:   STATE
 CTRY. UNITED STATES OF AMERICA:   COUNTRY
 SRVC.       SCHLUMBERGER:   SERVICE COMPANY
 DATE.        16-DEC-1980:   LOGDATE
 API .     49025108670000:   API NUMBER
~CURVE INFORMATION
#MNEM.UNIT       API CODE    CURVE DESCRIPTION
#----------   ------------   ------------------------------
 DEPT.F                  :   
 TEND.LBS    45 635 01 00:   TENSION FORM DENSITY LOG
 GRD .GAPI   45 310 01 00:   GAMMA RAY FROM DENSITY LOG
 CALD.IN     45 280 60 00:   CALIPER FROM DENSITY LOG
 CORR.G/C3   45 356 01 00:   DENSITY CORRECTION
 RHOB.G/C3   45 350 01 00:   BULK DENSITY
 SPR .MV     07 010 01 00:   SPONTANEOUS POTENTIAL
 TENR.LBS    07 635 01 00:   TENSION FROM RESISTIVITY
 ILD .OHMM   07 120 46 00:   DEEP INDUCTION RESISTIVITY
 ILM .OHMM   07 120 44 00:   INDUCTION LOG MEDIUM RESISTIVITY
 SFL .OHMM   07 220 01 00:   SHALLOW FOCUSED LOG RESISTIVITY
~PARAMETER INFORMATION
#MNEM.UNIT          VALUE    DESCRIPTION
#----------   ------------   ------------------------------
 EKB .F         5068.0000:   Kelly bushing
 EGL .F         5058.0000:   Ground level
 EDF .F            0.0000:   Drilling floor
 EPD .F            0.0000:   Permanent datum
 TD  .F         3202.0000:   Total depth
 CLNT.            A2DTECH:   Client Code
 SL  . 542' FSL & 693' FEL:   Surface Location
 PD  .                 GL:   Permanent Datum
 DAPD.F                10:   Feet Above Permanent Datum
 DATE.        16-DEC-1980:   Date Logged [DD-MMM-YYYY]
 DD  .F              3200:   Depth driller
 DL  .F              3202:   Depth logger
 BLI .F              3199:   Bottom log interval
 TLI .F               193:   Top log interval
 CS1 .IN            8.625:   Casing size
 CBD1.      8.625" @ 215':   Casing driller 1
 CBL1.F               193:   Casing logger 1
 BS1 .IN            7.875:   Bit size
 BSD1.F              3200:   Depth drilled with bit1
 DFT .               LSND:   Type fluid in hole
 DFD .                9.1:   Density
 DFV .                 35:   Viscosity
 DFPH.                  8:   pH
 DFL .                 16:   Fluid loss
 MSS .            MUD PIT:   Source of sample
 RMS .OHMM            2.9:   Rm
 MST .F                56:   Rm Meas. temp.
 RMF .OHMM            2.4:   Rmf
 MFST.F                56:   Rmf Meas. temp.
 MFSS.               MEAS:   Source Rmf.
 RMC .OHMM            2.7:   Rmc
 MCST.F                56:   Rmc Meas. temp.
 MCSS.               CALC:   Source Rmc.
 RMB .OHMM           1.35:   Rm. at BHT
 BHT .F               120:   BHT.
 TCS .HRS            2100:   Time Circ. stopped
 MRT .F               120:   Maximum recorded temp.
 LUN .               8161:   Logging unit number
 ENGI.             SITTON:   Recorded By
 WITN.              FIVAS:   Witnessed by
 ORIG.           5" PRINT:   Origin of data
 UWI .     49025108670000:   Unique Well ID
 DICO. A2D TECHNOLOGIES, INC.:   Digitizing Company
~OTHER INFORMATION
~A   DEPT     TEND         GRD      CALD       CORR       RHOB        SPR       TENR        ILD        ILM        SFL   
# ...
  793.0000   331.3253    88.0837     9.3301     0.0177     2.5250   -51.1710   269.1924    10.9832    10.9013    11.3018
  793.5000   331.3253    87.7922     9.3301     0.0185     2.5282   -51.2249   269.1924    10.8274    10.7550    11.1486
  794.0000   344.5783    88.6871     9.3299     0.0194     2.5251   -51.2815   269.1924    10.7496    10.6128    11.0616
  794.5000   351.4056    91.0598     9.3395     0.0226     2.5267   -51.3844   269.1924    10.6892    10.5429    10.9238
  795.0000   351.4056    92.5449     9.3480     0.0258     2.5345   -51.4856   273.1805    10.6175    10.4035    10.8506
  795.5000   345.1807    93.4383     9.3720     0.0306     2.5408   -51.5862   278.7083    10.5463    10.4077    10.8533
  796.0000   331.3253    94.0358     9.3856     0.0166     2.5284   -51.6868   284.2362    10.4031    10.3392    10.7806
  796.5000   331.3253    93.7458     9.4107     0.0088     2.5222   -51.7875   288.1855    10.1915    10.2025    10.7828
  797.0000   351.4056    93.1598     9.4089     0.0097     2.5254   -51.8885   279.8936    10.1227    10.1362    10.6366
  797.5000   351.4056    91.9823     9.4085     0.0121     2.5301   -51.9866   271.6019    10.1252    10.0706    10.5575
  798.0000   351.4056    91.3963     9.4086     0.0201     2.5333   -52.0173   269.1924    10.1273     9.9365    10.3385
  798.5000   351.4056    91.7376     9.4104     0.0232     2.5333   -51.8399   269.1924    10.1294     9.8721    10.2720
  799.0000   351.4056    92.5929     9.4247     0.0241     2.5334   -51.6716   269.1924    10.1315     9.7406    10.2781
  799.5000   351.4056    93.7821     9.4282     0.0249     2.5342   -51.5033   269.1924    10.1335     9.6108    10.1416
  800.0000   351.4056    94.3797     9.4257     0.0281     2.5358   -51.3350   269.1924     9.9269     9.4184    10.0751
  800.5000   351.4056    93.2183     9.4156     0.0290     2.5429   -51.1672   269.1924     9.7874     9.3564     9.9425
  801.0000   351.4056    92.0694     9.4084     0.0273     2.5384   -51.0017   269.1924     9.5925     9.2958     9.8104
  801.5000   351.4056    91.5044     9.4088     0.0166     2.5274   -50.8354   269.1870     9.3386     9.3005     9.7472
  802.0000   351.4056    92.1246     9.4107     0.0127     2.5181   -50.4395   269.1851     9.6066     9.3043     9.7519
  802.5000   351.4056    92.4482     9.3890     0.0159     2.5158   -49.9407   269.1924     9.8812     9.2430     9.7565
  803.0000   351.4056    93.0681     9.3894     0.0254     2.5337   -49.8929   275.2077     9.7493     9.1840     9.6938
  803.5000   351.4056    94.0300     9.3891     0.0301     2.5291   -50.0840   283.5493     9.6193     9.1244     9.6995
  804.0000   351.4056    94.9621     9.3888     0.0200     2.5183   -50.3359   287.2937     9.6235     9.0029     9.6360
  804.5000   351.4056    93.8048     9.3792     0.0138     2.5152   -50.5880   281.7326     9.4295     8.8830     9.5080
  805.0000   351.4056    95.0318     9.3695     0.0170     2.5215   -50.8399   276.1715     9.1756     8.7646     9.3828
  805.5000   351.4056    97.4335     9.3692     0.0202     2.5277   -51.0917   270.6104     8.9906     8.6479     9.1942
  806.0000   351.4056    99.8352     9.3693     0.0250     2.5333   -51.3437   269.2043     8.8707     8.4739     9.0094
  806.5000   351.4056   101.9410     9.3694     0.0297     2.5374   -51.5966   269.1720     8.8746     8.3034     8.9515
  807.0000   351.4056   102.2722     9.3694     0.0306     2.5403   -51.8478   269.1936     8.8172     8.1928     8.9558
  807.5000   351.4056   100.0520     9.3694     0.0220     2.5287   -52.0252   272.6819     8.8220     8.0845     8.9600
  808.0000   351.4056    95.2496     9.3694     0.0143     2.5233   -51.7544   278.9382     8.8874     8.2003     8.9643
  808.5000   351.4056    94.0923     9.3694     0.0159     2.5311   -51.4887   285.1944     8.8913     8.3755     9.0310
  809.0000   367.7869    96.7986     9.3694     0.0199     2.5374   -51.2245   286.9509     9.0195     8.4955     9.0362
  809.5000   362.5027   100.3837     9.3694     0.0239     2.5468   -50.9604   281.0627     9.0862     8.6769     9.1135
  810.0000   357.2786   100.7057     9.3694     0.0286     2.5585   -50.6963   275.1745     9.1535     8.8012     9.2346
  810.5000   351.4457    97.4948     9.3694     0.0365     2.5756   -50.4319   269.2119     9.3501     8.9281     9.3032
  811.0000   343.9173    96.3463     9.3694     0.0420     2.5671   -50.1675   269.1658     9.4193     9.0612     9.4374
  811.5000   335.5461    96.9728     9.3694     0.0280     2.5524   -49.9139   269.1868     9.4891     9.2599     9.5736
  812.0000   331.3253    96.7031     9.3694     0.0187     2.5438   -49.8513   269.1924     9.6259     9.5782     9.6447
  812.5000   331.3253    93.1964     9.3694     0.0164     2.5424   -49.7113   269.1924     9.6972     9.7154     9.7839
  813.0000   331.3253    89.6809     9.3694     0.0165     2.5440   -49.7048   269.1924     9.7805     9.8158     9.8565
  813.5000   331.3253    88.2365     9.3694     0.0181     2.5487   -49.7148   269.1924     9.9798     9.9492     9.9988
  814.0000   333.5924    88.5976     9.3694     0.0213     2.5449   -49.8002   269.1924    10.0537    10.0720    10.0830
  814.5000   336.8312    90.4305     9.3694     0.0245     2.5410   -49.9056   269.1924    10.1987    10.2144    10.1490
  815.0000   340.0699    91.9000     9.3694     0.0277     2.5403   -49.8998   269.1924    10.2742    10.2178    10.2954
  815.5000   343.3087    91.3432     9.3695     0.0293     2.5512   -50.1231   269.1880    10.2787    10.2929    10.3719
  816.0000   346.5475    90.1946     9.3616     0.0278     2.5645   -50.4725   269.1772    10.2832    10.3691    10.4489
  816.5000   349.7863    89.9249     9.3502     0.0278     2.5723   -50.8253   269.2131    10.2167    10.3018    10.4539
  817.0000   349.7863    91.1518     9.3495     0.0279     2.5778   -50.9646   272.6744    10.1506    10.3060    10.3867
  817.5000   346.5475    95.9204     9.3426     0.0350     2.5818   -51.0633   278.2833    10.0848    10.3101    10.2474
  818.0000   343.3087    99.5056     9.3301     0.0468     2.5841   -51.1612   283.8707    10.0196    10.3143    10.1125
  818.5000   340.0699    99.8276     9.3300     0.0477     2.5756   -51.2596   289.1142     9.8176    10.3185     9.9093
  819.0000   336.8312    96.0250     9.3300     0.0437     2.5663   -51.3580   285.4238     9.6756     9.7012     9.8455
  819.5000   333.5924    92.2137     9.3300     0.0375     2.5563   -51.4566   281.8117     9.6239     9.6374     9.7147
  820.0000   332.2380    91.3609     9.3304     0.0283     2.5462   -51.5565   278.2367     9.8317    10.2609     9.7205
  820.5000   335.2805    90.7606     9.3396     0.0143     2.5400   -51.6615   274.6617    10.3972    10.6258     9.9292
  821.0000   338.3230    88.2956     9.3484     0.0065     2.5463   -51.3940   271.0867    11.0718    10.9280    11.7301
  821.5000   341.3654    77.2730     9.3571     0.0004     2.5619   -51.0779   272.3297    11.0001    11.1614    13.9539
  822.0000   344.4079    72.2783     9.3659     0.0098     2.5759   -50.7603   279.0030    10.7783    11.3213    15.9238
  822.5000   347.4504    72.9049     9.3746     0.0255     2.5853   -50.4445   285.6763    10.4156    11.3258    15.4961
  823.0000   350.4929    78.8569     9.3833     0.0326     2.5714   -50.1323   289.1326    10.0650    11.1704    12.2510
  823.5000   351.4056    88.9509     9.3920     0.0303     2.5574   -49.8500   289.1326     9.7939    10.9819    10.2372
  824.0000   351.4056    94.9029     9.4007     0.0171     2.5458   -49.6992   289.1326     9.5302    10.8052     9.6232
  824.5000   351.4056    95.2336     9.4093     0.0101     2.5326   -49.5051   289.1326     9.4031    10.5878     9.4954
  825.0000   351.4056    95.2685     9.4265     0.0086     2.5202   -49.2746   289.1326     9.3422    10.3034     9.5055
  825.5000   351.4056    95.5992     9.4432     0.0136     2.5244   -49.1834   289.1326     9.3474    10.1651     9.5706
  826.0000   351.4056    96.5216     9.4632     0.0316     2.5346   -49.1155   289.1326     9.4166    10.0306     9.5761
