~VERSION INFORMATION
 VERS.                2.0:   CWLS LOG ASCII STANDARD - VERSION 2.0
 WRAP.                 NO:   ONE LINE PER DEPTH STEP
~WELL INFORMATION
#MNEM.UNIT      DATA TYPE    INFORMATION
#----------   ------------   ------------------------------
 STRT.F         1053.5000:   START DEPTH
 STOP.F         3062.0000:   STOP DEPTH
 STEP.F            0.5000:   STEP LENGTH
 NULL.          -999.2500:   NO VALUE
 COMP.    FENIX & SCISSON:   COMPANY
 WELL.  FENIX "A" #301-11:   WELL
 FLD .              NPR-3:   FIELD
 LOC .      S11 T38N R78W:   LOCATION
 CNTY.            NATRONA:   COUNTY
 STAT.            WYOMING:   STATE
 CTRY. UNITED STATES OF AMERICA:   COUNTRY
 SRVC.      NL MCCULLOUGH:   SERVICE COMPANY
 DATE.        13-OCT-1977:   LOGDATE
 API .     49025104410000:   API NUMBER
~CURVE INFORMATION
#MNEM.UNIT       API CODE    CURVE DESCRIPTION
#----------   ------------   ------------------------------
 DEPT.F                  :   
 GR  .GAPI   35 310 01 00:   GAMMA RAY
 NEUT.NAPI   35 330 01 00:   NEUTRON
~PARAMETER INFORMATION
#MNEM.UNIT          VALUE    DESCRIPTION
#----------   ------------   ------------------------------
 EDF .F         5165.0000:   Drilling floor
 TD  .F         3097.0000:   Total depth
 CLNT.            A2DTECH:   Client Code
 PD  .                 DF:   Permanent Datum
 EPD .F              5165:   Elevation Permanent Datum
 LMF .                 GL:   Log Measured From
 DMF .                 DF:   Drilling Measured From
 DATE.        13-OCT-1977:   Date Logged [DD-MMM-YYYY]
 DD  .F              3097:   Depth driller
 BLI .F              3060:   Bottom log interval
 TLI .F              1060:   Top log interval
 BSD1.F              3097:   Depth drilled with bit1
 DFT .              WATER:   Type fluid in hole
 ENGI.            MUNDELL:   Recorded By
 ORIG.           5" PRINT:   Origin of data
 UWI .     49025104410000:   Unique Well ID
 DICO. A2D TECHNOLOGIES, INC.:   Digitizing Company
~OTHER INFORMATION
~A  DEPT         GR      NEUT   
# ...
 2876.0000    99.2679   283.6434
 2876.5000    99.2698   292.0415
 2877.0000   103.8093   305.4851
 2877.5000   104.9062   327.3379
 2878.0000   104.4383   327.2368
 2878.5000   103.8138   326.1942
 2879.0000   103.8154   332.3477
 2879.5000   104.2864   337.9428
 2880.0000   103.0361   339.0558
 2880.5000   103.0380   341.2845
 2881.0000   103.6655   346.8797
 2881.5000   104.2929   349.1111
 2882.0000   104.9200   346.2971
 2882.5000   104.4521   349.0893
 2883.0000   105.5494   353.6168
 2883.5000   106.3333   356.4355
 2884.0000   106.1784   355.7809
 2884.5000   101.1724   354.6488
 2885.0000   101.5026   360.8045
 2885.5000   101.8018   369.2027
 2886.0000    99.9255   371.9948
 2886.5000   100.2400   395.5292
 2887.0000   101.3369   438.1244
 2887.5000   101.8079   476.2346
 2888.0000   101.3400   482.9510
 2888.5000   100.7156   482.3791
 2889.0000   100.5605   479.0021
 2889.5000   101.1881   470.0214
 2890.0000   101.9824   455.9953
 2890.5000   102.4430   443.6511
 2891.0000   101.3492   441.9583
 2891.5000   105.2631   441.3867
 2892.0000   108.7073   445.8606
 2892.5000   111.2125   446.9712
 2893.0000   113.7178   446.9600
 2893.5000   115.5971   446.2174
 2894.0000   115.5986   430.8512
 2894.5000   116.6956   426.1847
 2895.0000   117.1665   432.8983
 2895.5000   115.9038   435.6904
 2896.0000   108.2504   448.5733
 2896.5000   106.2177   450.8076
 2897.0000   108.8794   454.1575
 2897.5000   112.1671   479.9344
 2898.0000   114.9853   545.5143
 2898.5000   118.8989   552.7913
 2899.0000   125.0033   495.7215
 2899.5000   133.1419   385.1455
 2900.0000   138.9333   280.3012
 2900.5000   148.8085   213.5781
 2901.0000   148.1689   207.4005
 2901.5000   146.4495   224.7684
 2902.0000   148.1723   248.3029
 2902.5000   150.9905   286.4131
 2903.0000   151.9309   321.7201
 2903.5000   152.2454   372.1638
 2904.0000   151.3081   370.3251
 2904.5000   146.4586   307.1090
 2905.0000   143.1583   311.0224
 2905.5000   142.3759   383.3298
 2906.0000   141.1241   434.8947
 2906.5000   138.7768   416.9444
 2907.0000   137.0555   391.1457
 2907.5000   134.3795   342.9227
 2908.0000   133.9259   348.2915
 2908.5000   124.0674   387.7468
 2909.0000   121.0943   421.3723
 2909.5000   118.5905   468.9322
 2910.0000   115.3044   516.0939
 2910.5000   108.7321   629.8767
 2911.0000   104.7821   715.0847
 2911.5000   102.4728   721.2432
 2912.0000    99.9691   688.1539
 2912.5000    97.3089   656.7491
 2913.0000    97.9348   647.7686
 2913.5000    99.1867   648.3183
 2914.0000    99.6684   648.1151
 2914.5000    99.3431   628.6727
 2915.0000   102.6293   607.3588
 2915.5000   103.7247   594.4540
 2916.0000   103.7247   593.8826
 2916.5000   104.0376   593.3111
 2917.0000   103.7247   579.2851
 2917.5000   107.0108   578.1530
 2918.0000   107.6367   553.2136
 2918.5000   109.2016   526.5529
 2919.0000   114.6785   517.5750
 2919.5000   117.6516   522.0463
 2920.0000   119.3729   524.8412
 2920.5000   117.4952   506.3276
 2921.0000   113.8960   479.4077
 2921.5000   107.7618   450.1330
 2922.0000   100.5513   455.2772
 2922.5000    98.0913   472.6452
 2923.0000    96.8394   511.3161
 2923.5000    96.8394   553.9113
 2924.0000    97.4653   578.0093
 2924.5000    98.0913   514.0866
 2925.0000    98.7172   435.5909
 2925.5000   100.0565   399.8504
 2926.0000   102.4728   362.6877
 2926.5000    99.9691   346.4193
 2927.0000    98.8737   332.3933
 2927.5000   100.9080   331.2612
 2928.0000   103.1239   333.4928
 2928.5000   101.6904   335.7245
 2929.0000   101.9217   342.2538
 2929.5000   102.7858   373.8212
 2930.0000   103.0987   393.9921
 2930.5000   104.9765   395.1052
 2931.0000   105.4460   395.6550
 2931.5000   105.6025   395.0808
 2932.0000   105.4460   395.6309
 2932.5000   103.1466   396.1803
 2933.0000    99.3431   398.5607
 2933.5000    98.7172   407.9286
 2934.0000    99.4996   449.4026
 2934.5000    98.2478   457.8008
 2935.0000    98.8737   462.8354
 2935.5000   100.5950   471.2337
 2936.0000   100.4132   483.5562
 2936.5000    99.6561   457.3843
 2937.0000    99.4996   425.2287
 2937.5000    99.9691   380.9300
 2938.0000   103.0987   331.0252
 2938.5000   106.2284   293.4538
 2939.0000   111.8618   281.6702
 2939.5000   115.4609   286.7048
 2940.0000   112.4877   325.9364
 2940.5000   110.4515   353.8786
 2941.0000   111.3281   379.1695
 2941.5000   113.7396   382.5223
 2942.0000   113.5831   363.4509
 2942.5000   114.9914   353.9097
 2943.0000   115.7738   348.8534
 2943.5000   118.1211   344.3577
 2944.0000   119.9989   330.4436
 2944.5000   119.6660   307.8939
 2945.0000   119.3729   315.7315
 2945.5000   119.2165   337.5843
 2946.0000   119.3729   389.7098
 2946.5000   118.7470   409.3202
 2947.0000   118.5905   409.3845
 2947.5000   118.9035   398.0864
 2948.0000   118.7302   399.9065
 2948.5000   118.1211   412.6377
 2949.0000   117.9646   423.2784
 2949.5000   117.4952   425.5127
 2950.0000   116.8692   377.2870
 2950.5000   116.7127   359.3367
 2951.0000   118.1211   365.4925
 2951.5000   118.7606   386.9301
 2952.0000   119.5294   399.9283
 2952.5000   117.8081   405.2891
 2953.0000   116.7127   408.0880
 2953.5000   115.6174   383.9751
 2954.0000   117.1822   359.8636
 2954.5000   118.7893   355.3733
 2955.0000   117.5209   353.6861
 2955.5000   116.0953   354.2412
 2956.0000   115.6734   362.0842
 2956.5000   115.6791   360.2317
 2957.0000   114.5883   353.1023
 2957.5000   114.7494   350.8544
 2958.0000   114.1269   337.9550
 2958.5000   115.2280   299.2677
 2959.0000   114.9196   254.4138
 2959.5000   115.3936   219.0901
 2960.0000   115.5548   205.0695
 2960.5000   115.7959   202.2610
 2961.0000   117.2863   193.2171
 2961.5000   118.3863   183.1881
 2962.0000   117.6073   175.8948
 2962.5000   116.9871   172.5257
 2963.0000   116.5210   175.8853
 2963.5000   116.8397   183.1663
 2964.0000   116.8443   193.2518
 2964.5000   115.1276   196.0494
 2965.0000   113.2544   207.2560
 2965.5000   112.9460   226.6915
 2966.0000   113.4211   272.2740
 2966.5000   113.8952   276.7548
 2967.0000   113.8997   263.2935
 2967.5000   112.6525   220.6819
 2968.0000   110.9357   209.4643
 2968.5000   112.9746   207.7771
 2969.0000   114.7005   215.0595
 2969.5000   115.9663   220.0995
 2970.0000   114.6678   228.3882
 2970.5000   112.8375   251.5148
 2971.0000   111.4338   272.2181
 2971.5000   110.8124   310.8945
 2972.0000   110.1911   360.7830
 2972.5000   109.7262   378.1563
 2973.0000   110.9826   415.7115
 2973.5000   114.1169   424.6759
 2974.0000   117.2511   404.4884
 2974.5000   117.7349   363.3373
 2975.0000   118.3558   318.9849
 2975.5000   118.2049   272.1677
 2976.0000   116.9576   229.5561
 2976.5000   116.4916   220.0204
 2977.0000   117.2785   227.3028
 2977.5000   115.8759   254.2064
 2978.0000   113.8462   272.1406
 2978.5000   113.2248   259.2410
 2979.0000   112.9165   250.2658
 2979.5000   112.6081   257.4265
 2980.0000   113.0833   276.6020
 2980.5000   113.5573   295.0966
 2981.0000   113.7183   304.6214
 2981.5000   113.4100   305.1779
 2982.0000   111.5367   305.1711
 2982.5000   109.1941   303.4838
 2983.0000   108.7292   298.9936
 2983.5000   108.1078   298.9880
 2984.0000   107.1695   295.5366
 2984.5000   106.5522   293.9303
 2985.0000   108.1227   293.9249
 2985.5000   109.2227   293.9194
 2986.0000   109.2272   292.2321
 2986.5000   110.9531   256.6393
 2987.0000   111.5836   224.6443
 2987.5000   112.0577   198.5937
 2988.0000   112.3752   173.3609
 2988.5000   112.6927   162.7040
 2989.0000   113.0292   158.7743
 2989.5000   114.5004   163.2537
 2990.0000   116.6197   169.4149
 2990.5000   117.2502   180.6216
 2991.0000   116.7853   202.6145
 2991.5000   117.2594   241.2761
 2992.0000   117.2639   290.4826
 2992.5000   114.2953   307.8559
 2993.0000   112.4221   319.6232
 2993.5000   111.9572   324.1026
 2994.0000   107.1662   320.1729
 2994.5000   104.9258   316.8038
 2995.0000   104.6174   316.7984
 2995.5000   105.5609   315.6660
 2996.0000   107.4433   313.2905
 2996.5000   106.8208   280.9019
 2997.0000   107.9219   242.7752
