~VERSION INFORMATION
 VERS.                2.0:   CWLS LOG ASCII STANDARD - VERSION 2.0
 WRAP.                 NO:   ONE LINE PER DEPTH STEP
~WELL INFORMATION
#MNEM.UNIT      DATA TYPE    INFORMATION
#----------   ------------   ------------------------------
 STRT.F           35.5000:   START DEPTH
 STOP.F         6235.5000:   STOP DEPTH
 STEP.F            0.5000:   STEP LENGTH
 NULL.          -999.2500:   NO VALUE
 COMP. LAWRENCE-ALLISON ASSOCIATES:   COMPANY
 WELL. LAWRENCE-ALLISON "X" #62-11:   WELL
 FLD .                NPR:   FIELD
 LOC .      S11 T38N R78W:   LOCATION
 CNTY.            NATRONA:   COUNTY
 STAT.            WYOMING:   STATE
 CTRY. UNITED STATES OF AMERICA:   COUNTRY
 SRVC.      DRESSER ATLAS:   SERVICE COMPANY
 DATE.        18-DEC-1982:   LOGDATE
 API .     49025109020000:   API NUMBER
~CURVE INFORMATION
#MNEM.UNIT       API CODE    CURVE DESCRIPTION
#----------   ------------   ------------------------------
 DEPT.F                  :   
 ILM .OHMM   07 120 44 00:   INDUCTION LOG MEDIUM
 ILD .OHMM   07 120 46 00:   DEEP RESISTIVITY
 RFOC.OHMM   07 220 04 00:   RESISTIVITY FOCUSED LOG RES.
 DT  .US/F   60 520 00 00:   DELTA TIME
 TENS.LBS    60 635 01 00:   TENSION FROM SONIC LOG.
 RS  .OHMM   11 220 09 00:   RESISTIVITY SHALLOW
 RD  .OHMM   11 220 10 00:   RESISTIVITY DEEP
 RLL .OHMM   11 220 00 00:   LATEROLOG RESISTIVITY
 SPR .MV     07 010 01 00:   SPONTANEOUS POTENTIAL
 TENR.LBS    07 635 01 00:   TENSION FROM RES. LOG
 CALD.IN     45 280 60 00:   CALIPER FROM DENSITY LOG
 GRD .GAPI   45 310 01 00:   GAMMA RAY FROM DENSITY LOG
 DEN .G/C3   45 350 01 00:   FORMATION FACTOR DENSITY
 DRHO.G/C3   45 356 01 00:   DENSITY CORRECTION
 TEND.LBS    45 635 01 00:   TENSION FROM DENSITY LOG
 CN  .DEC    42 890 00 00:   NEUTRON POROSITY
~PARAMETER INFORMATION
#MNEM.UNIT          VALUE    DESCRIPTION
#----------   ------------   ------------------------------
 EKB .F         5218.0000:   Kelly bushing
 EGL .F         5208.0000:   Ground level
 EDF .F            0.0000:   Drilling floor
 TD  .F         6232.0000:   Total depth
 DATE.        18-DEC-1982:   Date logged
 CLNT.            A2DTECH:   Client Code
 SL  . 971' FNL & 1898' FEL:   Surface Location
 PD  .                 GL:   Permanent Datum
 EPD .F              5208:   Elevation Permanent Datum
 LMF .                 KB:   Log Measured From
 DMF .                 KB:   Drilling Measured From
 DAPD.F                10:   Feet Above Permanent Datum
 DD  .F              6222:   Depth driller
 DL  .F              6232:   Depth logger
 BLI .F              6230:   Bottom log interval
 CS1 .IN            9.625:   Casing size
 CBD1.     9.625" @ 1002':   Casing driller 1
 CBL1.F              1002:   Casing logger 1
 BS1 .IN             8.75:   Bit size
 BSD1.F              6222:   Depth drilled with bit1
 DFT .                KCL:   Type fluid in hole
 DFD .                  9:   Density
 DFV .                 37:   Viscosity
 DFPH.                  8:   pH
 DFL .                8.4:   Fluid loss
 MSS .           FLOWLINE:   Source of sample
 RMS .OHMM            .25:   Rm
 MST .F                60:   Rm Meas. temp.
 RMF .OHMM            .18:   Rmf
 MFST.F                62:   Rmf Meas. temp.
 RMC .OHMM            .32:   Rmc
 MCST.F                60:   Rmc Meas. temp.
 MFSS.               MEAS:   Source Rmf.
 MCSS.               CALC:   Source Rmc.
 RMB .OHMM            .09:   Rm. at BHT
 BHT .F               166:   BHT.
 TCS .HRS               6:   Time Circ. stopped
 MRT .F               166:   Maximum recorded temp.
 LUN .               6274:   Logging unit number
 LUL .               GLTE:   Logging unit location
 ENGI.             RAUTIO:   Recorded By
 WITN.           JENNINGS:   Witnessed by
 ORIG.           5" PRINT:   Origin of data
 UWI .     49025109020000:   Unique Well ID
 DICO. A2D TECHNOLOGIES, INC.:   Digitizing Company
~OTHER INFORMATION
~A  DEPTH      ILM        ILD       RFOC         DT       TENS         RS         RD        RLL        SPR       TENR       CALD        GRD        DEN       DRHO       TEND         CN
# ...
 1282.5000  -999.2500  -999.2500  -999.2500    89.5396   -48.8362     6.8176     8.0534     5.8261   -86.7569   -47.0324    11.6443    65.8879     2.4339     0.0634   -54.6875     0.2811
 1283.0000  -999.2500  -999.2500  -999.2500    89.3190   -48.6727     6.8127     8.1645     6.1136   -86.7667   -46.6450    11.6407    62.8700     2.4276     0.0525   -54.6875     0.2849
 1283.5000  -999.2500  -999.2500  -999.2500    89.2471   -48.5091     6.8071     8.2198     6.1543   -86.7750   -46.2576    11.6371    60.4546     2.4245     0.0478   -54.6875     0.2861
 1284.0000  -999.2500  -999.2500  -999.2500    89.3282   -48.3456     6.8022     8.2179     5.9816   -86.7848   -45.8702    11.6335    61.9449     2.4260     0.0571   -54.6875     0.2858
 1284.5000  -999.2500  -999.2500  -999.2500    89.7095   -48.1820     6.7965     8.1594     5.8151   -86.7931   -45.4828    11.6298    69.1390     2.4283     0.0664   -54.6875     0.2820
 1285.0000  -999.2500  -999.2500  -999.2500    89.9400   -48.0185     6.7455     8.1011     5.8120   -86.6506   -45.0954    11.6262    70.3309     2.4244     0.0788   -54.6875     0.2786
 1285.5000  -999.2500  -999.2500  -999.2500    90.0958   -47.8549     6.7399     8.0435     5.9730   -86.6607   -44.7080    11.6226    68.8145     2.4212     0.0803   -50.7812     0.2767
 1286.0000  -999.2500  -999.2500  -999.2500    90.1754   -47.6914     6.6877     7.9862     6.3109   -86.6701   -44.3206    11.6190    66.1006     2.4173     0.0725   -50.7812     0.2867
 1286.5000  -999.2500  -999.2500  -999.2500    90.0281   -47.5279     6.6830     7.9296     6.4414   -86.5276   -43.9332    11.6154    64.2876     2.4204     0.0600   -46.8750     0.2908
 1287.0000  -999.2500  -999.2500  -999.2500    89.8822   -47.3643     6.7263     7.9276     6.5280   -86.3879   -43.5458    11.5984    63.9742     2.4242     0.0444   -46.8750     0.2917
 1287.5000  -999.2500  -999.2500  -999.2500    89.7125   -47.2008     6.7190     7.9818     6.6168   -86.3990   -43.1584    11.5799    64.8639     2.4297     0.0288   -45.6547     0.2852
 1288.0000  -999.2500  -999.2500  -999.2500    89.3642   -47.0372     6.7618     8.0356     6.7058   -86.4066   -42.7710    11.5519    66.9548     2.4349     0.0194   -42.9688     0.2786
 1288.5000  -999.2500  -999.2500  -999.2500    89.1422   -46.8737     6.8505     8.1461     6.8911   -86.4157   -42.3836    11.5360    66.3412     2.4398     0.0101   -44.5229     0.2739
 1289.0000  -999.2500  -999.2500  -999.2500    89.1471   -46.7101     6.9404     8.2582     7.1805   -86.4255   -41.9962    11.5353    64.8266     2.4452     0.0100   -46.8750     0.2730
 1289.5000  -999.2500  -999.2500  -999.2500    89.1513   -46.5466     7.0331     8.3141     7.2284   -86.4352   -41.6088    11.5346    63.3139     2.4444     0.0100   -46.8750     0.2755
 1290.0000  -999.2500  -999.2500  -999.2500    89.3064   -46.3831     7.0264     8.3122     7.2235   -86.4436   -41.2214    11.5338    62.1015     2.4459     0.0146   -46.8750     0.2780
 1290.5000  -999.2500  -999.2500  -999.2500    89.5376   -46.2195     7.0214     8.3103     7.1206   -86.6014   -40.9115    11.5330    61.4879     2.4514     0.0208   -39.0625     0.2799
 1291.0000  -999.2500  -999.2500  -999.2500    89.7681   -46.0560     7.0156     8.2512     6.9218   -86.7606   -41.0357    11.5323    62.6779     2.4568     0.0302   -39.0625     0.2827
 1291.5000  -999.2500  -999.2500  -999.2500    89.7730   -45.8924     6.9621     8.2498     6.8232   -86.7683   -41.1391    11.5316    66.5687     2.4576     0.0379   -35.1562     0.2858
 1292.0000  -999.2500  -999.2500  -999.2500    89.7772   -45.7289     6.9563     8.2477     6.9155   -86.9268   -41.2426    11.5459    70.4615     2.4560     0.0441   -39.0625     0.2880
 1292.5000  -999.2500  -999.2500  -999.2500    89.7822   -45.5653     6.9513     8.2461     6.8639   -86.9366   -41.3461    11.5451    70.7524     2.4552     0.0456   -39.0625     0.2886
 1293.0000  -999.2500  -999.2500  -999.2500    89.7864   -45.4018     6.9463     8.0742     6.8138   -87.0958   -41.4496    11.5442    69.8366     2.4590     0.0440   -39.0625     0.2886
 1293.5000  -999.2500  -999.2500  -999.2500    89.7906   -45.2383     6.9405     7.9612     6.6693   -86.9533   -41.5530    11.5435    68.9227     2.4629     0.0409   -39.0625     0.2905
 1294.0000  -999.2500  -999.2500  -999.2500    89.8710   -48.7059     6.8400     7.9599     6.4836   -86.9637   -41.6565    11.5428    67.4100     2.4676     0.0502   -39.0625     0.2911
 1294.5000  -999.2500  -999.2500  -999.2500    89.8748   -48.2451     6.7871     7.9578     6.2594   -86.8219   -41.7600    11.5421    66.7982     2.4722     0.0611   -39.0625     0.2917
 1295.0000  -999.2500  -999.2500  -999.2500    89.8801   -48.0147     6.6888     7.9565     6.1698   -86.8316   -41.8635    11.5412    67.3857     2.4753     0.0595   -39.0625     0.2833
 1295.5000  -999.2500  -999.2500  -999.2500    89.9598   -47.7844     6.6378     8.0104     6.1257   -86.8407   -41.9669    11.5405    70.3775     2.4768     0.0532   -39.0625     0.2674
 1296.0000  -999.2500  -999.2500  -999.2500    90.0394   -47.5540     6.6323     8.0083     6.4260   -86.8490   -42.0704    11.5248    72.4703     2.4752     0.0594   -39.0625     0.2642
 1296.5000  -999.2500  -999.2500  -999.2500    90.1198   -47.3236     6.6276     8.0634     6.6501   -86.8581   -42.1739    11.5240    71.2542     2.4729     0.0688   -39.0625     0.2617
 1297.0000  -999.2500  -999.2500  -999.2500    90.3503   -47.0933     6.6228     8.0607     6.5553   -86.8679   -42.2774    11.5049    71.2411     2.4705     0.0796   -39.0625     0.2558
 1297.5000  -999.2500  -999.2500  -999.2500    90.5815   -46.8629     6.6181     8.0034     6.2409   -86.8762   -42.3808    11.4773    72.1327     2.4689     0.0874   -39.0625     0.2536
 1298.0000  -999.2500  -999.2500  -999.2500    90.8119   -46.6326     6.6610     8.0018     6.0251   -86.7351   -42.4843    11.4465    71.5172     2.4681     0.0905   -39.0625     0.2783
 1298.5000  -999.2500  -999.2500  -999.2500    90.8909   -46.4022     6.6530     7.8896     5.9389   -86.7444   -42.5878    11.4158    68.5030     2.4673     0.0920   -39.0625     0.2874
 1299.0000  -999.2500  -999.2500  -999.2500    90.7443   -46.1718     6.6969     7.8881     5.9780   -86.6039   -42.6913    11.3999    63.6870     2.4672     0.0842   -39.0625     0.2977
 1299.5000  -999.2500  -999.2500  -999.2500    90.6738   -45.9415     6.5968     7.8863     6.0174   -86.6135   -42.7947    11.3949    62.4727     2.4664     0.0748   -39.0625     0.2942
 1300.0000  -999.2500  -999.2500  -999.2500    90.6794   -45.6749     6.5937     7.8304     5.9721   -86.6232   -42.8982    11.3986    70.8695     2.4699     0.0672   -39.5768     0.2997
 1300.5000  -999.2500  -999.2500  -999.2500    91.0354   -45.3554     6.4542     7.7191     5.8874   -86.7624   -43.3429    11.4222    68.7478     2.4744     0.0565   -40.9007     0.3062
 1301.0000  -999.2500  -999.2500  -999.2500    91.5214   -44.9763     6.4071     7.7171     5.8447   -87.0899   -43.7875    11.4459    66.6290     2.4796     0.0513   -42.2247     0.3117
 1301.5000  -999.2500  -999.2500  -999.2500    91.6025   -44.5972     6.3599     7.7145     5.8832   -87.0983   -44.2322    11.4718    65.4082     2.4811     0.0606   -42.9688     0.3164
 1302.0000  -999.2500  -999.2500  -999.2500    91.6078   -44.2181     6.3134     7.7116     6.0055   -87.1067   -44.6769    11.4713    69.5957     2.4709     0.0700   -35.1562     0.3192
 1302.5000  -999.2500  -999.2500  -999.2500    91.6186   -43.8390     6.3553     7.6553     6.3462   -87.1165   -45.1216    11.4857    74.3810     2.4576     0.0746   -27.3438     0.3158
 1303.0000  -999.2500  -999.2500  -999.2500    91.6957   -43.4599     6.3970     7.6524     6.6138   -87.1241   -45.5662    11.4851    73.7636     2.4474     0.0621   -19.5312     0.3079
 1303.5000  -999.2500  -999.2500  -999.2500    91.8522   -43.0808     6.3937     7.5974     6.6116   -87.1334   -46.0109    11.4844    74.3475     2.4395     0.0356   -11.7188     0.2899
