~VERSION INFORMATION
 VERS.                2.0:   CWLS LOG ASCII STANDARD - VERSION 2.0
 WRAP.                 NO:   ONE LINE PER DEPTH STEP
~WELL INFORMATION
#MNEM.UNIT      DATA TYPE    INFORMATION
#----------   ------------   ------------------------------
 STRT.F          190.0000:   START DEPTH
 STOP.F         3050.0000:   STOP DEPTH
 STEP.F            0.5000:   STEP LENGTH
 NULL.          -999.2500:   NO VALUE
 COMP.    FENIX & SCISSON:   COMPANY
 WELL. FENIX NPR 3 "AX" #86-29:   WELL
 FLD .      NPR - WILDCAT:   FIELD
 LOC .      S29 T39N R78W:   LOCATION
 CNTY.            NATRONA:   COUNTY
 STAT.            WYOMING:   STATE
 CTRY. UNITED STATES OF AMERICA:   COUNTRY
 SRVC.              WELEX:   SERVICE COMPANY
 DATE.        24-JUN-1977:   LOGDATE
 API .     49025103830000:   API NUMBER
~CURVE INFORMATION
#MNEM.UNIT       API CODE    CURVE DESCRIPTION
#----------   ------------   ------------------------------
 DEPT.F                  :   
 SPR .MV     07 010 01 00:   SPONTANEOUS POTENTIAL
 ILD .OHMM   07 120 46 00:   DEEP INDUCTION RESISTIVITY
 ILM .OHMM   07 120 44 00:   INDUCTION LOG MEDIUM RESISTIVITY
 SGRD.OHMM   07 220 05 00:   SHALLOW SHORT GUARD RESISTIVITY
 GRD .GAPI   45 310 01 00:   GAMMA RAY FROM DENSITY LOG
 CALD.IN     45 280 60 00:   CALIPER FROM DENSITY LOG
 RHOB.G/C3   45 350 01 00:   BULK DENSITY
 CORR.G/C3   45 356 01 00:   DENSITY CORRECTION
~PARAMETER INFORMATION
#MNEM.UNIT          VALUE    DESCRIPTION
#----------   ------------   ------------------------------
 EKB .F         5056.0000:   Kelly bushing
 EGL .F         5046.0000:   Ground level
 EDF .F            0.0000:   Drilling floor
 TD  .F         3051.0000:   Total depth
 DATE.        24-JUN-1977:   Date logged
 CLNT.            A2DTECH:   Client Code
 SL  . 1746' FSL & 534' FEL:   Surface Location
 PD  .                 GL:   Permanent Datum
 EPD .F              5046:   Elevation Permanent Datum
 LMF .                 KB:   Log Measured From
 DMF .                 KB:   Drilling Measured From
 DAPD.F                10:   Feet Above Permanent Datum
 DD  .F              3038:   Depth driller
 DL  .F              3051:   Depth logger
 BLI .F              3049:   Bottom log interval
 TLI .F               200:   Top log interval
 CS1 .IN            8.625:   Casing size
 CBD1.      8.625" @ 217':   Casing driller 1
 CBL1.F               213:   Casing logger 1
 BS1 .IN            7.875:   Bit size
 BSD1.F              3038:   Depth drilled with bit1
 DFT .            KCL/MUD:   Type fluid in hole
 DFD .                8.7:   Density
 DFV .                134:   Viscosity
 DFPH.                7.5:   pH
 DFL .                7.2:   Fluid loss
 MSS .           FLOWLINE:   Source of sample
 RMS .OHMM            .62:   Rm
 MST .F                82:   Rm Meas. temp.
 RMF .OHMM            .28:   Rmf
 MFST.F                82:   Rmf Meas. temp.
 RMC .OHMM            .78:   Rmc
 MCST.F                82:   Rmc Meas. temp.
 MFSS.               MEAS:   Source Rmf.
 MCSS.               MEAS:   Source Rmc.
 RMB .OHMM            .45:   Rm. at BHT
 BHT .F               111:   BHT.
 TCS .HRS               2:   Time Circ. stopped
 MRT .F               111:   Maximum recorded temp.
 LUN .               8766:   Logging unit number
 LUL .             CASPER:   Logging unit location
 ENGI.          D. LAWSON:   Recorded By
 WITN.      B. HARRINGTON:   Witnessed by
 ORIG.           5" PRINT:   Origin of data
 UWI .     49025103830000:   Unique Well ID
 DICO. A2D TECHNOLOGIES, INC.:   Digitizing Company
~OTHER INFORMATION
~A   DEPT      SPR        ILD        ILM       SGRD        GRD       CALD         RHOB      CORR  
# ...
 1324.0000   -64.2090     7.1720     8.1320    10.4920    79.5900     8.4620     2.5100     0.0200
 1324.5000   -64.2030     7.2000     8.1680    10.4580    79.9670     8.4670     2.5130     0.0200
 1325.0000   -64.1980     7.2320     8.2040    10.4340    80.3410     8.4710     2.5110     0.0210
 1325.5000   -64.1920     7.3210     8.2250    10.7780    80.7170     8.4760     2.5070     0.0210
 1326.0000   -64.1860     7.4210     8.2350    11.1250    80.7850     8.4810     2.5060     0.0220
 1326.5000   -64.1810     7.5200     8.2450    10.6920    80.5540     8.4850     2.5090     0.0230
 1327.0000   -64.1750     7.6190     8.2550    10.2440    80.3230     8.4900     2.5120     0.0230
 1327.5000   -64.1700     7.7110     8.2650    10.5580    80.0900     8.4890     2.5130     0.0230
 1328.0000   -64.1640     7.7280     8.2760    11.0130    79.8580     8.4860     2.5130     0.0240
 1328.5000   -64.1580     7.7440     8.2860    11.4350    79.6250     8.4830     2.5130     0.0240
 1329.0000   -64.1530     7.7600     8.2960    11.1390    79.3930     8.4800     2.5100     0.0230
 1329.5000   -64.1470     7.7820     8.2420    10.7250    79.1590     8.4770     2.5080     0.0200
 1330.0000   -64.1410     7.7650     8.1780    11.0780    78.9260     8.4740     2.5020     0.0180
 1330.5000   -64.1360     7.7300     8.1140    10.1510    78.7030     8.4700     2.4950     0.0150
 1331.0000   -64.1310     7.6940     8.0510    10.2510    78.7440     8.4560     2.4910     0.0120
 1331.5000   -64.1300     7.6580     7.9870    10.4700    79.4320     8.4410     2.4910     0.0100
 1332.0000   -64.1300     7.6220     7.9260    10.7250    80.0870     8.4340     2.4920     0.0090
 1332.5000   -64.1300     7.5860     7.9710    10.6870    80.4700     8.4420     2.4940     0.0110
 1333.0000   -64.1300     7.5510     8.0140    10.6320    80.1640     8.4510     2.4970     0.0130
 1333.5000   -64.1300     7.5150     8.0580    10.7410    79.8590     8.4590     2.4990     0.0150
 1334.0000   -64.1300     7.5020     8.1010    10.9200    80.3010     8.4670     2.5010     0.0170
 1334.5000   -64.1300     7.5340     8.1440    11.1250    81.2790     8.4750     2.4980     0.0180
 1335.0000   -64.1300     7.5610     8.1880    10.9130    82.2580     8.4830     2.4940     0.0190
 1335.5000   -64.1300     7.5870     8.2220    10.7070    82.8810     8.4920     2.4890     0.0130
 1336.0000   -64.1300     7.6140     8.2160    10.6000    82.8720     8.5000     2.4800     0.0060
 1336.5000   -64.1300     7.6400     8.2090    10.5360    82.8750     8.5080     2.4710    -0.0010
 1337.0000   -64.1300     7.6670     8.2020    10.4340    82.9660     8.5080     2.4650    -0.0020
 1337.5000   -64.1300     7.6940     8.1950    10.5200    83.4640     8.5060     2.4650    -0.0030
 1338.0000   -64.1300     7.7200     8.1880    10.7350    83.9620     8.5040     2.4680    -0.0030
 1338.5000   -64.1300     7.7470     8.1810    10.9510    84.4590     8.5020     2.4710     0.0000
 1339.0000   -64.1300     7.7730     8.1750    11.1250    84.8110     8.5000     2.4740     0.0020
 1339.5000   -64.1300     7.8000     8.1680    11.0400    83.4190     8.4980     2.4770     0.0040
 1340.0000   -64.1300     7.8260     8.1560    10.9680    82.0120     8.4960     2.4830     0.0080
 1340.5000   -64.1300     7.8530     8.1500    10.9230    80.9450     8.4940     2.4930     0.0120
 1341.0000   -64.1300     7.8490     8.1470    10.9680    81.3460     8.4920     2.4970     0.0160
 1341.5000   -64.1300     7.8450     8.2560    11.0240    81.7160     8.4900     2.4920     0.0130
 1342.0000   -64.1300     7.8410     8.3010    10.6910    80.9960     8.4880     2.4870     0.0100
 1342.5000   -64.1300     7.8370     8.3450    10.4340    80.6910     8.4860     2.4840     0.0060
 1343.0000   -64.1300     7.8330     8.3900    10.8240    81.0850     8.4840     2.4870     0.0030
 1343.5000   -64.1300     7.8290     8.4350    11.2300    81.4760     8.4820     2.4910     0.0030
 1344.0000   -64.1300     7.8250     8.4790    11.3310    81.8710     8.4800     2.4950     0.0030
 1344.5000   -64.1300     7.8210     8.5240    11.0730    82.2640     8.4780     2.4970     0.0040
 1345.0000   -64.1300     7.8170     8.5690    10.8010    82.6570     8.4760     2.4930     0.0040
 1345.5000   -64.1300     7.8130     8.6070    10.5300    82.6700     8.4740     2.4890     0.0050
 1346.0000   -64.1300     7.8080     8.5450    10.6750    82.2080     8.4720     2.4850     0.0050
 1346.5000   -64.1300     7.8040     8.4790    11.2280    82.4080     8.4920     2.4870     0.0060
 1347.0000   -64.1300     7.8000     8.4130    11.1150    82.8720     8.4870     2.4920     0.0060
 1347.5000   -64.1300     7.7960     8.3470    10.9600    83.3400     8.4840     2.4980     0.0070
 1348.0000   -64.1300     7.7920     8.2800    10.8230    83.8080     8.4810     2.5020     0.0080
 1348.5000   -64.1300     7.7880     8.2220    10.8800    83.8380     8.4780     2.5010     0.0090
 1349.0000   -64.1360     7.7820     8.1470    10.9230    83.4000     8.4760     2.4990     0.0100
 1349.5000   -64.1410     7.7950     7.9990    10.8580    82.9620     8.4730     2.4980     0.0100
 1350.0000   -64.1470     7.8190     8.2220    10.8230    82.4940     8.4700     2.4980     0.0110
 1350.5000   -64.1520     7.8430     8.2980    11.0820    81.7330     8.4700     2.4970     0.0120
 1351.0000   -64.1580     7.8680     8.4080    11.3170    80.9090     8.4700     2.4970     0.0120
 1351.5000   -64.1640     7.8930     8.5170    11.6180    80.0810     8.4700     2.4960     0.0130
 1352.0000   -64.1690     7.9170     8.6260    12.2530    79.2560     8.4700     2.4950     0.0130
 1352.5000   -64.1750     7.9420     8.7360    11.9800    78.5660     8.4700     2.4940     0.0130
 1353.0000   -64.1810     7.9660     8.8450    11.6470    78.7250     8.4700     2.4930     0.0140
 1353.5000   -64.1860     7.9990     9.0110    12.1930    78.8900     8.4710     2.4890     0.0140
 1354.0000   -64.1920     7.9780     8.4950    11.5840    79.0520     8.4770     2.4850     0.0140
 1354.5000   -64.1970     7.9480     8.7420    11.0240    79.2140     8.4820     2.4810     0.0140
 1355.0000   -64.2030     7.9180     9.0720    11.3740    79.3760     8.4880     2.4820     0.0150
 1355.5000   -64.2090     7.8880     9.1770    12.1930    79.5380     8.4930     2.4840     0.0180
 1356.0000   -64.2140     7.8580     9.1770    11.6490    79.7000     8.4990     2.4880     0.0200
 1356.5000   -64.2200     7.8280     9.0160    11.1250    79.8610     8.5040     2.4920     0.0220
 1357.0000   -64.2260     7.7980     8.7760    11.6950    80.0200     8.5100     2.4940     0.0240
 1357.5000   -64.2310     7.7680     8.5360    12.0820    79.9540     8.5150     2.4990     0.0260
 1358.0000   -64.2370     7.7370     8.2960    11.3870    79.5540     8.5210     2.5050     0.0280
 1358.5000   -64.2420     7.7070     8.0720    10.6270    79.1560     8.5260     2.5110     0.0300
 1359.0000   -64.2480     7.6770     8.0370    10.7310    78.3820     8.5320     2.5130     0.0290
 1359.5000   -64.2540     7.6470     8.0040    10.8510    77.1240     8.5390     2.5100     0.0260
 1360.0000   -64.2590     7.6170     7.9700    10.9700    76.1560     8.5460     2.5060     0.0240
 1360.5000   -64.2650     7.5710     7.9260    11.0900    76.1820     8.5520     2.5020     0.0210
 1361.0000   -64.2710     7.5840     7.9530    11.2100    76.1860     8.5590     2.5040     0.0180
 1361.5000   -64.2760     7.6130     7.9930    10.9670    76.1750     8.5650     2.5050     0.0150
 1362.0000   -64.2820     7.6410     8.0340    10.6620    75.8010     8.5670     2.5050     0.0130
 1362.5000   -64.2870     7.6700     8.0750    10.4340    74.2760     8.5620     2.5020     0.0120
 1363.0000   -64.2930     7.6990     8.1160    10.4340    72.8790     8.5570     2.5000     0.0120
 1363.5000   -64.2990     7.7280     8.1880    10.4940    71.4940     8.5510     2.5020     0.0120
 1364.0000   -64.3040     7.7570     8.3530    10.7400    70.2770     8.5460     2.5030     0.0120
