~VERSION INFORMATION
 VERS.                2.0:   CWLS LOG ASCII STANDARD - VERSION 2.0
 WRAP.                 NO:   ONE LINE PER DEPTH STEP
~WELL INFORMATION
#MNEM.UNIT      DATA TYPE    INFORMATION
#----------   ------------   ------------------------------
 STRT.F           16.0000:   START DEPTH
 STOP.F         2834.0000:   STOP DEPTH
 STEP.F            0.5000:   STEP LENGTH
 NULL.          -999.2500:   NO VALUE
 COMP.    FENIX & SCISSON:   COMPANY
 WELL. FENIX NPR 3 "AX" #14-21:   WELL
 FLD .              N P R:   FIELD
 LOC .      S21 T39N R78W:   LOCATION
 CNTY.            NATRONA:   COUNTY
 STAT.            WYOMING:   STATE
 CTRY. UNITED STATES OF AMERICA:   COUNTRY
 SRVC.           BIRDWELL:   SERVICE COMPANY
 DATE.        26-JUL-1978:   LOGDATE
 API .     49025106740000:   API NUMBER
~CURVE INFORMATION
#MNEM.UNIT       API CODE    CURVE DESCRIPTION
#----------   ------------   ------------------------------
 DEPT.F                  :   
 GRD .GAPI   45 310 01 00:   GAMMA RAY FROM DENSITY LOG
 CALD.IN     45 280 60 00:   CALIPER FROM DENSITY LOG
 RHOB.G/C3   45 350 01 00:   BULK DENSITY
 CORR.G/C3   45 356 01 00:   DENSITY CORRECTION
 SPR .MV     05 010 01 00:   SPONTANEOUS POTENTIAL
 ILD .OHMM   05 120 46 00:   DEEP INDUCTION RESISTIVITY
 SN  .OHMM   05 040 00 00:   SHORT NORMAL
~PARAMETER INFORMATION
#MNEM.UNIT          VALUE    DESCRIPTION
#----------   ------------   ------------------------------
 EKB .F         4998.0000:   Kelly bushing
 EGL .F         4988.0000:   Ground level
 EDF .F            0.0000:   Drilling floor
 EPD .F            0.0000:   Permanent datum
 TD  .F         2850.0000:   Total depth
 DATE.        26-JUL-1978:   Date logged
 CLNT.            A2DTECH:   Client Code
 SL  . 2640' FNL & 500' FWL:   Surface Location
 PD  .                 GL:   Permanent Datum
 DD  .F              2850:   Depth driller
 DL  .F              2838:   Depth logger
 BLI .F              2832:   Bottom log interval
 CS1 .IN            8.625:   Casing size
 CBD1.      8.625" @ 208':   Casing driller 1
 BS1 .IN            7.875:   Bit size
 DFT .            MUD/GEL:   Type fluid in hole
 DFD .                9.4:   Density
 DFV .                 37:   Viscosity
 DFPH.                 11:   pH
 TCS .HRS               4:   Time Circ. stopped
 LUN .               2958:   Logging unit number
 LUL .               CASP:   Logging unit location
 ENGI.             MILLER:   Recorded By
 WITN.           MCGINLEY:   Witnessed by
 ORIG.           5" PRINT:   Origin of data
 UWI .     49025106740000:   Unique Well ID
 DICO. A2D TECHNOLOGIES, INC.:   Digitizing Company
 DAPD.                 12:   Feet Above Permanent Datum
 BSD1.               3950:   Depth drilled with bit1
 MCSS.               CALC:   Source Rmc.
 TLI .F               230:   Top log interval
~OTHER INFORMATION
~A   DEPT       GRD      CALD       RHOB       CORR        SPR        ILD         SN   
# ...
 2109.0000   119.9090     8.8150     2.4730     0.2670   -38.5250     5.0410     5.4990
 2109.5000   116.2070     8.8260     2.4700     0.2710   -38.5160     4.9530     5.4090
 2110.0000   114.1420     8.8380     2.4590     0.2800   -38.5080     4.7560     5.3250
 2110.5000   113.1470     8.8560     2.4560     0.2890   -38.4990     4.5530     5.1100
 2111.0000   113.3150     8.9210     2.4650     0.2930   -38.4910     4.3490     4.8600
 2111.5000   114.1100     8.9840     2.4760     0.2820   -38.4840     4.1460     4.6100
 2112.0000   115.0240     9.0490     2.4860     0.2760   -38.4990     3.9420     4.3610
 2112.5000   116.2440     8.9030     2.4850     0.2750   -38.5210     3.7470     4.0860
 2113.0000   118.5780     8.9000     2.4820     0.2740   -38.5430     3.6290     3.9900
 2113.5000   120.8890     8.9050     2.4790     0.2730   -38.5660     3.5720     3.9180
 2114.0000   123.1900     8.9090     2.4760     0.2710   -38.5880     3.5090     3.8680
 2114.5000   125.2830     8.9130     2.4730     0.2670   -38.6100     3.4470     3.8540
 2115.0000   125.8240     8.9170     2.4710     0.2670   -38.6320     3.3840     3.7400
 2115.5000   123.3920     8.9200     2.4680     0.2670   -38.6540     3.3430     3.6270
 2116.0000   121.2360     8.9250     2.4750     0.2670   -38.6720     3.3430     3.5310
 2116.5000   122.6840     8.9290     2.4820     0.2670   -38.8430     3.3430     3.5340
 2117.0000   124.5470     8.9330     2.4890     0.2630   -39.0560     3.3430     3.5500
 2117.5000   126.3970     8.9380     2.4950     0.2570   -39.2640     3.3430     3.5660
 2118.0000   126.6000     8.9420     2.5020     0.2520   -39.2430     3.3430     3.5830
 2118.5000   123.4520     8.9460     2.5030     0.2510   -39.2110     3.3430     3.5960
 2119.0000   118.6380     8.9510     2.5030     0.2500   -39.1790     3.3430     3.5860
 2119.5000   114.0180     8.9550     2.5040     0.2480   -39.1480     3.3440     3.5770
 2120.0000   113.1750     8.9590     2.5050     0.2450   -39.1170     3.3460     3.5680
 2120.5000   113.3130     8.9640     2.5050     0.2420   -39.0860     3.3090     3.5600
 2121.0000   112.2480     8.9680     2.4930     0.2410   -39.0550     3.3160     3.5510
 2121.5000   110.7820     8.9720     2.4820     0.2420   -39.0240     3.3250     3.5430
 2122.0000   109.8960     8.9770     2.4710     0.2470   -38.9930     3.3340     3.5310
 2122.5000   113.3820     8.9760     2.4690     0.2480   -38.9620     3.3430     3.5360
 2123.0000   117.0030     8.9930     2.4930     0.2490   -38.9310     3.3530     3.5490
 2123.5000   118.3950     8.9790     2.4980     0.2510   -38.9010     3.3620     3.5610
 2124.0000   119.6880     8.9650     2.4930     0.2490   -38.8840     3.3710     3.5730
 2124.5000   120.4440     8.9620     2.5040     0.2470   -38.9130     3.3860     3.5850
 2125.0000   119.4080     9.1280     2.5130     0.2450   -38.9410     3.4360     3.5960
 2125.5000   118.5910     8.9360     2.5070     0.2470   -38.9680     3.4360     3.6730
 2126.0000   118.4680     8.9480     2.4980     0.2480   -38.9960     3.3940     3.7580
 2126.5000   119.1680     8.9480     2.4900     0.2500   -39.0240     3.3490     3.7990
 2127.0000   123.1290     8.9500     2.4810     0.2500   -39.0510     3.3030     3.7990
 2127.5000   127.0760     8.9540     2.4820     0.2500   -39.0790     3.2580     3.6740
 2128.0000   128.0490     8.9580     2.4820     0.2490   -39.1060     3.2120     3.5400
 2128.5000   126.3130     8.9620     2.4830     0.2490   -39.1340     3.1650     3.4060
 2129.0000   123.3960     8.9670     2.4790     0.2510   -39.1610     3.1070     3.2720
 2129.5000   120.4400     8.9710     2.4740     0.2550   -39.1890     3.0030     3.1380
 2130.0000   119.7530     8.9760     2.4700     0.2590   -39.2160     2.8360     3.0790
 2130.5000   120.1710     8.9790     2.4780     0.2630   -39.2440     2.8690     3.1100
 2131.0000   120.9940     8.9900     2.4860     0.2630   -39.2710     2.9240     3.1420
 2131.5000   120.1410     9.0020     2.4980     0.2590   -39.2720     2.9800     3.1730
 2132.0000   119.2460     9.0130     2.5040     0.2560   -39.2710     3.0360     3.2050
 2132.5000   121.0460     9.0390     2.5050     0.2530   -39.2550     3.1070     3.2520
 2133.0000   122.9570     9.0380     2.5040     0.2500   -39.2380     3.2160     3.4390
 2133.5000   123.1120     9.0370     2.5040     0.2490   -39.2220     3.4410     3.6220
 2134.0000   120.5240     9.0310     2.5040     0.2510   -39.2050     3.6670     3.8050
 2134.5000   117.7390     9.0230     2.5030     0.2520   -39.1890     3.8920     4.0250
 2135.0000   115.2130     9.0160     2.5030     0.2540   -39.1720     4.1170     4.3200
 2135.5000   116.6940     9.0080     2.5070     0.2570   -39.1560     4.3030     4.6160
 2136.0000   118.5910     9.0000     2.5120     0.2600   -39.1390     4.3580     4.7950
 2136.5000   119.7960     8.9990     2.5170     0.2620   -39.1230     4.3680     4.8430
 2137.0000   119.6330     9.0230     2.5260     0.2590   -39.1060     4.3770     4.9050
 2137.5000   119.4950     9.0510     2.5400     0.2500   -39.0900     4.3860     4.8890
 2138.0000   118.9080     9.0470     2.5510     0.2460   -39.0780     4.3960     4.8600
 2138.5000   116.5650     9.0340     2.5520     0.2450   -39.1070     4.3960     4.9230
 2139.0000   113.2430     9.0180     2.5450     0.2490   -39.1360     4.4210     5.0470
 2139.5000   107.0690     9.0410     2.5320     0.2550   -39.1650     4.4480     5.1700
 2140.0000   102.3300     9.0520     2.5290     0.2580   -39.1950     4.4770     5.2940
 2140.5000   105.1270     9.0480     2.5270     0.2610   -39.2240     4.6120     5.4730
 2141.0000   107.9610     9.0420     2.5230     0.2640   -39.2530     4.7720     5.4630
 2141.5000   110.6410     9.0370     2.5190     0.2660   -39.2820     4.7720     5.4350
 2142.0000   112.4880     9.0370     2.5150     0.2730   -39.3110     4.7720     5.3460
 2142.5000   113.7930     9.0400     2.5150     0.2720   -39.3410     4.7300     5.2110
 2143.0000   113.8840     9.0510     2.5270     0.2690   -39.3700     4.6870     5.1810
 2143.5000   114.8170     9.0620     2.5210     0.2660   -39.3990     4.6430     5.1810
 2144.0000   116.4910     9.0720     2.5060     0.2670   -39.4280     4.6870     5.1810
 2144.5000   117.9870     9.0830     2.4970     0.2700   -39.4570     4.7300     5.1810
 2145.0000   116.5460     9.0940     2.5010     0.2750   -39.4910     4.7720     5.1810
 2145.5000   114.6160     9.0960     2.5060     0.2750   -39.5280     4.7950     5.2800
 2146.0000   113.9620     9.0960     2.5100     0.2760   -39.5660     4.8160     5.3740
 2146.5000   113.4820     9.0960     2.5140     0.2760   -39.6030     4.8160     5.7590
 2147.0000   111.4050     9.0970     2.5130     0.2760   -39.6400     5.1120     6.1310
 2147.5000   109.2760     9.1010     2.5120     0.2760   -39.6770     5.3960     6.4020
 2148.0000   106.8510     9.1060     2.5120     0.2760   -39.7140     5.6790     6.5510
 2148.5000   103.2310     9.1100     2.5170     0.2760   -39.7510     5.9410     6.6900
 2149.0000    99.7040     9.1150     2.5220     0.2760   -39.7880     6.0510     6.7890
 2149.5000    95.3770     9.1400     2.5230     0.2760   -39.8250     5.9570     6.9350
 2150.0000    96.6720     9.1600     2.5220     0.2760   -39.8630     5.8850     7.0670
 2150.5000    99.5340     9.1820     2.5210     0.2760   -39.9000     5.8340     7.0770
 2151.0000   102.5830     9.2050     2.5180     0.2760   -39.9370     5.9150     7.1130
 2151.5000   105.6540     9.2270     2.5140     0.2760   -39.9740     5.9960     7.1310
 2152.0000   108.3210     9.2500     2.5100     0.2760   -40.0110     5.9960     6.9790
 2152.5000   109.7170     9.2720     2.5070     0.2760   -40.0480     5.8980     6.8090
 2153.0000   109.9460     9.2950     2.5040     0.2760   -40.0850     5.7590     6.6900
 2153.5000   107.9070     9.3170     2.5010     0.2770   -40.1220     5.6200     6.6440
 2154.0000   105.7770     9.3390     2.5030     0.2770   -40.1600     5.4730     6.5270
