~VERSION INFORMATION
 VERS.                2.0:   CWLS LOG ASCII STANDARD - VERSION 2.0
 WRAP.                 NO:   ONE LINE PER DEPTH STEP
~WELL INFORMATION
#MNEM.UNIT      DATA TYPE    INFORMATION
#----------   ------------   ------------------------------
 STRT.F           54.0000:   START DEPTH
 STOP.F         5201.0000:   STOP DEPTH
 STEP.F            0.5000:   STEP LENGTH
 NULL.          -999.2500:   NO VALUE
 COMP.   TESORO PETROLEUM:   COMPANY
 WELL. TESORO DX NPR-3 #51-26:   WELL
 FLD .        TEAPOT DOME:   FIELD
 LOC .      S26 T38N R78W:   LOCATION
 CNTY.            NATRONA:   COUNTY
 STAT.            WYOMING:   STATE
 CTRY. UNITED STATES OF AMERICA:   COUNTRY
 SRVC.      DRESSER ATLAS:   SERVICE COMPANY
 DATE.        27-AUG-1976:   LOGDATE
 API .     49025102680000:   API NUMBER
~CURVE INFORMATION
#MNEM.UNIT       API CODE    CURVE DESCRIPTION
#----------   ------------   ------------------------------
 DEPT.F                  :   
 GRD .GAPI   45 310 01 00:   GAMMA RAY FROM DENSITY LOG
 CALD.IN     45 280 60 00:   CALIPER FROM DENSITY LOG
 CORR.G/C3   45 356 01 00:   DENSITY CORRECTION
 RHOB.G/C3   45 350 01 00:   BULK DENSITY
 SPR .MV     07 010 01 00:   SPONTANEOUS POTENTIAL
 ILD .OHMM   07 120 46 00:   DEEP INDUCTION RESISTIVITY
 ILM .OHMM   07 120 44 00:   INDUCTION LOG MEDIUM RESISTIVITY
 RFOC.OHMM   07 220 04 00:   RESISTIVITY FOCUSED LOG RES.
 TEND.LBS    45 635 01 00:   TENSION FORM DENSITY LOG
 NPHI.DEC    42 890 03 00:   NEUTRON POROSITY SANDSTONE
~PARAMETER INFORMATION
#MNEM.UNIT          VALUE    DESCRIPTION
#----------   ------------   ------------------------------
 EKB .F         5453.5000:   Kelly bushing
 EGL .F         5442.0000:   Ground level
 EDF .F         5452.0000:   Drilling floor
 EPD .F            0.0000:   Permanent datum
 TD  .F         5193.0000:   Total depth
 CLNT.            A2DTECH:   Client Code
 SL  . 2000' FEL & 600' FNL:   Surface Location
 PD  .                 GL:   Permanent Datum
 DAPD.F              11.5:   Feet Above Permanent Datum
 DATE.        27-AUG-1976:   Date Logged [DD-MMM-YYYY]
 DD  .F              5193:   Depth driller
 DL  .F              5193:   Depth logger
 BLI .F              5191:   Bottom log interval
 TLI .F              1726:   Top log interval
 CS1 .IN            8.625:   Casing size
 CBD1.     8.625" @ 1724':   Casing driller 1
 CBL1.F              1726:   Casing logger 1
 BS1 .IN            7.875:   Bit size
 BSD1.F              5193:   Depth drilled with bit1
 DFT .           CHEM GEL:   Type fluid in hole
 DFD .                9.2:   Density
 DFV .                 65:   Viscosity
 DFPH.                 10:   pH
 DFL .                5.8:   Fluid loss
 MSS .           FLOWLINE:   Source of sample
 RMS .OHMM           1.70:   Rm
 MST .F                71:   Rm Meas. temp.
 RMF .OHMM              1:   Rmf
 MFST.F                68:   Rmf Meas. temp.
 MFSS.               MEAS:   Source Rmf.
 RMC .OHMM           1.30:   Rmc
 MCST.F                66:   Rmc Meas. temp.
 MCSS.               MEAS:   Source Rmc.
 RMB .OHMM           0.85:   Rm. at BHT
 BHT .F               142:   BHT.
 TCS .HRS               6:   Time Circ. stopped
 MRT .F               142:   Maximum recorded temp.
 LUN .               6145:   Logging unit number
 LUL .              GLTTE:   Logging unit location
 ENGI.        GOULD-HOYER:   Recorded By
 WITN.        WOLF-CARTER:   Witnessed by
 ORIG.           5" PRINT:   Origin of data
 UWI .     49025102680000:   Unique Well ID
 DICO. A2D TECHNOLOGIES, INC.:   Digitizing Company
~OTHER INFORMATION
~A   DEPT      GRD       CALD       CORR       RHOB        SPR         ILD        ILM      RFOC       TEND       NPHI   
# ...
 3806.0000    86.6938     8.0918     0.0075     2.5230   -41.5677     8.2318     8.9261     9.6972    88.4559     0.1371
 3806.5000    82.4195     8.0637     0.0092     2.5418   -41.5675     8.4102     9.4408    10.3990    87.7063     0.1360
 3807.0000    79.5823     8.0361     0.0094     2.5367   -41.5612     8.7727     9.8532    11.0748    79.4603     0.1392
 3807.5000    75.7871     8.0390     0.0096     2.5323   -41.5499     9.0877    10.1449    11.7946    78.5769     0.1359
 3808.0000    72.8779     8.0414     0.0100     2.5331   -41.3144     9.3491    10.2849    13.0920    70.3504     0.1322
 3808.5000    72.0288     8.0437     0.0118     2.5385   -41.5810     9.4205    10.0137    14.5420    69.6203     0.1334
 3809.0000    70.5690     8.0311     0.0161     2.5395   -41.8077     9.3617     9.8830    12.9780    68.8901     0.1337
 3809.5000    70.1868     8.0335     0.0178     2.5341   -41.8785     9.2394     9.8938     9.5590    68.1599     0.1352
 3810.0000    71.1912     8.0508     0.0165     2.5382   -42.0957     9.1820     9.9710     9.2410    67.4298     0.1417
 3810.5000    72.1863     8.0682     0.0167     2.5426   -42.3663     9.0620    10.0488    10.6198    66.6996     0.1453
 3811.0000    77.0138     8.0786     0.0153     2.5344   -42.3619     9.1673    10.0576    10.4091    73.4657     0.1432
 3811.5000    81.8413     8.1028     0.0141     2.5338   -42.3595     8.9511    10.0664    11.2421    80.2318     0.1395
 3812.0000    81.6388     8.1057     0.0157     2.5369   -42.2395     8.8939     9.9372    12.5652    79.3192     0.1404
 3812.5000    81.9162     8.1226     0.0159     2.5392   -42.0189     8.9832     9.7314    12.4038    78.5891     0.1428
 3813.0000    80.0455     8.1251     0.0146     2.5356   -41.7585     9.2852     9.4873     9.5516    77.8589     0.1406
 3813.5000    77.9269     8.1274     0.0118     2.5334   -41.4987     9.2915     9.2372     8.9227    77.1287     0.1433
 3814.0000    79.1616     8.1298     0.0060     2.5230   -41.2409     9.0440     8.9318    10.5860    76.3985     0.1577
 3814.5000    81.5939     8.1549     0.0032     2.5163   -40.9825     8.9501     8.6365    11.5376    75.7121     0.1643
 3815.0000    84.0261     8.2262     0.0018     2.5115   -40.7285     8.7484     8.5256    10.1312    74.9382     0.1594
 3815.5000    81.6680     8.4214     0.0036     2.5053   -40.5785     8.4566     8.4725     8.4750    74.2080     0.1522
 3816.0000    78.8118     8.4686     0.0083     2.5407   -40.6798     8.1746     8.5997     8.1367    73.4632     0.1591
 3816.5000    79.3561     8.4261     0.0204     2.5438   -40.5768     8.0677     8.9093     9.4155    80.2440     0.1654
 3817.0000    84.4231     8.4281     0.0221     2.5521   -40.6308     8.1293     9.1080     9.6208    79.3314     0.1614
 3817.5000    86.1368     8.4307     0.0208     2.5440   -40.5648     8.2482     9.2491     9.9672    78.6013     0.1560
 3818.0000    88.3203     8.4779     0.0135     2.5305   -40.5620     8.4270     9.3767    10.4695    77.8711     0.1523
 3818.5000    82.8577     8.4952     0.0077     2.5126   -40.7773     8.5504     9.4478    10.9241    77.1409     0.1475
 3819.0000    81.4563     8.5125     0.0064     2.5097   -41.2135     8.5574     9.2007    10.1747    76.4108     0.1441
 3819.5000    82.4527     8.3803     0.0066     2.5083   -41.6253     8.5042     8.8965     9.7973    75.6806     0.1399
 3820.0000    77.9389     8.1874     0.0089     2.5124   -41.2961     8.5090     8.6024    10.9527   104.9354     0.1378
 3820.5000    82.5361     8.1607     0.0099     2.5183   -41.7663     8.4571     8.3180    10.0913   126.6940     0.1401
 3821.0000    84.2498     8.2085     0.0131     2.5191   -42.2256     8.4628     8.0987     8.4416   125.9371     0.1431
 3821.5000    83.5683     8.2856     0.0118     2.5155   -42.8185     8.4088     7.9397     7.9403   125.0509     0.1506
 3822.0000    84.5634     8.3926     0.0105     2.5118   -44.2093     8.4159     7.9504     8.1696   124.3211     0.1578
 3822.5000    88.4328     8.4397     0.0107     2.5127   -46.0174     8.5390     8.4247     8.7006   123.5910     0.1593
 3823.0000    88.9489     8.4419     0.0115     2.5143   -47.8051     8.8456     9.0775     9.2660   115.3645     0.1547
 3823.5000    88.7260     8.4594     0.0126     2.5106   -49.1755     9.0875     9.8697    10.9764   107.1381     0.1494
 3824.0000    79.4515     8.4766     0.0127     2.4927   -50.4218     9.3619    10.7310    13.6853    91.4155     0.1423
 3824.5000    74.2191     8.4042     0.0129     2.4792   -51.7284     9.8332    11.6674    14.7529    75.6928     0.1324
 3825.0000    66.5915     8.1076     0.0146     2.4786   -52.5688    10.4000    12.5983    16.0403    59.9701     0.1227
 3825.5000    58.9638     7.9741     0.0163     2.4945   -52.9442    11.2458    13.1423    18.6858    66.7362     0.1164
 3826.0000    55.1686     7.9186     0.0180     2.5156   -53.1336    11.9001    13.5218    22.8445    73.5023     0.1160
 3826.5000    51.3733     7.9054     0.0197     2.4954   -53.1458    12.2367    12.9849    15.8621    72.5894     0.1199
 3827.0000    49.2547     7.9083     0.0214     2.4745   -53.2684    12.5728    12.6425    12.8191    71.8592     0.1247
 3827.5000    57.4447     7.9250     0.0186     2.4693   -53.2767    12.9114    12.8446    12.5670    63.6328     0.1304
 3828.0000    69.9368     7.8980     0.0143     2.4694   -52.9510    13.3065    13.6662    13.6642    62.9026     0.1358
 3828.5000    77.3990     7.8848     0.0100     2.4605   -52.6459    13.9765    15.7019    17.1934    54.6766     0.1297
 3829.0000    79.8220     7.8876     0.0026     2.4479   -51.9433    14.6801    18.8033    21.6185    53.9464     0.1217
 3829.5000    76.5151     7.8901     0.0028     2.4435   -50.5474    15.5263    19.7510    30.5059    53.2162     0.1110
 3830.0000    73.4384     7.8926     0.0075     2.4578   -49.6649    15.7534    19.9007    52.6584    52.4736     0.1025
 3830.5000    69.8788     7.8948     0.0158     2.4782   -48.8407    15.2280    18.0883   104.3235    66.7484     0.1004
 3831.0000    64.2784     7.8971     0.0244     2.4858   -47.5230    14.5063    16.8972    27.2012    81.0107     0.1073
 3831.5000    60.8642     7.8552     0.0305     2.4971   -46.8629    13.9369    14.7323    17.1482    72.6016     0.1253
 3832.0000    64.7336     7.8399     0.0307     2.4973   -46.6065    13.3792    12.9163    13.6685    49.3827     0.1424
 3832.5000    75.0700     7.8294     0.0324     2.4936   -46.8812    12.4070    12.4200    12.6807    41.1562     0.1490
 3833.0000    81.5742     7.8320     0.0341     2.4947   -47.3495    11.9053    12.6937    12.6918    48.1050     0.1526
 3833.5000    81.6112     7.8346     0.0343     2.5006   -47.9203    11.7443    12.8813    12.8856    62.3674     0.1506
 3834.0000    83.0854     7.8370     0.0315     2.4984   -48.8853    11.6012    13.1622    13.4856    76.4616     0.1474
 3834.5000    82.5979     7.8392     0.0272     2.4857   -49.1324    11.3725    13.3567    16.4293    75.7121     0.1437
 3835.0000    80.5340     7.8480     0.0199     2.4761   -49.2971    11.2998    13.4610    17.9867    66.4597     0.1395
 3835.5000    77.9364     7.8661     0.0095     2.4641   -49.2413    11.3083    13.4728    16.8023    51.5854     0.1355
 3836.0000    73.6621     7.9061     0.0052     2.4522   -49.1622    11.3171    13.1175    15.0561    43.3589     0.1313
 3836.5000    70.1063     7.9235     0.0039     2.4471   -48.9423    11.4035    12.5966    15.8184    42.6288     0.1352
 3837.0000    67.0296     7.9263     0.0012     2.4457   -48.4103    11.4112    12.0856    16.0487    41.8986     0.1394
 3837.5000    65.3900     7.9283    -0.0017     2.4466   -47.9324    11.3383    11.7644    14.8921    41.1684     0.1353
 3838.0000    63.7257     7.9310     0.0000     2.4534   -47.9656    11.2678    11.6262    12.5438    40.4383     0.1315
 3838.5000    67.3895     7.9333     0.0032     2.4595   -48.0208    11.1205    11.6390    11.7178    69.6931     0.1338
 3839.0000    71.9775     7.9354     0.0079     2.4678   -48.0739    11.1297    11.9751    12.4287    68.9629     0.1389
