~VERSION INFORMATION
 VERS.                2.0:   CWLS LOG ASCII STANDARD - VERSION 2.0
 WRAP.                 NO:   ONE LINE PER DEPTH STEP
~WELL INFORMATION
#MNEM.UNIT      DATA TYPE    INFORMATION
#----------   ------------   ------------------------------
 STRT.F            7.5000:   START DEPTH
 STOP.F         5700.0000:   STOP DEPTH
 STEP.F            0.5000:   STEP LENGTH
 NULL.          -999.2500:   NO VALUE
 COMP. FLUOR DANIEL (NPOSR):   COMPANY
 WELL.   FLOUR "X" #52-10:   WELL
 FLD .             NPR #3:   FIELD
 LOC .      S10 T38N R78W:   LOCATION
 CNTY.            NATRONA:   COUNTY
 STAT.            WYOMING:   STATE
 CTRY. UNITED STATES OF AMERICA:   COUNTRY
 SRVC.      WESTERN ATLAS:   SERVICE COMPANY
 DATE.        12-JAN-1996:   LOGDATE
 API .     49025227600000:   API NUMBER
~CURVE INFORMATION
#MNEM.UNIT       API CODE    CURVE DESCRIPTION
#----------   ------------   ------------------------------
 DEPT.F                  :   
 TENR.LBS    11 635 01 00:   TENSION
 GRR .GAPI   11 310 01 00:   GAMMA RAY FROM RESISTIVITY
 LLD .OHMM   11 220 10 00:   LATEROLOG DEEP
 LLS .OHMM   11 220 09 00:   LATEROLOG SHALLOW
 SPR .MV     11 010 01 00:   SPONTANEOUS POTENTIAL
 CALD.IN     45 280 60 00:   CALIPER FROM DENSITY LOG
 TEND.LBS    45 635 01 00:   TENSION FROM DENSITY LOG
 ZCOR.G/C3   45 356 01 00:   DENSITY CORRECTION
 ZDEN.G/C3   45 350 01 00:   BULK DENSITY
 CNC .DEC    42 890 03 00:   NEUTRON POROSITY SANDSTONE
~PARAMETER INFORMATION
#MNEM.UNIT          VALUE    DESCRIPTION
#----------   ------------   ------------------------------
 EKB .F         5196.0000:   Kelly bushing
 EGL .F         5186.0000:   Ground level
 EDF .F         5195.0000:   Drilling floor
 TD  .F         5699.0000:   Total depth
 DATE.        12-JAN-1996:   Date logged
 CLNT.            A2DTECH:   Client Code
 SL  . 1032' FNL & 2536' FEL:   Surface Location
 PD  .                 GL:   Permanent Datum
 EPD .F              5186:   Elevation Permanent Datum
 LMF .                 KB:   Log Measured From
 DMF .                 KB:   Drilling Measured From
 DAPD.F                11:   Feet Above Permanent Datum
 DD  .F              5699:   Depth driller
 DL  .F              5699:   Depth logger
 BLI .F              5687:   Bottom log interval
 CS1 .IN            9.625:   Casing size
 CBD1.      9.625" @ 520':   Casing driller 1
 CBL1.F               522:   Casing logger 1
 BS1 .IN             8.75:   Bit size
 BSD1.F              5699:   Depth drilled with bit1
 DFT .               CHEM:   Type fluid in hole
 DFD .                9.8:   Density
 DFV .                 50:   Viscosity
 DFPH.                9.5:   pH
 DFL .                8.4:   Fluid loss
 MSS .           FLOWLINE:   Source of sample
 RMS .OHMM          0.515:   Rm
 MST .F                66:   Rm Meas. temp.
 RMF .OHMM          0.499:   Rmf
 MFST.F                66:   Rmf Meas. temp.
 RMC .OHMM          0.761:   Rmc
 MCST.F                66:   Rmc Meas. temp.
 MFSS.               MEAS:   Source Rmf.
 MCSS.               MEAS:   Source Rmc.
 RMB .OHMM          0.233:   Rm. at BHT
 BHT .F               174:   BHT.
 TCS .HRS               6:   Time Circ. stopped
 MRT .F               174:   Maximum recorded temp.
 LUN .            HL 6530:   Logging unit number
 LUL .             CASPER:   Logging unit location
 ENGI.        VERN RAUTIO:   Recorded By
 WITN. LAFRENIERE/OPSAL/HARDY:   Witnessed by
 ORIG.     2.5", 5" PRINT:   Origin of data
 UWI .     49025227600000:   Unique Well ID
 DICO. A2D TECHNOLOGIES, INC.:   Digitizing Company
~OTHER INFORMATION
~A    DEPT    TENR         GRR       LLD        LLS        SPR       CALD       TEND       ZCOR       ZDEN        CNC   
# ...
  543.5000   -43.7020    95.1610    15.5370    10.7920   -89.8860  -999.2500  -999.2500  -999.2500  -999.2500  -999.2500
  544.0000   -33.7020    98.2530    12.8200     7.7820   -90.4580  -999.2500  -999.2500  -999.2500  -999.2500  -999.2500
  544.5000   -35.9700    98.1870    10.6750     6.4280   -91.2220  -999.2500  -999.2500  -999.2500  -999.2500  -999.2500
  545.0000   -38.1460    95.0340    10.7530     6.4730   -91.8210  -999.2500  -999.2500  -999.2500  -999.2500  -999.2500
  545.5000   -40.3210    92.6590     9.5740     6.6170   -92.1350  -999.2500  -999.2500  -999.2500  -999.2500  -999.2500
  546.0000   -42.4970    92.1120     9.6950     7.0690   -92.4380  -999.2500  -999.2500  -999.2500  -999.2500  -999.2500
  546.5000   -44.6720    93.8260    10.3320     7.5210   -92.7130  -999.2500  -999.2500  -999.2500  -999.2500  -999.2500
  547.0000   -46.8480    95.8890    10.9700     7.9730   -92.9870  -999.2500  -999.2500  -999.2500  -999.2500  -999.2500
  547.5000   -49.0230    97.3110    11.4170     8.2550   -93.2610  -999.2500  -999.2500  -999.2500  -999.2500  -999.2500
  548.0000   -51.1990    97.3240    11.4170     8.0980   -93.5420  -999.2500  -999.2500  -999.2500  -999.2500  -999.2500
  548.5000   -53.3740    95.5680    11.2640     7.9760   -93.6270  -999.2500  -999.2500  -999.2500  -999.2500  -999.2500
  549.0000   -52.7390    94.1140    10.8500     7.8810   -93.6770  -999.2500  -999.2500  -999.2500  -999.2500  -999.2500
  549.5000   -51.3730    94.3440    10.7000     7.8810   -93.7270  -999.2500  -999.2500  -999.2500  -999.2500  -999.2500
  550.0000   -50.0070    94.4550    10.7260     7.8810   -93.7760  -999.2500  -999.2500  -999.2500  -999.2500  -999.2500
  550.5000   -48.6410    93.3740    10.7440     7.8810   -94.0260  -999.2500  -999.2500  -999.2500  -999.2500  -999.2500
  551.0000   -47.2750    92.3160    10.7610     7.8810   -94.4610  -999.2500  -999.2500  -999.2500  -999.2500  -999.2500
  551.5000   -45.9100    91.2710    10.7790     7.8810   -94.8260  -999.2500  -999.2500  -999.2500  -999.2500  -999.2500
  552.0000   -44.5440    90.4260    10.7970     7.9520   -94.8360  -999.2500  -999.2500  -999.2500  -999.2500  -999.2500
  552.5000   -43.7630    90.4500    10.8980     8.0230   -94.9290  -999.2500  -999.2500  -999.2500  -999.2500  -999.2500
  553.0000   -43.7630    90.0960    11.0570     8.0940   -95.0220  -999.2500  -999.2500  -999.2500  -999.2500  -999.2500
  553.5000   -43.7630    89.5800    11.2160     8.1220   -95.1140  -999.2500  -999.2500  -999.2500  -999.2500  -999.2500
  554.0000   -43.7630    89.0470    11.4170     8.1440   -95.2060  -999.2500  -999.2500  -999.2500  -999.2500  -999.2500
  554.5000   -43.7630    89.1580    11.3660     8.1650   -95.2990  -999.2500  -999.2500  -999.2500  -999.2500  -999.2500
  555.0000   -43.7630    90.0240    11.2960     8.1790   -95.3900  -999.2500  -999.2500  -999.2500  -999.2500  -999.2500
  555.5000   -43.7630    92.1710    11.2260     8.1590   -95.5560  -999.2500  -999.2500  -999.2500  -999.2500  -999.2500
  556.0000   -45.8650    92.3460    11.1560     8.1450   -95.7640  -999.2500  -999.2500  -999.2500  -999.2500  -999.2500
  556.5000   -48.4510    89.6440    11.1040     8.1310   -95.9730  -999.2500  -999.2500  -999.2500  -999.2500  -999.2500
  557.0000   -51.0360    88.8910    11.1420     8.1160   -96.1830  -999.2500  -999.2500  -999.2500  -999.2500  -999.2500
  557.5000   -53.6220    89.4430    11.1710     8.1040   -96.3960  -999.2500  -999.2500  -999.2500  -999.2500  -999.2500
  558.0000   -56.2070    92.6510    11.2010     8.2630   -96.5750  -999.2500  -999.2500  -999.2500  -999.2500  -999.2500
  558.5000   -58.7930    95.6400    11.2510     8.4100   -96.7500  -999.2500  -999.2500  -999.2500  -999.2500  -999.2500
  559.0000   -61.3780    94.9890    11.3070     8.4590   -96.9240  -999.2500  -999.2500  -999.2500  -999.2500  -999.2500
  559.5000   -63.8830    91.1570    11.3640     8.5090   -97.0990  -999.2500  -999.2500  -999.2500  -999.2500  -999.2500
  560.0000   -65.0950    89.3230    11.4170     8.5670   -97.2590  -999.2500  -999.2500  -999.2500  -999.2500  -999.2500
  560.5000   -66.2700    89.9700    11.3820     8.2220   -97.3380  -999.2500  -999.2500  -999.2500  -999.2500  -999.2500
  561.0000   -67.4460    89.8160    11.3480     8.1790   -97.4130  -999.2500  -999.2500  -999.2500  -999.2500  -999.2500
  561.5000   -68.6210    88.6980    11.3120     8.2490   -97.4880  -999.2500  -999.2500  -999.2500  -999.2500  -999.2500
  562.0000   -69.7960    87.6550    11.5610     8.3800   -97.5630  -999.2500  -999.2500  -999.2500  -999.2500  -999.2500
  562.5000   -70.9710    89.8480    11.8240     8.5970   -97.6350  -999.2500  -999.2500  -999.2500  -999.2500  -999.2500
  563.0000   -72.1470    92.4950    12.0870     8.8390   -97.8050  -999.2500  -999.2500  -999.2500  -999.2500  -999.2500
  563.5000   -73.3220    90.8100    12.2090     9.0050   -97.8900  -999.2500  -999.2500  -999.2500  -999.2500  -999.2500
  564.0000   -71.4250    88.8660    12.2510     9.0570   -98.1140  -999.2500  -999.2500  -999.2500  -999.2500  -999.2500
  564.5000   -66.0760    87.9190    12.2960     9.0570   -98.3370  -999.2500  -999.2500  -999.2500  -999.2500  -999.2500
  565.0000   -60.7260    87.7530    12.2730     8.9710   -98.4770  -999.2500  -999.2500  -999.2500  -999.2500  -999.2500
  565.5000   -55.3770    87.7070    12.2470     8.8090   -98.4750  -999.2500  -999.2500  -999.2500  -999.2500  -999.2500
  566.0000   -50.0280    90.2680    12.2220     8.6470   -98.4760  -999.2500  -999.2500  -999.2500  -999.2500  -999.2500
  566.5000   -44.6780    91.2450    12.1960     8.6060   -98.4750  -999.2500  -999.2500  -999.2500  -999.2500  -999.2500
  567.0000   -45.0230    89.4150    12.1830     8.5670   -98.4770  -999.2500  -999.2500  -999.2500  -999.2500  -999.2500
  567.5000   -46.5440    87.6760    12.4440     8.0260   -98.6070  -999.2500  -999.2500  -999.2500  -999.2500  -999.2500
  568.0000   -48.0650    89.3450    12.6430     7.6650   -98.7500  -999.2500  -999.2500  -999.2500  -999.2500  -999.2500
  568.5000   -49.5860    90.0150    12.7220     8.4220   -98.8930  -999.2500  -999.2500  -999.2500  -999.2500  -999.2500
  569.0000   -51.1070    89.0200    12.8090     9.1410   -99.0350  -999.2500  -999.2500  -999.2500  -999.2500  -999.2500
  569.5000   -52.6280    87.0550    12.8960     9.1410   -99.1780  -999.2500  -999.2500  -999.2500  -999.2500  -999.2500
  570.0000   -54.1480    86.6720    12.9990     8.4100   -99.3210  -999.2500  -999.2500  -999.2500  -999.2500  -999.2500
  570.5000   -44.1650    86.8520    12.7520     8.5430   -99.4640  -999.2500  -999.2500  -999.2500  -999.2500  -999.2500
  571.0000   -36.2100    89.2170    12.4520     8.9790   -99.6050  -999.2500  -999.2500  -999.2500  -999.2500  -999.2500
  571.5000   -30.7510    93.6860    12.1420     9.2260   -99.6700  -999.2500  -999.2500  -999.2500  -999.2500  -999.2500
  572.0000   -26.4420    97.4570    11.7370     8.4510   -99.5990  -999.2500  -999.2500  -999.2500  -999.2500  -999.2500
  572.5000   -25.5480    95.3430    11.3330     7.7630   -99.5290  -999.2500  -999.2500  -999.2500  -999.2500  -999.2500
  573.0000   -30.9910    95.3660    10.9290     7.3020   -99.4920  -999.2500  -999.2500  -999.2500  -999.2500  -999.2500
  573.5000   -36.4340    97.3610    10.5240     7.0520   -99.4920  -999.2500  -999.2500  -999.2500  -999.2500  -999.2500
  574.0000   -41.8780    99.4170    10.1220     7.1180   -99.4910  -999.2500  -999.2500  -999.2500  -999.2500  -999.2500
  574.5000   -40.0070    99.3000    10.2040     7.4930   -99.4920  -999.2500  -999.2500  -999.2500  -999.2500  -999.2500
  575.0000   -34.2610    97.9140    10.9010     7.8540   -99.5310  -999.2500  -999.2500  -999.2500  -999.2500  -999.2500
  575.5000   -28.5160    94.1610    11.3460     8.0290   -99.7590  -999.2500  -999.2500  -999.2500  -999.2500  -999.2500
  576.0000   -23.6420    90.4130    11.8490     7.9590   -99.9840  -999.2500  -999.2500  -999.2500  -999.2500  -999.2500
  576.5000   -23.6420    89.4870    11.4980     7.7560  -100.1040  -999.2500  -999.2500  -999.2500  -999.2500  -999.2500
