~VERSION INFORMATION
 VERS.                2.0:   CWLS LOG ASCII STANDARD - VERSION 2.0
 WRAP.                 NO:   ONE LINE PER DEPTH STEP
~WELL INFORMATION
#MNEM.UNIT      DATA TYPE    INFORMATION
#----------   ------------   ------------------------------
 STRT.F          199.5000:   START DEPTH
 STOP.F         2983.0000:   STOP DEPTH
 STEP.F            0.5000:   STEP LENGTH
 NULL.          -999.2500:   NO VALUE
 COMP.    FENIX & SCISSON:   COMPANY
 WELL. FENIX (UE-49) "AX" #52-29:   WELL
 FLD . U.S. NAVAL PETROLEUM RESERVE #3:   FIELD
 LOC .      S29 T39N R78W:   LOCATION
 CNTY.            NATRONA:   COUNTY
 STAT.            WYOMING:   STATE
 CTRY. UNITED STATES OF AMERICA:   COUNTRY
 SRVC.           BIRDWELL:   SERVICE COMPANY
 DATE.        07-AUG-1977:   LOGDATE
 API .     49025104090000:   API NUMBER
~CURVE INFORMATION
#MNEM.UNIT       API CODE    CURVE DESCRIPTION
#----------   ------------   ------------------------------
 DEPT.F                  :   
 GRD .GAPI   45 310 01 00:   GAMMA RAY FROM DENSITY LOG
 CALD.IN     45 280 60 00:   CALIPER FROM DENSITY LOG
 DEN .G/C3   45 350 01 00:   BULK DENSITY
 DCOR.G/C3   45 356 01 00:   DENSITY CORRECTION
 SN  .OHMM   05 040 16 00:   SHORT NORMAL 16"
 ILD .OHMM   05 120 46 00:   INDUCTION LOG DEEP RESISTIVITY
~PARAMETER INFORMATION
#MNEM.UNIT          VALUE    DESCRIPTION
#----------   ------------   ------------------------------
 EKB .F         4995.0000:   Kelly bushing
 EGL .F         4985.0000:   Ground level
 EDF .F            0.0000:   Drilling floor
 TD  .F         2973.0000:   Total depth
 DATE.         7-AUG-1977:   Date logged
 CLNT.            A2DTECH:   Client Code
 SL  . 1400' FNL & 2380' FEL:   Surface Location
 PD  .                 GL:   Permanent Datum
 EPD .F              4985:   Elevation Permanent Datum
 LMF .                 KB:   Log Measured From
 DMF .                 KB:   Drilling Measured From
 DAPD.F                10:   Feet Above Permanent Datum
 DD  .F              2972:   Depth driller
 DL  .F              2973:   Depth logger
 BLI .F              2968:   Bottom log interval
 TLI .F               216:   Top log interval
 CS1 .IN            8.625:   Casing size
 CBD1.      8.625" @ 216':   Casing driller 1
 CBL1.F               216:   Casing logger 1
 BS1 .IN            7.875:   Bit size
 BSD1.F              2972:   Depth drilled with bit1
 DFT .            GEL-KCL:   Type fluid in hole
 DFD .                8.9:   Density
 DFV .                 33:   Viscosity
 DFL .                  9:   Fluid loss
 MSS .            MUD PIT:   Source of sample
 RMS .OHMM           0.26:   Rm
 MST .F                73:   Rm Meas. temp.
 RMF .OHMM           0.26:   Rmf
 MFST.F                72:   Rmf Meas. temp.
 RMC .OHMM           0.96:   Rmc
 MCST.F                72:   Rmc Meas. temp.
 MFSS.              PRESS:   Source Rmf.
 RMB .OHMM           0.14:   Rm. at BHT
 BHT .F               130:   BHT.
 TCS .HRS               5:   Time Circ. stopped
 MRT .F               130:   Maximum recorded temp.
 LUN .               2958:   Logging unit number
 LUL .             CASPER:   Logging unit location
 ENGI.                LAW:   Recorded By
 WITN.             RHODES:   Witnessed by
 ORIG.           5" PRINT:   Origin of data
 UWI .     49025104090000:   Unique Well ID
 DICO. A2D TECHNOLOGIES, INC.:   Digitizing Company
~OTHER INFORMATION
~A   DEPT       GRD      CALD        DEN       DCOR         SN        ILD   
  199.5000    32.5250  -999.2500  -999.2500  -999.2500  -999.2500  -999.2500
  200.0000    33.6010  -999.2500  -999.2500  -999.2500  -999.2500  -999.2500
  200.5000    34.3920  -999.2500  -999.2500  -999.2500  -999.2500  -999.2500
  201.0000    34.0040  -999.2500  -999.2500  -999.2500  -999.2500  -999.2500
  201.5000    33.6630  -999.2500  -999.2500  -999.2500  -999.2500  -999.2500
  202.0000    35.6790  -999.2500  -999.2500  -999.2500  -999.2500  -999.2500
  202.5000    35.4210  -999.2500  -999.2500  -999.2500  -999.2500  -999.2500
  203.0000    35.1830  -999.2500  -999.2500  -999.2500  -999.2500  -999.2500
  203.5000    35.9460  -999.2500  -999.2500  -999.2500  -999.2500  -999.2500
  204.0000    36.1630  -999.2500  -999.2500  -999.2500  -999.2500  -999.2500
  204.5000    35.7040  -999.2500  -999.2500  -999.2500  -999.2500  -999.2500
  205.0000    33.7430  -999.2500  -999.2500  -999.2500  -999.2500  -999.2500
  205.5000    34.2180  -999.2500  -999.2500  -999.2500  -999.2500  -999.2500
  206.0000    32.1050  -999.2500  -999.2500  -999.2500  -999.2500  -999.2500
  206.5000    33.6050  -999.2500  -999.2500  -999.2500  -999.2500  -999.2500
  207.0000    34.8150  -999.2500  -999.2500  -999.2500  -999.2500  -999.2500
  207.5000    33.9450  -999.2500  -999.2500  -999.2500  -999.2500  -999.2500
  208.0000    32.6020  -999.2500  -999.2500  -999.2500  -999.2500  -999.2500
  208.5000    31.6240  -999.2500  -999.2500  -999.2500  -999.2500  -999.2500
  209.0000    32.2110  -999.2500  -999.2500  -999.2500     1.1130  -999.2500
  209.5000    34.5330     8.2840  -999.2500  -999.2500     1.1100  -999.2500
  210.0000    36.8890     8.2860  -999.2500  -999.2500     1.1070  -999.2500
  210.5000    38.4520     8.2880  -999.2500  -999.2500     1.1100  -999.2500
  211.0000    39.4440     8.2900  -999.2500    -0.3390     1.1030  -999.2500
  211.5000    34.4490     8.2920  -999.2500    -0.3260     1.1000  -999.2500
  212.0000    35.7890     8.2940     2.2000    -0.3120     1.0980  -999.2500
  212.5000    32.8910     8.2960     2.2090    -0.2900     1.0950  -999.2500
  213.0000    33.8980     8.2980     2.2240    -0.2700     1.0920  -999.2500
  213.5000    32.9810     8.3000     2.2260    -0.2100     1.0900  -999.2500
  214.0000    31.4560     8.3080     2.2450    -0.1380     1.0870  -999.2500
  214.5000    35.3360     8.3740     2.2370    -0.0500     1.0840  -999.2500
  215.0000    39.4930     8.7590     2.2230     0.1410     1.0820  -999.2500
  215.5000    40.4090     9.4320     2.3270     0.2530     1.0790  -999.2500
  216.0000    41.6220     9.6340     2.4150     0.1900     1.0760  -999.2500
  216.5000    38.4790     9.8640     2.3500     0.1680     1.0750  -999.2500
  217.0000    31.9210    10.0580     2.3190     0.1650     2.7720  -999.2500
  217.5000    30.2070    10.5300     2.3090     0.1840     5.7590  -999.2500
  218.0000    31.9820    11.5200     2.3000     0.2110     6.4580  -999.2500
  218.5000    33.5060    12.1840     2.3500     0.1280     7.8680     3.6650
  219.0000    31.5290    12.4460     2.2900     0.0670     8.5240     3.7840
  219.5000    34.6220    12.6280     2.2970     0.0590    10.3050     3.6750
  220.0000    32.7460    12.3910     2.3060     0.0490    12.1930     9.1060
  220.5000    31.4490    12.6490     2.3160     0.0290    11.1250    16.0510
  221.0000    30.3000    12.6510     2.3260     0.0250    11.0700    15.8540
  221.5000    29.5490    12.6500     2.3210     0.0260    10.9690    15.4730
  222.0000    30.9010    12.6500     2.3320     0.0250    10.8680    16.4990
  222.5000    33.1420    12.6500     2.3440     0.0200    10.7680    16.0510
  223.0000    33.3710    12.6500     2.3490     0.0200    10.6830    16.9450
  223.5000    32.8650    12.6500     2.3430     0.0220    10.4430    17.1150
  224.0000    29.0770    12.6500     2.3480     0.0150    10.2040    17.0040
  224.5000    33.4310    12.6500     2.3430     0.0200    10.0580    16.4090
  225.0000    34.3220    12.6500     2.3370     0.0260    10.0990    16.0510
  225.5000    36.0160    12.6500     2.3540     0.0150    10.1510    16.0510
  226.0000    34.5500    12.6570     2.3580     0.0080    10.4340    15.1920
  226.5000    35.2020    12.6700     2.3570     0.0140    10.5300    15.3320
  227.0000    35.9750    12.6820     2.3560     0.0240    10.5300    14.3800
  227.5000    35.1590    12.6560     2.3610     0.0280    10.6270    14.8320
  228.0000    36.4710    12.5620     2.3810     0.0260    11.0400    15.6160
  228.5000    34.6720    12.5480     2.3830     0.0270    11.3100    15.8670
  229.0000    35.4230    12.5420     2.3820     0.0260    11.5800    16.1990
  229.5000    35.2560    12.5360     2.3710     0.0360    11.8500    14.7240
  230.0000    33.7160    12.5300     2.3730     0.0420    12.1200    13.1200
  230.5000    34.7990    12.5240     2.3770     0.0410    12.3890    13.2890
  231.0000    35.1240    12.5190     2.3760     0.0440    12.6140    13.4860
  231.5000    36.9120    12.5110     2.3790     0.0410    12.7880    13.6820
  232.0000    37.2930    12.4130     2.3740     0.0420    12.9620    13.8620
  232.5000    36.2060    12.1220     2.3770     0.0450    13.1200    14.8490
  233.0000    36.6340    11.4650     2.3850     0.0350    13.3020    15.3720
  233.5000    38.8330    11.3000     2.3930     0.0220    13.4860    15.6310
  234.0000    39.0930    11.3010     2.3900     0.0160    13.0190    15.7600
  234.5000    38.8030    11.2980     2.3920     0.0150    12.0770    15.4730
  235.0000    38.2090    11.2940     2.3840     0.0170    11.4350    18.4170
  235.5000    40.4440    11.2900     2.3770     0.0140    11.5690    17.2720
  236.0000    41.1750    11.2870     2.3800     0.0120    11.7540    20.5570
  236.5000    40.7260    11.2820     2.3760     0.0080    11.7010    19.2800
  237.0000    40.2010    11.2760     2.3780     0.0010    11.6300    19.6370
  237.5000    40.5480    11.2710     2.3710     0.0020    11.5580    17.4310
  238.0000    36.9510    11.2660     2.3620     0.0080    11.5400    14.9160
  238.5000    37.5400    11.2610     2.3610     0.0130    11.5410    14.8350
  239.0000    37.9760    11.2560     2.3580     0.0110    11.5410    14.7800
  239.5000    40.6550    11.2510     2.3500     0.0110    11.5400    14.7800
  240.0000    41.1710    11.2460     2.3460     0.0140    11.5400    14.7800
  240.5000    37.1780    11.2410     2.3480     0.0180    11.5400    14.7880
  241.0000    36.4690    11.2360     2.3660     0.0160    11.5400    14.8070
  241.5000    37.9460    11.2310     2.3760     0.0060    11.5400    14.8260
  242.0000    39.2240    11.2260     2.3620     0.0070    11.5400    14.8450
  242.5000    37.3440    11.2210     2.3510     0.0130    11.5400    14.8640
  243.0000    37.8920    11.2150     2.3450     0.0180    11.5400    14.8830
  243.5000    38.4160    11.2100     2.3500     0.0180    11.5400    14.9020
  244.0000    35.2350    11.1730     2.3510     0.0260    11.5400    14.9210
  244.5000    37.3420    11.0930     2.3500     0.0250    11.5400    14.9410
  245.0000    36.2740    11.0650     2.3530     0.0260    11.5400    14.9600
  245.5000    36.2470    11.0550     2.3540     0.0290    11.5400    14.9790
  246.0000    35.2040    11.0350     2.3570     0.0280    11.5400    14.9980
  246.5000    34.8810    10.9780     2.3670     0.0200    11.5400    15.0170
  247.0000    36.3290    10.9260     2.3690     0.0190    11.5400    15.0360
  247.5000    38.9110    10.8680     2.3660     0.0190    11.5400    15.0550
  248.0000    38.9220    10.8270     2.3660     0.0160    11.5390    15.0880
  248.5000    40.2810    10.7340     2.3600     0.0150    11.5680    15.1200
  249.0000    41.2600    10.7330     2.3540     0.0080    11.6250    15.1510
  249.5000    39.3590    10.7330     2.3470     0.0030    11.6820    15.1830
  250.0000    37.7030    10.6320     2.3370     0.0120    11.7380    15.2150
  250.5000    38.5130    10.5760     2.3450     0.0250    11.7950    15.2470
  251.0000    35.5570    10.5750     2.3600     0.0250    11.8520    15.2790
