~VERSION INFORMATION
 VERS.                2.0:   CWLS LOG ASCII STANDARD - VERSION 2.0
 WRAP.                 NO:   ONE LINE PER DEPTH STEP
~WELL INFORMATION
#MNEM.UNIT      DATA TYPE    INFORMATION
#----------   ------------   ------------------------------
 STRT.F           85.5000:   START DEPTH
 STOP.F         2750.0000:   STOP DEPTH
 STEP.F            0.5000:   STEP LENGTH
 NULL.          -999.2500:   NO VALUE
 COMP.          INTEX OIL:   COMPANY
 WELL. INTEX NPR 3 "AX" #74-20:   WELL
 FLD .             TEAPOT:   FIELD
 LOC .      S20 T39N R78W:   LOCATION
 CNTY.            NATRONA:   COUNTY
 STAT.            WYOMING:   STATE
 CTRY. UNITED STATES OF AMERICA:   COUNTRY
 SRVC.       SCHLUMBERGER:   SERVICE COMPANY
 DATE.        08-MAY-1966:   LOGDATE
 API .     49025095210000:   API NUMBER
~CURVE INFORMATION
#MNEM.UNIT       API CODE    CURVE DESCRIPTION
#----------   ------------   ------------------------------
 DEPT.F                  :   
 CALD.IN     45 280 60 00:   CALIPER FROM DENSITY LOG
 GRD .GAPI   45 310 01 00:   GAMMA RAY FROM DENSITY LOG
 RHOB.G/C3   45 350 01 00:   BULK DENSITY
 CORR.G/C3   45 356 01 00:   DENSITY CORRECTION
 SPR .MV     05 010 01 00:   SPONTANEOUS POTENTIAL FROM RES.
 ILD .OHMM   05 120 46 00:   INDUCTION LOG DEEP
 SN  .OHMM   05 040 00 00:   SHORT NORMAL
~PARAMETER INFORMATION
#MNEM.UNIT          VALUE    DESCRIPTION
#----------   ------------   ------------------------------
 EKB .F         5018.3000:   Kelly bushing
 EGL .F         5008.0000:   Ground level
 EDF .F            0.0000:   Drilling floor
 EPD .F         5008.0000:   Permanent datum
 TD  .F         2750.0000:   Total depth
 DATE.        08-MAY-1966:   Date logged
 CLNT.            A2DTECH:   Client Code
 DAPD.F              10.3:   Feet Above Permanent Datum
 DD  .F              2750:   Depth driller
 DL  .F              2749:   Depth logger
 BLI .F              2748:   Bottom log interval
 TLI .F                87:   Top log interval
 CS1 .IN            10.75:   Casing size
 CBD1.       10.75" @ 30':   Casing driller 1
 BS1 .IN            7.875:   Bit size
 BSD1.F              2750:   Depth drilled with bit1
 DFT .           OIL EMUL:   Type fluid in hole
 DFD .               10.1:   Density
 DFV .                 54:   Viscosity
 MSS .         CIRCULATED:   Source of sample
 RMS .OHMM           1.90:   Rm
 MST .F                72:   Rm Meas. temp.
 RMF .OHMM           1.15:   Rmf
 MFST.F                72:   Rmf Meas. temp.
 MFSS.                 FP:   Source Rmf.
 RMB .OHMM           1.23:   Rm. at BHT
 BHT .F               111:   BHT.
 TCS .HRS             1.5:   Time Circ. stopped
 MRT .F               111:   Maximum recorded temp.
 LUN .               4507:   Logging unit number
 LUL .               CSPR:   Logging unit location
 ENGI.               HAUG:   Recorded By
 WITN.             TUTTLE:   Witnessed by
 ORIG.        2" 5" PRINT:   Origin of data
 UWI .     49025095210000:   Unique Well ID
 DICO. A2D TECHNOLOGIES, INC.:   Digitizing Company
~OTHER INFORMATION
~A   DEPT     CALD        GRD       RHOB       CORR        SPR        ILD         SN   
# ...
 2679.0000     7.6080   105.6030     2.4980     0.0690   -35.5030    19.2610    21.6720
 2679.5000     7.5030   103.6270     2.4850     0.0620   -39.0070    25.4230    26.1410
 2680.0000     7.3970   103.5140     2.4650     0.0620   -42.5950    30.5020    33.2890
 2680.5000     7.3180    93.4770     2.4290     0.0730   -51.2010    35.9430    38.1770
 2681.0000     7.3070    83.5630     2.4070     0.0840   -55.4290    39.1080    39.9590
 2681.5000     7.2950    72.9410     2.4300     0.0950   -59.3230    40.7770    41.4250
 2682.0000     7.2830    63.9130     2.4310     0.0920   -60.5560    42.0010    41.5230
 2682.5000     7.2910    58.7730     2.4220     0.0900   -62.3140    40.5860    41.8360
 2683.0000     7.3040    54.7770     2.4230     0.0950   -62.7200    39.3980    42.1130
 2683.5000     7.3570    52.7480     2.4260     0.1000   -63.2020    38.1020    42.3950
 2684.0000     7.4850    51.7690     2.4030     0.0810   -63.6090    36.7670    42.9570
 2684.5000     7.6210    52.1090     2.3820     0.0480   -64.0680    35.8970    43.5430
 2685.0000     7.6400    53.0230     2.3520     0.0370   -64.4820    35.6190    43.9880
 2685.5000     7.6560    53.6200     2.3630     0.0550   -64.9630    35.3540    44.2940
 2686.0000     7.6680    53.8130     2.3990     0.0770   -65.0490    35.7120    44.6000
 2686.5000     7.6680    48.5590     2.4440     0.0710   -64.7490    37.8020    45.1630
 2687.0000     7.6530    49.7540     2.4510     0.0620   -64.4840    39.6260    46.6060
 2687.5000     7.6440    51.8870     2.4560     0.0700   -64.2200    41.5690    47.5500
 2688.0000     7.6390    54.0480     2.4790     0.0760   -64.0250    43.4240    55.4800
 2688.5000     7.6960    56.2880     2.5100     0.0610   -64.4470    45.3410    58.3470
 2689.0000     7.7550    55.2150     2.5400     0.0450   -64.8910    47.2140    60.6450
 2689.5000     7.8070    53.0620     2.5840     0.0360   -65.1840    49.1060    63.8290
 2690.0000     7.8430    48.3220     2.5750     0.0490   -64.8910    50.1910    64.3750
 2690.5000     7.8770    44.2340     2.5000     0.0600   -64.9440    48.9600    62.7520
 2691.0000     7.8210    45.7530     2.5060     0.0740   -65.6040    46.0080    60.5100
 2691.5000     7.7170    46.5670     2.4500     0.0750   -66.1970    43.1790    55.6410
 2692.0000     7.6380    47.4990     2.4260     0.0790   -66.6490    41.0190    51.8790
 2692.5000     7.6340    46.3060     2.4610     0.0840   -65.9850    39.3550    50.4320
 2693.0000     7.6330    44.3460     2.4930     0.0890   -65.3150    37.7260    49.2310
 2693.5000     7.6200    45.9990     2.4780     0.0860   -65.5910    36.1800    48.1530
 2694.0000     7.5990    51.6470     2.4590     0.0800   -67.0130    36.1400    47.3450
 2694.5000     7.5800    56.7950     2.4650     0.0700   -68.3480    36.6660    46.8500
 2695.0000     7.5600    54.7620     2.4740     0.0550   -69.4430    37.0650    46.4470
 2695.5000     7.5410    53.6980     2.4940     0.0520   -69.4260    36.8630    45.3390
 2696.0000     7.5210    57.2920     2.5120     0.0680   -69.4060    36.3560    44.2500
 2696.5000     7.5430    69.0730     2.4730     0.0740   -69.3470    35.8670    42.8640
 2697.0000     7.5800    80.2800     2.4120     0.0630   -69.3150    35.3000    41.1880
 2697.5000     7.6150    86.4200     2.3900     0.0620   -69.2690    34.3710    39.5720
 2698.0000     7.6540    75.4720     2.3820     0.0570   -69.2300    33.2100    37.8870
 2698.5000     7.6730    64.2590     2.3760     0.0470   -69.1940    32.0810    36.2920
 2699.0000     7.6640    60.6710     2.3750     0.0580   -69.1370    30.9200    34.4320
 2699.5000     7.6590    61.7260     2.4060     0.0740   -69.1380    29.8260    33.1600
 2700.0000     7.6530    58.0140     2.4100     0.0760   -68.7650    28.5700    31.6840
 2700.5000     7.6480    57.8310     2.3980     0.0650   -68.1120    27.8090    30.2680
 2701.0000     7.6420    61.1300     2.4000     0.0570   -67.5190    26.4730    28.8270
 2701.5000     7.6360    61.1460     2.3950     0.0470   -66.9110    24.9460    27.3680
 2702.0000     7.6300    57.7620     2.3940     0.0530   -66.3030    23.4150    26.1180
 2702.5000     7.6250    54.7500     2.4040     0.0770   -65.6980    21.9160    24.8730
 2703.0000     7.6190    55.7890     2.4020     0.0680   -65.0880    20.3890    23.7800
 2703.5000     7.6130    58.0190     2.4100     0.0610   -64.4840    18.8750    22.6500
 2704.0000     7.6070    58.7410     2.4240     0.0840   -63.8660    17.3660    21.5450
 2704.5000     7.6010    58.3090     2.4080     0.0690   -63.2710    15.8300    20.3700
 2705.0000     7.5960    60.3990     2.3880     0.0470   -62.6470    14.5980    19.1760
 2705.5000     7.5960    62.5030     2.3940     0.0360   -61.9530    13.6310    17.9800
 2706.0000     7.6160    63.8080     2.4140     0.0500   -60.0630    12.6530    16.7870
 2706.5000     7.6340    62.5890     2.4250     0.0620   -57.9820    11.6100    15.5960
 2707.0000     7.6550    62.9130     2.4320     0.0710   -55.4300    10.6330    14.3870
 2707.5000     7.6790    65.3580     2.4260     0.0600   -52.3070     9.5680    13.3740
 2708.0000     7.7570    67.0010     2.4080     0.0470   -49.3750     8.6320    12.7750
 2708.5000     7.8360    67.0010     2.4020     0.0330   -46.0010     8.2700    12.1630
 2709.0000     7.9160    67.1060     2.4010     0.0200   -43.2570     7.9500    11.5620
 2709.5000     7.9840    66.8770     2.4030     0.0080   -39.8030     7.6470    10.9580
 2710.0000     7.9890    68.5010     2.4270     0.0200   -38.2340     7.3320    10.3890
 2710.5000     7.9940    70.8790     2.4500     0.0310   -36.5480     7.1300    10.0390
 2711.0000     7.9960    73.7640     2.4670     0.0430   -34.9610     6.9890     9.7130
 2711.5000     8.0000    77.3730     2.4850     0.0570   -33.3150     6.8500     9.3720
 2712.0000     8.0030    80.6030     2.4770     0.0490   -31.7940     6.7110     9.1050
 2712.5000     8.0070    83.2880     2.5070     0.0470   -31.4910     6.5730     8.9410
 2713.0000     8.0100    81.8250     2.5000     0.0550   -31.2490     6.4350     8.7540
 2713.5000     8.0130    80.6860     2.4900     0.0450   -31.0580     6.2960     8.5750
 2714.0000     8.0170    80.8270     2.5030     0.0350   -30.6630     6.1580     8.3940
 2714.5000     8.0200    81.3460     2.5060     0.0310   -30.0340     6.0200     8.2130
 2715.0000     8.0230    83.7900     2.5070     0.0390   -29.4050     5.8810     8.0330
 2715.5000     8.0270    87.7350     2.5140     0.0460   -28.7710     5.7430     7.8520
 2716.0000     8.0210    91.8550     2.5200     0.0400   -28.1380     5.6040     7.6890
 2716.5000     8.0100    95.5240     2.5170     0.0450   -27.5130     5.4680     7.5340
 2717.0000     8.0010    95.8510     2.5080     0.0350   -26.8700     5.3270     7.3780
 2717.5000     7.9910    94.9110     2.4930     0.0160   -26.3770     5.1920     7.2220
 2718.0000     7.9890    98.1660     2.4870     0.0150   -26.0300     5.0530     7.0650
 2718.5000     7.9910    98.5650     2.4900     0.0220   -25.6240     5.0200     6.9120
 2719.0000     7.9920    99.1520     2.4950     0.0270   -25.3550     4.9710     6.7520
 2719.5000     7.9930   103.0490     2.5010     0.0220   -25.3210     4.9300     6.6010
 2720.0000     7.9950   105.4970     2.5060     0.0290   -25.2430     4.8830     6.4370
 2720.5000     7.9960   105.6060     2.5060     0.0360   -25.1810     4.8390     6.4250
 2721.0000     7.9970   104.6160     2.5050     0.0400   -25.1160     4.7940     6.4120
 2721.5000     7.9990   102.7520     2.4970     0.0360   -25.0470     4.7500     6.3760
 2722.0000     8.0000    99.8020     2.5100     0.0410   -25.0010     4.7050     6.3370
 2722.5000     8.0010   102.6790     2.5310     0.0500   -24.9990     4.6600     6.3000
 2723.0000     8.0030   105.5740     2.5540     0.0580   -24.9980     4.6160     6.2600
 2723.5000     8.0040   109.1680     2.5430     0.0660   -25.0050     4.5710     6.2310
 2724.0000     8.0050   107.8960     2.5370     0.0580   -24.9240     4.5270     6.1860
