~VERSION INFORMATION
 VERS.                2.0:   CWLS LOG ASCII STANDARD - VERSION 2.0
 WRAP.                 NO:   ONE LINE PER DEPTH STEP
~WELL INFORMATION
#MNEM.UNIT      DATA TYPE    INFORMATION
#----------   ------------   ------------------------------
 STRT.F           72.5000:   START DEPTH
 STOP.F         2820.0000:   STOP DEPTH
 STEP.F            0.5000:   STEP LENGTH
 NULL.          -999.2500:   NO VALUE
 COMP.          INTEX OIL:   COMPANY
 WELL. INTEX OIL AX N. P. R. #51-29:   WELL
 FLD .             TEAPOT:   FIELD
 LOC .      S29 T39N R78W:   LOCATION
 CNTY.            NATRONA:   COUNTY
 STAT.            WYOMING:   STATE
 CTRY. UNITED STATES OF AMERICA:   COUNTRY
 SRVC.       SCHLUMBERGER:   SERVICE COMPANY
 DATE.        01-MAY-1966:   LOGDATE
 API .     49025094920000:   API NUMBER
~CURVE INFORMATION
#MNEM.UNIT       API CODE    CURVE DESCRIPTION
#----------   ------------   ------------------------------
 DEPT.F                  :   
 GRD .GAPI   45 310 01 00:   GAMMA RAY FROM DENSITY LOG
 CALD.IN     45 280 60 00:   CALIPER FROM DENSITY LOG
 RHOB.G/C3   45 350 01 00:   BULK DENSITY
 CORR.G/C3   45 356 01 00:   DENSITY CORRECTION
 SPR .MV     07 010 01 00:   SPONTANEOUS POTENTIAL
 ASN .OHMM   05 041 16 00:   AMPLIFIED SHORT NORMAL 16"
 ILD .OHMM   05 120 46 00:   DEEP INDUCTION RESISTIVITY
 DT  .US/F   60 520 00 00:   DELTA TIME
~PARAMETER INFORMATION
#MNEM.UNIT          VALUE    DESCRIPTION
#----------   ------------   ------------------------------
 EKB .F         5007.3000:   Kelly bushing
 EGL .F         4997.0000:   Ground level
 EDF .F            0.0000:   Drilling floor
 TD  .F         2799.0000:   Total depth
 DATE.        01-MAY-1966:   Date logged
 CLNT.            A2DTECH:   Client Code
 PD  .                 GL:   Permanent Datum
 EPD .F              4997:   Elevation Permanent Datum
 LMF .                 KB:   Log Measured From
 DMF .                 KB:   Drilling Measured From
 DAPD.F              10.3:   Feet Above Permanent Datum
 DD  .F              2798:   Depth driller
 DL  .F              2799:   Depth logger
 BLI .F              2798:   Bottom log interval
 TLI .F                88:   Top log interval
 CS1 .IN            10.75:   Casing size
 CBD1.       10.75" @ 30':   Casing driller 1
 BS1 .IN            7.875:   Bit size
 BSD1.F              2798:   Depth drilled with bit1
 DFT .           CHEM/OIL:   Type fluid in hole
 DFD .                9.5:   Density
 DFV .                 46:   Viscosity
 DFPH.                7.2:   pH
 DFL .                7.0:   Fluid loss
 MSS .         CIRCULATED:   Source of sample
 RMS .OHMM           2.28:   Rm
 MST .F                68:   Rm Meas. temp.
 RMF .OHMM           1.32:   Rmf
 MFST.F                72:   Rmf Meas. temp.
 MFSS.                 FP:   Source Rmf.
 RMB .OHMM           1.52:   Rm. at BHT
 BHT .F               102:   BHT.
 TCS .HRS             1.5:   Time Circ. stopped
 MRT .F               102:   Maximum recorded temp.
 LUN .               4507:   Logging unit number
 LUL .               CSPR:   Logging unit location
 ENGI.               HAUG:   Recorded By
 WITN.      TUTTLE/HUDSON:   Witnessed by
 ORIG.           5" PRINT:   Origin of data
 UWI .     49025094920000:   Unique Well ID
 DICO. A2D TECHNOLOGIES, INC.:   Digitizing Company
~OTHER INFORMATION
~A   DEPT      GRD       CALD       RHOB       CORR        SPR        ASN        ILD         DT   
# ...
 2664.5000   129.1420     8.5910     2.4570    -0.0150   -25.7880     7.7300     4.6880    88.9740
 2665.0000   130.8520     8.5950     2.4740    -0.0100   -25.7920     7.5490     4.5900    89.8780
 2665.5000   132.1670     8.5990     2.4760    -0.0020   -25.7890     7.2740     4.4970    90.9730
 2666.0000   132.6930     8.6030     2.4680    -0.0010   -25.7810     6.9720     4.4040    92.1500
 2666.5000   131.6770     8.6080     2.4610    -0.0080   -25.7830     6.7140     4.3010    93.3270
 2667.0000   130.5760     8.6110     2.4560    -0.0080   -25.7990     6.5570     4.1870    94.5050
 2667.5000   130.2120     8.6160     2.4600    -0.0060   -25.7990     6.5240     4.0930    94.6970
 2668.0000   130.3380     8.6200     2.4770    -0.0040   -25.7710     6.5640     4.0700    93.2430
 2668.5000   131.3950     8.6230     2.4750    -0.0030   -25.7630     6.5760     4.1390    93.2550
 2669.0000   132.3450     8.6310     2.4630    -0.0090   -25.8150     6.5210     4.2630    93.1310
 2669.5000   133.4210     8.6090     2.4740    -0.0150   -25.8420     6.4620     4.3820    92.8830
 2670.0000   133.4540     8.5930     2.4970    -0.0120   -25.6960     6.4530     4.4680    92.9820
 2670.5000   131.1610     8.6030     2.4740    -0.0070   -25.3820     6.4610     4.5440    92.3670
 2671.0000   128.9060     8.6100     2.4820    -0.0030   -25.1160     6.4640     4.6540    91.4350
 2671.5000   127.0160     8.6160     2.4970    -0.0020   -25.0910     6.5580     4.7860    89.5530
 2672.0000   125.4670     8.6240     2.5030    -0.0040   -25.2670     6.8310     4.8470    87.2660
 2672.5000   126.0300     8.6310     2.4920    -0.0090   -25.4640     7.1700     4.7390    84.2840
 2673.0000   128.3220     8.6380     2.4970    -0.0170   -25.5850     7.3380     4.4590    83.1660
 2673.5000   131.5940     8.6450     2.5040    -0.0230   -25.6780     7.2230     4.0840    83.1540
 2674.0000   134.4450     8.6520     2.4900    -0.0200   -25.8130     6.9050     3.6810    84.3260
 2674.5000   140.6860     8.6590     2.4750    -0.0180   -25.9840     6.4690     3.2820    85.5880
 2675.0000   146.9490     8.6660     2.4510    -0.0160   -26.1220     5.9100     2.9550    87.7050
 2675.5000   151.5580     8.6760     2.4280    -0.0140   -26.1470     5.2600     2.7790    91.8200
 2676.0000   164.4860     8.6900     2.4020    -0.0080   -26.0450     4.6550     2.7390    95.9340
 2676.5000   169.1390     8.7030     2.3930    -0.0010   -25.9000     4.2200     2.7210   100.0480
 2677.0000   167.2470     8.7170     2.3930     0.0100   -25.8260     4.0220     2.6740   100.9510
 2677.5000   159.7650     8.7300     2.4090     0.0190   -25.8750     4.1460     2.7130    94.9320
 2678.0000   147.4170     8.7440     2.4300    -0.0160   -26.0190     4.6750     2.9810    89.5200
 2678.5000   115.9830     8.7570     2.4600    -0.0110   -26.2080     5.4980     3.4500    84.1080
 2679.0000   120.0020     8.7710     2.4910    -0.0100   -26.3960     6.2970     3.9630    80.7630
 2679.5000   118.1250     8.7850     2.5050    -0.0090   -26.5290     6.8250     4.4430    82.6370
 2680.0000   119.2320     8.7920     2.5100    -0.0010   -26.5660     7.1260     4.9280    80.0970
 2680.5000   117.0100     8.7910     2.5030    -0.0030   -26.5240     7.3920     5.3990    80.0780
 2681.0000   115.4400     8.7910     2.4970    -0.0100   -26.4650     7.6840     5.7060    80.6260
 2681.5000   115.1070     8.7910     2.4890    -0.0160   -26.4250     7.8920     5.7440    78.9660
 2682.0000   115.6120     8.7910     2.4710    -0.0180   -26.3960     7.9190     5.6020    79.2530
 2682.5000   118.4970     8.7910     2.5070    -0.0020   -26.3580     7.7990     5.4560    80.9070
 2683.0000   122.1030     8.7910     2.4960    -0.0060   -26.3130     7.6070     5.3800    82.2850
 2683.5000   125.2030     8.7910     2.5000    -0.0140   -26.2720     7.4210     5.3240    83.6630
 2684.0000   128.0590     8.7910     2.4910    -0.0220   -26.2350     7.2210     5.2370    85.0410
 2684.5000   128.4770     8.7910     2.4680    -0.0170   -26.1980     7.0310     5.1350    85.5520
 2685.0000   127.3240     8.7910     2.4730    -0.0190   -26.1570     6.9460     5.0520    85.5710
 2685.5000   126.1840     8.7910     2.4820    -0.0140   -26.1160     6.9660     4.9880    84.5250
 2686.0000   126.4290     8.7910     2.5300    -0.0010   -26.0770     7.0430     4.9090    83.4790
 2686.5000   128.3640     8.7910     2.5200    -0.0100   -26.0400     7.1910     4.7770    82.4320
 2687.0000   129.4070     8.7910     2.5130    -0.0070   -26.0010     7.3450     4.5680    81.8090
 2687.5000   131.6190     8.7910     2.4930    -0.0070   -25.9590     7.3210     4.2770    81.9940
 2688.0000   134.7490     8.7910     2.4930    -0.0090   -25.9200     7.0540     3.9290    82.9460
 2688.5000   138.6700     8.7910     2.5040     0.0020   -25.8860     6.6620     3.5890    83.8990
 2689.0000   148.4530     8.7910     2.4990    -0.0030   -25.8460     6.2280     3.3360    86.0640
 2689.5000   159.5970     8.7910     2.4630    -0.0120   -25.7740     5.7700     3.2180    88.7480
 2690.0000   161.8330     8.7910     2.4680    -0.0030   -25.6290     5.3520     3.2170    91.4310
 2690.5000   170.8230     8.7910     2.4880     0.0020   -25.3840     5.0250     3.2910    91.7770
 2691.0000   176.2520     8.7910     2.4440     0.0030   -25.0690     4.8630     3.4180    90.1620
 2691.5000   173.1310     8.7910     2.4530     0.0130   -24.7910     4.9580     3.6000    87.8840
 2692.0000   162.3010     8.7910     2.4660    -0.0050   -24.6740     5.3350     3.8290    84.9430
 2692.5000   152.0380     8.7910     2.4760    -0.0140   -24.7420     5.9100     4.0890    82.1970
 2693.0000   140.6040     8.7910     2.5170     0.0000   -24.8970     6.5170     4.3710    81.2030
 2693.5000   127.7190     8.7910     2.5370     0.0070   -25.0260     7.0100     4.6760    81.2960
 2694.0000   123.2430     8.7910     2.5160    -0.0010   -25.0950     7.3360     4.9980    82.4450
 2694.5000   123.1670     8.7910     2.5110     0.0000   -25.1480     7.5380     5.3140    81.2520
 2695.0000   123.3580     8.7910     2.5210     0.0060   -25.2190     7.6990     5.5940    80.4570
 2695.5000   121.7570     8.7910     2.5240    -0.0050   -25.2970     7.8840     5.8160    80.9540
 2696.0000   118.4910     8.7910     2.5170    -0.0180   -25.3560     8.0970     5.9820    79.9600
 2696.5000   115.4220     8.7910     2.5110    -0.0130   -25.3880     8.2790     6.1160    79.7370
 2697.0000   112.4430     8.7910     2.5130    -0.0060   -25.3970     8.3870     6.2450    80.1590
 2697.5000   111.2120     8.7910     2.5200    -0.0040   -25.3950     8.4610     6.3760    79.4140
 2698.0000   110.0970     8.7910     2.5120    -0.0090   -25.3920     8.5970     6.5060    79.0160
 2698.5000   110.0480     8.7910     2.5020    -0.0020   -25.3930     8.8650     6.6350    77.5250
 2699.0000   112.7780     8.7910     2.5120     0.0090   -25.3940     9.1360     6.7690    77.1270
 2699.5000   115.5340     8.7910     2.5150     0.0020   -25.3940     9.2850     6.9020    77.7240
 2700.0000   118.3200     8.7910     2.5000    -0.0060   -25.3920     9.3520     7.0250    76.7300
 2700.5000   121.2450     8.7910     2.5020    -0.0140   -25.3920     9.4350     7.1500    77.9220
 2701.0000   123.1800     8.7910     2.5040    -0.0130   -25.3940     9.5800     7.2950    77.2710
 2701.5000   122.2020     8.7910     2.5070    -0.0110   -25.3950     9.7790     7.4440    76.4980
 2702.0000   119.4750     8.7880     2.5020    -0.0090   -25.3920     9.9430     7.5450    75.3130
 2702.5000   119.5810     8.7800     2.5010    -0.0120   -25.3910     9.9800     7.5650    74.9010
 2703.0000   119.8840     8.7720     2.5060    -0.0140   -25.3950     9.9520     7.5040    76.3760
 2703.5000   117.5760     8.7630     2.5100    -0.0180   -25.3990     9.9590     7.3570    75.3780
 2704.0000   117.8580     8.7550     2.4950    -0.0170   -25.3840     9.9090     7.0850    75.2390
 2704.5000   119.2210     8.7470     2.4930    -0.0130   -25.3380     9.6150     6.6780    76.5530
