~VERSION INFORMATION
 VERS.                2.0:   CWLS LOG ASCII STANDARD - VERSION 2.0
 WRAP.                 NO:   ONE LINE PER DEPTH STEP
~WELL INFORMATION
#MNEM.UNIT      DATA TYPE    INFORMATION
#----------   ------------   ------------------------------
 STRT.F          200.5000:   START DEPTH
 STOP.F         3118.5000:   STOP DEPTH
 STEP.F            0.5000:   STEP LENGTH
 NULL.          -999.2500:   NO VALUE
 COMP.    FENIX & SCISSON:   COMPANY
 WELL. FENIX SCISSON "A" #16-27:   WELL
 FLD .                NPR:   FIELD
 LOC .      S27 T39N R78W:   LOCATION
 CNTY.            NATRONA:   COUNTY
 STAT.            WYOMING:   STATE
 CTRY. UNITED STATES OF AMERICA:   COUNTRY
 SRVC.       SCHLUMBERGER:   SERVICE COMPANY
 DATE.        31-AUG-1977:   LOGDATE
 API .     49025104180000:   API NUMBER
~CURVE INFORMATION
#MNEM.UNIT       API CODE    CURVE DESCRIPTION
#----------   ------------   ------------------------------
 DEPT.F                  :   
 CALD.IN     45 280 60 00:   CALIPER FROM DENSITY LOG
 GRD .GAPI   45 310 01 00:   GAMMA RAY FROM DENSITY LOG
 DPHI.DEC    42 890 03 00:   DENSITY POROSITY SANDSTONE
 RHOB.G/C3   45 350 01 00:   BULK DENSITY
 CORR.G/C3   45 356 01 00:   DENSITY CORRECTION
 SPR .MV     07 010 01 00:   SPONTANEOUS POTENTIAL
 GURD.OHMM   07 220 05 00:   GUARD LOG RESISTIVITY
 ILD .OHMM   07 120 46 00:   DEEP INDUCTION RESISTIVITY
 ILM .OHMM   07 120 44 00:   INDUCTION LOG MEDIUM RESISTIVITY
~PARAMETER INFORMATION
#MNEM.UNIT          VALUE    DESCRIPTION
#----------   ------------   ------------------------------
 EKB .F         5095.0000:   Kelly bushing
 EGL .F         5085.0000:   Ground level
 EDF .F            0.0000:   Drilling floor
 TD  .F         3121.0000:   Total depth
 DATE.        31-AUG-1977:   Date logged
 CLNT.            A2DTECH:   Client Code
 SL  . 1430' FSL & 330' FNL:   Surface Location
 PD  .                 GL:   Permanent Datum
 EPD .F              5085:   Elevation Permanent Datum
 LMF .                 KB:   Log Measured From
 DMF .                 KB:   Drilling Measured From
 DAPD.F                10:   Feet Above Permanent Datum
 DD  .F              3120:   Depth driller
 DL  .F              3121:   Depth logger
 BLI .F              3119:   Bottom log interval
 TLI .F               200:   Top log interval
 CS1 .IN            8.625:   Casing size
 CBD1.      8.625" @ 206':   Casing driller 1
 CBL1.F               215:   Casing logger 1
 BS1 .IN            7.875:   Bit size
 BSD1.F              3120:   Depth drilled with bit1
 DFT .            KCL/MUD:   Type fluid in hole
 DFD .                  9:   Density
 DFV .                 36:   Viscosity
 DFPH.                 11:   pH
 DFL .                8.4:   Fluid loss
 MSS .           FLOWLINE:   Source of sample
 RMS .OHMM            2.5:   Rm
 MST .F                89:   Rm Meas. temp.
 RMF .OHMM           2.45:   Rmf
 MFST.F                89:   Rmf Meas. temp.
 RMC .OHMM           3.30:   Rmc
 MCST.F                89:   Rmc Meas. temp.
 MFSS.               FANN:   Source Rmf.
 MCSS.                KIT:   Source Rmc.
 RMB .OHMM           1.91:   Rm. at BHT
 BHT .F               116:   BHT.
 TCS .HRS              12:   Time Circ. stopped
 MRT .F               116:   Maximum recorded temp.
 LUN .               9585:   Logging unit number
 LUL .             CASPEN:   Logging unit location
 ENGI.         G. BENTSEN:   Recorded By
 WITN.      W. PETTINGILL:   Witnessed by
 ORIG.           5" PRINT:   Origin of data
 UWI .     49025104180000:   Unique Well ID
 DICO. A2D TECHNOLOGIES, INC.:   Digitizing Company
~OTHER INFORMATION
~A   DEPT     CALD         GRD      DPHI       RHOB        CORR       SPR       GURD        ILD        ILM   
# ...
 2135.0000     8.0654    90.1270     0.1194     2.4525     0.0141   -66.0486    15.0572     7.3584     8.9528
 2135.5000     8.0845    88.5383     0.1202     2.4504     0.0080   -66.0474    16.5090     7.4959     9.0364
 2136.0000     8.0642    86.9543     0.1202     2.4494     0.0060   -65.8486    16.9723     7.7067     8.9544
 2136.5000     8.0636    86.1529     0.1203     2.4504     0.0059   -65.6498    16.5120     7.7074     8.9552
 2137.0000     8.0827    86.1411     0.1203     2.4523     0.0079   -65.6486    16.3624     7.7795     8.9561
 2137.5000     8.0624    86.5253     0.1171     2.4543     0.0078   -65.6473    16.9770     7.7798     9.1233
 2138.0000     8.0815    87.3008     0.1163     2.4552     0.0077   -65.6461    17.2937     7.7808     8.9577
 2138.5000     8.0809    87.2867     0.1151     2.4662     0.0097   -65.8424    17.1370     7.7815     9.0414
 2139.0000     8.0803    87.2773     0.1104     2.4701     0.0116   -66.0387    16.5196     7.7824     9.1262
 2139.5000     8.0601    86.8719     0.1072     2.4711     0.0115   -66.0374    16.3699     7.7830     9.0430
 2140.0000     8.0595    86.0728     0.1072     2.4720     0.0115   -66.0362    15.9259     7.7837     8.6370
 2140.5000     8.0786    85.2714     0.1068     2.4720     0.0114   -66.0349    15.2116     7.5722     8.4801
 2141.0000     8.0583    84.0716     0.1064     2.4720     0.0153   -66.0337    14.1343     7.2324     8.3262
 2141.5000     8.0774    84.0692     0.1057     2.4759     0.0153   -66.0325    13.7510     7.0360     8.2509
 2142.0000     8.0768    84.0598     0.1041     2.4739     0.0192   -66.0312    13.2556     7.0365     8.0268
 2142.5000     8.0761    83.2607     0.1013     2.4749     0.0191   -65.6349    12.6611     6.9725     7.9539
 2143.0000     8.0558    82.8506     0.1029     2.4768     0.0191   -65.6334    11.9825     6.9094     8.0284
 2143.5000     8.0946    82.4452     0.1057     2.4768     0.0210   -65.6321    13.5053     6.9100     8.1034
 2144.0000     8.0743    82.4358     0.1045     2.4768     0.0229   -65.6309    14.2727     6.9106     8.0299
 2144.5000     8.0737    82.4216     0.1029     2.4797     0.0228   -65.6296    14.4064     6.8477     8.0306
 2145.0000     8.0732    82.8035     0.1014     2.4807     0.0228   -65.6284    14.4072     6.8485     8.0313
 2145.5000     8.0923    83.1854     0.1010     2.4816     0.0247   -65.8247    14.5416     6.8492     8.0321
 2146.0000     8.0720    82.7800     0.1010     2.4816     0.0286   -65.8235    14.2779     6.8497     8.1821
 2146.5000     8.0714    84.3428     0.1006     2.4816     0.0266   -66.0198    14.2792     6.8503     8.1078
 2147.0000     8.0708    84.7183     0.1002     2.4805     0.0265   -66.0186    14.4125     6.8508     7.9607
 2147.5000     8.0899    85.1002     0.0994     2.4795     0.0265   -66.0173    14.0216     6.8513     7.9614
 2148.0000     8.0893    85.4821     0.0994     2.4805     0.0264   -66.0161    12.7909     6.8520     7.9621
 2148.5000     8.0690    85.4703     0.0991     2.4804     0.0263   -66.0149    11.1439     6.8528     7.8899
 2149.0000     8.0685    85.4585     0.0991     2.4804     0.0263   -65.6184    10.8414     6.8533     7.9418
 2149.5000     8.0875    85.4467     0.0999     2.4804     0.0262   -65.4196    14.1563     6.8541     8.3938
 2150.0000     8.0870    85.4350     0.1019     2.4764     0.0242   -65.4184    15.2384     6.8547     8.7096
 2150.5000     8.0667    85.4232     0.1091     2.4793     0.0221   -65.4171    15.8108     6.8552     8.7910
 2151.0000     8.0858    85.4114     0.1095     2.4753     0.0200   -65.4159    15.6675     6.9195     8.8732
 2151.5000     8.0852    86.1869     0.1115     2.4703     0.0200   -65.4146    13.6503     6.9839     8.8166
 2152.0000     8.0649    86.9625     0.1139     2.4643     0.0199   -65.4134    14.0334     7.0494     8.9809
 2152.5000     8.0840    87.3507     0.1147     2.4593     0.0139   -65.4116    16.4092     7.1810     8.9817
 2153.0000     8.0834    88.5199     0.1159     2.4592     0.0134   -65.6085    16.7153     7.3830     8.9825
 2153.5000     8.1025    87.3271     0.1159     2.4612     0.0130   -65.6080    16.8713     7.4519     8.9833
 2154.0000     8.0822    87.3130     0.1084     2.4721     0.0125   -65.6060    16.1146     7.7324     8.9018
 2154.5000     8.0817    87.3059     0.1060     2.4721     0.0120   -65.6047    15.6775     7.8045     8.8211
 2155.0000     8.0811    87.2918     0.1040     2.4740     0.0116   -65.6035    14.9744     7.8053     8.8219
 2155.5000     8.1002    87.2824     0.1028     2.4800     0.0111   -65.6023    13.7870     7.8060     8.8225
 2156.0000     8.0799    87.6619     0.1052     2.4770     0.0107   -65.6010    15.8273     7.7351     8.7425
 2156.5000     8.0793    88.4374     0.1088     2.4670     0.0102   -65.5998    15.3975     7.7360     8.7439
 2157.0000     8.0787    88.4257     0.1132     2.4640     0.0098   -65.5985    14.4389     7.6656     8.9067
 2157.5000     8.1372    88.4139     0.1156     2.4580     0.0133   -65.5973    15.4003     7.5962     8.9076
 2158.0000     8.0972    88.4021     0.1164     2.4549     0.0092   -65.7934    16.4257     7.5268     8.9908
 2158.5000     8.0769    88.3927     0.1164     2.4549     0.0072   -65.7922    16.2769     7.4587     8.9092
 2159.0000     8.0960    88.3762     0.1169     2.4549     0.0071   -65.9885    16.1293     7.3910     8.9924
 2159.5000     8.0758    88.7604     0.1165     2.4548     0.0070   -65.9873    15.8369     7.2568     9.0769
 2160.0000     8.0752    89.5360     0.1157     2.4548     0.0070   -65.9861    15.1266     7.1249     9.0772
 2160.5000     8.0746    89.5242     0.1153     2.4548     0.0069   -65.9848    14.5816     6.9958     8.9121
 2161.0000     8.0740    89.5124     0.1153     2.4537     0.0049   -66.1812    14.0566     6.9322     8.6705
 2161.5000     8.0734    88.7133     0.1165     2.4517     0.0028   -66.1800    13.1814     6.8694     8.1304
 2162.0000     8.0728    88.3056     0.1181     2.4507     0.0047   -66.1787    12.4750     6.8699     8.0562
 2162.5000     8.0919    88.2938     0.1189     2.4487     0.0047   -65.9798    12.5914     6.8074     7.9832
 2163.0000     8.0716    87.8884     0.1194     2.4476     0.0046   -66.1762    12.4773     6.7456     7.9109
 2163.5000     8.0907    88.2702     0.1190     2.4476     0.0065   -66.1750    12.5937     6.7462     7.9848
 2164.0000     8.0902    87.4712     0.1186     2.4466     0.0045   -66.1738    13.1875     6.7467     7.9856
 2164.5000     8.0699    87.0658     0.1190     2.4456     0.0044   -66.1725    13.4335     6.7477     7.9864
 2165.0000     8.0693    87.8349     0.1202     2.4455     0.0044   -66.1713    13.8105     6.8736     7.9139
 2165.5000     8.0687    87.8232     0.1226     2.4435     0.0043   -66.1701    13.8118     6.8744     7.9878
 2166.0000     8.0681    87.8114     0.1246     2.4385     0.0042   -66.1688    13.4372     6.8749     7.9154
 2166.5000     8.0675    87.4060     0.1234     2.4414     0.0042   -66.1676    12.9531     6.8757     7.9161
 2167.0000     8.0866    87.3942     0.1214     2.4464     0.0081   -66.1663    12.9543     6.8763     7.9168
 2167.5000     8.0664    87.3824     0.1215     2.4444     0.0080   -66.1651    12.8369     6.8768     7.8450
 2168.0000     8.0658    87.3706     0.1215     2.4443     0.0060   -66.1639    11.9275     6.6902     7.8457
 2168.5000     8.0849    86.9652     0.1231     2.4413     0.0079   -66.1629    11.2883     6.5083     7.7033
 2169.0000     8.0843    86.5598     0.1243     2.4393     0.0178   -66.1614    11.4989     6.3315     7.4939
 2169.5000     8.0640    86.1544     0.1263     2.4363     0.0198   -66.1601    12.3778     6.2739     7.4948
 2170.0000     8.0831    85.7489     0.1283     2.4362     0.0217   -66.1589    13.0818     6.1601     7.4955
 2170.5000     8.0825    85.3435     0.1291     2.4362     0.0216   -66.3553    12.3801     6.1606     7.4962
 2171.0000     8.0819    84.9381     0.1307     2.4352     0.0196   -66.3541    11.7166     6.1612     7.4969
