~VERSION INFORMATION
 VERS.                2.0:   CWLS LOG ASCII STANDARD - VERSION 2.0
 WRAP.                 NO:   ONE LINE PER DEPTH STEP
~WELL INFORMATION
#MNEM.UNIT      DATA TYPE    INFORMATION
#----------   ------------   ------------------------------
 STRT.F          199.0000:   START DEPTH
 STOP.F         2951.0000:   STOP DEPTH
 STEP.F            0.5000:   STEP LENGTH
 NULL.          -999.2500:   NO VALUE
 COMP.    FENIX & SCISSON:   COMPANY
 WELL. FENIX & SCISSON "A" #3-21:   WELL
 FLD .              XPR-3:   FIELD
 LOC .      S21 T39N R78W:   LOCATION
 CNTY.            NATRONA:   COUNTY
 STAT.            WYOMING:   STATE
 CTRY. UNITED STATES OF AMERICA:   COUNTRY
 SRVC.              WELEX:   SERVICE COMPANY
 DATE.        27-JUN-1977:   LOGDATE
 API .     49025103880000:   API NUMBER
~CURVE INFORMATION
#MNEM.UNIT       API CODE    CURVE DESCRIPTION
#----------   ------------   ------------------------------
 DEPT.F                  :   
 CALD.IN     45 280 60 00:   CALIPER FROM DENSITY LOG
 GRD .GAPI   45 310 01 00:   GAMMA RAY FROM DENSITY LOG
 CORR.G/C3   45 356 01 00:   DENSITY CORRECTION
 RHOB.G/C3   45 350 01 00:   BULK DENSITY
 SPR .MV     07 010 01 00:   SPONTANEOUS POTENTIAL
 ILD .OHMM   07 120 46 00:   DEEP INDUCTION RESISTIVITY
 ILM .OHMM   07 120 44 00:   INDUCTION LOG MEDIUM RESISTIVITY
 SGRD.OHMM   07 220 05 00:   SHALLOW SHORT GUARD RESISTIVITY
~PARAMETER INFORMATION
#MNEM.UNIT          VALUE    DESCRIPTION
#----------   ------------   ------------------------------
 EKB .F         4981.0000:   Kelly bushing
 EGL .F         4971.0000:   Ground level
 TD  .F         2953.0000:   Total depth
 CLNT.            A2DTECH:   Client Code
 SL  . 330' FSL & 1650' FWL:   Surface Location
 DATE.        27-JUN-1977:   Date Logged [DD-MMM-YYYY]
 DD  .F              2930:   Depth driller
 DL  .F              2953:   Depth logger
 BLI .F              2951:   Bottom log interval
 TLI .F               200:   Top log interval
 CS1 .              8.625:   Casing size
 CBD1.      8.625" @ 217':   Casing driller 1
 BS1 .IN            7.875:   Bit size
 BSD1.F              2930:   Depth drilled with bit1
 DFT .            KCL MUD:   Type fluid in hole
 DFD .                9.4:   Density
 DFV .                 37:   Viscosity
 DFPH.                9.0:   pH
 DFL .               16.0:   Fluid loss
 MSS .           FLOWLINE:   Source of sample
 RMS .OHMM           1.10:   Rm
 MST .F                92:   Rm Meas. temp.
 RMF .OHMM           0.85:   Rmf
 MFST.F                92:   Rmf Meas. temp.
 MFSS.           FANN KIT:   Source Rmf.
 RMC .OHMM           1.44:   Rmc
 MCST.F                92:   Rmc Meas. temp.
 MCSS.           FANN KIT:   Source Rmc.
 RMB .OHMM           0.93:   Rm. at BHT
 BHT .F               109:   BHT.
 TCS .HRS            0230:   Time Circ. stopped
 MRT .F               109:   Maximum recorded temp.
 LUN .               8611:   Logging unit number
 LUL .             CASPER:   Logging unit location
 ENGI.         G. BENTSEN:   Recorded By
 WITN.  MR. W. PETTINGILL:   Witnessed by
 ORIG.      2.5" 5" PRINT:   Origin of data
 UWI .     49025103880000:   Unique Well ID
 DICO. A2D TECHNOLOGIES, INC.:   Digitizing Company
 PD  .                 GL:   Permanent Datum
 EPD .               4971:   Elevation Permanent Datum
 LMF .                 KB:   Log Measured From
 DMF .                 KB:   Drilling Measured From
 DAPD.                 10:   Feet Above Permanent Datum
~OTHER INFORMATION
~A   DEPT       CALD       GRD       CORR        RHOB      SPR        ILD        ILM       SGRD   
# ...
  563.5000     9.4981    94.9631     0.0342     2.5547   -44.6104     4.8578     5.4744     6.4590
  564.0000     9.4790    91.6904     0.0311     2.5532   -45.9229     4.8616     5.5165     6.6455
  564.5000     9.4478    90.3127     0.0248     2.5470   -45.7499     4.8646     5.6352     6.8334
  565.0000     9.4347    90.0003     0.0217     2.5423   -44.9844     4.8676     5.7169     6.6062
  565.5000     9.4164    90.7441     0.0186     2.5377   -43.9221     4.9381     5.6421     6.9887
  566.0000     9.4161    91.6079     0.0155     2.5346   -43.6017     4.9753     5.6060     7.2341
  566.5000     9.4158    92.5356     0.0124     2.5315   -43.8747     4.9784     5.7275     7.2386
  567.0000     9.3846    92.4644     0.0093     2.5268   -44.5928     4.9815     5.7706     7.4005
  567.5000     9.3701    92.5337     0.0186     2.5269   -45.7561     5.0886     5.8141     7.5604
  568.0000     9.3531    93.2260     0.0280     2.5377   -46.4887     5.1623     5.8984     7.6102
  568.5000     9.3528    94.4656     0.0373     2.5486   -45.5603     5.1655     5.9429     7.4079
  569.0000     9.3834    95.7049     0.0435     2.5564   -44.9431     5.1687     5.9465     7.4639
  569.5000     9.3830    96.6347     0.0497     2.5642   -44.9194     5.1719     5.9502     7.6245
  570.0000     9.3981    96.3881     0.0528     2.5719   -44.7474     5.2109     6.0365     7.6302
  570.5000     9.4132    96.0732     0.0559     2.5699   -45.0204     5.2864     6.1240     7.5825
  571.0000     9.4129    95.8452     0.0528     2.5620   -45.8869     5.3262     5.9612     7.4320
  571.5000     9.4597    95.8421     0.0528     2.5560   -45.4181     5.3295     5.9649     7.2845
  572.0000     9.4906    95.9299     0.0497     2.5531   -44.6526     5.3328     5.9686     7.3901
  572.5000     9.5355    96.5481     0.0466     2.5533   -44.6191     5.3729     5.9723     7.4972
  573.0000     9.5522    97.4757     0.0435     2.5565   -45.9405     5.4134     5.9760     7.6059
  573.5000     9.5657    98.5006     0.0404     2.5623   -46.3620     5.4168     5.9797     7.6633
  574.0000     9.5346    99.8519     0.0402     2.5550   -45.2996     5.4201     6.0247     7.7210
  574.5000     9.5342    97.6873     0.0371     2.5394   -44.5341     5.4987     6.0701     7.8329
  575.0000     9.5339    95.8202     0.0342     2.5278   -43.9169     5.5401     6.1158     7.8378
  575.5000     9.5154    93.5387     0.0342     2.5221   -44.9328     5.5818     6.1619     7.9514
  576.0000     9.4715    90.8482     0.0311     2.5387   -44.6113     5.6238     6.3380     8.1225
  576.5000     9.4404    89.0908     0.0311     2.5511   -44.4392     5.6273     6.3419     8.1837
  577.0000     9.4092    88.3783     0.0311     2.5633   -44.4073     5.5922     6.3023     8.1888
  577.5000     9.4089    89.6440     0.0311     2.5738   -43.7882     5.5956     6.3061     8.0817
  578.0000     9.4086    90.8854     0.0311     2.5812   -43.1810     5.5225     6.2666     7.9748
  578.5000     9.3774    92.3190     0.0311     2.5793   -43.1572     5.5260     6.1423     7.9810
  579.0000     9.3771    93.5584     0.0306     2.5673   -43.1339     5.4906     6.1461     7.9859
  579.5000     9.3768    94.9195     0.0248     2.5575   -43.8606     5.4197     6.1499     7.8815
  580.0000     9.3765    96.6564     0.0242     2.5471   -43.9767     5.3850     6.1537     7.5671
  580.5000     9.3762    97.0826     0.0248     2.5397   -44.4086     5.3892     6.1575     7.4169
  581.0000     9.3450    95.8369     0.0248     2.5374   -44.5227     5.3925     6.1613     7.3694
  581.5000     9.3756    94.5913     0.0248     2.5383   -44.1633     5.3221     6.1652     7.4774
  582.0000     9.3753    93.6553     0.0248     2.5441   -43.5845     5.2526     6.1690     7.7442
  582.5000     9.3750    92.4097     0.0248     2.5488   -43.7241     5.2921     6.1727     7.9655
  583.0000     9.3746    91.4737     0.0257     2.5518   -44.4589     5.4059     6.1342     7.8074
  583.5000     9.3743    90.3663     0.0280     2.5565   -45.4924     5.4466     6.1380     7.5477
  584.0000     9.3740    89.2921     0.0280     2.5596   -45.8642     5.4876     6.1418     7.5523
  584.5000     9.3737    88.3561     0.0280     2.5633   -45.6726     5.4910     6.1882     7.8218
  585.0000     9.4043    87.1104     0.0248     2.5674   -45.1828     5.5324     6.2420     7.6128
  585.5000     9.4040    86.1744     0.0248     2.5705   -44.9029     5.5358     6.3771     7.8315
  586.0000     9.4037    85.2383     0.0280     2.5671   -47.0426     5.5775     6.4177     9.6353
  586.5000     9.4034    83.6916     0.0280     2.5621   -48.2680     5.5046     6.3766     9.0617
  587.0000     9.4031    81.8143     0.0280     2.5621   -48.0712     5.4319     6.3815     7.8460
  587.5000     9.4027    83.6687     0.0280     2.5650   -47.4035     5.3980     6.2539     7.4288
  588.0000     9.4024    85.0609     0.0292     2.5711   -46.6863     5.4022     6.1307     7.6422
  588.5000     9.4021    84.7337     0.0311     2.5759   -46.8636     5.4055     6.0496     7.6470
  589.0000     9.4018    82.8669     0.0342     2.5791   -47.1109     5.3709     5.9296     7.4426
  589.5000     9.4015    81.4727     0.0342     2.5770   -47.8290     5.3374     5.9341     7.5517
  590.0000     9.4629    81.3416     0.0373     2.5630   -46.7608     5.3040     5.8961     7.7674
  590.5000     9.4626    82.7461     0.0373     2.5589   -47.1822     5.3081     5.9415     7.6659
  591.0000     9.4623    84.6338     0.0373     2.5658   -47.6096     5.3114     5.9451     7.6168
  591.5000     9.4620    87.1153     0.0373     2.5728   -47.5799     5.3147     5.9899     7.5703
  592.0000     9.4617    90.7740     0.0373     2.5752   -46.8144     5.3180     6.0351     7.4714
  592.5000     9.4614    91.6460     0.0327     2.5697   -46.6423     5.2848     6.0388     7.4760
  593.0000     9.4611    90.5325     0.0280     2.5612   -46.6186     5.2881     6.0425     7.5323
  593.5000     9.4299    89.6440     0.0248     2.5572   -46.2982     5.2914     6.1301     7.6415
  594.0000     9.4296    89.0196     0.0248     2.5550   -46.1261     5.3312     6.1754     7.5936
  594.5000     9.3984    88.3952     0.0217     2.5527   -45.9541     5.3345     6.0946     7.4943
  595.0000     9.3981    87.6464     0.0217     2.5527   -46.5298     5.3747     6.0993     7.6032
  595.5000     9.3978    87.3338     0.0217     2.5527   -45.6099     5.4902     6.1453     7.7134
  596.0000     9.3975    86.7115     0.0235     2.5551   -45.2895     5.5698     6.2775     7.9338
  596.5000     9.3972    86.3988     0.0248     2.5607   -46.3044     5.5732     6.2814     8.0488
  597.0000     9.3969    86.0861     0.0280     2.5697   -45.8356     5.5767     6.2852     7.9984
  597.5000     9.3966    85.7734     0.0311     2.5774   -45.2184     5.5801     6.4204     8.1706
  598.0000     9.3963    85.4607     0.0373     2.5852   -45.1947     5.5836     6.6039     8.1756
  598.5000     9.3960    85.4577     0.0404     2.5805   -45.9188     5.5870     6.5176     8.0133
  599.0000     9.3957    85.4546     0.0404     2.5728   -46.3402     5.5905     6.5667     8.1296
  599.5000     9.3954    85.4515     0.0373     2.5681   -46.4648     5.5940     6.4808     8.1908
  600.0000     9.3951    86.0676     0.0311     2.5635   -45.2483     5.6085     6.2938     8.1470
  600.5000     9.3948    86.9933     0.0248     2.5604   -45.8180     5.6787     6.2102     8.0814
  601.0000     9.3944    87.6094     0.0217     2.5588   -46.2454     5.6825     6.1854     7.8715
  601.5000     9.4559    88.5351     0.0155     2.5557   -46.5125     5.6872     6.3188     7.8212
  602.0000     9.4874    90.3896     0.0155     2.5541   -46.9487     5.6911     6.3660     7.9892
  602.5000     9.5170    86.3618     0.0155     2.5526   -46.9281     5.6949     6.4578     8.1600
  603.0000     9.3605    83.2627     0.0124     2.5495   -46.9075     5.6988     6.5510     8.2203
  603.5000     9.2694    83.8899     0.0124     2.5495   -46.7386     5.7027     6.7377     8.2242
