~VERSION INFORMATION
 VERS.                2.0:   CWLS LOG ASCII STANDARD - VERSION 2.0
 WRAP.                 NO:   ONE LINE PER DEPTH STEP
~WELL INFORMATION
#MNEM.UNIT      DATA TYPE    INFORMATION
#----------   ------------   ------------------------------
 STRT.F           48.5000:   START DEPTH
 STOP.F         3509.0000:   STOP DEPTH
 STEP.F            0.5000:   STEP LENGTH
 NULL.          -999.2500:   NO VALUE
 COMP.   TESORO PETROLEUM:   COMPANY
 WELL. TESORO "TX" #45-33:   WELL
 FLD .        TEAPOT DOME:   FIELD
 LOC .      S33 T39N R78W:   LOCATION
 CNTY.            NATRONA:   COUNTY
 STAT.            WYOMING:   STATE
 CTRY. UNITED STATES OF AMERICA:   COUNTRY
 SRVC.      DRESSER ATLAS:   SERVICE COMPANY
 DATE.        03-OCT-1976:   LOGDATE
 API .     49025102700000:   API NUMBER
~CURVE INFORMATION
#MNEM.UNIT       API CODE    CURVE DESCRIPTION
#----------   ------------   ------------------------------
 DEPT.F                  :   
 SPR .MV     07 010 01 00:   SPONTANEOUS POTENTIAL
 TENR.LBS    07 635 01 00:   TENSION FROM RESISTIVITY
 SFL .OHMM   07 220 01 00:   SHALLOW FOCUSED LOG RESISTIVITY
 ILM .OHMM   07 120 44 00:   INDUCTION LOG MEDIUM RESISTIVITY
 ILD .OHMM   07 120 46 00:   DEEP INDUCTION RESISTIVITY
 GRD .GAPI   45 310 01 00:   GAMMA RAY FROM DENSITY LOG
 CALD.IN     45 280 60 00:   CALIPER FROM DENSITY LOG
 NPHI.DEC    42 890 03 00:   NEUTRON POROSITY SANDSTONE
 DPHI.DEC    45 890 12 00:   DENSITY POROSITY SANDSTONE
 TEND.LBS    45 635 01 00:   TENSION FROM DENSITY LOG
~PARAMETER INFORMATION
#MNEM.UNIT          VALUE    DESCRIPTION
#----------   ------------   ------------------------------
 EKB .F         5217.0000:   Kelly bushing
 EGL .F         5206.0000:   Ground level
 EDF .F         5216.0000:   Drilling floor
 EPD .F         5206.0000:   Permanent datum
 TD  .F         3491.0000:   Total depth
 DATE.        03-OCT-1976:   Date logged
 CLNT.            A2DTECH:   Client Code
 SL  . 2030' FWL & 2145' FSL:   Surface Location
 PD  .                 GL:   Permanent Datum
 DD  .F              3491:   Depth driller
 DL  .F              3487:   Depth logger
 BLI .F              3485:   Bottom log interval
 TLI .F               813:   Top log interval
 CS1 .IN            8.625:   Casing size
 CBD1.      8.625" @ 823':   Casing driller 1
 CBL1.F               819:   Casing logger 1
 BS1 .IN            7.875:   Bit size
 BSD1.F              3491:   Depth drilled with bit1
 DFT .           CHEM GEL:   Type fluid in hole
 DFD .                9.4:   Density
 DFV .                 47:   Viscosity
 DFPH.                 10:   pH
 DFL .                5.8:   Fluid loss
 MSS .           FLOWLINE:   Source of sample
 RMS .OHMM           1.09:   Rm
 MST .F                68:   Rm Meas. temp.
 RMF .OHMM              1:   Rmf
 MFST.F                68:   Rmf Meas. temp.
 RMC .OHMM           1.24:   Rmc
 MCST.F                68:   Rmc Meas. temp.
 MFSS.               MEAS:   Source Rmf.
 MCSS.               MEAS:   Source Rmc.
 RMB .OHMM            .62:   Rm. at BHT
 BHT .F               119:   BHT.
 TCS .HRS              12:   Time Circ. stopped
 MRT .F               119:   Maximum recorded temp.
 LUN .               6134:   Logging unit number
 LUL .              GLTTE:   Logging unit location
 ENGI.            VAUGHIN:   Recorded By
 WITN.        WOLF-CARTER:   Witnessed by
 ORIG.     2.5", 5" PRINT:   Origin of data
 UWI .     49025102700000:   Unique Well ID
 DICO. A2D TECHNOLOGIES, INC.:   Digitizing Company
 DAPD.                 11:   Feet Above Permanent Datum
~OTHER INFORMATION
~A   DEPT      SPR        TENR       SFL        ILM        ILD        GRD       CALD       NPHI       DPHI       TEND   
# ...
 1422.0000   -27.4060  -999.2500     7.6670     7.4550     7.5190   108.3410    10.6690     0.2890     0.0770   281.9450
 1422.5000   -27.3360  -999.2500     8.0180     7.5170     7.5190   107.9450    10.6880     0.2950     0.0720   281.2070
 1423.0000   -27.2070  -999.2500     8.0960     7.5790     7.5190   106.8600    10.7060     0.3020     0.0670   280.4700
 1423.5000   -27.0890  -999.2500     8.0960     7.6410     7.5190   105.1840    10.7210     0.3070     0.0640   279.7320
 1424.0000   -26.9690  -999.2500     8.0960     7.7030     7.5190   105.0980    10.7360     0.3070     0.0730   278.9940
 1424.5000   -26.8480  -999.2500     8.0960     7.8020     7.5190   105.1080    10.7520     0.3040     0.0810   278.2560
 1425.0000   -26.7290  -999.2500     8.0960     7.7860     7.5190   105.1140    10.7670     0.2990     0.0810   277.5190
 1425.5000   -26.6090  -999.2500     8.0960     7.7460     7.5190   105.1190    10.7820     0.2970     0.0750   276.7810
 1426.0000   -26.4870  -999.2500     8.0960     7.7070     7.5100   105.8380    10.7980     0.2950     0.0700   276.0430
 1426.5000   -26.3740  -999.2500     8.0290     7.6590     7.4990   107.2960    10.8190     0.3010     0.0660   275.3050
 1427.0000   -26.2340  -999.2500     7.9190     7.6270     7.4870   106.7540    10.8400     0.3050     0.0720   274.5670
 1427.5000   -26.3250  -999.2500     7.8100     7.5870     7.4760   106.0570    10.8620     0.3050     0.0790   273.8300
 1428.0000   -26.5810  -999.2500     7.7000     7.5470     7.4640   105.4330    10.8840     0.3090     0.0800   273.0920
 1428.5000   -26.8070  -999.2500     7.6210     7.5080     7.4530   105.2120    10.8950     0.3130     0.0770   272.3540
 1429.0000   -27.0330  -999.2500     7.5600     7.4680     7.4410   105.4120    10.8760     0.3190     0.0740   271.6160
 1429.5000   -27.2850  -999.2500     7.4990     7.4280     7.4300   107.1120    10.8590     0.3250     0.0730   270.8790
 1430.0000   -27.3870  -999.2500     7.4390     7.3880     7.4180   109.3700    10.8390     0.3160     0.0750   270.1410
 1430.5000   -27.3140  -999.2500     7.3780     7.3480     7.4060   111.0630    10.7880     0.2960     0.0760   269.4030
 1431.0000   -27.2640  -999.2500     7.3170     7.3080     7.3950   110.2720    10.7310     0.2910     0.0670   268.6650
 1431.5000   -27.2070  -999.2500     7.2470     7.2470     7.3820   109.6410    10.6740     0.2850     0.0590   267.9270
 1432.0000   -27.1510  -999.2500     7.3470     7.2730     7.3680   109.9030    10.6170     0.2810     0.0530   267.1900
 1432.5000   -27.0970  -999.2500     7.4640     7.3300     7.3500   109.2940    10.5700     0.2820     0.0570   266.4520
 1433.0000   -27.0400  -999.2500     7.5810     7.3880     7.3340   108.6860    10.5450     0.2830     0.0650   265.7140
 1433.5000   -26.9990  -999.2500     7.6990     7.4460     7.3170   109.2330    10.5200     0.2820     0.0730   265.0000
 1434.0000   -27.0040  -999.2500     7.8160     7.5030     7.3000   109.9060    10.4940     0.2800     0.0750   265.0000
 1434.5000   -26.9670  -999.2500     7.9470     7.5610     7.2830   109.8000    10.4690     0.2820     0.0770   265.0000
 1435.0000   -26.9060  -999.2500     7.8720     7.6180     7.2660   109.6350    10.4440     0.2850     0.0790   265.0000
 1435.5000   -26.8510  -999.2500     7.7850     7.6480     7.2490   109.4680    10.4190     0.2840     0.0770   265.0000
 1436.0000   -26.7960  -999.2500     7.6990     7.6100     7.2320   109.3120    10.3960     0.2830     0.0720   265.0000
 1436.5000   -26.7390  -999.2500     7.6130     7.5710     7.2150   110.1350    10.3870     0.2860     0.0670   265.0000
 1437.0000   -26.6850  -999.2500     7.5260     7.5320     7.1980   111.0720    10.3780     0.2900     0.0650   265.0000
 1437.5000   -26.6240  -999.2500     7.4400     7.4930     7.1810   111.4140    10.3700     0.2940     0.0620   265.0000
 1438.0000   -26.6150  -999.2500     7.3540     7.4540     7.1650   111.1560    10.3610     0.2970     0.0600   265.0000
 1438.5000   -26.6560  -999.2500     7.2670     7.4150     7.1480   110.9000    10.3530     0.2960     0.0580   265.0000
 1439.0000   -26.6900  -999.2500     7.1810     7.3770     7.1310   110.6400    10.3440     0.2950     0.0560   265.0000
 1439.5000   -26.7260  -999.2500     7.0950     7.3380     7.1140   110.3790    10.3360     0.2970     0.0570   265.0000
 1440.0000   -26.7610  -999.2500     7.0030     7.2990     7.0970   110.1320    10.3270     0.3000     0.0590   265.0000
 1440.5000   -26.7970  -999.2500     7.0440     7.2600     7.0800   110.2220    10.3190     0.2990     0.0610   265.0000
 1441.0000   -26.8320  -999.2500     7.1270     7.2210     7.0630   111.2430    10.3100     0.2980     0.0620   265.0000
 1441.5000   -26.8680  -999.2500     7.2110     7.1820     7.0460   111.7670    10.3020     0.2910     0.0610   265.0000
 1442.0000   -26.9040  -999.2500     7.2940     7.1440     7.0290   112.2560    10.2960     0.2940     0.0590   265.0000
 1442.5000   -26.9370  -999.2500     7.3820     7.1050     7.0120   112.7480    10.2970     0.2970     0.0610   265.0000
 1443.0000   -26.9850  -999.2500     7.3130     7.0660     6.9950   113.2400    10.2980     0.3000     0.0620   265.0000
 1443.5000   -26.9180  -999.2500     7.2400     7.0270     6.9790   113.8750    10.3000     0.3040     0.0620   265.0000
 1444.0000   -26.6580  -999.2500     7.1660     6.9880     6.9620   114.2690    10.3010     0.3070     0.0640   265.0000
 1444.5000   -26.4110  -999.2500     7.0930     6.9490     6.9450   113.5090    10.3020     0.3110     0.0660   265.0000
 1445.0000   -26.1670  -999.2500     7.0200     6.9100     6.9280   112.9480    10.3030     0.3070     0.0700   265.0000
 1445.5000   -25.8950  -999.2500     6.9470     6.8710     6.9110   112.3360    10.3040     0.2990     0.0730   265.0000
 1446.0000   -25.8830  -999.2500     6.8640     6.8330     6.8940   112.8800    10.3050     0.2960     0.0700   265.0000
 1446.5000   -26.0840  -999.2500     6.8790     6.7940     6.8770   113.8330    10.3060     0.2940     0.0660   265.0000
 1447.0000   -26.2560  -999.2500     6.9070     6.7310     6.8600   115.2400    10.3070     0.2920     0.0640   265.0000
 1447.5000   -26.4300  -999.2500     6.9360     6.7360     6.8660   116.0400    10.3090     0.2910     0.0660   265.0000
 1448.0000   -26.6140  -999.2500     6.9650     6.7490     6.8790   115.2240    10.3100     0.2870     0.0690   265.0000
 1448.5000   -26.7810  -999.2500     6.9930     6.7610     6.8930   113.5500    10.3110     0.2800     0.0660   265.0000
 1449.0000   -26.9810  -999.2500     7.0220     6.7740     6.9060   113.1470    10.3120     0.2720     0.0640   265.0000
 1449.5000   -26.9980  -999.2500     7.0510     6.7870     6.9190   112.8130    10.3130     0.2640     0.0640   265.0000
 1450.0000   -27.0010  -999.2500     7.0800     6.8000     6.9320   111.5600    10.3140     0.2630     0.0650   265.0000
 1450.5000   -26.9960  -999.2500     7.1080     6.8130     6.9450   110.7500    10.3150     0.2700     0.0660   265.0000
 1451.0000   -26.9990  -999.2500     7.1370     6.8250     6.9580   111.0710    10.3150     0.2750     0.0670   265.0000
 1451.5000   -26.9990  -999.2500     7.1660     6.8380     6.9710   111.3830    10.3140     0.2810     0.0640   265.0000
 1452.0000   -26.9940  -999.2500     7.1940     6.8510     6.9840   111.7020    10.3130     0.2840     0.0590   265.0000
 1452.5000   -27.0110  -999.2500     7.2230     6.8640     6.9970   111.8840    10.3110     0.2830     0.0530   265.0000
 1453.0000   -26.8720  -999.2500     7.2520     6.8770     7.0100   111.1350    10.3100     0.2840     0.0470   265.0000
 1453.5000   -26.6200  -999.2500     7.2800     6.8890     7.0230   110.0810    10.3090     0.2830     0.0440   265.0000
 1454.0000   -26.3930  -999.2500     7.3090     6.9020     7.0360   110.1930    10.3070     0.2890     0.0530   265.0000
 1454.5000   -26.1670  -999.2500     7.3380     6.9150     7.0490   110.4990    10.3060     0.2870     0.0590   265.0000
 1455.0000   -25.9150  -999.2500     7.3670     6.9280     7.0620   110.2910    10.3050     0.2870     0.0650   265.0000
