~VERSION INFORMATION
 VERS.                2.0:   CWLS LOG ASCII STANDARD - VERSION 2.0
 WRAP.                 NO:   ONE LINE PER DEPTH STEP
~WELL INFORMATION
#MNEM.UNIT      DATA TYPE    INFORMATION
#----------   ------------   ------------------------------
 STRT.F           10.5000:   START DEPTH
 STOP.F         5650.0000:   STOP DEPTH
 STEP.F            0.5000:   STEP LENGTH
 NULL.          -999.2500:   NO VALUE
 COMP.    FENIX & SCISSON:   COMPANY
 WELL. FENIX NPR 3 "LX" #56-3:   WELL
 FLD .              N P R:   FIELD
 LOC .       S3 T38N R78W:   LOCATION
 CNTY.            NATRONA:   COUNTY
 STAT.            WYOMING:   STATE
 CTRY. UNITED STATES OF AMERICA:   COUNTRY
 SRVC.              WELEX:   SERVICE COMPANY
 DATE.        13-JUN-1978:   LOGDATE
 API .     49025109250000:   API NUMBER
~CURVE INFORMATION
#MNEM.UNIT       API CODE    CURVE DESCRIPTION
#----------   ------------   ------------------------------
 DEPT.F                  :   
 NPHI.DEC    42 890 03 00:   NEUTRON POROSITY SANDSTONE
 SPR .MV     07 010 01 00:   SPONTANEOUS POTENTIAL
 ILD .OHMM   07 120 46 00:   DEEP INDUCTION RESISTIVITY
 ILM .OHMM   07 120 44 00:   INDUCTION LOG MEDIUM RESISTIVITY
 SFL .OHMM   07 220 01 00:   SHALLOW FOCUSED LOG RESISTIVITY
 GRD .GAPI   45 310 01 00:   GAMMA RAY FROM DENSITY LOG
 CALD.IN     45 280 60 00:   CALIPER FROM DENSITY LOG
 RHOB.G/C3   45 350 01 00:   BULK DENSITY
 CORR.G/C3   45 356 01 00:   DENSITY CORRECTION
~PARAMETER INFORMATION
#MNEM.UNIT          VALUE    DESCRIPTION
#----------   ------------   ------------------------------
 EKB .F         5181.0000:   Kelly bushing
 EGL .F         5171.0000:   Ground level
 EDF .F         5180.0000:   Drilling floor
 TD  .F         5644.0000:   Total depth
 DATE.        13-JUN-1978:   Date logged
 CLNT.            A2DTECH:   Client Code
 SL  . 1980' FSL & 2080' FEL:   Surface Location
 PD  .                 GL:   Permanent Datum
 EPD .F              5171:   Elevation Permanent Datum
 LMF .                 KB:   Log Measured From
 DMF .                 KB:   Drilling Measured From
 DD  .F              5640:   Depth driller
 DL  .F              5644:   Depth logger
 BLI .F              5638:   Bottom log interval
 TLI .F              3093:   Top log interval
 CS1 .IN            8.625:   Casing size
 CBD1.      8.625" @ 545':   Casing driller 1
 BS1 .IN            7.875:   Bit size
 DFT .                FGM:   Type fluid in hole
 DFD .                9.2:   Density
 DFV .                 52:   Viscosity
 DFPH.                 11:   pH
 DFL .                5.2:   Fluid loss
 MSS .           MUD/TANK:   Source of sample
 RMS .OHMM           0.59:   Rm
 MST .F                80:   Rm Meas. temp.
 RMF .OHMM           0.48:   Rmf
 MFST.F                80:   Rmf Meas. temp.
 MFSS.               MEAS:   Source Rmf.
 RMB .OHMM           0.29:   Rm. at BHT
 BHT .F               162:   BHT.
 TCS .HRS            1200:   Time Circ. stopped
 MRT .F               162:   Maximum recorded temp.
 LUN .               7675:   Logging unit number
 LUL .               CODY:   Logging unit location
 ENGI.               BOND:   Recorded By
 ORIG.           5" PRINT:   Origin of data
 UWI .     49025109250000:   Unique Well ID
 DICO. A2D TECHNOLOGIES, INC.:   Digitizing Company
 DAPD.F                10:   Feet Above Permanent Datum
 BSD1.F              5640:   Depth drilled with bit1
 TLAB.HRS            1630:   Time logger at bottom
~OTHER INFORMATION
~A  DEPTH     NPHI        SPR        ILD        ILM        SFL        GRD       CALD       RHOB       CORR
# ...
 5595.0000     0.1330   -47.7790    31.7300    34.4600    33.4250    61.1060     7.9300     2.4850     0.0530
 5595.5000     0.1340   -47.2070    30.7350    33.8610    34.5880    61.9500     7.9380     2.5060     0.0730
 5596.0000     0.1350   -46.6400    31.5650    35.4250    38.3070    58.9750     7.9460     2.5040     0.0760
 5596.5000     0.1350   -46.2320    32.4020    36.6760    37.7730    56.0500     7.9540     2.4960     0.0620
 5597.0000     0.1360   -45.8090    33.3810    37.9270    37.2670    52.4720     7.9620     2.4890     0.0510
 5597.5000     0.1360   -45.3850    32.0160    39.3760    38.0390    51.0000     7.9660     2.5070     0.0460
 5598.0000     0.1370   -44.9620    30.3710    37.2300    43.3870    47.4050     7.9670     2.5070     0.0650
 5598.5000     0.1520   -44.5390    28.7260    32.4240    52.3330    39.7910     7.9680     2.4840     0.0860
 5599.0000     0.1700   -44.1160    26.7890    27.3180    47.8800    38.7030     7.9690     2.4650     0.0960
 5599.5000     0.1720   -43.6940    24.0720    29.0140    38.4120    39.7370     7.9700     2.4580     0.0840
 5600.0000     0.1620   -43.2720    26.2620    31.2760    28.9450    40.7050     7.9710     2.5280     0.0750
 5600.5000     0.1410   -42.8430    29.0630    33.5380    21.3240    41.6650     7.9720     2.6120     0.0650
 5601.0000     0.1200   -42.3250    31.8640    42.4890    29.0890    41.1340     7.9730     2.6690     0.0550
 5601.5000     0.0970   -41.4980    34.6650    64.6290   125.1800    40.6390     7.9740     2.6420     0.0490
 5602.0000     0.0980   -40.8240    37.6100    62.1390   229.0740    45.0120     7.9750     2.6160     0.0480
 5602.5000     0.1010   -40.3650    44.2820    57.5390   275.4770    49.6010     7.9760     2.5600     0.0530
 5603.0000     0.1030   -39.9130    51.3150    52.9390   159.3820    51.2130     7.9770     2.5290     0.0780
 5603.5000     0.1060   -39.4600    62.8370    48.3390    93.0810    49.7660     7.9780     2.4730     0.0610
 5604.0000     0.1080   -38.8880    83.5630    46.2900    65.8270    45.6970     7.9790     2.4890     0.0470
 5604.5000     0.1060   -38.1180    80.5940    46.0230    77.5570    40.2990     7.9800     2.5330     0.0780
 5605.0000     0.0970   -37.3530    75.6510    45.7560    97.3500    34.7890     7.9810     2.5640     0.0820
 5605.5000     0.0870   -36.5920    69.6800    45.6030   117.1430    32.2310     7.9820     2.5680     0.0670
 5606.0000     0.0820   -35.6370    62.3290    49.8120   136.9360    32.6850     7.9820     2.5550     0.0570
 5606.5000     0.0840   -34.6910    56.8380    53.2350   151.7230    32.5490     7.9830     2.5490     0.0760
 5607.0000     0.0890   -33.7480    66.4330    56.6590   144.6180    31.8770     7.9840     2.5840     0.0880
 5607.5000     0.0930   -32.8050    61.4880    60.0830   138.9480    31.2190     7.9850     2.6190     0.0970
 5608.0000     0.0970   -31.8610    56.3190    63.5070   102.8070    29.1170     7.9890     2.6350     0.1150
 5608.5000     0.1020   -30.9160    57.1410    68.9510    67.6640    26.1400     8.0010     2.6500     0.0500
 5609.0000     0.1000   -29.8070    73.9190    81.3550    78.1310    23.0490     8.0140     2.7130     0.0530
 5609.5000     0.0970   -28.5400    85.1110    93.7590   164.0030    21.9590     8.0270     2.7510     0.0620
 5610.0000     0.0950   -27.2740    83.8320   106.1630   256.6020    22.1380     8.0400     2.7560     0.0620
 5610.5000     0.0920   -26.0170    82.8670   118.5670   304.7350    22.9220     8.0520     2.7660     0.0560
 5611.0000     0.0900   -24.3850    81.9010   130.9710   267.9970    23.7510     8.0650     2.7670     0.0520
 5611.5000     0.0900   -22.6580    79.5840   143.3740   283.1660    25.4060     8.0780     2.7580     0.0520
 5612.0000     0.0920   -20.9260    74.0180   155.7780   278.8380    26.8000     8.0910     2.7440     0.0410
 5612.5000     0.0940   -19.1940    69.5520   163.2790   265.8800    27.8900     8.1030     2.7410     0.0290
 5613.0000     0.0970   -17.4620    69.7160   145.6540   241.5980    28.8190     8.1160     2.7440     0.0430
 5613.5000     0.0990   -15.7800    69.9860   130.9370   217.3170    27.9740     8.1250     2.7330     0.0540
 5614.0000     0.1010   -14.6950    72.0540   116.2200   189.1010    27.1730     8.1020     2.7260     0.0540
 5614.5000     0.0980   -13.6450    80.0310   104.1130   198.4930    26.3800     8.0780     2.7140     0.0420
 5615.0000     0.0940   -12.5920    88.0080    99.4790   219.7100    25.6090     8.0540     2.7300     0.0400
 5615.5000     0.0930   -11.5430    95.9850    99.5700   240.9260    23.2220     8.0310     2.7640     0.0460
 5616.0000     0.0980   -11.0560    99.7630    99.7630   262.1430    20.2320     8.0070     2.7330     0.0520
 5616.5000     0.1020   -10.6580   101.5280    99.9560   280.3270    17.2210     7.9840     2.6800     0.0820
 5617.0000     0.1070   -10.6140   103.2920   100.1500   293.7520    14.2090     7.9600     2.6270     0.0730
 5617.5000     0.1110   -10.6140   105.1100   100.3960   270.6140    12.2040     7.9450     2.5750     0.0570
 5618.0000     0.1130   -10.6130   100.7050    94.8090   205.9230     8.3270     7.9440     2.5490     0.0430
 5618.5000     0.1060   -10.6230    97.6240    87.0850   141.2320  -999.2500     7.9430     2.5690     0.0660
 5619.0000     0.0990   -11.0870    94.5440    80.5520   112.0830  -999.2500     7.9420     2.6030     0.0920
 5619.5000     0.0910   -11.5910    91.4640    80.5520   128.9380  -999.2500     7.9400     2.6060     0.0980
 5620.0000     0.0900   -12.0930    88.3840    88.6690   147.0260  -999.2500     7.9390     2.5910     0.0920
 5620.5000     0.0910   -12.6010    85.3040    97.0510   154.5330  -999.2500     7.9380     2.5560     0.0750
 5621.0000     0.0920   -13.2280    82.2240   107.0570   137.6070  -999.2500     7.9370     2.5400     0.0640
 5621.5000     0.0920   -13.8620    79.1440   104.6250   113.9570  -999.2500     7.9350     2.5310     0.0740
 5622.0000     0.0900   -14.4980    76.0640    97.8150    90.3070  -999.2500     7.9340     2.5480     0.0860
 5622.5000     0.0870   -15.2040    72.9580    91.0050    74.8500  -999.2500     7.9330     2.5550     0.0750
 5623.0000     0.0890   -16.1650    68.6050    84.0960    94.9780  -999.2500     7.9310     2.5490     0.0790
 5623.5000     0.0930   -17.1240    64.2530    77.1680   113.1160  -999.2500     7.9300     2.5360     0.0950
 5624.0000     0.0960   -18.0840    59.9000    63.2340    79.7760  -999.2500     7.9290     2.5220     0.1050
 5624.5000     0.0960   -19.0380    55.5480    55.8400    56.7820  -999.2500     7.9280     2.4990     0.0760
 5625.0000     0.0970   -19.6380    51.1950    50.9120    51.3810  -999.2500     7.9260     2.5150     0.1020
 5625.5000     0.0970   -20.1910    48.1840    51.8340    54.2280  -999.2500     7.9250     2.5270     0.1190
 5626.0000     0.0980   -20.7420    50.0150    53.6580    56.4240  -999.2500     7.9240     2.5190     0.1030
 5626.5000     0.0980   -21.2940    51.4140    56.3190    57.8910  -999.2500     7.9220     2.5060     0.0850
 5627.0000     0.0990   -21.8470    52.3330    55.1880    57.1030  -999.2500     7.9210     2.5070     0.0740
 5627.5000     0.1000   -22.3990    49.7530    53.3970    56.8380  -999.2500     7.9200     2.5150     0.0820
 5628.0000     0.1010   -22.9520    47.8330    51.6060    63.0950  -999.2500     7.9190     2.5200     0.0840
 5628.5000     0.1020   -23.5060    45.9130    49.8140    72.1530  -999.2500     7.9170     2.4630     0.0680
 5629.0000     0.1020   -23.9370    44.3650    47.3080    66.1730  -999.2500     7.9160     2.4300     0.0490
 5629.5000  -999.2500   -24.3660    44.2490    47.3510    52.5750  -999.2500     7.9150     2.4320     0.0570
 5630.0000  -999.2500   -24.7970    44.1320    47.4220    46.9760  -999.2500     7.9130     2.4530     0.0770
 5630.5000  -999.2500   -25.2220    44.0150    47.4930    46.4350  -999.2500     7.9120     2.4760     0.0960
 5631.0000  -999.2500   -25.4660    43.8990    47.5640    46.0240  -999.2500     7.9110     2.5020     0.1060
