~VERSION INFORMATION
 VERS.                2.0:   CWLS LOG ASCII STANDARD - VERSION 2.0
 WRAP.                 NO:   ONE LINE PER DEPTH STEP
~WELL INFORMATION
#MNEM.UNIT      DATA TYPE    INFORMATION
#----------   ------------   ------------------------------
 STRT.F            4.0000:   START DEPTH
 STOP.F         3266.0000:   STOP DEPTH
 STEP.F            0.5000:   STEP LENGTH
 NULL.          -999.2500:   NO VALUE
 COMP. LAWRENCE ALLISON & ASSOSCIATES:   COMPANY
 WELL. LAWRENCE "X" #27-11:   WELL
 FLD .          N.P.R. #3:   FIELD
 LOC .      S11 T38N R78W:   LOCATION
 CNTY.            NATRONA:   COUNTY
 STAT.            WYOMING:   STATE
 CTRY. UNITED STATES OF AMERICA:   COUNTRY
 SRVC.      DRESSER ATLAS:   SERVICE COMPANY
 DATE.        22-AUG-1986:   LOGDATE
 API .     49025111070000:   API NUMBER
~CURVE INFORMATION
#MNEM.UNIT       API CODE    CURVE DESCRIPTION
#----------   ------------   ------------------------------
 DEPT.F                  :   
 SPR .MV     07 010 01 00:   SPONTANEOUS POTENTIAL
 TENR.LBS    06 635 01 00:   TENSION FROM RESISTIVITY
 GRR .GAPI   07 310 01 00:   GAMMA RAY FROM RESISTIVITY
 RILD.OHMM   07 120 46 00:   DEEP INDUCTION RESISTIVITY
 RILM.OHMM   07 120 44 00:   INDUCTION LOG MEDIUM RESISTIVITY
 RFOC.OHMM   07 220 04 00:   RESISTIVITY FOCUSED LOG RES.
 NPHI.DEC    42 890 03 00:   NEUTRON POROSITY SANDSTONE
 CALD.IN     45 280 60 00:   CALIPER FROM DENSITY LOG
 RHOB.G/C3   45 350 01 00:   BULK DENSITY
 CORR.G/C3   45 356 01 00:   DENSITY CORRECTION
 TEND.LBS    45 635 01 00:   TENSION FORM DENSITY LOG
~PARAMETER INFORMATION
#MNEM.UNIT          VALUE    DESCRIPTION
#----------   ------------   ------------------------------
 EKB .F         5206.0000:   Kelly bushing
 EGL .F         5194.0000:   Ground level
 EDF .F         5205.0000:   Drilling floor
 EPD .F         5194.0000:   Permanent datum
 TD  .F         3250.0000:   Total depth
 CLNT.            A2DTECH:   Client Code
 SL  . 1197' FSL & 1088' FWL:   Surface Location
 PD  .                 GL:   Permanent Datum
 DAPD.F                12:   Feet Above Permanent Datum
 DATE.        22-AUG-1986:   Date Logged [DD-MMM-YYYY]
 DD  .F              3250:   Depth driller
 DL  .F              3246:   Depth logger
 BLI .F              3243:   Bottom log interval
 TLI .F               683:   Top log interval
 CS1 .IN            8.625:   Casing size
 CBD1.      8.625" @ 672':   Casing driller 1
 CBL1.F               673:   Casing logger 1
 BS1 .IN            7.875:   Bit size
 BSD1.F              3250:   Depth drilled with bit1
 DFT .            KCL-GEL:   Type fluid in hole
 DFD .                8.9:   Density
 DFV .                 35:   Viscosity
 MSS .               TANK:   Source of sample
 RMS .OHMM           0.31:   Rm
 MST .F                70:   Rm Meas. temp.
 RMF .OHMM           0.29:   Rmf
 MFST.F                67:   Rmf Meas. temp.
 MFSS.               CALC:   Source Rmf.
 RMC .OHMM           0.46:   Rmc
 MCST.F                70:   Rmc Meas. temp.
 MCSS.               CALC:   Source Rmc.
 RMB .OHMM           0.16:   Rm. at BHT
 BHT .F               136:   BHT.
 TCS .HRS               4:   Time Circ. stopped
 MRT .F               136:   Maximum recorded temp.
 LUN .            HL-6426:   Logging unit number
 LUL .          RK. SPGS.:   Logging unit location
 ENGI.               RALL:   Recorded By
 WITN.             STRONG:   Witnessed by
 ORIG.           5" PRINT:   Origin of data
 UWI .     49025111070000:   Unique Well ID
 DICO. A2D TECHNOLOGIES, INC.:   Digitizing Company
~OTHER INFORMATION
~A    DEPT     SPR       TENR         GRR      RILD       RILM       RFOC       NPHI       CALD       RHOB       CORR       TEND   
# ...
 2718.5000   -10.7879   -56.6715    54.4198    38.0178    25.4257    21.1498     0.1800     8.4962     2.3822     0.0073   -55.5891
 2719.0000   -10.7854   -64.5454    56.0313    37.7634    23.3002    19.5780     0.1830     8.4986     2.3905     0.0148   -55.4330
 2719.5000   -10.7893   -80.0587    59.0574    35.4728    20.7534    18.3965     0.1773     8.5114     2.4018     0.0254   -55.2869
 2720.0000   -10.9830   -80.3519    63.7223    32.4032    19.7635    18.1442     0.1767     8.5114     2.4094     0.0284   -55.1359
 2720.5000   -11.4270   -72.9961    66.7442    30.4377    18.9535    18.0225     0.1776     8.5266     2.4154     0.0284   -54.9583
 2721.0000   -11.8800   -73.3626    66.7271    28.3487    18.6933    18.0286     0.1788     8.5266     2.4184     0.0284   -54.8338
 2721.5000   -12.4245   -73.6559    66.7341    25.3997    18.3104    17.7826     0.1812     8.5284     2.4169     0.0291   -54.6828
 2722.0000   -12.4047   -81.5249    66.8573    24.5348    18.3160    17.5399     0.1839     8.5419     2.4138     0.0284   -54.5200
 2722.5000   -12.4819   -81.8182    67.9374    24.0327    18.3218    17.3006     0.1858     8.5419     2.4131     0.0276   -54.3807
 2723.0000   -13.1461   -82.1212    69.0671    23.7042    18.3285    17.1845     0.1833     8.5571     2.4162     0.0253   -54.2296
 2723.5000   -13.8127   -82.4780    70.9945    23.3833    18.5935    17.3111     0.1779     8.5571     2.4162     0.0200   -54.0786
 2724.0000   -14.4776   -75.1222    71.5821    23.0653    18.7303    17.5601     0.1783     8.5615     2.4154     0.0223   -53.8993
 2724.5000   -15.1597   -67.8397    71.6795    22.9110    18.7360    17.6871     0.1873     8.5724     2.4147     0.0268   -53.7765
 2725.0000   -15.9043   -68.2063    71.9428    23.6216    18.8739    17.5490     0.1903     8.5875     2.4116     0.0307   -53.6071
 2725.5000   -16.6143   -68.4995    71.5440    26.3609    19.4463    17.5743     0.1879     8.5942     2.4079     0.0344   -53.4610
 2726.0000   -16.6377   -68.7928    70.2917    30.3200    23.8147    17.7028     0.1761     8.6027     2.4192     0.0328   -45.7621
 2726.5000   -16.6340   -69.5959    69.0494    33.9131    29.4111    17.9584     0.1594     8.6180     2.4471     0.0124   -45.6161
 2727.0000   -16.6331   -77.0284    68.0613    38.1979    39.5175    23.1148     0.1382     8.6180     2.4940     0.0071   -37.9154
 2727.5000   -16.6336   -77.3217    66.2271    41.8389    47.7861    39.3719     0.1248     8.6180     2.5415     0.0086   -45.2874
 2728.0000   -16.6361   -77.6149    63.0844    47.7878    52.7411   107.9759     0.1190     8.6180     2.5498     0.0086   -52.7308
 2728.5000   -16.6306   -77.9081    61.1997    52.0240    50.5796   138.9792     0.1245     8.6332     2.5399     0.0071   -60.1375
 2729.0000   -16.0221   -70.5523    62.6287    51.6344    42.4050   117.1811     0.1415     8.6332     2.5076     0.0086   -67.5443
 2729.5000   -15.3344   -63.3333    66.6431    47.1664    34.1516    59.5858     0.1552     8.6332     2.4713     0.0116   -67.3618
 2730.0000   -14.6464   -63.6363    71.2273    40.1791    30.5299    31.9542     0.1727     8.6332     2.4479     0.0131   -59.6628
 2730.5000   -14.6116   -64.9475    80.3825    35.1964    25.0857    22.7872     0.1861     8.6332     2.4282     0.0116   -59.5166
 2731.0000   -14.6159   -71.8719    89.7590    31.2652    20.1825    18.3860     0.1952     8.6332     2.4230     0.0116   -59.3656
 2731.5000   -14.6177   -72.1652    97.8983    29.3687    18.1694    17.6329     0.2007     8.6332     2.4230     0.0139   -59.1881
 2732.0000   -14.6179   -72.4584    99.0882    26.7693    19.7736    18.3960     0.2036     8.6332     2.4230     0.0216   -59.0420
 2732.5000   -14.6104   -80.3274    97.2839    23.6668    18.0546    18.6605     0.2015     8.6332     2.4177     0.0275   -66.4854
 2733.0000   -14.2364   -80.6208    93.2525    22.3870    17.0730    18.5351     0.1967     8.6332     2.4101     0.0229   -51.1970
 2733.5000   -13.3140   -80.9140    88.8077    21.6247    16.8386    17.3900     0.1979     8.6180     2.4169     0.0176   -51.0510
 2734.0000   -12.8269   -73.6315    82.1900    21.4785    16.7259    16.4646     0.2012     8.6332     2.4290     0.0138   -50.9049
 2734.5000   -12.9621   -66.3490    79.2992    21.4858    16.8502    16.3530     0.2013     8.6332     2.4388     0.0116   -50.7467
 2735.0000   -13.0892   -59.0664    78.4950    21.4916    16.9742    17.6687     0.1988     8.6332     2.4434     0.0108   -50.6006
 2735.5000   -13.2183   -51.7839    79.5077    21.4975    16.9795    19.2231     0.1960     8.6332     2.4434     0.0039   -50.4532
 2736.0000   -13.3443   -52.1506    82.1755    21.5047    16.7488    19.0941     0.1982     8.6332     2.4328    -0.0036   -57.8613
 2736.5000   -13.3951   -60.0196    87.3507    21.6612    16.5201    18.5716     0.1994     8.6332     2.4162     0.0025   -65.2316
 2737.0000   -12.8672   -75.4643    89.8660    21.8189    16.5252    17.1755     0.1982     8.6180     2.4048     0.0055   -57.5327
 2737.5000   -12.0473   -83.3333    87.1671    21.8248    16.4132    16.2674     0.1952     8.6180     2.3965     0.0062   -57.3866
 2738.0000   -11.2170   -83.6364    83.1597    21.6773    16.1904    16.3862     0.1930     8.6332     2.3980     0.0077   -57.2406
 2738.5000   -10.9482   -83.9932    79.0844    21.3837    16.0819    16.5047     0.1948     8.6180     2.4033     0.0115   -57.0945
 2739.0000   -10.7067   -69.1349    77.8346    21.3897    15.8624    16.3939     0.2011     8.6180     2.4041     0.0175   -64.5015
 2739.5000   -10.4616   -61.7791    77.6774    21.5455    15.7561    16.3994     0.2088     8.6213     2.3965     0.0273   -67.1967
 2740.0000   -10.2161   -54.4966    76.9520    21.7037    16.0979    16.4039     0.2073     8.6332     2.3935     0.0160   -71.7523
 2740.5000    -9.9804   -54.8631    74.2960    21.7095    16.4458    16.5238     0.2030     8.6332     2.3988     0.0122   -71.5794
 2741.0000   -10.2838   -55.1565    72.7388    21.8675    16.5668    16.8802     0.2000     8.6484     2.4026     0.0115   -71.4333
 2741.5000   -10.7521   -63.0303    73.5993    21.8735    16.4558    17.4865     0.1988     8.6484     2.4018     0.0122   -71.2873
 2742.0000   -11.2247   -70.9677    73.6295    21.8794    16.4609    17.6142     0.1979     8.6484     2.3950     0.0122   -71.1413
 2742.5000   -11.6950   -71.2609    72.7968    21.8853    16.4671    17.2526     0.1948     8.6484     2.3920     0.0114   -65.8396
 2743.0000   -12.1698   -63.9051    73.9711    22.0446    16.4721    16.8984     0.1880     8.6484     2.3958     0.0107   -70.8491
 2743.5000   -12.4972   -64.2718    78.4027    21.8971    16.5933    16.6679     0.1836     8.6484     2.3943     0.0114   -70.6665
 2744.0000   -12.8461   -64.5650    81.6011    21.9045    16.7153    16.9087     0.1879     8.6550     2.3897     0.0122   -78.1098
 2744.5000   -13.1885   -57.2727    82.9390    21.9104    16.9570    17.0322     0.1930     8.6636     2.3935     0.0122   -77.9456
 2745.0000   -13.7076   -57.5757    82.4187    22.0699    17.4456    17.1565     0.1982     8.6636     2.4041     0.0106   -77.7946
 2745.5000   -14.5735   -57.8787    82.0386    22.3863    18.6612    17.2818     0.1997     8.6636     2.4101     0.0076   -85.2245
 2746.0000   -15.4331   -50.5864    81.8082    23.6789    21.1040    17.6535     0.1979     8.6636     2.4144     0.0099   -85.0419
 2746.5000   -16.3043   -50.9531    81.2695    25.5923    22.6468    18.0332     0.1879     8.6636     2.4350     0.0242   -84.8943
 2747.0000   -16.7813   -51.2463    82.0579    27.8211    23.2994    19.2812     0.1745     8.6636     2.4577     0.0318   -77.1604
 2747.5000   -17.1584   -59.1153    81.3026    29.4275    23.3065    23.0569     0.1639     8.6484     2.4872     0.0295   -77.0393
 2748.0000   -17.3038   -66.9843    79.7846    29.8494    22.0394    26.9053     0.1645     8.6332     2.4970     0.0279   -76.8682
 2748.5000   -16.5985   -67.2775    75.7045    30.0646    20.8211    28.4636     0.1709     8.6180     2.4721     0.0249   -76.7222
