~VERSION INFORMATION
 VERS.                2.0:   CWLS LOG ASCII STANDARD - VERSION 2.0
 WRAP.                 NO:   ONE LINE PER DEPTH STEP
~WELL INFORMATION
#MNEM.UNIT      DATA TYPE    INFORMATION
#----------   ------------   ------------------------------
 STRT.F          176.0000:   START DEPTH
 STOP.F         3442.0000:   STOP DEPTH
 STEP.F            0.5000:   STEP LENGTH
 NULL.          -999.2500:   NO VALUE
 COMP.  FENIX AND SCISSON:   COMPANY
 WELL.  FENIX "AX" #65-15:   WELL
 FLD . NAVAL PETROLEUM RESERVE #3:   FIELD
 LOC .      S15 T38N R78W:   LOCATION
 CNTY.            NATRONA:   COUNTY
 STAT.            WYOMING:   STATE
 CTRY. UNITED STATES OF AMERICA:   COUNTRY
 SRVC.       SCHLUMBERGER:   SERVICE COMPANY
 DATE.        09-APR-1981:   LOGDATE
 API .     49025108710000:   API NUMBER
~CURVE INFORMATION
#MNEM.UNIT       API CODE    CURVE DESCRIPTION
#----------   ------------   ------------------------------
 DEPT.F                  :   
 TENR.LBS    07 635 01 00:   TENSION
 SPR .MV     07 010 01 00:   SPONTANEOUS POTENTIAL
 ILD .OHMM   07 120 46 00:   INDUCTION LOG DEEP RESISTIVITY
 ILM .OHMM   07 120 44 00:   INDUCTION LOG MEDIUM RESISTIVITY
 SFL .OHMM   07 220 01 00:   SHALLOW FOCUSED LOG RESISTIVITY
 TEND.LBS    45 635 01 00:   TENSION FROM DENSITY LOG
 CALD.IN     45 280 60 00:   CALIPER FROM DENSITY LOG
 GRD .GAPI   45 310 01 00:   GAMMA RAY FROM DENSITY LOG
 RHOB.G/C3   45 350 01 00:   BULK DENSITY
 CORR.G/C3   45 356 01 00:   DENSITY CORRECTION
~PARAMETER INFORMATION
#MNEM.UNIT          VALUE    DESCRIPTION
#----------   ------------   ------------------------------
 EKB .F         5287.0000:   Kelly bushing
 EGL .F         5277.0000:   Ground level
 EDF .F            0.0000:   Drilling floor
 TD  .F         5476.0000:   Total depth
 DATE.        09-APR-1981:   Date logged
 CLNT.            A2DTECH:   Client Code
 SL  . 1945' FSL & 1161' FEL:   Surface Location
 PD  .                 GL:   Permanent Datum
 EPD .F              5277:   Elevation Permanent Datum
 LMF .                 KB:   Log Measured From
 DMF .                 KB:   Drilling Measured From
 DAPD.F                10:   Feet Above Permanent Datum
 DD  .F              5476:   Depth driller
 DL  .F              5436:   Depth logger
 BLI .F              5430:   Bottom log interval
 TLI .F               190:   Top log interval
 CS1 .IN            8.625:   Casing size
 CBD1.      8.625" @ 190':   Casing driller 1
 CBL1.F               190:   Casing logger 1
 BS1 .IN            7.875:   Bit size
 BSD1.F              5476:   Depth drilled with bit1
 DFT .           CHEM GEL:   Type fluid in hole
 DFD .                9.1:   Density
 DFV .                 42:   Viscosity
 DFPH.                9.5:   pH
 DFL .                  8:   Fluid loss
 MSS .            MUDTANK:   Source of sample
 RMS .OHMM           1.62:   Rm
 MST .F                71:   Rm Meas. temp.
 RMF .OHMM           1.45:   Rmf
 MFST.F                71:   Rmf Meas. temp.
 MFSS.               MEAS:   Source Rmf.
 RMB .OHMM           1.02:   Rm. at BHT
 BHT .F               116:   BHT.
 TCS .HRS            1600:   Time Circ. stopped
 TLAB.HRS            1830:   Time logger at bottom
 MRT .F               116:   Maximum recorded temp.
 LUN .               8035:   Logging unit number
 LUL .               CSPR:   Logging unit location
 ENGI.            BEATTIE:   Recorded By
 WITN.              EIVAS:   Witnessed by
 ORIG.           5" PRINT:   Origin of data
 UWI .     49025108710000:   Unique Well ID
 DICO. A2D TECHNOLOGIES, INC.:   Digitizing Company
~OTHER INFORMATION
~A   DEPT     TENR        SPR        ILD        ILM        SFL       TEND       CALD         GRD      RHOB       CORR   
# ...
 2956.5000   674.9440   -17.3120    11.5580    11.3310    12.8040   663.6730     8.3640   105.3830     2.4300     0.0040
 2957.0000   675.6170   -17.1560    10.8210    10.6140    12.8040   663.6730     8.3660   105.2540     2.4300     0.0050
 2957.5000   676.2900   -16.9990    10.0830     9.8960    12.8040   663.6730     8.3680   107.4610     2.4340     0.0050
 2958.0000   676.9630   -16.8450     9.3460     9.1780    12.5730   663.6730     8.3710   114.5390     2.4380     0.0040
 2958.5000   677.6360   -16.6800     8.6090     8.4600    11.0780   663.6730     8.3730   123.3910     2.4510     0.0080
 2959.0000   678.3090   -16.5430     8.1230     8.2720     9.4670   663.6730     8.3750   128.6280     2.4650     0.0130
 2959.5000   678.9820   -16.3610     8.1230     8.4240     7.8570   663.6730     8.3780   131.9670     2.4730     0.0140
 2960.0000   679.6550   -16.1920     8.6740     9.0310     6.1820   663.6730     8.3480   127.6460     2.4700     0.0140
 2960.5000   680.3280   -15.8550     9.4050     9.8360     8.8760   663.6730     8.3120   119.6160     2.4670     0.0140
 2961.0000   681.0010   -16.0820    10.1360    10.6410    11.6810   663.6730     8.2790   111.6410     2.4660     0.0120
 2961.5000   681.6740   -16.2010    10.8670    11.4450    14.4860   663.6730     8.2770   106.0480     2.4630     0.0110
 2962.0000   681.6990   -16.3610    11.5980    12.2500    17.2920   663.6730     8.2740   103.6790     2.4570     0.0100
 2962.5000   681.3910   -16.5290    12.3280    13.0550    18.4270   663.6730     8.2720   101.2830     2.4520     0.0090
 2963.0000   681.0840   -16.6210    13.0590    13.8600    17.7060   663.6730     8.2700    98.3090     2.4460     0.0090
 2963.5000   680.7760   -16.9910    13.7900    14.8110    17.1040   663.6730     8.2670    96.3600     2.4440     0.0090
 2964.0000   680.4690   -17.4380    14.5210    14.8110    16.5020   663.6730     8.2650    98.3790     2.4500     0.0100
 2964.5000   680.1620   -17.9170    15.1890    14.8110    15.9000   663.6730     8.2620   101.0660     2.4600     0.0120
 2965.0000   679.8540   -18.3720    15.6490    15.0000    15.0830   666.9330     8.2600    99.4600     2.4620     0.0160
 2965.5000   679.5470   -18.8460    16.1090    15.4340    15.4460   670.3130     8.2590    92.2740     2.4520     0.0190
 2966.0000   679.2390   -19.3200    16.5680    15.8670    16.9200   673.6930     8.2260    86.7000     2.4320     0.0160
 2966.5000   678.9320   -19.7720    17.0280    16.3000    18.3930   677.0730     8.1720    85.2390     2.4210     0.0150
 2967.0000   678.6240   -20.2600    17.4880    16.7330    19.8670   680.4520     8.1360    90.3430     2.4210     0.0160
 2967.5000   678.3170   -20.6630    17.9470    17.1670    20.9310   683.6330     8.1210    94.9200     2.4230     0.0180
 2968.0000   678.0100   -21.0140    18.4070    17.6000    20.9310   680.2770     8.0990    94.9190     2.4250     0.0110
 2968.5000   677.7020   -20.9980    18.8670    18.0330    20.9310   677.1080     8.0970    89.9960     2.4250     0.0050
 2969.0000   677.3950   -21.1300    19.3260    18.4660    20.9310   673.9400     8.0880    85.1430     2.4250     0.0060
 2969.5000   677.0870   -21.2280    19.5420    18.8700    20.9310   670.7710     8.1000    80.6490     2.4300     0.0110
 2970.0000   676.7800   -21.3440    19.6570    19.2080    21.5260   667.6020     8.1120    77.6180     2.4350     0.0160
 2970.5000   676.4720   -21.3940    19.7720    19.5470    22.1770   664.4340     8.1250    74.4320     2.4380     0.0200
 2971.0000   676.1650   -21.8050    19.8860    19.8850    22.8290   671.8280     8.1370    71.3420     2.4350     0.0180
 2971.5000   675.8580   -22.2650    20.0010    20.2230    23.4810   683.6330     8.1500    69.7660     2.4330     0.0150
 2972.0000   675.5500   -22.7380    20.1160    20.5610    23.7750   682.2000     8.1620    68.5230     2.4330     0.0120
 2972.5000   675.2430   -23.1980    20.2300    20.9000    23.2370   680.3890     8.1750    68.6160     2.4330     0.0150
 2973.0000   674.9350   -23.6660    20.3450    21.2380    22.7700   678.5790     8.1870    69.7030     2.4290     0.0170
 2973.5000   674.6280   -24.1330    20.4600    21.3160    22.3030   676.7680     8.1990    71.8290     2.4230     0.0110
 2974.0000   674.3200   -24.5070    20.5540    20.1310    22.1060   674.9570     8.1990    75.5620     2.4210     0.0060
 2974.5000   674.0130   -24.4440    20.9320    18.9180    22.9350   673.6530     8.2010    79.2280     2.4260     0.0090
 2975.0000   673.7060   -24.2820    21.3160    18.4270    23.7750   677.1070     8.2040    82.3470     2.4290     0.0100
 2975.5000   673.3980   -24.1320    21.2750    19.1360    23.7750   681.0070     8.2060    83.8890     2.4270     0.0050
 2976.0000   673.0910   -24.1220    21.2250    20.1830    23.0180   684.9070     8.2090    84.8940     2.4230     0.0030
 2976.5000   672.7830   -24.3440    21.1740    20.1830    21.7780   688.8070     8.2120    85.3500     2.4160     0.0040
 2977.0000   672.4760   -24.6460    21.1240    19.9970    21.3160   692.7070     8.2140    84.4590     2.4090     0.0050
 2977.5000   672.1690   -24.8480    21.0730    19.8160    21.7420   693.6130     8.2170    81.7960     2.4030     0.0040
 2978.0000   671.8610   -25.2220    21.0220    19.6340    22.2540   693.6130     8.2200    77.0580     2.4040     0.0030
 2978.5000   671.5540   -25.2370    20.9720    19.4530    22.7660   693.6130     8.2220    72.8900     2.4100     0.0050
 2979.0000   671.2460   -25.0960    20.9210    19.2710    23.3470   693.6130     8.2250    72.9520     2.4130     0.0070
 2979.5000   670.9390   -24.9450    20.8710    19.0900    23.3470   693.6130     8.2280    73.9250     2.4090     0.0090
 2980.0000   670.6310   -24.8020    20.8200    18.9080    22.2600   693.6130     8.2300    74.8970     2.4060     0.0110
 2980.5000   670.3240   -24.6790    20.7700    18.7270    20.9310   693.6130     8.2330    75.9050     2.4090     0.0130
 2981.0000   670.0170   -24.5180    20.7210    18.5450    21.0760   693.6130     8.2360    76.4280     2.4170     0.0150
 2981.5000   669.7090   -24.4390    20.6750    18.3640    21.5690   687.4650     8.2390    76.0390     2.4250     0.0180
 2982.0000   669.4020   -23.9500    20.6200    18.0950    22.1060   673.6530     8.2390    75.5390     2.4310     0.0180
 2982.5000   669.0940   -23.8320    20.5560    18.3660    22.1060   673.6530     8.2390    75.6860     2.4300     0.0180
 2983.0000   668.7870   -23.6290    20.5790    18.8920    21.5590   673.6530     8.2390    77.1500     2.4290     0.0180
 2983.5000   668.4790   -23.4320    20.5410    19.4190    21.0700   673.6530     8.2390    79.0660     2.4280     0.0150
 2984.0000   668.1720   -23.3470    20.5540    19.9450    20.5540   673.6530     8.2390    78.1730     2.4310     0.0130
 2984.5000   667.8650   -23.0880    21.8240    20.1830    20.9310   673.6530     8.2390    75.8970     2.4420     0.0120
 2985.0000   667.5570   -22.5640    24.1420    23.9300    23.4140   673.6530     8.2390    75.0380     2.4700     0.0120
 2985.5000   667.2500   -22.0640    26.4610    27.1870    26.1970   673.6530     8.2390    74.3790     2.5110     0.0110
 2986.0000   666.9420   -21.5920    28.7800    31.8130    29.0460   678.9020     8.2390    71.8100     2.5340     0.0110
 2986.5000   666.6350   -21.0970    30.6760    30.9200    57.3260   683.9720     8.2390    68.4930     2.5420     0.0130
 2987.0000   666.3280   -21.3500    32.3980    29.3770    63.5340   689.0420     8.2380    67.5780     2.5350     0.0190
 2987.5000   666.0200   -21.8700    30.8390    27.8350    59.0730   693.6130     8.2360    70.4340     2.5150     0.0250
 2988.0000   665.7130   -22.7040    29.2680    26.2920    43.6590   693.6130     8.2350    73.6760     2.4850     0.0240
 2988.5000   665.4050   -24.3910    27.6980    24.7490    30.7980   693.6130     8.2330    76.0760     2.4500     0.0150
 2989.0000   665.0980   -24.4910    26.1270    23.2070    23.1230   693.6130     8.2320    77.6080     2.4230     0.0100
 2989.5000   664.7900   -24.8200    24.5560    21.6640    22.5920   691.4550     8.2300    78.2120     2.4100     0.0070
