~VERSION INFORMATION
 VERS.                2.0:   CWLS LOG ASCII STANDARD - VERSION 2.0
 WRAP.                 NO:   ONE LINE PER DEPTH STEP
~WELL INFORMATION
#MNEM.UNIT      DATA TYPE    INFORMATION
#----------   ------------   ------------------------------
 STRT.F          444.0000:   START DEPTH
 STOP.F         3018.0000:   STOP DEPTH
 STEP.F            0.5000:   STEP LENGTH
 NULL.          -999.2500:   NO VALUE
 COMP.    FENIX & SCISSON:   COMPANY
 WELL.  FENIX "AX" #25-28:   WELL
 FLD .             TEAPOT:   FIELD
 LOC .      S28 T39N R78W:   LOCATION
 CNTY.            NATRONA:   COUNTY
 STAT.            WYOMING:   STATE
 CTRY. UNITED STATES OF AMERICA:   COUNTRY
 SRVC.              WELEX:   SERVICE COMPANY
 DATE.        01-DEC-1979:   LOGDATE
 API .     49025107940000:   API NUMBER
~CURVE INFORMATION
#MNEM.UNIT       API CODE    CURVE DESCRIPTION
#----------   ------------   ------------------------------
 DEPT.F                  :   
 SPR .MV     07 010 01 00:   SPONTANEOUS POTENTIAL
 RILM.OHMM   07 120 44 00:   INDUCTION LOG MEDIUM RESISTIVITY
 RILD.OHMM   07 120 46 00:   DEEP INDUCTION RESISTIVITY
 SGRD.OHMM   07 220 05 00:   SHALLOW GUARD LOG RESISTIVITY
 TENR.LBS    07 635 01 00:   TENSION FROM RESISTIVITY
 NPHI.DEC    42 890 03 00:   NEUTRON POROSITY SANDSTONE
 GRD .GAPI   45 310 01 00:   GAMMA RAY FROM DENSITY LOG
 CALD.IN     45 280 60 00:   CALIPER FROM DENSITY LOG
 RHOB.G/C3   45 350 01 00:   BULK DENSITY
 DCOR.G/C3   45 356 01 00:   DENSITY CORRECTION
 TEND.LBS    45 635 01 00:   TENSION FROM DENSITY LOG
~PARAMETER INFORMATION
#MNEM.UNIT          VALUE    DESCRIPTION
#----------   ------------   ------------------------------
 EKB .F         5092.0000:   Kelly bushing
 EGL .F         5082.0000:   Ground level
 EDF .F            0.0000:   Drilling floor
 TD  .F         3013.5000:   Total depth
 DATE.        01-DEC-1979:   Date logged
 CLNT.            A2DTECH:   Client Code
 SL  . 2267' FSL & 1070' FWL:   Surface Location
 PD  .                 GL:   Permanent Datum
 EPD .F              5082:   Elevation Permanent Datum
 LMF .                 KB:   Log Measured From
 DMF .                 KB:   Drilling Measured From
 DAPD.F                10:   Feet Above Permanent Datum
 DD  .F              3000:   Depth driller
 DL  .F            3013.5:   Depth logger
 BLI .F              3013:   Bottom log interval
 TLI .F               350:   Top log interval
 CS1 .IN            8.625:   Casing size
 CBD1.      8.625" @ 465':   Casing driller 1
 CBL1.F               462:   Casing logger 1
 BS1 .IN            7.875:   Bit size
 BSD1.F              3000:   Depth drilled with bit1
 DFT .           CHEM GEL:   Type fluid in hole
 DFD .                8.8:   Density
 DFV .                 55:   Viscosity
 DFPH.                  9:   pH
 DFL .                6.4:   Fluid loss
 MSS .           FLOWLINE:   Source of sample
 RMS .OHMM           1.53:   Rm
 MST .F                75:   Rm Meas. temp.
 RMF .OHMM           1.24:   Rmf
 MFST.F                75:   Rmf Meas. temp.
 RMC .OHMM           1.83:   Rmc
 MCST.F                75:   Rmc Meas. temp.
 MFSS.               MEAS:   Source Rmf.
 MCSS.               MEAS:   Source Rmc.
 RMB .OHMM           1.09:   Rm. at BHT
 BHT .F               105:   BHT.
 TCS .HRS             2.5:   Time Circ. stopped
 MRT .F               105:   Maximum recorded temp.
 LUN .                965:   Logging unit number
 LUL .             CASPER:   Logging unit location
 ENGI.            BENTSEN:   Recorded By
 WITN.           P. AMEND:   Witnessed by
 ORIG.           5" PRINT:   Origin of data
 UWI .     49025107940000:   Unique Well ID
 DICO. A2D TECHNOLOGIES, INC.:   Digitizing Company
~OTHER INFORMATION
~A   DEPT      SPR       RILM       RILD       SGRD       TENR       NPHI         GRD      CALD       RHOB       DCOR       TEND   
  444.0000  -999.2500  -999.2500  -999.2500  -999.2500  -999.2500  -999.2500    41.0570  -999.2500  -999.2500  -999.2500  -999.2500
  444.5000  -999.2500  -999.2500  -999.2500  -999.2500  -999.2500  -999.2500    40.6320  -999.2500  -999.2500  -999.2500  -999.2500
  445.0000  -999.2500  -999.2500  -999.2500  -999.2500  -999.2500  -999.2500    38.9820  -999.2500  -999.2500  -999.2500  -999.2500
  445.5000  -999.2500  -999.2500  -999.2500  -999.2500  -999.2500  -999.2500    40.2850  -999.2500  -999.2500  -999.2500  -999.2500
  446.0000  -999.2500  -999.2500  -999.2500  -999.2500  -999.2500  -999.2500    41.3360  -999.2500  -999.2500  -999.2500  -999.2500
  446.5000  -999.2500  -999.2500  -999.2500  -999.2500  -999.2500  -999.2500    41.3020  -999.2500  -999.2500  -999.2500  -999.2500
  447.0000  -999.2500  -999.2500  -999.2500  -999.2500  -999.2500  -999.2500    40.0280  -999.2500  -999.2500  -999.2500  -999.2500
  447.5000  -999.2500  -999.2500  -999.2500  -999.2500  -999.2500  -999.2500    39.5140  -999.2500  -999.2500  -999.2500  -999.2500
  448.0000  -999.2500  -999.2500  -999.2500  -999.2500  -999.2500  -999.2500    40.4190  -999.2500  -999.2500  -999.2500  -999.2500
  448.5000  -999.2500  -999.2500  -999.2500  -999.2500  -999.2500  -999.2500    41.2970  -999.2500  -999.2500  -999.2500  -999.2500
  449.0000  -999.2500  -999.2500  -999.2500  -999.2500  -999.2500  -999.2500    40.2740  -999.2500  -999.2500  -999.2500  -999.2500
  449.5000  -999.2500  -999.2500  -999.2500  -999.2500  -999.2500  -999.2500    40.5940  -999.2500  -999.2500  -999.2500  -999.2500
  450.0000  -999.2500  -999.2500  -999.2500  -999.2500  -999.2500  -999.2500    40.2070  -999.2500  -999.2500  -999.2500  -999.2500
  450.5000  -999.2500  -999.2500  -999.2500  -999.2500  -999.2500  -999.2500    40.0030  -999.2500  -999.2500  -999.2500  -999.2500
  451.0000  -999.2500  -999.2500  -999.2500  -999.2500  -999.2500  -999.2500    38.7760  -999.2500  -999.2500  -999.2500  -999.2500
  451.5000  -999.2500  -999.2500  -999.2500  -999.2500  -999.2500  -999.2500    40.0160  -999.2500  -999.2500  -999.2500  -999.2500
  452.0000  -999.2500  -999.2500  -999.2500  -999.2500  -999.2500  -999.2500    39.2590  -999.2500  -999.2500  -999.2500  -999.2500
  452.5000  -999.2500  -999.2500  -999.2500  -999.2500  -999.2500  -999.2500    41.2750  -999.2500  -999.2500  -999.2500  -999.2500
  453.0000  -999.2500  -999.2500  -999.2500  -999.2500  -999.2500  -999.2500    43.3440  -999.2500  -999.2500  -999.2500  -999.2500
  453.5000  -999.2500  -999.2500  -999.2500  -999.2500  -999.2500  -999.2500    42.5140  -999.2500  -999.2500  -999.2500  -999.2500
  454.0000  -999.2500  -999.2500  -999.2500  -999.2500  -999.2500  -999.2500    42.6240  -999.2500  -999.2500  -999.2500  -999.2500
  454.5000  -999.2500  -999.2500  -999.2500  -999.2500  -999.2500  -999.2500    45.7300  -999.2500  -999.2500  -999.2500  -999.2500
  455.0000  -999.2500  -999.2500  -999.2500  -999.2500  -999.2500  -999.2500    45.3110  -999.2500  -999.2500  -999.2500  -999.2500
  455.5000  -999.2500  -999.2500  -999.2500  -999.2500  -999.2500  -999.2500    45.2740  -999.2500  -999.2500  -999.2500  -999.2500
  456.0000  -999.2500  -999.2500  -999.2500  -999.2500  -999.2500  -999.2500    44.4600  -999.2500  -999.2500  -999.2500  -999.2500
  456.5000  -999.2500  -999.2500  -999.2500  -999.2500  -999.2500  -999.2500    44.2950  -999.2500  -999.2500  -999.2500  -999.2500
  457.0000  -999.2500  -999.2500  -999.2500  -999.2500  -999.2500  -999.2500    42.3500  -999.2500  -999.2500  -999.2500  -999.2500
  457.5000  -999.2500  -999.2500  -999.2500  -999.2500  -999.2500  -999.2500    42.9840  -999.2500  -999.2500  -999.2500  -999.2500
  458.0000  -999.2500  -999.2500  -999.2500  -999.2500  -999.2500  -999.2500    44.5940  -999.2500  -999.2500  -999.2500  -999.2500
  458.5000  -999.2500  -999.2500  -999.2500  -999.2500   567.6170  -999.2500    47.4800  -999.2500  -999.2500  -999.2500  -999.2500
  459.0000  -999.2500  -999.2500  -999.2500  -999.2500   570.5200  -999.2500    51.0480  -999.2500  -999.2500  -999.2500  -999.2500
  459.5000  -999.2500  -999.2500  -999.2500     6.7990   573.4240  -999.2500    53.9140  -999.2500  -999.2500  -999.2500  1017.7870
  460.0000  -999.2500  -999.2500  -999.2500     7.1790   576.2660  -999.2500    55.4500     8.2370     2.3540  -999.2500  1040.1040
  460.5000  -999.2500  -999.2500  -999.2500     7.4650   578.5050  -999.2500    52.0490     8.5750     2.3470     0.1250  1072.8260
  461.0000  -999.2500  -999.2500     0.6280     7.3780   581.4080  -999.2500    53.1830     8.9600     2.3450     0.1280  1092.9730
  461.5000   -97.1140  -999.2500     0.4280     7.4080   584.3120  -999.2500    53.3080     9.0730     2.3430     0.1340  1059.0909
  462.0000   -90.4510     6.8340     0.3520     7.1930   587.2150  -999.2500    55.0140     9.0940     2.3390     0.1450  1026.0870
  462.5000   -79.9080     6.4590     0.3020     6.9930   590.1190  -999.2500    55.3810     9.1910     2.3220     0.1540  1027.3490
  463.0000   -69.3650     6.1350     0.2890     6.6220   593.0220  -999.2500    56.0330     9.2870     2.3050     0.1660  1040.1250
  463.5000   -64.0730     6.1660     0.4500     6.2310   595.9260  -999.2500    55.7220     9.3820     2.2850     0.1790  1052.9010
  464.0000   -59.8400     6.1350     0.6770     5.8410   598.3050  -999.2500    56.9090     9.4760     2.2570     0.1890  1065.6760
  464.5000   -56.8990     6.1350     1.1280     5.4500   597.8390  -999.2500    55.0630     9.6970     2.2070     0.1730  1078.4520
  465.0000   -55.5460     5.7700     3.1560     5.0600   597.3720     0.2920    55.5000     9.9790     2.1720     0.1710  1091.2280
  465.5000   -55.0270     5.2240     4.7280     4.6690   596.9060     0.2900    53.9970    10.4490     2.1310     0.1900  1085.7310
  466.0000   -54.5660     4.6960     4.2820     4.3230   596.4400     0.2880    54.9820    10.9060     2.0820     0.2120  1065.9290
  466.5000   -53.6930     4.2570     3.9250     4.2030   595.9740     0.2870    53.7070    11.3610     2.0230     0.2250  1046.1260
  467.0000   -53.3470     3.8180     3.5680     4.0830   595.5080     0.2830    52.5350    11.8140     1.9620     0.2160  1026.3240
  467.5000   -53.0760     3.3790     3.2550     3.9440   595.0420     0.2840    52.7790    12.3400     1.9370     0.2070  1024.8270
  468.0000   -52.8400     3.1020     3.0170     3.7750   594.5750     0.2810    51.4390    12.9290     1.9320     0.1920  1037.2040
  468.5000   -52.5910     3.0740     2.7730     4.1830   594.1090     0.2780    49.8780    13.6600     1.9400     0.1750  1049.5800
  469.0000   -52.6210     3.4380     2.6720     3.9030   593.6430     0.2750    49.4220    14.6990     1.9550     0.1640  1061.9570
  469.5000   -52.7570     3.3940     2.8260     4.1790   593.1770     0.2680    49.9930    15.1750     1.9720     0.1520  1074.3330
  470.0000   -52.8180     3.2510     3.1590     4.9650   592.7110     0.2560    54.3280    15.0420     2.0040     0.1270  1059.2889
  470.5000   -52.8170     3.6180     3.5030     5.7510   592.2450     0.2650    59.8810    13.8900     2.0940     0.0960  1036.4399
  471.0000   -52.1300     4.1850     3.8600     6.2750   591.7780     0.2710    63.0090    12.5260     2.1920     0.0730  1018.8160
  471.5000   -52.3640     4.7040     4.2180     6.5620   591.3120     0.2740    65.5250    10.9220     2.3610     0.0940  1024.4200
  472.0000   -55.1290     5.2230     4.6100     6.6230   590.8460     0.2790    63.9760    10.5800     2.5370     0.1210  1030.0250
  472.5000   -56.5200     5.7470     5.1510     6.7490   590.3800     0.2730    63.2640    10.4670     2.5550     0.1480  1035.6290
  473.0000   -56.0070     6.0960     5.6930     7.0250   589.9140     0.2730    64.0690    10.4760     2.5470     0.1460  1041.2330
  473.5000   -56.2010     6.4660     6.1720     7.1080   589.4480     0.2730    62.3710    10.5090     2.5360     0.1340  1046.8380
  474.0000   -56.1680     6.8630     6.4610     7.1910   588.9820     0.2720    60.6690    10.5850     2.5360     0.1290  1052.4420
