~VERSION INFORMATION
 VERS.                2.0:   CWLS LOG ASCII STANDARD - VERSION 2.0
 WRAP.                 NO:   ONE LINE PER DEPTH STEP
~WELL INFORMATION
#MNEM.UNIT      DATA TYPE    INFORMATION
#----------   ------------   ------------------------------
 STRT.F            7.5000:   START DEPTH
 STOP.F         3140.0000:   STOP DEPTH
 STEP.F            0.5000:   STEP LENGTH
 NULL.          -999.2500:   NO VALUE
 COMP. LAWRENCE ALLISON WEST:   COMPANY
 WELL. LAWRENCE NPR 3 "AX" #51-3:   WELL
 FLD .                NPR:   FIELD
 LOC .       S3 T38N R78W:   LOCATION
 CNTY.            NATRONA:   COUNTY
 STAT.            WYOMING:   STATE
 CTRY. UNITED STATES OF AMERICA:   COUNTRY
 SRVC.      DRESSER ATLAS:   SERVICE COMPANY
 DATE.        09-NOV-1986:   LOGDATE
 API .     49025111180000:   API NUMBER
~CURVE INFORMATION
#MNEM.UNIT       API CODE    CURVE DESCRIPTION
#----------   ------------   ------------------------------
 DEPT.F                  :   
 CALD.IN     45 280 60 00:   CALIPER FROM DENSITY LOG
 DEN .LBS    45 350 01 00:   BULK DENSITY
 CORR.G/C3   45 356 01 00:   DENSITY CORRECTION
 NPOR.DEC    42 890 03 00:   ALPHA PROCESSED NEUTRON POROSITY
 SPR .MV     07 010 01 00:   SPONTANEOUS POTENTIAL
 GRR .GAPI   07 310 01 00:   GAMMA RAY FROM RESISTIVITY
 SFL .OHMM   07 220 01 00:   SHALLOW FOCUSED LOG RESISTIVITY
 ILD .OHMM   07 120 46 00:   DEEP INDUCTION RESISTIVITY
 ILM .OHMM   07 120 44 00:   INDUCTION LOG MEDIUM RESISTIVITY
 TENR.LBS    07 635 01 00:   TENSION FROM RESISTIVITY
~PARAMETER INFORMATION
#MNEM.UNIT          VALUE    DESCRIPTION
#----------   ------------   ------------------------------
 EKB .F         5132.0000:   Kelly bushing
 EGL .F         5120.0000:   Ground level
 TD  .F         3141.0000:   Total depth
 DATE.        09-NOV-1986:   Date logged
 CLNT.            A2DTECH:   Client Code
 SL  . 249' FNL & 2195' FEL:   Surface Location
 PD  .                 GL:   Permanent Datum
 EPD .F              5120:   Elevation Permanent Datum
 LMF .                 KB:   Log Measured From
 DMF .                 KB:   Drilling Measured From
 DAPD.F                12:   Feet Above Permanent Datum
 DD  .F              3141:   Depth driller
 DL  .F              3132:   Depth logger
 BLI .F              3126:   Bottom log interval
 CS1 .IN            8.625:   Casing size
 CBD1.      8.625" @ 690':   Casing driller 1
 CBL1.F               690:   Casing logger 1
 BS1 .IN            7.875:   Bit size
 BSD1.F              3141:   Depth drilled with bit1
 DFT .        KCL/POLYMER:   Type fluid in hole
 DFD .                8.9:   Density
 DFV .                 34:   Viscosity
 DFPH.                9.5:   pH
 DFL .                9.5:   Fluid loss
 MSS .           FLOWLINE:   Source of sample
 RMS .OHMM           .368:   Rm
 MST .F                66:   Rm Meas. temp.
 RMF .OHMM           .296:   Rmf
 MFST.F                66:   Rmf Meas. temp.
 RMC .OHMM           .468:   Rmc
 MCST.F                66:   Rmc Meas. temp.
 MFSS.               MEAS:   Source Rmf.
 MCSS.               CALC:   Source Rmc.
 RMB .OHMM           .282:   Rm. at BHT
 BHT .F               120:   BHT.
 TCS .HRS             3.5:   Time Circ. stopped
 MRT .F               120:   Maximum recorded temp.
 LUN .            HL-6274:   Logging unit number
 LUL .           GILLETTE:   Logging unit location
 ENGI.             RAUTIO:   Recorded By
 WITN.             STRONG:   Witnessed by
 ORIG.        2" 5" PRINT:   Origin of data
 UWI .     49025111180000:   Unique Well ID
 DICO. A2D TECHNOLOGIES, INC.:   Digitizing Company
~OTHER INFORMATION
~A    DEPT    CALD        DEN       CORR       NPOR        SPR         GRR       SFL        ILD        ILM       TENR   
# ...
 1046.0000  -999.2500  -999.2500  -999.2500  -999.2500   -84.3794    98.8559    10.4917    10.0526     9.8003   -39.8452
 1046.5000  -999.2500  -999.2500  -999.2500  -999.2500   -84.3827    99.2505    10.4895    10.0504     9.7981   -39.6448
 1047.0000  -999.2500  -999.2500  -999.2500  -999.2500   -83.9835    96.8263    10.4878    10.0481     9.7959   -49.5298
 1047.5000  -999.2500  -999.2500  -999.2500  -999.2500   -84.3912    94.0013    10.5829    10.0459     9.7938   -59.4148
 1048.0000  -999.2500  -999.2500  -999.2500  -999.2500   -84.5937    90.7739    10.5807    10.0437     9.7916   -39.0438
 1048.5000  -999.2500  -999.2500  -999.2500  -999.2500   -84.9995    92.3759    10.5780    10.0415     9.7894   -59.0143
 1049.0000  -999.2500  -999.2500  -999.2500  -999.2500   -85.0034    94.3772    10.5758    10.0393     9.7872   -48.7285
 1049.5000  -999.2500  -999.2500  -999.2500  -999.2500   -84.6042    94.3725    10.5736    10.0370     9.7851   -58.6138
 1050.0000  -999.2500  -999.2500  -999.2500  -999.2500   -84.2051    92.3526    10.5714    10.0348     9.7829   -58.3735
 1050.5000  -999.2500  -999.2500  -999.2500  -999.2500   -83.8060    93.5520    10.5691    10.0326     9.7807   -58.1732
 1051.0000  -999.2500  -999.2500  -999.2500  -999.2500   -83.8093    93.5443    10.5669    10.0304     9.7785   -57.9729
 1051.5000  -999.2500  -999.2500  -999.2500  -999.2500   -83.8126    92.7317    10.5647    10.0281     9.7764   -57.7727
 1052.0000  -999.2500  -999.2500  -999.2500  -999.2500   -83.8159    92.7239    10.5625    10.0259     9.7742   -87.8298
 1052.5000  -999.2500  -999.2500  -999.2500  -999.2500   -84.0204    97.1422    10.5599    10.0237     9.7720   -57.3721
 1053.0000  -999.2500  -999.2500  -999.2500  -999.2500   -84.0248    97.9391    10.5577    10.0215     9.7698   -57.1718
 1053.5000  -999.2500  -999.2500  -999.2500  -999.2500   -84.6717    95.1131    10.5559    10.0198     9.7682   -56.9715
 1054.0000  -999.2500  -999.2500  -999.2500  -999.2500   -84.8361    93.0936    10.5532    10.1099     9.8565   -56.7713
 1054.5000  -999.2500  -999.2500  -999.2500  -999.2500   -85.0405    87.0508    10.5515    10.1095     9.8561   -66.6570
 1055.0000  -999.2500  -999.2500  -999.2500  -999.2500   -84.6415    88.6524    10.5493    10.0956     9.8424   -56.3707
 1055.5000  -999.2500  -999.2500  -999.2500  -999.2500   -84.4442    91.0587    10.5470    10.0816     9.8287   -56.1704
 1056.0000  -999.2500  -999.2500  -999.2500  -999.2500   -84.0452    91.4532    10.5448    10.0677     9.8151   -55.9701
 1056.5000  -999.2500  -999.2500  -999.2500  -999.2500   -83.8473    97.0777    10.4821    10.0538     9.6406   -55.7698
 1057.0000  -999.2500  -999.2500  -999.2500  -999.2500   -83.6495    97.4722    10.4804    10.0399     9.6397   -45.4832
 1057.5000  -999.2500  -999.2500  -999.2500  -999.2500   -83.6501    97.0620    10.4782    10.0261     9.5486   -55.4093
 1058.0000  -999.2500  -999.2500  -999.2500  -999.2500   -84.0583    92.2268    10.4760    10.0122     9.5466   -55.1689
 1058.5000  -999.2500  -999.2500  -999.2500  -999.2500   -84.0616    91.8167    10.3769     9.9980     9.5446   -54.9286
 1059.0000  -999.2500  -999.2500  -999.2500  -999.2500   -84.4691    92.6135    10.4716    10.0896     9.5426   -54.7283
 1059.5000  -999.2500  -999.2500  -999.2500  -999.2500   -84.4712    93.4103    10.5671    10.0875     9.4524   -54.5280
 1060.0000  -999.2500  -999.2500  -999.2500  -999.2500   -84.4737    92.5964    10.5644    10.0849     9.4500   -54.3276
 1060.5000  -999.2500  -999.2500  -999.2500  -999.2500   -84.2759    92.9909    10.4646    10.0828     9.4480   -54.1273
 1061.0000  -999.2500  -999.2500  -999.2500  -999.2500   -84.2792    94.5889    10.2698    10.0807     9.4460   -53.9270
 1061.5000  -999.2500  -999.2500  -999.2500  -999.2500   -84.0813    94.9864    10.1727    10.0786     9.4440   -53.7267
 1062.0000  -999.2500  -999.2500  -999.2500  -999.2500   -84.0846    94.5764    10.2655     9.9833     9.4420   -53.5264
 1062.5000  -999.2500  -999.2500  -999.2500  -999.2500   -84.8930    92.5560    10.3591     9.8889     9.3528   -53.3261
 1063.0000  -999.2500  -999.2500  -999.2500  -999.2500   -84.8962    91.7454    10.4536     9.8868     9.3508   -53.1258
 1063.5000  -999.2500  -999.2500  -999.2500  -999.2500   -84.8995    91.7376    10.3548     9.8848     9.2624   -52.9255
 1064.0000  -999.2500  -999.2500  -999.2500  -999.2500   -84.9028    90.9255    10.2569     9.8827     9.1748   -52.7251
 1064.5000  -999.2500  -999.2500  -999.2500  -999.2500   -84.5039    90.9178    10.0659     9.8806     9.0881   -52.5248
 1065.0000  -999.2500  -999.2500  -999.2500  -999.2500   -84.3060    91.7144     9.9707     9.8785     9.0861   -52.3245
 1065.5000  -999.2500  -999.2500  -999.2500  -999.2500   -84.3093    94.5217     9.9687     9.7851     9.0842   -52.1241
 1066.0000  -999.2500  -999.2500  -999.2500  -999.2500   -83.7094    98.5354    10.0596     9.6926     9.0823   -51.9238
 1066.5000  -999.2500  -999.2500  -999.2500  -999.2500   -83.9137    98.9297    10.1514     9.6906     9.0804   -51.6834
 1067.0000  -999.2500  -999.2500  -999.2500  -999.2500   -83.7160    98.1160    10.2440     9.7790     9.0785   -41.3957
 1067.5000  -999.2500  -999.2500  -999.2500  -999.2500   -83.7192    95.6953    10.2414     9.8678     9.0762   -41.1954
 1068.0000  -999.2500  -999.2500  -999.2500  -999.2500   -84.5268    94.0790    10.1445     9.8657     9.1590   -20.8201
 1068.5000  -999.2500  -999.2500  -999.2500  -999.2500   -84.3290    93.6691     9.9557     9.7724     9.1571   -40.7946
 1069.0000  -999.2500  -999.2500  -999.2500  -999.2500   -84.3329    94.8676    10.0465     9.7704     9.2406   -40.5942
 1069.5000  -999.2500  -999.2500  -999.2500  -999.2500   -84.3362    95.6640    10.1382     9.6780     9.2387   -50.4814
 1070.0000  -999.2500  -999.2500  -999.2500  -999.2500   -83.3343    97.2645    10.1360     9.5865     9.2367   -50.2810
 1070.5000  -999.2500  -999.2500  -999.2500  -999.2500   -83.7396    98.4629    10.0982     9.5844     9.2348   -50.0807
 1071.0000  -999.2500  -999.2500  -999.2500  -999.2500   -83.7429    98.8571    10.0024     9.5824     9.2328   -49.8803
 1071.5000  -999.2500  -999.2500  -999.2500  -999.2500   -83.5452    98.0451     9.9079     9.5804     9.2309   -49.6800
 1072.0000  -999.2500  -999.2500  -999.2500  -999.2500   -84.1516    97.6351     9.8143     9.5784     9.2290   -49.4796
 1072.5000  -999.2500  -999.2500  -999.2500  -999.2500   -83.9538    93.2048     9.8123     9.5764     9.2270   -49.2793
 1073.0000  -999.2500  -999.2500  -999.2500  -999.2500   -84.3591    92.3914     9.7196     9.5744     9.1398   -49.0789
 1073.5000  -999.2500  -999.2500  -999.2500  -999.2500   -84.3624    95.5998     9.7176     9.5724     9.1378   -48.8786
 1074.0000  -999.2500  -999.2500  -999.2500  -999.2500   -84.9687    96.3960     9.7155     9.4815     9.0514   -48.6782
 1074.5000  -999.2500  -999.2500  -999.2500  -999.2500   -85.1704    97.1922     9.8955     9.3922     9.0495   -58.5258
 1075.0000  -999.2500  -999.2500  -999.2500  -999.2500   -84.9753    97.1844     9.9852     9.2169     8.9819   -58.3255
 1075.5000  -999.2500  -999.2500  -999.2500  -999.2500   -84.5772    98.3825     9.9831     8.9617     8.7320   -58.1252
 1076.0000  -999.2500  -999.2500  -999.2500  -999.2500   -83.7765    99.9826     9.8888     8.8769     8.6490   -57.9249
 1076.5000  -999.2500  -999.2500  -999.2500  -999.2500   -83.7798   103.5913     9.7954     8.8751     8.6472   -57.7245
 1077.0000  -999.2500  -999.2500  -999.2500  -999.2500   -83.3811   103.9884     9.7029     8.8732     8.6453   -57.5242
 1077.5000  -999.2500  -999.2500  -999.2500  -999.2500   -83.3844   103.5785     9.7009     8.9542     8.7246   -57.3239
 1078.0000  -999.2500  -999.2500  -999.2500  -999.2500   -83.3877   100.7568     9.6988     9.0358     8.8046   -77.3004
 1078.5000  -999.2500  -999.2500  -999.2500  -999.2500   -83.5906    97.9352     9.8785     9.0339     8.8027   -77.1803
 1079.0000  -999.2500  -999.2500  -999.2500  -999.2500   -83.9972    94.3079    10.0615     9.0320     8.8008   -77.0201
