~VERSION INFORMATION
 VERS.                2.0:   CWLS LOG ASCII STANDARD - VERSION 2.0
 WRAP.                 NO:   ONE LINE PER DEPTH STEP
~WELL INFORMATION
#MNEM.UNIT      DATA TYPE    INFORMATION
#----------   ------------   ------------------------------
 STRT.F          494.0000:   START DEPTH
 STOP.F         4999.5000:   STOP DEPTH
 STEP.F            0.5000:   STEP LENGTH
 NULL.          -999.2500:   NO VALUE
 COMP.    FENIX & SCISSON:   COMPANY
 WELL.  FENIX "LX" #26-23:   WELL
 FLD . MPR #3 (TEAPOT DOME):   FIELD
 LOC .      S23 T38N R78W:   LOCATION
 CNTY.            NATRONA:   COUNTY
 STAT.            WYOMING:   STATE
 CTRY. UNITED STATES OF AMERICA:   COUNTRY
 SRVC.       SCHLUMBERGER:   SERVICE COMPANY
 DATE.        11-AUG-1978:   LOGDATE
 API .     49025107340000:   API NUMBER
~CURVE INFORMATION
#MNEM.UNIT       API CODE    CURVE DESCRIPTION
#----------   ------------   ------------------------------
 DEPT.F                  :   
 NPHI.DEC    42 890 03 00:   NEUTRON POROSITY SANDSTONE
 TEND.LBS    45 635 01 00:   TENSION FORM DENSITY LOG
 GRD .GAPI   45 310 01 00:   GAMMA RAY FROM DENSITY LOG
 CALD.IN     45 280 60 00:   CALIPER FROM DENSITY LOG
 DRHO.G/C3   45 356 01 00:   DENSITY CORRECTION
 RHOB.G/C3   45 350 01 00:   BULK DENSITY
 SPR .MV     07 010 01 00:   SPONTANEOUS POTENTIAL
 TENR.LBS    07 635 01 00:   TENSION FROM RESISTIVITY LOG
 ILD .OHMM   07 120 46 00:   INDUCTION LOG DEEP RESISTIVITY
 ILM .OHMM   07 120 44 00:   INDUCTION LOG MEDIUM RESISTIVITY
 SFL .OHMM   07 220 01 00:   SPHERICALLY FOCUSED LOG RESISITIVITY
~PARAMETER INFORMATION
#MNEM.UNIT          VALUE    DESCRIPTION
#----------   ------------   ------------------------------
 EKB .F         5335.0000:   Kelly bushing
 EGL .F         5325.0000:   Ground level
 EDF .F            0.0000:   Drilling floor
 EPD .F         5325.0000:   Permanent datum
 TD  .F         5000.0000:   Total depth
 CLNT.            A2DTECH:   Client Code
 SL  . 1600' FSL & 903' FWL:   Surface Location
 PD  .                 GL:   Permanent Datum
 LMF .                 KB:   Log Measured From
 DMF .                 KB:   Drilling Measured From
 DAPD.F                10:   Feet Above Permanent Datum
 DATE.        11-AUG-1978:   Date Logged [DD-MMM-YYYY]
 DD  .F              5000:   Depth driller
 DL  .F              4998:   Depth logger
 BLI .F              4992:   Bottom log interval
 TLI .F               525:   Top log interval
 CS1 .IN            9.625:   Casing size
 CBD1.      9.625" @ 521':   Casing driller 1
 CBL1.F               521:   Casing logger 1
 BS1 .IN             8.75:   Bit size
 BSD1.F              5000:   Depth drilled with bit1
 DFD .                9.1:   Density
 MSS .            MUD PIT:   Source of sample
 RMS .OHMM          0.897:   Rm
 MST .F                64:   Rm Meas. temp.
 RMF .OHMM          0.821:   Rmf
 MFST.F                64:   Rmf Meas. temp.
 MFSS.               MEAS:   Source Rmf.
 BHT .F               135:   BHT.
 TCS .HRS              03:   00:   Time Circ. stopped
 TLAB.HRS              09:   00:   Time logger at bottom
 MRT .F               135:   Maximum recorded temp.
 LUL .               CSPR:   Logging unit location
 ENGI.              CRAIG:   Recorded By
 ORIG.           5" PRINT:   Origin of data
 UWI .     49025107340000:   Unique Well ID
 DICO. A2D TECHNOLOGIES, INC.:   Digitizing Company
 DFV .                 40:   Viscosity
 DFPH.                 12:   pH
 DFL .                  4:   Fluid loss
~OTHER INFORMATION
~A  DEPTH     NPHI       TEND        GRD       CALD       DRHO       RHOB        SPR       TENR        ILD        ILM        SFL
# ...
 3208.5000     0.2931  1884.8644   127.0451    10.1238     0.1135     2.5605   -28.4948  1526.2975     6.5450     6.5008     8.1685
 3209.0000     0.3130  1885.1461   125.8509    10.1240     0.1210     2.5514   -28.5984  1526.2759     6.4086     6.5531     8.8762
 3209.5000     0.3172  1885.4279   119.2416    10.1061     0.0824     2.4904   -28.7014  1526.2543     6.7250     6.8716     8.8130
 3210.0000     0.3024  1885.7142   107.5194    10.0455     0.0181     2.4640   -28.8116  1526.2327     7.1559     7.2640     7.6588
 3210.5000     0.2699  1886.0618   104.5188    10.0152     0.0059     2.4873   -28.9355  1526.2111     7.5619     7.6789     7.5621
 3211.0000     0.2648  1886.3158   106.3512     9.9545     0.0044     2.5069   -28.4678  1526.1895     7.8809     8.0613     8.8074
 3211.5000     0.2765  1886.6165   107.8434     9.9394     0.0036     2.5204   -28.1491  1526.1678     7.9883     8.3458    10.2583
 3212.0000     0.2786  1886.9172   107.5498     9.9394     0.0044     2.5264   -28.3887  1526.1462     7.9862     8.3451    11.3817
 3212.5000     0.2765  1887.2180   100.6397     9.9242     0.0043     2.5166   -27.5879  1526.1246     7.9289     8.1724    11.0673
 3213.0000     0.2614  1887.5409    90.1205     9.9242     0.0051     2.5052   -27.3394  1526.1030     7.9269     8.1152     9.8336
 3213.5000     0.2542  1887.8195    87.7217     9.9242     0.0051     2.5045   -27.3373  1526.0814     8.0420     8.1147     8.8596
 3214.0000     0.2518  1888.1748    94.6479     9.9318     0.0035     2.5082   -27.3713  1526.0598     8.2585     8.2850     8.3214
 3214.5000     0.2570  1888.4565    99.4671     9.9242    -0.0003     2.5172   -27.6692  1526.0382     8.5475     8.5775     8.8006
 3215.0000     0.2666  1888.7218   102.1811     9.9242    -0.0033     2.5217   -27.9301  1526.0166     8.7248     8.8187     9.9627
 3215.5000     0.2726  1889.0226   100.6844     9.9242    -0.0064     2.5239   -28.2717  1525.9950     8.7831     8.8797    11.2082
 3216.0000     0.2735  1889.3721    95.8187     9.9242    -0.0072     2.5141   -28.8835  1525.9734     8.5996     8.7563    12.3495
 3216.5000     0.2801  1889.6538    93.7815     9.9242    -0.0072     2.4885   -29.1458  1525.9518     8.6577     8.6953    13.1430
 3217.0000     0.2846  1889.9248    93.4879     9.9242    -0.0057     2.4711   -29.0950  1527.1088     8.7762     8.8163    11.9579
 3217.5000     0.2843  1890.2256    95.6021     9.9242    -0.0042     2.4694   -29.1115  1528.6147     8.8344     8.8157    10.0915
 3218.0000     0.2711  1890.5696    95.0078     9.9356    -0.0020     2.4863   -28.8562  1530.1207     8.2401     8.5732     9.8821
 3218.5000     0.2614  1890.8513    94.7142     9.9394    -0.0027     2.4936   -28.1380  1531.6268     7.6864     8.2798    10.8125
 3219.0000     0.2584  1891.1329    94.4206     9.9545    -0.0043     2.4906   -26.9342  1533.1328     7.4743     7.8861    11.1921
 3219.5000     0.2575  1891.4851    94.1270     9.9545    -0.0050     2.4808   -26.4188  1534.6388     7.4723     7.7767     9.8753
 3220.0000     0.2572  1891.7292    99.5495     9.9545     0.0055     2.4709   -26.1249  1536.1448     7.4704     7.8850     8.1295
 3220.5000     0.2614  1892.0300   106.4739     9.9697     0.0100     2.4717   -26.5250  1537.6509     7.4679     7.9948     7.7428
 3221.0000     0.2759  1892.3308   114.0814     9.9697     0.0123     2.4814   -26.4940  1539.1569     7.3123     7.9389     8.8321
 3221.5000     0.2852  1892.6826   117.6179     9.9848     0.0138     2.4904   -26.5946  1540.6628     7.0614     7.6672     9.7752
 3222.0000     0.2837  1892.9644   115.2190     9.9924     0.0092     2.4957   -26.8933  1542.1688     6.8666     7.4564    10.9474
 3222.5000     0.2774  1893.2458   110.4141    10.0152     0.0062     2.4971   -26.9096  1543.6748     6.6767     7.0525    11.2540
 3223.0000     0.2690  1893.5338   110.1203    10.0152     0.0046     2.4964   -26.5033  1545.1809     6.4924     6.6706     8.8247
 3223.5000     0.2654  1893.8799   111.3918    10.0455     0.0061     2.4947   -26.1410  1546.6869     6.1406     6.3534     8.0607
 3224.0000     0.2642  1894.1616   119.4600    10.0606     0.0137     2.4917   -25.8024  1548.1929     5.9712     6.0093     7.1131
 3224.5000     0.2798  1894.4434   129.6927    10.0606     0.0214     2.4887   -25.8214  1549.6989     5.8874     5.6403     6.6811
 3225.0000     0.2886  1924.8707   139.6247    10.0455     0.0310     2.4872   -25.7367  1551.2050     6.1781     5.5276     6.1888
 3225.5000     0.2945  1925.1525   143.8423    10.0455     0.0575     2.4842   -25.7007  1552.7109     6.4387     5.7227     6.2740
 3226.0000     0.3202  1925.4341   146.5564    10.0303     0.0809     2.4780   -25.6988  1554.2169     6.6644     6.3955     7.5061
 3226.5000     0.3392  1940.7534   142.0539    10.0404     0.0801     2.4562   -25.7014  1555.7229     7.0420     7.2500    12.2103
 3227.0000     0.3292  1925.9976   133.3393    10.0455     0.0663     2.4148   -25.7167  1556.0845     7.3896     7.9322    14.5211
 3227.5000     0.3057  1926.3499   129.4367    10.0455     0.0074     2.3989   -26.1284  1556.0444     7.5954     8.2122    15.3472
 3228.0000     0.2617  1926.6166   129.7446    10.0531    -0.0062     2.4027   -25.9287  1556.0043     7.6467     8.2691    15.3442
 3228.5000     0.2563  1926.9172   132.2189    10.0606    -0.0039     2.4343   -26.5936  1555.9642     7.6973     8.0978    13.8236
 3229.0000     0.2536  1927.2180   138.4825    10.0606    -0.0009     2.4434   -27.5772  1555.9242     7.6421     7.8672    11.2229
 3229.5000     0.2702  1927.5471   146.6100    10.0606    -0.0010     2.4485   -28.3022  1555.8840     7.6203     7.5529     9.2389
 3230.0000     0.2780  1927.8289   155.0382    10.0606     0.0182     2.4590   -28.6640  1555.8440     7.4288     7.4481     7.8742
 3230.5000     0.2801  1928.1202   165.2709    10.0606     0.0330     2.4839   -28.9406  1555.8040     7.0263     7.1932     7.7640
 3231.0000     0.2813  1943.4586   172.8377    10.0606     0.0360     2.4914   -29.1158  1555.7638     6.3193     6.4710     7.6022
 3231.5000     0.2789  1943.7594   174.3078    10.0606     0.0345     2.4644   -28.8725  1555.7238     5.1766     5.2970     7.2907
 3232.0000     0.2593  1944.0640   172.2115    10.0606     0.0178     2.4393   -28.4851  1555.6837     4.5683     4.5772     6.8005
 3232.5000     0.2545  1944.3690   168.9104    10.0758     0.0232     2.4446   -28.0300  1555.6437     4.1448     4.3294     5.6372
 3233.0000     0.2578  1929.6240   165.6093    10.1212     0.0738     2.5033   -27.6396  1555.6035     3.8130     4.1235     4.3594
 3233.5000     0.2801  1929.9248   158.2358    10.2424     0.1176     2.5477   -27.2411  1555.5635     3.6062     3.8463     3.9276
 3234.0000     0.3051  1930.2256   143.3697    10.4090     0.2016     2.5695   -26.8444  1555.5234     3.5311     3.7146     3.7406
 3234.5000     0.3136  1915.4886   133.1513    10.5909     0.2038     2.4926   -26.4475  1555.4833     3.5058     3.6125     3.7922
 3235.0000     0.3114  1915.7896   128.0457    10.7424     0.1523     2.4376   -26.0471  1555.4432     3.4806     3.5378     4.0395
 3235.5000     0.3057  1901.0641   126.2484    10.8788     0.1395     2.4180   -25.6740  1555.4032     3.5062     3.5375     4.3549
 3236.0000     0.3163  1901.3458   126.2556    10.8636     0.1871     2.4496   -24.9796  1555.3630     3.6515     3.6118     4.2643
 3236.5000     0.3178  1886.5900   128.0690    10.8258     0.1962     2.4752   -24.4772  1555.9712     3.8055     3.7916     4.1181
 3237.0000     0.3165  1901.9797   129.5799    10.8939     0.1757     2.4619   -23.7513  1558.4358     3.8847     3.9254     4.2627
 3237.5000     0.3048  1902.2556   129.8878    10.9242     0.1749     2.4556   -23.4850  1560.9003     3.9104     4.0079     4.5363
 3238.0000     0.2971  1917.6512   128.3912    10.8485     0.2204     2.5135   -23.5001  1563.3649     3.9913     4.0637     4.7283
 3238.5000     0.2892  1917.8947   124.1676    10.7879     0.2500     2.5587   -23.5078  1565.8295     4.0183     4.1204     4.6299
