~VERSION INFORMATION
 VERS.                2.0:   CWLS LOG ASCII STANDARD - VERSION 2.0
 WRAP.                 NO:   ONE LINE PER DEPTH STEP
~WELL INFORMATION
#MNEM.UNIT      DATA TYPE    INFORMATION
#----------   ------------   ------------------------------
 STRT.F            3.5000:   START DEPTH
 STOP.F         5648.0000:   STOP DEPTH
 STEP.F            0.5000:   STEP LENGTH
 NULL.          -999.2500:   NO VALUE
 COMP.       FLUOR DANIEL:   COMPANY
 WELL.   FLUOR "X" #46-10:   WELL
 FLD .          N.P.R. #3:   FIELD
 LOC .      S10 T38N R78W:   LOCATION
 CNTY.            NATRONA:   COUNTY
 STAT.            WYOMING:   STATE
 CTRY. UNITED STATES OF AMERICA:   COUNTRY
 SRVC.      WESTERN ATLAS:   SERVICE COMPANY
 DATE.        25-MAR-1996:   LOGDATE
 API .     49025227700000:   API NUMBER
~CURVE INFORMATION
#MNEM.UNIT       API CODE    CURVE DESCRIPTION
#----------   ------------   ------------------------------
 DEPT.F                  :   
 CALD.IN     45 280 60 00:   CALIPER FROM DENSITY LOG
 ZDEN.G/C3   45 350 01 00:   BULK DENSITY
 ZCOR.G/C3   45 356 01 00:   DENSITY CORRECTION
 TEND.LBS    45 635 01 00:   TENSION FORM DENSITY LOG
 GRD .GAPI   45 310 01 00:   GAMMA RAY FROM DENSITY LOG
 CNC .DEC    42 890 01 00:   NEUTRON POROSITY LIMESTONE
 SPR .MV     07 010 01 00:   SPONTANEOUS POTENTIAL
 RD  .OHMM   07 220 10 00:   RESISTIVITY DEEP
 RS  .OHMM   07 220 09 00:   RESISTIVITY SHALLOW
~PARAMETER INFORMATION
#MNEM.UNIT          VALUE    DESCRIPTION
#----------   ------------   ------------------------------
 EKB .F         5216.0000:   Kelly bushing
 EGL .F         5206.0000:   Ground level
 EDF .F         5215.0000:   Drilling floor
 TD  .F         5650.0000:   Total depth
 CLNT.            A2DTECH:   Client Code
 SL  . 1493' FSL & 2330' FWL:   Surface Location
 PD  .                 GL:   Permanent Datum
 EPD .F              5206:   Elevation Permanent Datum
 LMF .                 KB:   Log Measured From
 DMF .                 KB:   Drilling Measured From
 DAPD.F                10:   Feet Above Permanent Datum
 DATE.        25-MAR-1996:   Date Logged [DD-MMM-YYYY]
 DD  .F              5650:   Depth driller
 DL  .F              5648:   Depth logger
 BLI .F              5636:   Bottom log interval
 TLI .F                 0:   Top log interval
 CS1 .IN            9.625:   Casing size
 CBD1.      9.625" @ 498':   Casing driller 1
 CBL1.F               496:   Casing logger 1
 BS1 .IN             8.75:   Bit size
 BSD1.F              5650:   Depth drilled with bit1
 DFT .           CHEM GEL:   Type fluid in hole
 DFD .                9.6:   Density
 DFV .                 54:   Viscosity
 DFPH.                9.5:   pH
 DFL .                8.4:   Fluid loss
 MSS .           FLOWLINE:   Source of sample
 RMS .OHMM          0.635:   Rm
 MST .F                68:   Rm Meas. temp.
 RMF .OHMM          0.483:   Rmf
 MFST.F                68:   Rmf Meas. temp.
 MFSS.               MEAS:   Source Rmf.
 RMC .OHMM          0.789:   Rmc
 MCST.F                68:   Rmc Meas. temp.
 MCSS.               MEAS:   Source Rmc.
 RMB .OHMM           0.26:   Rm. at BHT
 BHT .F               166:   BHT.
 TCS .HRS               6:   Time Circ. stopped
 MRT .F               166:   Maximum recorded temp.
 LUN .            HL-6530:   Logging unit number
 LUL .             CASPER:   Logging unit location
 ENGI.        VERN RAUTIO:   Recorded By
 WITN. LORRAINE LAFRENIERE:   Witnessed by
 ORIG.           5" PRINT:   Origin of data
 UWI .     49025227700000:   Unique Well ID
 DICO. A2D TECHNOLOGIES, INC.:   Digitizing Company
~OTHER INFORMATION
~A  DEPTH     CALD       ZDEN       ZCOR       TEND        GRD        CNC        SPR         RD         RS
# ...
 3544.0000     9.5747     2.5035     0.0391   -53.3218   159.6282     0.3059   -80.3077     6.7251     5.6319
 3544.5000     9.5751     2.5020     0.0271   -60.9592   152.2694     0.2948   -80.3084     6.9139     5.7104
 3545.0000     9.5755     2.4945     0.0136   -61.1003   144.9032     0.2918   -80.3093     7.0135     5.8708
 3545.5000     9.5772     2.4772     0.0091   -61.2444   142.8022     0.2952   -80.3100     7.1079     5.9138
 3546.0000     9.5916     2.4750     0.0621   -61.4178   144.6138     0.3018   -80.3107     7.1079     5.9527
 3546.5000     9.5920     2.4810     0.0829   -61.5589   144.9202     0.3109   -80.3116     7.0102     5.9527
 3547.0000     9.5925     2.4810     0.0830   -61.7000   141.3183     0.3166   -80.6140     7.0102     5.9527
 3547.5000     9.5929     2.4788     0.0800   -54.3449   136.5120     0.3152   -80.9163     6.9139     5.9116
 3548.0000     9.5934     2.4818     0.0725   -62.0175   135.0125     0.3108   -81.0679     6.9139     5.8708
 3548.5000     9.5938     2.4864     0.0650   -54.6271   137.7263     0.3059   -80.9179     6.8189     5.7501
 3549.0000     9.6094     2.4879     0.0635   -54.8035   138.9365     0.3026   -80.9186     6.7251     5.6319
 3549.5000     9.5796     2.4879     0.0620   -54.9475   140.4459     0.2958   -80.6176     6.4964     5.5544
 3550.0000     9.5801     2.4721     0.0621   -55.1209   142.8576     0.2904   -80.6185     6.2755     5.4027
 3550.5000     9.5806     2.4526     0.0922   -55.2621   148.1741     0.2916   -80.6192     5.7356     4.9035
 3551.0000     9.5658     2.4225     0.0952   -55.4032   156.6983     0.3126   -80.6199     4.8883     4.3288
 3551.5000     9.5663     2.4029     0.0923   -55.5472   160.3102     0.3313   -80.6207     3.7859     3.6194
 3552.0000     9.5668     2.4037     0.0833   -62.5937   162.1175     0.3409   -80.6215     3.2964     2.8769
 3552.5000     9.5673     2.4286     0.0713   -47.6012   160.9173     0.3448   -80.6222     3.2735     2.7790
 3553.0000     9.5827     2.4565     0.0668   -32.6087   152.4998     0.3279   -80.6229     3.6818     2.8373
 3553.5000     9.5681     2.4961     0.0653   -10.1199   143.4138     0.3084   -80.6238     4.2870     3.2815
 3554.0000     9.5838     2.5446     0.0623    19.9728   130.8513     0.2792   -80.6245     5.7324     4.4504
 3554.5000     9.5842     2.5476     0.0518    49.8501   119.4162     0.2584   -80.7760     6.4032     5.0064
 3555.0000     9.5846     2.5288     0.0338    -2.6237   114.0156     0.2542   -81.0786     6.4027     5.0412
 3555.5000     9.5851     2.4890     0.0263   -32.6087   113.1161     0.2620   -81.2301     6.1418     4.7039
 3556.0000     9.5855     2.3921     0.1031   -47.6012   115.2242     0.2807   -81.2308     5.2017     4.1526
 3556.5000     9.5860     2.3858     0.1332   -55.0975   124.0063     0.2768   -81.2317     4.7211     3.6155
 3557.0000     9.5865     2.4348     0.1377   -47.6012   128.4636     0.2843   -81.0814     4.6559     3.3736
 3557.5000     9.5869     2.5056     0.0956    -1.4977   126.9627     0.2951   -81.0823     4.9205     3.6155
 3558.0000     9.5873     2.5425     0.0304    34.8576   122.1535     0.2825   -80.9321     5.6505     4.2989
 3558.5000     9.5879     2.5356     0.0129    19.8651   119.1226     0.2737   -80.9330     6.7735     4.8696
 3559.0000     9.5883     2.5238     0.0175   -10.1199   118.2501     0.2698   -81.2354     6.8104     4.9035
 3559.5000     9.5887     2.5117     0.0190   -40.1049   118.5537     0.2746   -81.6886     6.2240     4.6714
 3560.0000     9.6043     2.4884     0.0251   -55.0975   118.5565     0.2818   -82.4436     5.5713     4.0955
 3560.5000     9.6198     2.4591     0.0311   -55.0975   119.1609     0.2890   -82.1426     4.9870     3.6155
 3561.0000     9.6656     2.4413     0.0311   -40.1049   121.2696     0.2999   -81.8415     4.8505     3.5658
 3561.5000     9.6975     2.4109     0.0131   -40.1049   126.0845     0.3020   -81.2390     4.8839     3.4925
 3562.0000     9.7421     2.3823    -0.0064   -32.6087   129.6963     0.3035   -81.2399     4.9517     3.4684
 3562.5000     9.7878     2.2965     0.0041   -40.1049   129.6998     0.3041   -81.2406     4.5567     3.2815
 3563.0000     9.8336     2.2792     0.0328   -40.1049   131.2064     0.3149   -81.0905     3.9951     2.7598
 3563.5000     9.8944     2.2977     0.0531   -40.1049   141.1340     0.3353   -80.9404     3.7277     2.5752
 3564.0000     9.9553     2.3259     0.1066   -47.6012   155.2727     0.3534   -80.9413     3.8855     2.5574
 3564.5000     9.9709     2.3501     0.1367   -47.6012   160.6886     0.3747   -80.9420     4.2216     2.9373
 3565.0000     9.9865     2.3794     0.1397   -47.6012   146.0058     0.3759   -81.2443     4.7155     3.1918
 3565.5000    10.0171     2.3953     0.1398   -47.6012   126.2640     0.3711   -81.5469     5.0881     3.4684
 3566.0000    10.0326     2.3745     0.1032   -55.0975   114.9839     0.3666   -81.5476     4.9832     3.5168
 3566.5000    10.0505     2.2620     0.0977   -55.0975   112.5807     0.3593   -81.2466     4.8390     3.3736
 3567.0000    10.0789     2.1687     0.1323   -55.0975   112.5836     0.3557   -81.2475     4.5855     3.1698
 3567.5000    10.0491     2.0964     0.1625   -55.0975   115.6540     0.3726   -80.9464     4.3383     2.9722
 3568.0000     9.9136     2.0910     0.1685   -55.0975   115.8975     0.4014   -80.6456     3.9085     2.6292
 3568.5000     9.8385     2.1301     0.1730   -47.6012   114.0965     0.4351   -80.6464     3.8830     2.5574
 3569.0000     9.7936     2.2335     0.1701   -47.6012   114.7008     0.4414   -80.7980     3.8828     2.5752
 3569.5000     9.8093     2.3330     0.1641   -47.6012   117.8814     0.4363   -80.9495     3.9095     2.5752
 3570.0000     9.7946     2.3932     0.1265   -40.1049   125.5343     0.4195   -80.9502     3.8822     2.5574
 3570.5000     9.7799     2.4158     0.0874   -32.6087   130.0484     0.4005   -80.9511     3.7760     2.4513
 3571.0000     9.7500     2.4273     0.0844   -32.6087   130.0512     0.3966   -80.9517     3.6727     2.3535
 3571.5000     9.6449     2.4460     0.0799   -17.6162   130.3555     0.3924   -80.9525     3.5969     2.2892
 3572.0000     9.5094     2.4521     0.1131   -25.1124   130.9598     0.3876   -80.7904     3.7492     2.3224
 3572.5000     9.4342     2.4491     0.1477   -47.6012   129.4588     0.3773   -80.6523     3.9898     2.5222
 3573.0000     9.4195     2.4333     0.1538   -62.5937   126.7549     0.3608   -80.6531     4.3650     2.6659
 3573.5000     9.4201     2.4067     0.1553   -70.0900   126.1562     0.3460   -80.6358     4.6452     2.7987
 3574.0000     9.4357     2.3294     0.1474   -69.4884   127.9643     0.3415   -80.3530     4.6492     2.8177
 3574.5000     9.4209     2.3211     0.1388   -55.0975   132.4784     0.3517   -80.3537     4.2745     2.7408
 3575.0000     9.4366     2.3498     0.1328   -32.6087   138.4962     0.3755   -80.3544     3.8262     2.4875
 3575.5000     9.4370     2.3746     0.1042    -2.6237   150.2291     0.3905   -80.3552     3.4014     2.0921
 3576.0000     9.4550     2.3674     0.0606    19.8651   164.3672     0.3995   -80.3560     2.9767     1.7595
 3576.5000     9.5739     2.3182     0.0561   -11.0897   190.8363     0.4110   -80.2059     2.7443     1.6647
 3577.0000     9.6952     2.2753     0.1269   -32.6087   201.8700     0.4200   -80.0558     2.8211     1.7353
 3577.5000     9.7410     2.2656     0.1801   -32.6087   201.6692     0.4233   -80.0567     2.9849     1.8469
 3578.0000     9.7565     2.2821     0.1631   -32.6087   162.8753     0.4257   -80.0574     3.2394     2.0491
 3578.5000     9.7587     2.3530     0.1285   -32.6087   134.3074     0.4248   -80.3597     3.7458     2.2892
 3579.0000     9.7725     2.3974     0.1255   -32.6087   125.2876     0.4190   -80.3606     3.8602     2.4196
 3579.5000     9.7578     2.4140     0.1240   -25.1124   123.7860     0.4109   -80.5121     3.8772     2.4196
 3580.0000     9.7583     2.4193     0.1134   -25.1124   127.6993     0.3992   -80.6637     3.8501     2.4533
