~VERSION INFORMATION
 VERS.                2.0:   CWLS LOG ASCII STANDARD - VERSION 2.0
 WRAP.                 NO:   ONE LINE PER DEPTH STEP
~WELL INFORMATION
#MNEM.UNIT      DATA TYPE    INFORMATION
#----------   ------------   ------------------------------
 STRT.F           16.0000:   START DEPTH
 STOP.F         4208.0000:   STOP DEPTH
 STEP.F            0.5000:   STEP LENGTH
 NULL.          -999.2500:   NO VALUE
 COMP.    FENIX & SCISSON:   COMPANY
 WELL. FENIX NPR 3 "MX" #41-10:   WELL
 FLD .                NPR:   FIELD
 LOC .      S10 T38N R78W:   LOCATION
 CNTY.            NATRONA:   COUNTY
 STAT.            WYOMING:   STATE
 CTRY. UNITED STATES OF AMERICA:   COUNTRY
 SRVC.       SCHLUMBERGER:   SERVICE COMPANY
 DATE.        04-NOV-1978:   LOGDATE
 API .     49025107260000:   API NUMBER
~CURVE INFORMATION
#MNEM.UNIT       API CODE    CURVE DESCRIPTION
#----------   ------------   ------------------------------
 DEPT.F                  :   
 TENR.LBS    07 635 01 00:   TENSION FROM RESISTIVITY
 SPR .MV     07 010 01 00:   SPONTANEOUS POTENTIAL
 SFL .OHMM   07 220 01 00:   SHALLOW FOCUSED LOG RESISTIVITY
 ILD .OHMM   07 120 46 00:   DEEP INDUCTION RESISTIVITY
 ILM .OHMM   07 120 44 00:   INDUCTION LOG MEDIUM RESISTIVITY
 CALD.IN     45 280 60 00:   CALIPER FROM DENSITY LOG
 GRD .GAPI   45 310 01 00:   GAMMA RAY FROM DENSITY LOG
 TEND.LBS    45 635 01 00:   TENSION FROM DENSITY LOG
 RHOB.G/C3   45 350 01 00:   BULK DENSITY
 CORR.G/C3   45 356 01 00:   DENSITY CORRECTION
 NPHI.DEC    42 890 03 00:   NEUTRON POROSITY SANDSTONE
~PARAMETER INFORMATION
#MNEM.UNIT          VALUE    DESCRIPTION
#----------   ------------   ------------------------------
 EKB .F         5237.0000:   Kelly bushing
 EGL .F         5227.0000:   Ground level
 EDF .F            0.0000:   Drilling floor
 TD  .F         4200.0000:   Total depth
 DATE.        04-NOV-1978:   Date logged
 CLNT.            A2DTECH:   Client Code
 SL  . 70' FNL & 2370' FWL:   Surface Location
 PD  .                 GL:   Permanent Datum
 EPD .F              5227:   Elevation Permanent Datum
 LMF .                 KB:   Log Measured From
 DMF .                 KB:   Drilling Measured From
 DAPD.F                10:   Feet Above Permanent Datum
 DD  .F              4200:   Depth driller
 DL  .F              4191:   Depth logger
 BLI .F              4185:   Bottom log interval
 TLI .F               506:   Top log interval
 CS1 .IN            9.625:   Casing size
 CBD1.      9.625" @ 500':   Casing driller 1
 CBL1.F               506:   Casing logger 1
 BS1 .IN             8.75:   Bit size
 BSD1.F              4200:   Depth drilled with bit1
 DFT .                FGM:   Type fluid in hole
 DFD .                9.3:   Density
 DFV .                 42:   Viscosity
 DFPH.               11.5:   pH
 DFL .                6.4:   Fluid loss
 MSS .               TANK:   Source of sample
 RMS .OHMM           1.08:   Rm
 MST .F                67:   Rm Meas. temp.
 RMF .OHMM           0.83:   Rmf
 MFST.F                67:   Rmf Meas. temp.
 MFSS.               MEAS:   Source Rmf.
 RMB .OHMM           0.58:   Rm. at BHT
 BHT .F               125:   BHT.
 TCS .HRS            0430:   Time Circ. stopped
 TLAB.HRS            0830:   Time logger at bottom
 MRT .F               125:   Maximum recorded temp.
 LUN .               8039:   Logging unit number
 LUL .               CSPR:   Logging unit location
 ENGI.          STADULLIS:   Recorded By
 WITN.              AMEND:   Witnessed by
 ORIG.           5" PRINT:   Origin of data
 UWI .     49025107260000:   Unique Well ID
 DICO. A2D TECHNOLOGIES, INC.:   Digitizing Company
~OTHER INFORMATION
~A   DEPT     TENR        SPR        SFL        ILD        ILM       CALD         GRD      TEND       RHOB       CORR       NPHI   
# ...
 3188.0000  1265.0601   -20.0650     3.4960     3.1020     3.2770    10.4130   141.3000  1579.4650     2.4670     0.0350     0.2880
 3188.5000  1265.0601   -20.1840     3.5150     3.0390     3.2090    10.4410   140.7120  1579.6470     2.4800     0.0410     0.2930
 3189.0000  1265.0601   -20.3080     3.5340     2.9750     3.1410    10.4690   139.8630  1579.8290     2.4800     0.0410     0.3000
 3189.5000  1265.0601   -20.4290     3.5480     2.8780     3.0600    10.5020   140.3520  1580.0110     2.4700     0.0410     0.3000
 3190.0000  1265.0601   -20.5500     3.3640     2.7930     2.9900    10.4930   141.7680  1580.1930     2.4610     0.0380     0.3040
 3190.5000  1265.0601   -20.6770     3.1380     2.7080     2.9030    10.4300   143.0590  1580.3750     2.4370     0.0560     0.3010
 3191.0000  1265.0601   -20.7400     2.9120     2.6230     2.8160    10.3740   144.3210  1580.5570     2.4000     0.0800     0.3150
 3191.5000  1265.0601   -20.6940     2.6870     2.5390     2.7300    10.3150   145.5710  1580.7390     2.3500     0.0750     0.3590
 3192.0000  1265.0601   -20.6340     2.3620     2.4540     2.6430    10.3200   146.7830  1580.9210     2.3100     0.0530     0.4080
 3192.5000  1265.0601   -20.5760     2.4730     2.3690     2.5570    10.3290   148.1140  1581.1030     2.3250     0.0370     0.3970
 3193.0000  1265.0601   -20.5160     2.7710     2.2840     2.4700    10.3370   148.6040  1581.2850     2.3600     0.0500     0.3450
 3193.5000  1265.0601   -20.4570     3.0700     2.1990     2.3830    10.3490   148.4840  1581.4670     2.3940     0.0610     0.3260
 3194.0000  1265.0601   -20.3990     3.1760     2.1150     2.3190    10.4030   150.1010  1581.6490     2.3880     0.0780     0.3380
 3194.5000  1265.0601   -20.3360     3.0410     2.0370     2.2730    10.8790   155.7740  1581.8311     2.3810     0.0570     0.3570
 3195.0000  1265.0601   -20.2830     2.8860     2.0760     2.2210    11.4290   161.2130  1582.0129     2.3820     0.0220     0.3690
 3195.5000  1265.0601   -20.2240     2.7310     2.1320     2.1680    12.1550   167.2810  1582.1949     2.4010     0.0310     0.3450
 3196.0000  1265.0601   -20.1420     2.5760     2.1880     2.1140    12.0720   171.9230  1582.3770     2.4210     0.0500     0.3240
 3196.5000  1265.0601   -20.3360     2.4510     2.2430     2.1290    11.7230   169.0100  1582.5590     2.4090     0.1780     0.3420
 3197.0000  1265.0601   -20.5550     2.8370     2.2990     2.2070    11.4250   170.3040  1582.7410     2.3550     0.2460     0.3920
 3197.5000  1265.0601   -20.5350     3.3150     2.9610     3.3440    10.9650   152.5480  1582.9230     2.2520     0.1840     0.3890
 3198.0000  1265.0601   -20.5340     3.7510     3.9610     5.0730    10.3870   118.8120  1583.1050     2.2910     0.0860     0.3520
 3198.5000  1265.0601   -20.5370    14.7260     4.9610     6.8010     9.8180    78.1960  1583.2870     2.4000     0.0230     0.3300
 3199.0000  1265.0601   -20.5410    24.8360     5.9610     8.5300     9.5660    82.6180  1583.4690     2.4920     0.0310     0.2520
 3199.5000  1265.0601   -20.5340    34.9460     6.9610     9.6330     9.6170    79.7360  1583.6510     2.5330     0.0450     0.0770
 3200.0000  1265.0601   -20.5120    43.0890     8.1560     9.3700     9.6410    81.0770  1583.8330     2.5140     0.0590     0.0900
 3200.5000  1265.0601   -20.2250    41.5240     7.7140     8.3020     9.6700    91.6270  1584.0160     2.5320     0.1000     0.0640
 3201.0000  1265.0601   -19.9750    26.8990     7.1660     7.7080     9.7070   104.7550  1584.1980     2.5750     0.1210     0.0390
 3201.5000  1265.0601   -19.7130    12.7660     6.6180     7.1130     9.8660   116.2660  1584.3800     2.6150     0.2500     0.0210
 3202.0000  1265.0601   -19.4720     7.7650     6.0710     6.5190    10.0590   128.0410  1584.5620     2.5580     0.2420     0.0750
 3202.5000  1265.0601   -19.4230     5.2320     5.5230     5.9240    10.2510   136.4510  1584.7440     2.3210     0.2050     0.2330
 3203.0000  1265.0601   -19.3470     5.1370     4.9750     5.3300    10.4410   139.8670  1584.9260     2.2360     0.1250     0.3010
 3203.5000  1265.0601   -19.3500     5.4420     4.3490     4.7350    10.6050   140.7230  1585.1080     2.2510     0.0150     0.3350
 3204.0000  1265.0601   -19.3750     5.7440     4.3490     4.1910    10.4810   140.2740  1585.2900     2.3480     0.0230     0.3330
 3204.5000  1265.0601   -19.3990     6.0670     4.3490     4.3090    10.2210   134.8010  1585.4720     2.4440     0.0740     0.3080
 3205.0000  1265.0601   -19.4240     6.0670     4.3490     4.4770     9.9970   130.0070  1585.6541     2.5870     0.1230     0.2980
 3205.5000  1265.0601   -19.4490     6.0110     4.3490     4.6460    10.0010   126.3900  1585.8361     2.5780     0.1800     0.2880
 3206.0000  1265.0601   -19.4730     5.9560     4.6120     4.8150    10.0010   123.1170  1586.0179     2.5440     0.1380     0.2820
 3206.5000  1265.0601   -19.4980     6.1780     4.8590     4.9830    10.0130   119.8430  1586.2000     2.5070     0.0920     0.2740
 3207.0000  1265.0601   -19.5230     6.6720     4.9740     5.1520    10.0200   116.3070  1586.3820     2.4770     0.0440     0.2600
 3207.5000  1265.0601   -19.5430     7.1650     5.0810     5.2320    10.0280   113.8590  1586.5640     2.4880     0.0330     0.2450
 3208.0000  1265.0601   -19.5440     7.6580     5.2320     5.3770    10.0360   112.3450  1586.7460     2.4970     0.0310     0.2300
 3208.5000  1265.0601   -19.5440     7.8600     5.2290     5.5310    10.0440   114.3980  1586.9280     2.5070     0.0330     0.2160
 3209.0000  1265.0601   -19.5430     7.5680     5.2110     5.4730    10.0530   117.0930  1587.1100     2.5170     0.0390     0.2140
 3209.5000  1265.0601   -19.5460     7.2120     5.1930     5.4030    10.0600   119.5480  1587.2920     2.5180     0.0510     0.2230
 3210.0000  1265.0601   -19.5110     6.6820     5.1760     5.3330    10.0680   122.1160  1587.4740     2.5280     0.0610     0.2270
 3210.5000  1265.0601   -19.4290     5.9800     5.1580     5.2320    10.0690   124.6590  1587.6560     2.5360     0.0760     0.2350
 3211.0000  1265.0601   -19.3580     5.2770     5.1400     5.3300    10.0690   125.5210  1587.8380     2.5310     0.0970     0.2570
 3211.5000  1265.0601   -19.1580     5.1370     5.1370     5.3470    10.0690   123.8350  1588.0200     2.5180     0.0920     0.2710
 3212.0000  1265.0601   -19.2070     5.7670     5.1010     5.3690    10.0690   122.0170  1588.2020     2.5050     0.0660     0.2740
 3212.5000  1265.0601   -19.4200     6.6020     5.0420     5.3900    10.0690   120.2480  1588.3840     2.4980     0.0410     0.2580
 3213.0000  1265.0601   -19.6520     7.1660     5.0880     5.4120    10.0690   118.7200  1588.5660     2.5070     0.0210     0.2430
 3213.5000  1265.0601   -19.7400     7.1660     5.2270     5.4300    10.0690   119.3580  1588.7480     2.5150     0.0250     0.2380
 3214.0000  1265.0601   -19.7090     6.9740     5.3660     5.6040    10.0690   119.9280  1588.9301     2.5220     0.0320     0.2370
 3214.5000  1265.0601   -19.6890     6.8100     5.5060     5.7530    10.0690   120.6010  1589.1121     2.5190     0.0400     0.2360
 3215.0000  1265.0601   -19.6700     6.6470     5.6340     5.9030    10.0690   120.7310  1589.2939     2.5160     0.0480     0.2370
 3215.5000  1265.0601   -19.6490     6.4130     5.7330     6.0520    10.0690   119.4150  1589.4760     2.5170     0.0540     0.2370
 3216.0000  1265.0601   -19.6280     6.6130     5.8250     6.2020    10.0690   118.1550  1589.6580     2.5260     0.0650     0.2350
 3216.5000  1265.0601   -19.6080     6.9880     5.9160     6.3220    10.0690   117.0110  1589.8400     2.5410     0.0820     0.2290
 3217.0000  1265.0601   -19.5860     7.3630     6.0080     6.3940    10.0690   117.3390  1590.0220     2.5470     0.0770     0.2230
 3217.5000  1265.0601   -19.5670     7.7380     6.1000     6.4650    10.0690   118.3320  1590.2040     2.5430     0.0650     0.2220
 3218.0000  1265.0601   -19.5450     8.0060     6.1910     6.5370    10.0690   119.3220  1590.3860     2.5390     0.0550     0.2210
