~VERSION INFORMATION
 VERS.                2.0:   CWLS LOG ASCII STANDARD - VERSION 2.0
 WRAP.                 NO:   ONE LINE PER DEPTH STEP
~WELL INFORMATION
#MNEM.UNIT      DATA TYPE    INFORMATION
#----------   ------------   ------------------------------
 STRT.F           48.0000:   START DEPTH
 STOP.F         3235.5000:   STOP DEPTH
 STEP.F            0.5000:   STEP LENGTH
 NULL.          -999.2500:   NO VALUE
 COMP.    TESORO PEROLEUM:   COMPANY
 WELL. TESORO P46 T 28 N.P.R. #3-28:   WELL
 FLD .        TEAPOT DOME:   FIELD
 LOC .      S28 T39N R78W:   LOCATION
 CNTY.            NATRONA:   COUNTY
 STAT.            WYOMING:   STATE
 CTRY. UNITED STATES OF AMERICA:   COUNTRY
 SRVC.      DRESSER ATLAS:   SERVICE COMPANY
 DATE.        17-SEP-1975:   LOGDATE
 API .     49025102530000:   API NUMBER
~CURVE INFORMATION
#MNEM.UNIT       API CODE    CURVE DESCRIPTION
#----------   ------------   ------------------------------
 DEPT.F                  :   
 CALD.IN     45 280 60 00:   CALIPER FROM DENSITY LOG
 RHOB.G/C3   45 350 01 00:   BULK DENSITY
 CORR.G/C3   45 356 01 00:   DENSITY CORRECTION
 TEND.LBS    45 635 01 00:   TENSION FORM DENSITY LOG
 NPHI.DEC    42 890 03 00:   NEUTRON POROSITY SANDSTONE
 SPR .MV     07 010 01 00:   SPONTANEOUS POTENTIAL
 ILD .OHMM   07 120 46 00:   DEEP INDUCTION RESISTIVITY
 ILM .OHMM   07 120 44 00:   INDUCTION LOG MEDIUM RESISTIVITY
 SFL .OHMM   07 220 01 00:   SHALLOW FOCUSED LOG RESISTIVITY
 GRD .GAPI   45 310 01 00:   GAMMA RAY FROM DENSITY LOG
~PARAMETER INFORMATION
#MNEM.UNIT          VALUE    DESCRIPTION
#----------   ------------   ------------------------------
 EKB .F         5088.0000:   Kelly bushing
 EGL .F         5075.0000:   Ground level
 TD  .F         3218.0000:   Total depth
 CLNT.            A2DTECH:   Client Code
 SL  . 2310' FWL & 1650' FSL:   Surface Location
 PD  .                 GL:   Permanent Datum
 EPD .F              5075:   Elevation Permanent Datum
 LMF .                 KB:   Log Measured From
 DMF .                 KB:   Drilling Measured From
 DAPD.F                13:   Feet Above Permanent Datum
 DATE.        17-SEP-1975:   Date Logged [DD-MMM-YYYY]
 DD  .F              3218:   Depth driller
 DL  .F              3217:   Depth logger
 BLI .F              3215:   Bottom log interval
 TLI .F               395:   Top log interval
 CS1 .IN            8.625:   Casing size
 CBD1.      8.625" @ 393':   Casing driller 1
 CBL1.F               395:   Casing logger 1
 BS1 .IN            7.875:   Bit size
 BSD1.F              3218:   Depth drilled with bit1
 DFT .           CHEM GEL:   Type fluid in hole
 DFD .                9.5:   Density
 DFV .                 60:   Viscosity
 DFPH.                9.5:   pH
 DFL .                 11:   Fluid loss
 MSS .           FLOWLINE:   Source of sample
 RMS .OHMM           0.55:   Rm
 MST .F                60:   Rm Meas. temp.
 RMF .OHMM           0.48:   Rmf
 MFST.F                62:   Rmf Meas. temp.
 MFSS.               MEAS:   Source Rmf.
 RMC .OHMM            1.6:   Rmc
 MCST.F                62:   Rmc Meas. temp.
 MCSS.               MEAS:   Source Rmc.
 RMB .OHMM            0.3:   Rm. at BHT
 BHT .F               112:   BHT.
 TCS .HRS               5:   Time Circ. stopped
 MRT .F               112:   Maximum recorded temp.
 LUN .               6008:   Logging unit number
 LUL .              GLTTE:   Logging unit location
 ENGI.            MILHOAN:   Recorded By
 WITN.               WOLF:   Witnessed by
 ORIG.           5" PRINT:   Origin of data
 UWI .     49025102530000:   Unique Well ID
 DICO. A2DTECHNOLOGIES,INC.:   Digitizing Company
~OTHER INFORMATION
~A   DEPT     CALD       RHOB       CORR       TEND       NPHI         SPR         ILD        ILM        SFL      GRD   
# ...
 2862.0000     7.9622     2.3666     0.0055  1561.3292     0.2051   -35.2733    24.6531    20.9991    18.4942    42.4918
 2862.5000     7.9643     2.3629     0.0072  1574.8405     0.2020   -35.2675    24.6647    20.7405    17.6244    43.9612
 2863.0000     7.9661     2.3652     0.0104  1572.8331     0.1992   -35.2617    24.6767    20.7527    17.2661    45.4305
 2863.5000     7.9828     2.3706     0.0136  1616.5454     0.1977   -35.2559    24.6909    21.1987    17.1541    45.9404
 2864.0000     7.9995     2.3714     0.0168  1720.6797     0.2025   -35.1012    24.8715    21.9566    17.1599    45.9706
 2864.5000     8.0312     2.3669     0.0170  1613.3346     0.2007   -34.9464    24.7114    23.5433    17.5377    44.5613
 2865.0000     8.0335     2.3595     0.0157  1536.2000     0.1986   -34.9394    24.5523    23.8804    17.9021    45.5585
 2865.5000     8.0501     2.3535     0.0114  1519.4860     0.1964   -34.6359    24.7376    22.7630    17.7844    43.6696
 2866.0000     8.0364     2.3581     0.0085  1517.8250     0.1925   -34.6301    24.9215    22.4602    17.3040    41.3009
 2866.5000     7.9486     2.3694     0.0088  1546.4900     0.1900   -34.6243    25.2812    23.1273    16.6048    43.4899
 2867.0000     7.9054     2.3718     0.0059  1605.3071     0.1897   -34.6185    25.6462    24.1255    16.6105    44.4795
 2867.5000     7.9221     2.3628     0.0046  1588.1948     0.1893   -34.9103    26.0286    24.9591    16.7316    43.3026
 2868.0000     7.9238     2.3508     0.0063  1495.9547     0.1854   -34.9045    26.5761    25.3194    17.2077    41.7488
 2868.5000     7.9256     2.3524     0.0080  1433.9266     0.1851   -34.8987    26.9624    25.3314    18.1948    40.0196
 2869.0000     7.8973     2.3434     0.0093  1522.9553     0.1863   -34.8929    27.1627    25.1654    18.9739    40.0497
 2869.5000     7.8845     2.3412     0.0099  1600.6731     0.1847   -34.8869    27.1756    24.8307    18.6783    40.7995
 2870.0000     7.8708     2.3451     0.0131  1670.4005     0.1841   -34.5822    27.1884    25.5438    17.9641    41.0695
 2870.5000     7.8730     2.3459     0.0149  1714.1127     0.1856   -34.5764    27.0134    25.9126    18.6038    41.0996
 2871.0000     7.8597     2.3441     0.0166  1743.1199     0.1846   -34.2729    26.6542    25.0391    19.2662    41.6140
 2871.5000     7.8614     2.3406     0.0167  1710.9010     0.1846   -34.2671    26.2997    24.0333    17.8581    42.6396
 2872.0000     7.8636     2.3371     0.0169  1588.4502     0.1855   -34.1125    25.7658    24.0475    17.1365    44.0760
 2872.5000     7.8653     2.3341     0.0186  1390.4697     0.1891   -33.9579    25.0780    24.0589    17.2615    44.5859
 2873.0000     7.8671     2.3507     0.0203  1410.3970     0.1908   -33.9521    24.7445    24.0703    17.6301    44.6160
 2873.5000     7.8838     2.3629     0.0205  1598.3378     0.1899   -33.9462    24.7591    24.0817    18.0084    43.2068
 2874.0000     7.8855     2.3682     0.0207  1702.4729     0.1952   -33.9404    24.7708    24.0931    18.3913    39.8786
 2874.5000     7.9172     2.3667     0.0149  1761.2900     0.1943   -34.2322    24.7825    24.1045    17.4065    37.9782
 2875.0000     7.9190     2.3653     0.0121  1759.6851     0.1946   -34.4216    24.6201    23.9488    17.6554    37.5400
 2875.5000     7.9211     2.3661     0.0138  1758.0792     0.1958   -34.5182    24.2955    23.6306    18.1578    39.4966
 2876.0000     7.9229     2.3775     0.0185  1756.4742     0.1987   -34.5110    23.8069    23.1492    18.2903    41.4458
 2876.5000     7.9246     2.3941     0.0232  1754.8335     0.2032   -34.5052    23.3280    22.5113    18.0431    43.3949
 2877.0000     7.9263     2.4062     0.0249  1722.6505     0.2056   -34.4994    22.8442    21.6281    17.3155    43.9048
 2877.5000     7.9281     2.4085     0.0191  1690.8333     0.2086   -34.4935    22.0933    21.0468    16.8478    44.6545
 2878.0000     7.9298     2.4018     0.0132  1674.1224     0.2098   -34.7868    21.9485    20.6210    16.8535    46.1377
 2878.5000     7.9330     2.4079     0.0102  1642.3053     0.2103   -34.7795    21.6592    20.4883    17.1041    47.9161
 2879.0000     7.9487     2.4110     0.0076  1595.3829     0.2072   -34.7737    21.6694    20.5004    17.2206    50.0298
 2879.5000     7.9652     2.4111     0.0078  1563.5658     0.2015   -34.7679    21.6797    20.5101    17.2264    51.0194
 2880.0000     7.9821     2.4096     0.0065  1561.9338     0.2000   -34.4643    21.6899    20.6625    17.2322    50.8096
 2880.5000     7.9988     2.4059     0.0051  1590.1649     0.1984   -34.4572    22.0031    20.8160    17.2381    50.8397
 2881.0000     8.0234     2.4045     0.0054  1618.7714     0.1969   -34.4514    22.7896    21.1276    17.4845    50.8698
 2881.5000     8.0324     2.4131     0.0056  1617.3716     0.1923   -34.1480    24.6346    22.4141    17.8579    50.6600
 2882.0000     8.0195     2.4227     0.0042  1615.5597     0.1872   -34.1422    27.4387    25.1379    20.5198    51.8971
 2882.5000     8.0212     2.4356     0.0027  1583.7433     0.1788   -33.8387    31.6129    29.2921    27.8451    53.3665
 2883.0000     8.0229     2.4687     0.0001  1551.9260     0.1699   -33.6841    36.3299    34.6091    35.8295    54.5960
 2883.5000     8.0246     2.4921    -0.0027  1519.3889     0.1606   -33.5295    43.8262    41.4620    46.4771    54.3787
 2884.0000     8.0264     2.5381     0.0020  1485.4072     0.1543   -33.5237    48.3143    54.7327    68.6274    52.7371
 2884.5000     8.0284     2.6315     0.0128  1440.9685     0.1524   -33.5179    52.1662    65.5702    74.6039    51.0348
 2885.0000     8.0300     2.6541     0.0190  1424.4711     0.1509   -33.5119    55.5497    74.3169    73.6018    52.0862
 2885.5000     8.0318     2.6376     0.0207  1407.5463     0.1497   -33.5048    57.5355    81.3663    66.8187    52.8350
 2886.0000     8.0336     2.6437     0.0224  1406.0424     0.1539   -33.5217    57.5627    84.8564    72.6377    52.8651
 2886.5000     8.0355     2.6483     0.0289  1404.3354     0.1544   -33.7917    52.0096    63.4644    77.3387    52.6553
 2887.0000     8.0372     2.6453     0.0349  1417.8353     0.1556   -33.7850    42.1855    51.2192    66.8864    51.7259
 2887.5000     8.0390     2.6349     0.0366  1416.1632     0.1634   -33.7792    34.7612    39.1072    50.7099    50.7890
 2888.0000     8.0411     2.6176     0.0323  1414.2231     0.1779   -33.7733    28.8427    30.9121    37.2352    50.5602
 2888.5000     8.0274     2.5968     0.0204  1442.8295     0.1965   -33.7675    24.4346    26.7380    21.1929    51.3367
 2889.0000     8.0146     2.5282     0.0115  1531.8583     0.2090   -33.7617    22.4954    23.4503    14.9916    51.6140
 2889.5000     7.9863     2.4704    -0.0003  1575.9711     0.2017   -33.7559    21.1452    21.8905    14.1866    49.4852
 2890.0000     7.9581     2.3869    -0.0122  1528.6475     0.1894   -33.7500    20.4346    21.0089    14.8981    49.9950
 2890.5000     7.9448     2.4171    -0.0119  1466.4327     0.1854   -33.7440    19.8854    21.0189    20.3572    50.9846
 2891.0000     7.9470     2.4661     0.0043  1337.4254     0.1836   -33.5882    19.4748    21.3226    27.0561    51.4945
 2891.5000     8.0387     2.5271     0.0291  1221.3153     0.1848   -33.4336    18.7028    21.0412    30.8744    52.9639
 2892.0000     8.1603     2.6189     0.0323  1280.1324     0.1923   -33.4278    17.8256    18.9727    29.6269    54.9231
 2892.5000     8.2220     2.5829     0.0295  1429.5840     0.2006   -33.4220    16.6399    16.6398    22.7039    51.1126
 2893.0000     8.2238     2.5529     0.0206  1443.4862     0.2108   -33.2673    15.3193    16.1925    18.0816    50.1757
 2893.5000     8.2255     2.5447     0.0088  1456.6464     0.2292   -33.1127    14.2016    14.8045    11.4768    50.6930
 2894.0000     8.2423     2.5274     0.0316  1560.7198     0.2427   -33.1069    12.9842    13.5354     9.5215    52.4023
 2894.5000     8.2594     2.4914     0.0226  1696.9111     0.2477   -32.8035    12.0368    12.7230     9.5247    54.1116
 2895.0000     8.2611     2.3974     0.0016  1753.8837     0.2468   -32.7976    11.2362    11.9593     9.5934    52.4625
