~VERSION INFORMATION
 VERS.                2.0:   CWLS LOG ASCII STANDARD - VERSION 2.0
 WRAP.                 NO:   ONE LINE PER DEPTH STEP
~WELL INFORMATION
#MNEM.UNIT      DATA TYPE    INFORMATION
#----------   ------------   ------------------------------
 STRT.F           15.0000:   START DEPTH
 STOP.F         3245.5000:   STOP DEPTH
 STEP.F            0.5000:   STEP LENGTH
 NULL.          -999.2500:   NO VALUE
 COMP. LAWRENCE ALLISON AND ASSOCIATES:   COMPANY
 WELL. LAWRENCE ALLISON 11 X34 #3-3:   WELL
 FLD .             NPR #3:   FIELD
 LOC .       S3 T38N R78W:   LOCATION
 CNTY.            NATRONA:   COUNTY
 STAT.            WYOMING:   STATE
 CTRY. UNITED STATES OF AMERICA:   COUNTRY
 SRVC.      DRESSER ATLAS:   SERVICE COMPANY
 DATE.        23-MAY-1985:   LOGDATE
 API .     49025110530000:   API NUMBER
~CURVE INFORMATION
#MNEM.UNIT       API CODE    CURVE DESCRIPTION
#----------   ------------   ------------------------------
 DEPT.F                  :   
 SPR .MV     07 010 01 00:   SPONTANEOUS POTENTIAL
 GRR .GAPI   07 310 01 00:   GAMMA RAY FROM RESISTIVITY
 SFL .OHMM   07 220 01 00:   SHALLOW FOCUSED LOG RES.
 ILD .OHMM   07 120 46 00:   INDUCTION LOG DEEP RESISTIVITY
 ILM .OHMM   07 120 44 00:   INDUCTION LOG MEDIUM RESISTIVITY
 TENR.LBS    07 635 01 00:   TENSION
 CALR.IN     07 280 01 00:   CALIPER FROM RESISTIVITY
 RHOB.G/C3   45 350 01 00:   BULK DENSITY
 CORR.G/C3   45 356 01 00:   DENSITY CORRECTION
 CNC .DEC    42 890 03 00:   NEUTRON POROSITY SANDSTONE
~PARAMETER INFORMATION
#MNEM.UNIT          VALUE    DESCRIPTION
#----------   ------------   ------------------------------
 EKB .F         5099.0000:   Kelly bushing
 EGL .F         5087.0000:   Ground level
 EDF .F            0.0000:   Drilling floor
 EPD .F         5087.0000:   Permanent datum
 TD  .F         3240.0000:   Total depth
 DATE.         2-MAY-1985:   Date logged
 CLNT.            A2DTECH:   Client Code
 PD  .                 GL:   Permanent Datum
 DD  .F              3239:   Depth driller
 DL  .F              3242:   Depth logger
 BLI .F              3240:   Bottom log interval
 TLI .F                15:   Top log interval
 CS1 .IN            8.625:   Casing size
 CBD1.      8.625" @ 487':   Casing driller 1
 CBL1.F               487:   Casing logger 1
 BSD1.F              3239:   Depth drilled with bit1
 DFT .            KCL GEL:   Type fluid in hole
 ENGI.      MACK. EDWARDS:   Recorded By
 WITN.         MR. STRONG:   Witnessed by
 ORIG.           5" PRINT:   Origin of data
 UWI .     49025110530000:   Unique Well ID
 DICO. A2D TECHNOLOGIES, INC.:   Digitizing Company
 DAPD.IN               12:   Feet Above Permanent Datum
 BS1 .              7.875:   Bit size
 DFD .                9.1:   Density
 DFV .                 35:   Viscosity
 DFPH.                  8:   pH
 DFL .                9.8:   Fluid loss
 MSS .           FLOWLINE:   Source of sample
 RMS .OHMM            .27:   Rm
 MST .F                68:   Rm Meas. temp.
 RMF .OHMM             .2:   Rmf
 MFST.F                68:   Rmf Meas. temp.
 MFSS.               MEAS:   Source Rmf.
 RMC .OHMM            .34:   Rmc
 MCST.F                68:   Rmc Meas. temp.
 MCSS.               CALC:   Source Rmc.
 RMB .OHMM            .15:   Rm. at BHT
 BHT .F               126:   BHT.
 TCS .HRS               3:   Time Circ. stopped
 MRT .F               126:   Maximum recorded temp.
 LUN .               6274:   Logging unit number
 LUL .               GLTE:   Logging unit location
~OTHER INFORMATION
~A   DEPT      SPR        GRR        SFL        ILD        ILM       TENR       CALR       RHOB       CORR        CNC   
# ...
 2125.5000   -63.4324    90.7440     5.8220     5.1197     4.9351   -60.3992  -999.2500  -999.2500  -999.2500  -999.2500
 2126.0000   -63.0359    90.1508     6.1518     5.1198     4.9352   -50.4192  -999.2500  -999.2500  -999.2500  -999.2500
 2126.5000   -62.8374    90.4483     6.1518     5.4098     4.9353   -60.3992  -999.2500  -999.2500  -999.2500  -999.2500
 2127.0000   -62.4409    93.1207     5.9301     5.6123     5.0268   -60.3992  -999.2500  -999.2500  -999.2500  -999.2500
 2127.5000   -62.2424    93.7151     5.9302     5.7164     5.1200   -60.3992  -999.2500  -999.2500  -999.2500  -999.2500
 2128.0000   -62.4397    90.7469     6.1521     5.9303     5.2150   -60.3992  -999.2500  -999.2500  -999.2500  -999.2500
 2128.5000   -62.2415    89.8569     6.3823     5.9304     5.3117   -60.3992  -999.2500  -999.2500  -999.2500  -999.2500
 2129.0000   -62.5632    89.2638     6.6212     6.0404     5.4102   -60.3992  -999.2500  -999.2500  -999.2500  -999.2500
 2129.5000   -62.8337    89.5612     6.5008     6.2664     5.6127   -60.3992  -999.2500  -999.2500  -999.2500  -999.2500
 2130.0000   -62.8330    91.3429     6.5009     6.5009     5.8227   -60.3992  -999.2500  -999.2500  -999.2500  -999.2500
 2130.5000   -63.4260    92.5311     6.6215     6.6215     5.9307   -60.3992  -999.2500  -999.2500  -999.2500  -999.2500
 2131.0000   -63.6233    90.7504     6.8693     6.7443     6.0407   -60.3992  -999.2500  -999.2500  -999.2500  -999.2500
 2131.5000   -63.6226    90.1573     7.1263     6.8694     6.0408   -60.3992  -999.2500  -999.2500  -999.2500  -999.2500
 2132.0000   -63.6220    91.3453     7.3930     6.8694     6.0409   -60.3992  -999.2500  -999.2500  -999.2500  -999.2500
 2132.5000   -63.6215    92.5333     7.3931     6.7446     5.9311   -60.3992  -999.2500  -999.2500  -999.2500  -999.2500
 2133.0000   -63.3658    91.9401     7.2587     6.5015     5.6133   -60.3992  -999.2500  -999.2500  -999.2500  -999.2500
 2133.5000   -63.2244    88.3788     6.8698     5.9313     5.4109   -60.3992  -999.2500  -999.2500  -999.2500  -999.2500
 2134.0000   -63.2237    84.5205     6.6221     5.8234     4.9364   -60.3992  -999.2500  -999.2500  -999.2500  -999.2500
 2134.5000   -63.2231    83.6307     6.1533     5.7175     4.6719   -60.3992  -999.2500  -999.2500  -999.2500  -999.2500
 2135.0000   -63.0246    82.1472     5.4112     5.6136     4.4215   -50.4192  -999.2500  -999.2500  -999.2500  -999.2500
 2135.5000   -63.0240    80.9606     4.9366     5.5115     4.6720   -50.4192  -999.2500  -999.2500  -999.2500  -999.2500
 2136.0000   -63.0234    80.0709     4.9367     5.4113     4.7587   -50.4192  -999.2500  -999.2500  -999.2500  -999.2500
 2136.5000   -63.2206    83.6333     5.3130     5.4114     5.0282   -50.4192  -999.2500  -999.2500  -999.2500  -999.2500
 2137.0000   -63.2205    86.3053     6.2678     5.4115     5.0283   -50.4192  -999.2500  -999.2500  -999.2500  -999.2500
 2137.5000   -63.4020    87.1964     6.7455     5.5119     5.0284   -40.4391  -999.2500  -999.2500  -999.2500  -999.2500
 2138.0000   -63.2188    88.6810     6.7456     5.5119     5.0284   -40.4391  -999.2500  -999.2500  -999.2500  -999.2500
 2138.5000   -63.0203    89.2752     6.6230     5.6142     4.9370   -40.4391  -999.2500  -999.2500  -999.2500  -999.2500
 2139.0000   -63.0197    89.2758     6.3843     5.4118     4.7591   -40.4391  -999.2500  -999.2500  -999.2500  -999.2500
 2139.5000   -63.2169    88.9796     6.1542     5.2168     4.5041   -40.4391  -999.2500  -999.2500  -999.2500  -999.2500
 2140.0000   -63.8099    88.9802     5.9324     4.9373     4.3418   -40.4391  -999.2500  -999.2500  -999.2500  -999.2500
 2140.5000   -63.8092    89.5744     5.1220     4.7593     4.1091   -40.4391  -999.2500  -999.2500  -999.2500  -999.2500
 2141.0000   -63.8087    88.9814     4.9374     4.5878     4.0344   -60.3992  -999.2500  -999.2500  -999.2500  -999.2500
 2141.5000   -64.2036    86.3109     4.5879     4.5878     4.0345   -40.4391  -999.2500  -999.2500  -999.2500  -999.2500
 2142.0000   -63.8074    84.2342     4.5879     4.4225     4.0346   -40.4391  -999.2500  -999.2500  -999.2500  -999.2500
 2142.5000   -63.8067    83.9381     4.9376     4.3421     4.0346   -50.4192  -999.2500  -999.2500  -999.2500  -999.2500
 2143.0000   -63.8060    83.9387     5.0292     4.2632     4.0347   -50.4192  -999.2500  -999.2500  -999.2500  -999.2500
 2143.5000   -63.6075    84.5329     5.1225     4.1857     4.0348   -40.4391  -999.2500  -999.2500  -999.2500  -999.2500
 2144.0000   -63.8047    85.7206     5.1225     4.1857     3.9614   -40.4391  -999.2500  -999.2500  -999.2500  -999.2500
 2144.5000   -63.8041    86.9084     5.1226     4.1097     3.8894   -40.4391  -999.2500  -999.2500  -999.2500  -999.2500
 2145.0000   -64.0013    88.9862     5.0295     4.0349     3.6810   -40.4391  -999.2500  -999.2500  -999.2500  -999.2500
 2145.5000   -64.0012    89.8771     4.7600     4.0350     3.5484   -40.4391  -999.2500  -999.2500  -999.2500  -999.2500
 2146.0000   -64.9893    90.4712     4.5050     4.0351     3.6142   -40.4391  -999.2500  -999.2500  -999.2500  -999.2500
 2146.5000   -64.9886    92.5494     4.3426     4.0351     3.6812   -50.4192  -999.2500  -999.2500  -999.2500  -999.2500
 2147.0000   -64.9880    91.9562     4.1100     4.0352     3.8189   -50.4192  -999.2500  -999.2500  -999.2500  -999.2500
 2147.5000   -64.9874    91.0666     4.2638     3.9619     3.8190   -40.4391  -999.2500  -999.2500  -999.2500  -999.2500
 2148.0000   -64.7889    89.8802     4.8486     4.0353     3.8191   -40.4391  -999.2500  -999.2500  -999.2500  -999.2500
 2148.5000   -64.3926    89.2873     5.3149     4.0354     3.7496   -40.4391  -999.2500  -999.2500  -999.2500  -999.2500
 2149.0000   -63.9963    89.2879     5.5137     4.0354     3.6815   -40.4391  -999.2500  -999.2500  -999.2500  -999.2500
 2149.5000   -63.9957    89.2885     5.1234     4.0355     3.6815   -40.4391  -999.2500  -999.2500  -999.2500  -999.2500
 2150.0000   -63.9950    90.1791     4.5890     4.1103     3.8193   -40.4391  -999.2500  -999.2500  -999.2500  -999.2500
 2150.5000   -63.5987    85.7289     4.1104     4.2642     3.9622   -40.4391  -999.2500  -999.2500  -999.2500  -999.2500
 2151.0000   -63.4003    83.6524     4.5892     4.3432     4.1105   -40.4391  -999.2500  -999.2500  -999.2500  -999.2500
 2151.5000   -63.5975    81.8726     5.1237     4.5058     4.2643   -40.4391  -999.2500  -999.2500  -999.2500  -999.2500
 2152.0000   -63.5969    81.5766     5.7205     4.6743     4.4238   -40.4391  -999.2500  -999.2500  -999.2500  -999.2500
 2152.5000   -63.7941    81.2807     5.8265     4.9391     4.5894   -50.4192  -999.2500  -999.2500  -999.2500  -999.2500
 2153.0000   -63.9913    81.2813     5.9346     5.0307     4.6745   -50.4192  -999.2500  -999.2500  -999.2500  -999.2500
 2153.5000   -63.9906    81.2820     5.9347     5.1240     4.7612   -50.4192  -999.2500  -999.2500  -999.2500  -999.2500
 2154.0000   -63.9900    82.4696     5.8268     5.2190     4.7613   -50.4192  -999.2500  -999.2500  -999.2500  -999.2500
 2154.5000   -63.9894    83.9538     5.6168     5.2191     4.7613   -50.4192  -999.2500  -999.2500  -999.2500  -999.2500
 2155.0000   -63.7909    83.0643     5.5147     5.2192     4.5062   -50.4192  -999.2500  -999.2500  -999.2500  -999.2500
 2155.5000   -63.5925    80.6913     5.8271     5.0311     4.4243   -50.4192  -999.2500  -999.2500  -999.2500  -999.2500
 2156.0000   -63.5917    80.0986     5.8272     4.9396     4.1873   -50.4192  -999.2500  -999.2500  -999.2500  -999.2500
 2156.5000   -63.5911    80.6927     5.4146     4.9397     4.1112   -50.4192  -999.2500  -999.2500  -999.2500  -999.2500
 2157.0000   -63.5905    81.2868     4.7617     4.8499     4.2650   -50.4192  -999.2500  -999.2500  -999.2500  -999.2500
 2157.5000   -63.5899    81.5841     4.5066     4.8500     4.4246   -50.4192  -999.2500  -999.2500  -999.2500  -999.2500
 2158.0000   -63.5892    81.2882     5.1247     4.8500     4.6752   -50.4192  -999.2500  -999.2500  -999.2500  -999.2500
 2158.5000   -63.3913    80.1020     5.9355     5.0315     4.7619   -60.3992  -999.2500  -999.2500  -999.2500  -999.2500
