~VERSION INFORMATION
 VERS.                2.0:   CWLS LOG ASCII STANDARD - VERSION 2.0
 WRAP.                 NO:   ONE LINE PER DEPTH STEP
~WELL INFORMATION
#MNEM.UNIT      DATA TYPE    INFORMATION
#----------   ------------   ------------------------------
 STRT.F            7.0000:   START DEPTH
 STOP.F         3304.0000:   STOP DEPTH
 STEP.F            0.5000:   STEP LENGTH
 NULL.          -999.2500:   NO VALUE
 COMP. LAWRENCE ALLISON ASSOC. WEST:   COMPANY
 WELL. LAWRENCE NPR  "X" #18-2:   WELL
 FLD .              N P R:   FIELD
 LOC .       S2 T38N R78W:   LOCATION
 CNTY.            NATRONA:   COUNTY
 STAT.            WYOMING:   STATE
 CTRY. UNITED STATES OF AMERICA:   COUNTRY
 SRVC.      DRESSER ATLAS:   SERVICE COMPANY
 DATE.        28-APR-1986:   LOGDATE
 API .     49025110710000:   API NUMBER
~CURVE INFORMATION
#MNEM.UNIT       API CODE    CURVE DESCRIPTION
#----------   ------------   ------------------------------
 DEPT.F                  :   
 TEND.LBS    45 635 01 00:   TENSION FROM DENSITY LOG
 DEN .G/C3   45 635 01 00:   DENSITY
 CORR.G/C3   45 356 01 00:   DENSITY CORRECTION
 CNC .DEC    42 890 03 00:   NEUTRON PORISITY SANDSTONE
 TENR.LBS    07 635 01 00:   TENSION FROM RESISTIVITY
 CALR.IN     07 280 01 00:   CALIPER FROM RESISTIVITY
 SPR .MV     07 010 01 00:   SPONTANEOUS POTENTIAL
 GRR .GAPI   07 310 01 00:   GAMMA RAY FROM RESISTIVITY
 RFOC.OHMM   07 220 04 00:   RESISTIVITY FOCUSED LOG RES.
 RILD.OHMM   07 120 46 00:   DEEP INDUCTION RESISTIVITY
 RILM.OHMM   07 120 44 00:   INDUCTION LOG MEDIUM RESISTIVITY
 TENS.LBS    60 635 01 00:   TENSION
 AC  .US/F   60 250 00 00:   ACCOUSTIC
~PARAMETER INFORMATION
#MNEM.UNIT          VALUE    DESCRIPTION
#----------   ------------   ------------------------------
 EKB .F         5142.0000:   Kelly bushing
 EGL .F         5130.0000:   Ground level
 EDF .F            0.0000:   Drilling floor
 EPD .F         5130.0000:   Permanent datum
 TD  .F         3296.0000:   Total depth
 DATE.        28-APR-1986:   Date logged
 CLNT.            A2DTECH:   Client Code
 SL  . 210' FSL & 204' FWL:   Surface Location
 PD  .                 GL:   Permanent Datum
 DD  .F              3295:   Depth driller
 DL  .F              3290:   Depth logger
 BLI .F              3296:   Bottom log interval
 CS1 .IN            8.625:   Casing size
 CBD1.      8.625" @ 563':   Casing driller 1
 CBL1.F               560:   Casing logger 1
 BS1 .IN            7.875:   Bit size
 BSD1.F              3295:   Depth drilled with bit1
 DFT .        POLYMER KCL:   Type fluid in hole
 DFD .                8.9:   Density
 DFV .                 38:   Viscosity
 DFPH.                8.5:   pH
 DFL .                9.2:   Fluid loss
 MSS .           FLOWLINE:   Source of sample
 RMS .OHMM           .435:   Rm
 MST .F                74:   Rm Meas. temp.
 RMF .OHMM            .33:   Rmf
 MFST.F                74:   Rmf Meas. temp.
 RMC .OHMM            .54:   Rmc
 MCST.F                74:   Rmc Meas. temp.
 MFSS.               CALC:   Source Rmf.
 MCSS.               CALC:   Source Rmc.
 RMB .OHMM            .77:   Rm. at BHT
 BHT .F               119:   BHT.
 TCS .HRS               4:   Time Circ. stopped
 MRT .F               119:   Maximum recorded temp.
 LUN .            HL 6264:   Logging unit number
 LUL .           GILLETTE:   Logging unit location
 ENGI.      P.M. FAHLSING:   Recorded By
 WITN.             STRONG:   Witnessed by
 ORIG.         2.5" PRINT:   Origin of data
 UWI .     49025110710000:   Unique Well ID
 DICO. A2D TECHNOLOGIES, INC.:   Digitizing Company
 DAPD.                 12:   Feet Above Permanent Datum
~OTHER INFORMATION
~A    DEPT    TEND        DEN       CORR        CNC       TENR       CALR        SPR         GRR      RFOC       RILD       RILM       TENS         AC   
# ...
 2737.0000   -95.0220     2.4520     0.0900     0.2020   -59.3760     9.4340   -48.2660    68.5150    16.8590    18.3250    19.4340   -63.3600    76.2450
 2737.5000   -98.2160     2.4530     0.1010     0.2060   -50.3570     9.4460   -47.0970    68.1850    15.8410    17.8870    18.9010   -63.3600    76.8040
 2738.0000  -101.4100     2.4500     0.1010     0.2110   -44.1180     9.4590   -47.0910    68.2040    15.6020    17.4490    18.3680   -63.3600    77.0030
 2738.5000   -98.8700     2.4450     0.1010     0.2110   -47.1370     9.4710   -47.7190    72.0950    15.3920    17.0110    17.8350   -63.3600    76.9030
 2739.0000   -92.6820     2.4480     0.0920     0.2080   -50.4440     9.4830   -48.4610    76.3990    15.3920    16.5450    17.3020   -63.3600    76.8040
 2739.5000   -86.4930     2.4510     0.0800     0.2100   -53.7520     9.4840   -49.2440    78.4960    15.6160    16.4150    16.8470   -63.3600    76.7050
 2740.0000   -83.0060     2.4550     0.0660     0.2210   -57.0590     9.4820   -49.0620    75.2040    15.8550    16.2770    16.8130   -63.3600    76.6050
 2740.5000   -83.0060     2.4470     0.0680     0.2180   -60.3660     9.4750   -48.0630    70.4780    15.9580    16.1380    16.7180   -63.3600    76.5060
 2741.0000   -83.0060     2.4330     0.0810     0.2120   -63.6730     9.4690   -47.8220    67.7680    15.9580    15.9990    16.6220   -63.3600    76.5380
 2741.5000   -83.0060     2.4200     0.0880     0.2080   -66.9800     9.4620   -47.8310    67.4070    14.6260    15.8610    16.5450   -63.3600    76.7870
 2742.0000   -83.0060     2.4120     0.0820     0.2030   -70.2880     9.4550   -47.8340    69.9480    13.5640    15.7220    16.5450   -63.3600    77.0330
 2742.5000   -83.0060     2.4280     0.0770     0.1960   -73.5950     9.4480   -47.8470    69.9860    13.7840    15.5830    16.8470   -63.3600    76.7830
 2743.0000   -83.0060     2.4540     0.0820     0.1980   -76.9020     9.4440   -47.7770    68.9960    14.7930    15.4450    16.9190   -63.3600    76.5340
 2743.5000   -83.0060     2.4770     0.0900     0.2020   -80.2090     9.4490   -48.4250    70.1080    15.9580    15.3060    17.0860   -63.3600    76.2860
 2744.0000   -63.3600     2.5030     0.0950     0.2060   -83.3330     9.4670   -49.5960    70.0220    15.8930    15.1670    17.2540   -63.3600    76.0510
 2744.5000   -63.3600     2.5190     0.0760     0.2070   -82.3710     9.4860   -50.6870    85.8400    15.6730    15.0290    17.4220   -63.3600    76.1170
 2745.0000   -63.3600     2.5160     0.0580     0.2070   -80.9120     9.5030   -51.7770    83.9100    15.9900    14.8460    17.5900   -63.3600    76.1790
 2745.5000   -63.3600     2.5040     0.0400     0.2080   -79.4540     9.5220   -52.8180    83.0560    16.6580    14.9050    17.7580   -63.3600    76.2480
 2746.0000   -63.3600     2.5020     0.0410     0.2080   -77.9960     9.5230   -53.7030    81.9550    17.3250    14.9920    17.9260   -63.3600    75.8530
 2746.5000   -63.3600     2.4990     0.0690     0.1980   -76.5380     9.5210   -54.5790    83.0950    17.7850    15.0780    18.0930   -63.3600    75.4110
 2747.0000   -63.3600     2.4970     0.0730     0.2020   -75.0790     9.5160   -55.4700    84.5780    18.1090    15.1650    18.2610   -63.3600    74.9690
 2747.5000   -63.3600     2.4870     0.0610     0.2060   -73.6210     9.5110   -55.7290    86.3050    18.1090    15.2510    18.4390   -63.3600    74.6840
 2748.0000   -63.3600     2.4810     0.0480     0.2060   -72.1630     9.5070   -55.7080    87.0560    17.9610    15.3380    18.4390   -63.3600    74.7090
 2748.5000   -63.3600     2.4790     0.0460     0.2020   -70.7040     9.5020   -55.6940    87.3410    17.6900    15.4240    18.5330   -63.3600    74.7340
 2749.0000   -63.3600     2.4780     0.0580     0.1970   -69.2460     9.4980   -55.4290    87.8270    17.4670    15.5100    18.6140   -63.3600    74.7590
 2749.5000   -63.3600     2.4770     0.0690     0.1950   -67.7880     9.4930   -55.1380    86.0050    17.7840    15.5970    18.6960   -63.3600    74.7840
 2750.0000   -63.3600     2.4790     0.0660     0.2010   -66.3300     9.4890   -54.8410    83.7870    18.1090    15.6830    18.7770   -63.3600    74.8090
 2750.5000   -63.3600     2.4840     0.0590     0.2070   -64.8710     9.4840   -54.5510    81.7360    18.1090    15.7700    18.8590   -63.3600    74.8340
 2751.0000   -63.3600     2.4870     0.0560     0.2090   -63.6610     9.4780   -54.2600    84.1830    17.8370    15.8560    18.9420   -63.3600    74.8580
 2751.5000   -63.3600     2.4820     0.0620     0.2070   -63.3570     9.4710   -53.9580    85.5010    17.5670    15.9430    19.0260   -63.3600    74.8580
 2752.0000   -63.3600     2.4770     0.0690     0.2050   -63.0540     9.4650   -53.7360    85.5290    17.4670    16.0300    19.1250   -63.3600    74.8240
 2752.5000   -63.3600     2.4760     0.0690     0.2070   -62.7510     9.4590   -53.4810    87.0590    17.4670    16.1180    19.1290   -63.3600    74.7910
 2753.0000   -63.3600     2.4960     0.0580     0.2090   -62.4480     9.4520   -53.1580    91.3860    17.3410    16.2060    19.1040   -63.3600    74.7580
 2753.5000   -63.3600     2.5160     0.0460     0.2050   -62.1450     9.4460   -52.8400    93.7070    16.8290    16.2490    19.4840   -63.3600    74.7250
 2754.0000   -67.7140     2.5250     0.0450     0.1990   -61.8420     9.4390   -52.5240    92.2510    16.2490    16.2490    19.4510   -63.3600    74.6910
 2754.5000   -71.8400     2.5130     0.0550     0.1940   -61.5390     9.4330   -52.2050    82.5680    16.8740    16.2490    19.8380   -63.3600    74.5870
 2755.0000   -75.9660     2.4980     0.0620     0.1880   -61.2350     9.4270   -51.8910    75.6650    17.5970    16.2490    19.8200   -63.3600    74.4200
 2755.5000   -80.0920     2.4830     0.0440     0.1860   -60.9320     9.4200   -51.5650    74.1600    18.3190    15.8350    19.8200   -63.3600    74.2540
 2756.0000   -80.0980     2.4740     0.0130     0.1890   -60.6290     9.4140   -51.2580    73.4990    19.0410    14.9780    19.4330   -63.3600    74.0880
 2756.5000   -70.1960     2.4630     0.0000     0.1930   -60.3260     9.4070   -50.9410    76.9840    19.7640    14.1220    18.1140   -63.3600    73.8900
 2757.0000   -60.2950     2.4680     0.0320     0.1960   -60.0230     9.3960   -50.5380    82.5710    20.5490    13.2650    16.7950   -63.3600    74.2950
 2757.5000   -50.3930     2.4850     0.0580     0.1980   -59.7200     9.3830   -50.1590    88.4000    17.9480    12.4090    15.4760   -63.3600    74.8720
 2758.0000   -43.7130     2.4970     0.0890     0.2000   -59.4170     9.3700   -50.2090    92.9360    14.3190    11.5530    14.1560   -63.3600    75.6660
 2758.5000   -46.5860     2.5000     0.0790     0.2090   -59.1130     9.3570   -50.1940    95.4540    12.2570    10.6960    12.8370   -63.3600    76.6090
 2759.0000   -49.6810     2.5060     0.0580     0.2080   -58.8100     9.3430   -50.1950    98.3330    11.5750     9.8400    11.5180   -63.3600    77.5520
 2759.5000   -52.7750     2.5110     0.0350     0.1990   -58.5070     9.3300   -50.1980   100.1000    10.8940     9.4520    10.9220   -63.3600    78.2120
 2760.0000   -55.8690     2.5170     0.0200     0.1870   -58.2040     9.3170   -50.1910    96.7140    10.5340     9.4520    11.3860   -63.3600    78.2120
 2760.5000   -58.9640     2.5270     0.0140     0.1770   -57.9010     9.3040   -50.1000    91.3210    10.5340     9.4520    11.7890   -63.3600    77.0470
 2761.0000   -62.0580     2.5370     0.0130     0.1700   -57.5980     9.2900   -50.0030    85.8080    11.8070     9.4520    12.1920   -63.3600    75.4390
 2761.5000   -63.3600     2.5430     0.0110     0.1710   -57.2950     9.2770   -49.9000    79.7600    13.5640     9.7940    12.5950   -63.3600    73.8310
 2762.0000   -63.3600     2.5480     0.0140     0.1720   -56.9910     9.2640   -49.8080    76.9710    13.4370    10.1450    12.9980   -63.3600    72.5150
 2762.5000   -63.3600     2.5550     0.0210     0.1730   -56.6880     9.2490   -49.8130    78.6260    13.1090    10.4950    13.3220   -63.3600    72.3180
