~VERSION INFORMATION
 VERS.                2.0:   CWLS LOG ASCII STANDARD - VERSION 2.0
 WRAP.                 NO:   ONE LINE PER DEPTH STEP
~WELL INFORMATION
#MNEM.UNIT      DATA TYPE    INFORMATION
#----------   ------------   ------------------------------
 STRT.F          196.5000:   START DEPTH
 STOP.F         2376.0000:   STOP DEPTH
 STEP.F            0.5000:   STEP LENGTH
 NULL.          -999.2500:   NO VALUE
 COMP.    FENIX & SCISSON:   COMPANY
 WELL. FENIX & SCISSON NPR-3 #55-10:   WELL
 FLD .  TEAPOT DOME NPR-3:   FIELD
 LOC .      S10 T38N R78W:   LOCATION
 CNTY.            NATRONA:   COUNTY
 STAT.            WYOMING:   STATE
 CTRY. UNITED STATES OF AMERICA:   COUNTRY
 SRVC.           BIRDWELL:   SERVICE COMPANY
 DATE.        09-MAY-1979:   LOGDATE
 API .     49025107780000:   API NUMBER
~CURVE INFORMATION
#MNEM.UNIT       API CODE    CURVE DESCRIPTION
#----------   ------------   ------------------------------
 DEPT.F                  :   
 CALD.IN     45 280 60 00:   CALIPER FROM DENSITY LOG
 GRD .GAPI   45 310 01 00:   GAMMA RAY FROM DENSITY LOG
 RHOB.G/C3   45 350 01 00:   BULK DENSITY
 CORR.G/C3   45 356 01 00:   DENSITY CORRECTION
~PARAMETER INFORMATION
#MNEM.UNIT          VALUE    DESCRIPTION
#----------   ------------   ------------------------------
 EKB .F         5203.0000:   Kelly bushing
 EGL .F         5193.0000:   Ground level
 EDF .F            0.0000:   Drilling floor
 TD  .F         2376.0000:   Total depth
 CLNT.            A2DTECH:   Client Code
 SL  . 2283' FSL & 2107' FEL:   Surface Location
 PD  .                 GL:   Permanent Datum
 EPD .F              5193:   Elevation Permanent Datum
 LMF .                 KB:   Log Measured From
 DMF .                 KB:   Drilling Measured From
 DAPD.F                10:   Feet Above Permanent Datum
 DATE.        09-MAY-1979:   Date Logged [DD-MMM-YYYY]
 DD  .F              2360:   Depth driller
 DL  .F              2376:   Depth logger
 BLI .F              2376:   Bottom log interval
 TLI .F               196:   Top log interval
 CS1 .IN            9.625:   Casing size
 CBD1.             9.625":   Casing driller 1
 CBL1.F               545:   Casing logger 1
 BS1 .IN             8.75:   Bit size
 BSD1.F              2360:   Depth drilled with bit1
 DFT .                AIR:   Type fluid in hole
 TCS .HRS               3:   Time Circ. stopped
 LUN .               2959:   Logging unit number
 LUL .             CASPER:   Logging unit location
 ENGI.         B. ROLLINS:   Recorded By
 WITN.             RHODES:   Witnessed by
 ORIG.           5" PRINT:   Origin of data
 UWI .     49025107780000:   Unique Well ID
 DICO. A2D TECHNIOLOGIES,INC.:   Digitizing Company
~OTHER INFORMATION
~A  DEPTH     CALD        GRD       RHOB       CORR
# ...
 1510.5000     8.9927   128.3223     2.5587     0.0424
 1511.0000     8.9929   128.6264     2.5556     0.0593
 1511.5000     8.9931   127.5689     2.5541     0.0745
 1512.0000     8.9934   124.9985     2.5541     0.0790
 1512.5000     8.9936   123.9410     2.5503     0.0710
 1513.0000     8.9938   125.9335     2.5257     0.0580
 1513.5000     8.9941   129.0334     2.5110     0.0520
 1514.0000     8.9943   132.5381     2.5452     0.0807
 1514.5000     8.9945   134.6886     2.5697     0.0958
 1515.0000     8.9947   131.6644     2.5742     0.0973
 1515.5000     8.9950   128.1863     2.5674     0.0838
 1516.0000     8.9952   125.9185     2.5507     0.0733
 1516.5000     9.0105   125.7684     2.5349     0.0628
 1517.0000     9.0107   127.2831     2.5115     0.0538
 1517.5000     8.9958   130.0078     2.4979     0.0478
 1518.0000     8.9961   134.3965     2.5431     0.0629
 1518.5000     8.9963   136.6673     2.5558     0.0797
 1519.0000     8.9803   135.2909     2.5091     0.0645
 1519.5000     8.9665   131.0921     2.4842     0.0404
 1520.0000     8.9517   124.5179     2.4721     0.0126
 1520.5000     8.9368   119.7009     2.5082    -0.0311
 1521.0000     8.9219   120.3361     2.5564    -0.0574
 1521.5000     8.9070   122.7582     2.5601    -0.0001
 1522.0000     8.9073   125.9367     2.5654     0.0211
 1522.5000     8.9075   128.6613     2.5292     0.0332
 1523.0000     8.9379   128.8138     2.5344     0.0453
 1523.5000     8.9382   127.7566     2.5218     0.0378
 1524.0000     8.9535   124.8837     2.5080     0.0258
 1524.5000     8.9688   121.8594     2.4959     0.0183
 1525.0000     8.9690   120.8016     2.5215     0.0138
 1525.5000     8.9693   122.7701     2.5290     0.0184
 1526.0000     8.9695   123.3768     2.5206     0.0320
 1526.5000     8.9697   123.3783     2.5560     0.0501
 1527.0000     8.9699   125.9516     2.5748     0.0698
 1527.5000     8.9702   125.6506     2.5808     0.0864
 1528.0000     8.9704   127.1649     2.5664     0.0486
 1528.5000     8.9707   127.6203     2.5551     0.0322
 1529.0000     8.9709   128.2832     2.5498     0.0443
 1529.5000     8.9862   129.9148     2.5437     0.0097
 1530.0000     8.9864   130.6505     2.5700     0.0173
 1530.5000     9.0018   125.8112     2.5557     0.0460
 1531.0000     9.0020   124.6020     2.5541     0.0641
 1531.5000     9.0022   126.5706     2.5549     0.0717
 1532.0000     9.0024   127.4794     2.5539     0.0808
 1532.5000     8.9875   125.0607     2.5330     0.0748
 1533.0000     8.9727   124.0028     2.5001     0.0447
 1533.5000     8.9578   125.6688     2.5080     0.0297
 1534.0000     8.9580   127.4858     2.5404     0.0448
 1534.5000     8.9582   128.2433     2.5735     0.0674
 1535.0000     8.9585   125.2191     2.5855     0.0871
 1535.5000     8.9587   125.8261     2.5914     0.0856
 1536.0000     8.9438   125.8276     2.5673     0.0706
 1536.5000     8.9441   124.4675     2.5311     0.0708
 1537.0000     8.9443   123.9913     2.5364     0.0800
 1537.5000     8.9445   125.9834     2.5514     0.0908
 1538.0000     8.9598   128.2865     2.5378     0.0813
 1538.5000     8.9601   126.3601     2.5167     0.0633
 1539.0000     8.9754   124.4265     2.4827     0.0452
 1539.5000     8.9907   124.0226     2.4782     0.0257
 1540.0000     9.0061   125.0835     2.5385     0.0107
 1540.5000     9.0063   127.0517     2.5188    -0.0074
 1541.0000     9.0216   129.0199     2.5278    -0.0164
 1541.5000     9.0218   130.0804     2.5609     0.0289
 1542.0000     9.0221   131.4435     2.5556     0.0455
 1542.5000     9.0072   130.6885     2.5260     0.0531
 1543.0000     8.9906   126.3027     2.5201     0.0562
 1543.5000     8.9774   124.1862     2.6920     0.0456
 1544.0000     8.9625   125.7006     3.9771     0.0246
 1544.5000     8.9628   126.6098     3.9982     0.0035
 1545.0000     8.9479   125.8548     3.9981    -0.0085
 1545.5000     8.9164   124.7973     3.9899     0.0102
 1546.0000     8.9030   124.6475     2.8890     0.0250
 1546.5000     8.9184   126.0106     2.5570     0.0203
 1547.0000     8.9337   128.2877     2.4686     0.0098
 1547.5000     8.9491   129.8158     2.4474    -0.0068
 1548.0000     8.9795   129.2157     2.4383    -0.0218
 1548.5000     8.9797   123.8926     2.4518    -0.0428
 1549.0000     8.9799   122.6898     2.4925    -0.0624
 1549.5000     8.9650   129.1969     2.5438    -0.0307
 1550.0000     8.9501   131.6190     2.5709     0.0342
 1550.5000     8.9504   132.3769     2.5874     0.0779
 1551.0000     8.9657   130.2604     2.5950     0.1081
 1551.5000     8.9508   128.4461     2.5768     0.1132
 1552.0000     8.9511   131.1711     2.5497     0.0811
 1552.5000     8.9362   132.2316     2.5126     0.0465
 1553.0000     8.9062   131.9302     2.4998     0.0268
 1553.5000     8.9064   131.3269     2.4884     0.0148
 1554.0000     8.9218   130.5720     2.5057     0.0171
 1554.5000     8.9220   127.8503     2.5481     0.0542
 1555.0000     8.9374   122.5878     2.5903     0.1371
 1555.5000     8.9527   121.5332     2.6196     0.1608
 1556.0000     8.9680   120.9314     2.5805     0.0984
 1556.5000     8.9682   121.9960     2.5232     0.0622
 1557.0000     8.9836   123.3621     2.5300     0.0486
 1557.5000     8.9838   123.8193     2.5534     0.0576
 1558.0000     8.9840   121.5556     2.5359     0.0636
 1558.5000     8.9842   120.5010     2.5085     0.0455
 1559.0000     8.9845   120.9594     2.4961     0.0394
 1559.5000     8.9847   122.9306     2.5277     0.0574
 1560.0000     8.9849   126.8685     2.5360     0.0649
 1560.5000     8.9700   127.7848     2.5307     0.0665
 1561.0000     8.9702   122.7747     2.5224     0.0602
 1561.5000     8.9705   121.5683     2.5134     0.0493
 1562.0000     8.9858   119.6632     2.5209     0.0371
 1562.5000     9.0012   120.3866     2.5329     0.0285
 1563.0000     9.0165   124.1732     2.5427     0.0360
 1563.5000     9.0318   127.8086     2.5540     0.0571
 1564.0000     9.0472   131.4439     2.5751     0.0811
 1564.5000     9.0474   128.7252     2.5844     0.0645
 1565.0000     9.0324   125.7040     2.5600     0.0403
 1565.5000     9.0327   124.4981     2.5239     0.0283
 1566.0000     9.0027   121.4769     2.5171     0.0433
 1566.5000     8.9878   124.5071     2.5308     0.0523
 1567.0000     8.9881   128.1424     2.5390     0.0568
 1567.5000     8.9883   128.4494     2.5419     0.0643
 1568.0000     8.9885   131.9335     2.5442     0.0702
 1568.5000     8.9887   128.8987     2.5502     0.0669
 1569.0000     8.9890   124.9501     2.5404     0.0611
 1569.5000     8.9892   126.8167     2.5327     0.0550
 1570.0000     8.9743   130.1359     2.5253     0.0444
 1570.5000     8.9746   128.1748     2.5178     0.0278
 1571.0000     8.9748   127.5730     2.5117     0.0127
 1571.5000     8.9750   132.2685     2.5065     0.0036
 1572.0000     8.9753   135.4499     2.5245     0.0261
 1572.5000     8.9755   136.6636     2.5366     0.0367
 1573.0000     8.9757   129.4074     2.5426     0.0381
 1573.5000     8.9910   126.0836     2.5478     0.0396
 1574.0000     8.9913   129.4164     2.5501     0.0456
 1574.5000     8.9915   133.2030     2.5440     0.0372
 1575.0000     8.9917   136.3844     2.5069     0.0010
 1575.5000     8.9919   137.1454     2.4883    -0.0043
 1576.0000     8.9921   137.9062     2.5230     0.0213
 1576.5000     8.9924   139.1282     2.5403     0.0333
 1577.0000     8.9926   141.4601     2.5470     0.0332
 1577.5000     8.9928   144.6897     2.5478     0.0362
 1578.0000     8.9931   145.9423     2.5628     0.0482
 1578.5000     8.9933   143.0734     2.5832     0.0798
 1579.0000     9.0086   139.7496     2.5764     0.0843
 1579.5000     8.9937   135.5181     2.5696     0.0617
 1580.0000     8.9940   133.5558     2.5470     0.0495
 1580.5000     9.0093   138.0989     2.5485     0.0450
 1581.0000     9.0095   140.9778     2.5522     0.0434
 1581.5000     9.0249   142.3438     2.5568     0.0449
 1582.0000     9.0099   145.2227     2.5536     0.0433
 1582.5000     8.9950   149.7658     2.5445     0.0418
 1583.0000     8.9953   152.0395     2.5384     0.0417
