~VERSION INFORMATION
 VERS.                2.0:   CWLS LOG ASCII STANDARD - VERSION 2.0
 WRAP.                 NO:   ONE LINE PER DEPTH STEP
~WELL INFORMATION
#MNEM.UNIT      DATA TYPE    INFORMATION
#----------   ------------   ------------------------------
 STRT.F          466.5000:   START DEPTH
 STOP.F         3184.0000:   STOP DEPTH
 STEP.F            0.5000:   STEP LENGTH
 NULL.          -999.2500:   NO VALUE
 COMP. LAWRENCE ALLISON AND ASSOCIATES:   COMPANY
 WELL. LAWRENCE 66 "X" #3-28:   WELL
 FLD .              N P R:   FIELD
 LOC .      S28 T39N R78W:   LOCATION
 CNTY.            NATRONA:   COUNTY
 STAT.            WYOMING:   STATE
 CTRY. UNITED STATES OF AMERICA:   COUNTRY
 SRVC.      DRESSER ATLAS:   SERVICE COMPANY
 DATE.        16-APR-1986:   LOGDATE
 API .     49025111340000:   API NUMBER
~CURVE INFORMATION
#MNEM.UNIT       API CODE    CURVE DESCRIPTION
#----------   ------------   ------------------------------
 DEPT.F                  :   
 RHOB.G/C3   45 350 01 00:   BULK DENSITY
 CORR.G/C3   45 356 01 00:   DENSITY CORRECTION
 TEND.LBS    45 635 01 00:   TENSION FROM DENSITY LOG
 NPHI.DEC    42 890 03 00:   NEUTRON POROSITY SANDSTONE
 DT  .US/F   60 520 00 00:   DELTA TIME
 TENS.LBS    51 635 01 00:   TENSION
 CALR.IN     07 280 01 00:   CALIPER FROM RESISTIVITY
 SPR .MV     07 010 01 00:   SPONTANEOUS POTENTIAL
 TENR.LBS    07 635 01 00:   TENSION FROM RESISTIVITY
 RFOC.OHMM   07 220 04 00:   RESISTIVITY FOCUSED LOG RES.
 GRR .GAPI   07 310 01 00:   GAMMA RAY FROM RESISTIVITY
 RILD.OHMM   07 120 46 00:   DEEP INDUCTION RESISTIVITY
 RILM.OHMM   07 120 44 00:   INDUCTION LOG MEDIUM RESISTIVITY
~PARAMETER INFORMATION
#MNEM.UNIT          VALUE    DESCRIPTION
#----------   ------------   ------------------------------
 EKB .F         5071.0000:   Kelly bushing
 EGL .F         5059.0000:   Ground level
 TD  .F         3176.0000:   Total depth
 DATE.        16-APR-1986:   Date logged
 CLNT.            A2DTECH:   Client Code
 SL  . 1685' FEL & 1915'FSL:   Surface Location
 PD  .                 GL:   Permanent Datum
 EPD .F              5059:   Elevation Permanent Datum
 LMF .                 KB:   Log Measured From
 DD  .F              3176:   Depth driller
 DL  .F              3176:   Depth logger
 BLI .F              3174:   Bottom log interval
 TLI .F               480:   Top log interval
 CS1 .IN            8.625:   Casing size
 BS1 .IN            7.875:   Bit size
 DFT .        POLYMER KCL:   Type fluid in hole
 DFD .                  9:   Density
 DFV .                 40:   Viscosity
 DFPH.                8.5:   pH
 DFL .               10.2:   Fluid loss
 MSS .           FLOWLINE:   Source of sample
 RMS .OHMM           .226:   Rm
 MST .F                65:   Rm Meas. temp.
 RMF .OHMM           .169:   Rmf
 MFST.F                65:   Rmf Meas. temp.
 RMC .OHMM           .283:   Rmc
 MCST.F                65:   Rmc Meas. temp.
 MFSS.               CALC:   Source Rmf.
 MCSS.               CALC:   Source Rmc.
 RMB .OHMM           .118:   Rm. at BHT
 BHT .F               125:   BHT.
 TCS .HRS               5:   Time Circ. stopped
 MRT .F               125:   Maximum recorded temp.
 LUN .               6264:   Logging unit number
 LUL .           GILLETTE:   Logging unit location
 ENGI.             MILLER:   Recorded By
 WITN.             STRONG:   Witnessed by
 ORIG.           5" PRINT:   Origin of data
 UWI .     49025111340000:   Unique Well ID
 DICO. A2D TECHNOLOGIES, INC.:   Digitizing Company
 DMF .                 KB:   Drilling Measured From
 DAPD.F                12:   Feet Above Permanent Datum
 CBD1.      8.625" @ 475':   Casing driller 1
 CBL1.F               480:   Casing logger 1
 BSD1.F              3176:   Depth drilled with bit1
~OTHER INFORMATION
~A   DEPT     RHOB       CORR       TEND       NPHI         DT       TENS       CALR        SPR       TENR       RFOC         GRR      RILD       RILM   
# ...
 1740.5000  -999.2500  -999.2500  -999.2500  -999.2500  -999.2500  -999.2500    10.7120   -75.6990     5.0000     7.1620   102.8940     4.7700     4.9060
 1741.0000  -999.2500  -999.2500  -999.2500  -999.2500  -999.2500  -999.2500    10.7050   -76.5560   -31.3810     6.7070   106.6820     4.8150     5.0750
 1741.5000  -999.2500  -999.2500  -999.2500  -999.2500  -999.2500  -999.2500    10.6930   -76.7100   -56.0000     6.0240   108.4590     5.1070     5.4100
 1742.0000  -999.2500  -999.2500  -999.2500  -999.2500  -999.2500  -999.2500    10.6810   -76.8730   -80.6190     5.3400   105.8690     5.4300     5.7650
 1742.5000  -999.2500  -999.2500  -999.2500  -999.2500  -999.2500  -999.2500    10.6710   -77.0230  -105.2380     5.0470   102.0680     5.7530     6.0190
 1743.0000  -999.2500  -999.2500  -999.2500  -999.2500  -999.2500  -999.2500    10.6980   -77.4120  -109.3270     6.0280   101.0940     6.0680     6.2380
 1743.5000  -999.2500  -999.2500  -999.2500  -999.2500  -999.2500  -999.2500    10.7270   -77.9250   -99.9270     7.2010   104.0710     5.8610     6.1460
 1744.0000  -999.2500  -999.2500  -999.2500  -999.2500  -999.2500  -999.2500    10.7560   -78.8060   -99.9200     7.4310   109.0780     5.6370     6.0120
 1744.5000  -999.2500  -999.2500  -999.2500  -999.2500  -999.2500  -999.2500    10.7680   -79.7010  -110.2600     6.5920   113.9740     5.8010     6.0760
 1745.0000  -999.2500  -999.2500  -999.2500  -999.2500  -999.2500  -999.2500    10.7650   -79.4730  -115.0000     6.5320   117.8830     6.0360     6.2010
 1745.5000  -999.2500  -999.2500  -999.2500  -999.2500  -999.2500  -999.2500    10.7620   -79.2620  -115.0000     6.6540   120.9010     6.1810     6.3260
 1746.0000  -999.2500  -999.2500  -999.2500  -999.2500  -999.2500  -999.2500    10.7590   -79.0100  -109.3000     6.7600   119.8790     6.1810     6.4510
 1746.5000  -999.2500  -999.2500  -999.2500  -999.2500  -999.2500  -999.2500    10.7560   -78.5590   -83.4500     6.8400   116.0110     6.1810     6.5920
 1747.0000  -999.2500  -999.2500  -999.2500  -999.2500  -999.2500  -999.2500    10.7530   -78.1260   -62.0400     6.6530   112.6210     6.1810     6.5800
 1747.5000  -999.2500  -999.2500  -999.2500  -999.2500  -999.2500  -999.2500    10.7510   -77.5050   -63.8850     6.7190   111.6510     6.1810     6.5610
 1748.0000  -999.2500  -999.2500  -999.2500  -999.2500  -999.2500  -999.2500    10.7930   -76.8990   -91.7230     6.8480   109.7140     6.1230     6.5430
 1748.5000  -999.2500  -999.2500  -999.2500  -999.2500  -999.2500  -999.2500    10.8390   -76.2880  -119.5620     6.9670   105.9650     6.0180     6.5230
 1749.0000  -999.2500  -999.2500  -999.2500  -999.2500  -999.2500  -999.2500    10.8850   -75.7260  -123.4510     6.7910   102.2350     5.9130     6.4790
 1749.5000  -999.2500  -999.2500  -999.2500  -999.2500  -999.2500  -999.2500    10.9230   -75.1700  -121.5260     6.6530    99.7750     5.8080     6.1680
 1750.0000  -999.2500  -999.2500  -999.2500  -999.2500  -999.2500  -999.2500    10.9500   -74.5350  -119.6010     6.2680   103.1420     5.5720     5.8060
 1750.5000  -999.2500  -999.2500  -999.2500  -999.2500  -999.2500  -999.2500    10.9780   -74.8910  -117.6760     5.9570   107.0070     5.3170     5.4430
 1751.0000  -999.2500  -999.2500  -999.2500  -999.2500  -999.2500  -999.2500    10.9960   -75.3380  -115.7510     6.0230   110.8910     5.0620     5.0810
 1751.5000  -999.2500  -999.2500  -999.2500  -999.2500  -999.2500  -999.2500    11.0060   -75.7790  -110.4430     6.0820   114.7790     4.8640     4.7180
 1752.0000  -999.2500  -999.2500  -999.2500  -999.2500  -999.2500  -999.2500    11.0170   -76.1230   -98.9140     6.1240   113.4380     4.8840     4.3560
 1752.5000  -999.2500  -999.2500  -999.2500  -999.2500  -999.2500  -999.2500    11.0280   -76.1890   -76.5000     5.3420   110.9110     4.8990     4.3150
 1753.0000  -999.2500  -999.2500  -999.2500  -999.2500  -999.2500  -999.2500    11.0210   -76.2590   -54.0860     4.7270   107.9920     4.9090     4.3610
 1753.5000  -999.2500  -999.2500  -999.2500  -999.2500  -999.2500  -999.2500    11.0080   -76.3280   -55.3670     4.4560   105.1030     4.8530     4.4090
 1754.0000  -999.2500  -999.2500  -999.2500  -999.2500  -999.2500  -999.2500    10.9960   -76.3980   -72.8000     4.4360   102.8190     4.8120     4.4580
 1754.5000  -999.2500  -999.2500  -999.2500  -999.2500  -999.2500  -999.2500    10.9830   -76.4690   -90.2330     5.5730   103.2430     4.7710     4.5060
 1755.0000  -999.2500  -999.2500  -999.2500  -999.2500  -999.2500  -999.2500    10.9700   -76.3120   -95.0000     6.2380   104.7220     4.7290     4.5550
 1755.5000  -999.2500  -999.2500  -999.2500  -999.2500  -999.2500  -999.2500    10.9580   -75.9650   -95.0000     5.7990   106.2070     4.6880     4.6030
 1756.0000  -999.2500  -999.2500  -999.2500  -999.2500  -999.2500  -999.2500    10.9460   -75.6150   -95.0000     5.0470   104.3530     4.9360     4.7990
 1756.5000  -999.2500  -999.2500  -999.2500  -999.2500  -999.2500  -999.2500    10.9340   -75.3650   -95.0000     5.1880   101.9390     5.1810     4.9940
 1757.0000  -999.2500  -999.2500  -999.2500  -999.2500  -999.2500  -999.2500    10.9220   -75.1640   -95.0000     5.1000   102.8950     5.4270     5.1890
 1757.5000  -999.2500  -999.2500  -999.2500  -999.2500  -999.2500  -999.2500    10.9090   -74.9630   -96.7270     4.9310   104.9800     5.5340     5.3380
 1758.0000  -999.2500  -999.2500  -999.2500  -999.2500  -999.2500  -999.2500    10.8640   -74.7620  -106.2360     4.8640   107.0670     5.4260     5.5170
 1758.5000  -999.2500  -999.2500  -999.2500  -999.2500  -999.2500  -999.2500    10.8160   -74.5590  -115.0000     5.1120   109.1630     5.3830     5.6970
 1759.0000  -999.2500  -999.2500  -999.2500  -999.2500  -999.2500  -999.2500    10.7690   -74.3890   -88.9690     5.4530   110.1790     5.8470     5.8760
 1759.5000  -999.2500  -999.2500  -999.2500  -999.2500  -999.2500  -999.2500    10.7200   -74.1680   -64.8310     5.7950   110.2110     6.1640     6.0560
 1760.0000  -999.2500  -999.2500  -999.2500  -999.2500  -999.2500  -999.2500    10.6650   -73.9470   -61.6430     6.1360   110.5750     6.4820     6.2360
 1760.5000  -999.2500  -999.2500  -999.2500  -999.2500  -999.2500  -999.2500    10.6090   -73.7300   -72.8500     6.4770   110.9680     6.8400     6.4150
 1761.0000  -999.2500  -999.2500  -999.2500  -999.2500  -999.2500  -999.2500    10.5530   -73.4950   -85.0000     6.8180   110.4070     6.8160     6.5950
 1761.5000  -999.2500  -999.2500  -999.2500  -999.2500  -999.2500  -999.2500    10.4940   -73.2980   -70.2620     7.1600   108.8220     6.7880     6.7750
 1762.0000  -999.2500  -999.2500  -999.2500  -999.2500  -999.2500  -999.2500    10.4760   -73.2930   -54.1690     7.4990   107.9710     6.7770     6.9540
 1762.5000  -999.2500  -999.2500  -999.2500  -999.2500  -999.2500  -999.2500    10.4860   -73.9270   -43.5000     7.5780   109.8440     7.1310     7.1340
 1763.0000  -999.2500  -999.2500  -999.2500  -999.2500  -999.2500  -999.2500    10.4970   -74.9180   -40.0130     7.6390   112.4340     7.3630     7.2280
 1763.5000  -999.2500  -999.2500  -999.2500  -999.2500  -999.2500  -999.2500    10.5080   -75.9180   -36.5270     7.5060   115.0610     7.3380     7.1770
 1764.0000  -999.2500  -999.2500  -999.2500  -999.2500  -999.2500  -999.2500    10.5020   -76.9120   -36.9400     7.3630   116.6760     7.3150     7.1410
 1764.5000  -999.2500  -999.2500  -999.2500  -999.2500  -999.2500  -999.2500    10.4920   -77.5880   -42.1700     7.4080   115.5680     7.2920     7.1060
 1765.0000  -999.2500  -999.2500  -999.2500  -999.2500  -999.2500  -999.2500    10.4810   -77.7840   -54.0000     7.4840   112.6920     7.2690     7.0710
 1765.5000  -999.2500  -999.2500  -999.2500  -999.2500  -999.2500  -999.2500    10.4710   -77.9870   -75.0000     7.5600   110.4320     7.2460     7.0360
 1766.0000  -999.2500  -999.2500  -999.2500  -999.2500  -999.2500  -999.2500    10.4600   -78.1880   -73.2000     7.6350   113.6570     7.2240     7.0010
