~VERSION INFORMATION
 VERS.                2.0:   CWLS LOG ASCII STANDARD - VERSION 2.0
 WRAP.                 NO:   ONE LINE PER DEPTH STEP
~WELL INFORMATION
#MNEM.UNIT      DATA TYPE    INFORMATION
#----------   ------------   ------------------------------
 STRT.F         3500.0000:   START DEPTH
 STOP.F         6855.0000:   STOP DEPTH
 STEP.F            0.5000:   STEP LENGTH
 NULL.          -999.2500:   NO VALUE
 COMP.          U.S. NAVY:   COMPANY
 WELL.  US NAVY "G" #1-10:   WELL
 FLD . TEAPOT NAVAL RESERVE:   FIELD
 LOC .      S10 T38N R78W:   LOCATION
 CNTY.            NATRONA:   COUNTY
 STAT.            WYOMING:   STATE
 CTRY. UNITED STATES OF AMERICA:   COUNTRY
 SRVC.         LANE WELLS:   SERVICE COMPANY
 DATE.        23-MAR-1952:   LOGDATE
 API .     49025063380000:   API NUMBER
~CURVE INFORMATION
#MNEM.UNIT       API CODE    CURVE DESCRIPTION
#----------   ------------   ------------------------------
 DEPT.F                  :   
 GRN .GAPI   35 310 01 00:   GAMMA RAY
 NEUT.NAPI   35 330 01 00:   NEUTRON
~PARAMETER INFORMATION
#MNEM.UNIT          VALUE    DESCRIPTION
#----------   ------------   ------------------------------
 EKB .F         5195.0000:   Kelly bushing
 EGL .F         5184.0000:   Ground level
 EDF .F         5195.0000:   Drilling floor
 EPD .F            0.0000:   Permanent datum
 TD  .F         6861.0000:   Total depth
 CLNT.            A2DTECH:   Client Code
 PD  .                 GL:   Permanent Datum
 DATE.        23-MAR-1952:   Date Logged [DD-MMM-YYYY]
 DD  .F              6861:   Depth driller
 DL  .F              6861:   Depth logger
 BLI .F              6855:   Bottom log interval
 TLI .F              3500:   Top log interval
 BSD1.F              6861:   Depth drilled with bit1
 DFT .                MUD:   Type fluid in hole
 ENGI.            GAMBERG:   Recorded By
 WITN.           GRIBBENS:   Witnessed by
 ORIG.         2.5" PRINT:   Origin of data
 UWI .     49025063380000:   Unique Well ID
 DICO. A2D TECHNOLOGIES, INC.:   Digitizing Company
~OTHER INFORMATION
~A  DEPT       GRN        NEUT  
# ...
 6173.0000    22.0043  1068.1337
 6173.5000    22.5987   942.8383
 6174.0000    24.8061   795.4300
 6174.5000    25.5037   669.3162
 6175.0000    26.0185   530.0983
 6175.5000    26.2883   398.6609
 6176.0000    24.7051   301.6216
 6176.5000    21.5313   278.9154
 6177.0000    19.3355   285.6631
 6177.5000    17.3842   429.9931
 6178.0000    14.9439   490.8619
 6178.5000    13.2282   500.7017
 6179.0000    12.5083   478.6005
 6179.5000    12.8466   409.8162
 6180.0000    13.4963   395.0860
 6180.5000    13.1707   386.4988
 6181.0000    13.0171   296.8305
 6181.5000    13.2770   255.6880
 6182.0000    14.2503   160.0819
 6182.5000    14.2550   122.6249
 6183.0000    14.5042    80.6634
 6183.5000    15.2424    59.5864
 6184.0000    16.4696    56.1179
 6184.5000    15.4814    75.7877
 6185.0000    14.4097   102.8265
 6185.5000    12.3749   139.6934
 6186.0000    10.9696   181.4742
 6186.5000    10.1992   236.7690
 6187.0000     9.8973   278.9598
 6187.5000    10.1467   320.9460
 6188.0000    10.6415   367.4365
 6188.5000    10.6461   424.7789
 6189.0000    10.4063   483.7592
 6189.5000     8.9440   525.7452
 6190.0000     7.7262   569.7808
 6190.5000     6.7529   579.6206
 6191.0000     6.5131   584.5464
 6191.5000     7.2245   579.6442
 6192.0000     9.4383   540.3440
 6192.5000    10.5362   512.7137
 6193.0000    11.2953   497.7788
 6193.5000    11.6724   490.6253
 6194.0000    11.9226   485.5201
 6194.5000    12.6608   477.3423
 6195.0000    13.6435   438.4521
 6195.5000    14.6261   390.3481
 6196.0000    14.6308   365.9970
 6196.5000    15.1596   353.7238
 6197.0000    15.9014   353.3251
 6197.5000    16.1119   368.4894
 6198.0000    14.5707   385.7003
 6198.5000    14.1653   403.3219
 6199.0000    15.2692   410.2939
 6199.5000    15.9899   396.1706
 6200.0000    13.9364   350.5057
 6200.5000    11.9093   279.6802
 6201.0000    10.4472   228.5008
 6201.5000    11.7833   203.9705
 6202.0000    13.9299   211.3533
 6202.5000    15.0275   235.9351
 6203.0000    13.6486   265.4309
 6203.5000    11.7491   282.6418
 6204.0000    11.0358   292.4816
 6204.5000    11.2842   272.8328
 6205.0000    11.7772   207.3217
 6205.5000    12.5146   172.7358
 6206.0000    12.0295   161.4889
 6206.5000     9.0994   155.3562
 6207.0000     6.3986   136.5356
 6207.5000     5.5477   121.1979
 6208.0000     3.8210   108.3047
 6208.5000     3.0027   127.9745
 6209.0000     3.7401   155.0133
 6209.5000     1.4646   164.8531
 6210.0000     1.0689   167.3219
 6210.5000     2.7758   176.9574
 6211.0000     3.0243   225.9050
 6211.5000     4.2507   260.0843
 6212.0000     4.8306   297.5621
 6212.5000     3.5251   359.4098
 6213.0000     4.5070   400.7958
 6213.5000     5.0000   431.5231
 6214.0000     4.9729   457.3484
 6214.5000     4.7146   489.3012
 6215.0000     4.5227   494.2270
 6215.5000     4.8581   491.7818
 6216.0000     5.8590   447.5676
 6216.5000     6.1262   377.1420
 6217.0000     6.6379   305.9243
 6217.5000     7.7228   293.6747
 6218.0000     8.4602   303.5381
 6218.5000     9.4421   346.5750
 6219.0000     9.2015   399.3848
 6219.5000     8.7165   475.5187
 6220.0000     7.9775   582.9281
 6220.5000     7.7188   619.8450
 6221.0000     7.5057   636.6755
 6221.5000     8.1281   635.7066
 6222.0000     9.1479   601.1362
 6222.5000     9.4743   561.8594
 6223.0000     8.9929   537.3248
 6223.5000     8.0155   525.0753
 6224.0000     8.0203   522.6536
 6224.5000     7.0462   558.3170
 6225.0000     5.0941   584.1524
 6225.5000     4.3645   606.2978
 6226.0000     4.3560   576.8550
 6226.5000     5.8514   543.3245
 6227.0000     7.3591   524.1157
 6227.5000     8.1760   509.1954
 6228.0000     9.0297   513.1263
 6228.5000     7.7355   522.9897
 6229.0000     6.2501   537.7671
 6229.5000     6.5880   550.0875
 6230.0000     7.2264   557.4938
 6230.5000     8.0733   546.4742
 6231.0000     8.3217   510.0655
 6231.5000     9.0591   469.1523
 6232.0000     8.8185   438.0672
 6232.5000     7.1110   397.3587
 6233.0000     6.1369   390.6388
 6233.5000     6.6508   395.9992
 6234.0000     7.1231   425.1165
 6234.5000     7.4300   464.4639
 6235.0000     7.6202   498.8973
 6235.5000     7.5286   523.5027
 6236.0000     7.3839   535.8231
 6236.5000     7.6532   509.0377
 6237.0000     8.3708   459.3203
 6237.5000     8.6192   420.4546
 6238.0000     8.3786   390.1884
 6238.5000     8.6270   378.7592
 6239.0000     9.1199   383.7101
 6239.5000     7.1679   401.7649
 6240.0000     3.9756   435.3867
 6240.5000     3.4719   459.9922
 6241.0000     2.9686   469.8555
 6241.5000     2.5381   467.4339
 6242.0000     3.4614   465.0123
 6242.5000     4.5916   473.6512
 6243.0000     5.7438   509.7274
 6243.5000     6.7123   536.3809
 6244.0000     6.4711   552.7928
 6244.5000     6.7201   566.5479
 6245.0000     7.7020   580.7125
 6245.5000     8.4395   576.4496
 6246.0000     8.4473   556.2221
 6246.5000     8.1881   539.0585
 6247.0000     8.2402   519.4378
 6247.5000     9.2412   494.9032
 6248.0000     9.7529   472.8256
 6248.5000    10.0200   472.8624
 6249.0000    11.6979   477.8183
 6249.5000    13.1174   531.3037
 6250.0000    12.1442   563.0664
 6250.5000    12.0664   567.8071
 6251.0000    13.1301   544.2748
 6251.5000    14.6010   473.0909
 6252.0000    15.0939   377.3032
 6252.5000    15.3424   357.6825
 6253.0000    17.3480   360.1749
 6253.5000    19.0784   313.5273
 6254.0000    20.0490   284.0786
 6254.5000    20.8050   228.6252
 6255.0000    20.9855   202.2506
 6255.5000    19.6989   190.2076
 6256.0000    18.4263   191.6806
 6256.5000    18.3089   202.7765
 6257.0000    18.5581   216.7247
 6257.5000    18.5621   222.5062
 6258.0000    17.8325   210.6693
 6258.5000    16.6139   200.8767
 6259.0000    16.6078   195.9980
 6259.5000    17.1193   200.9474
 6260.0000    17.6037   213.2678
 6260.5000    17.0734   240.5365
 6261.0000    16.3251   245.6921
 6261.5000    15.8215   236.7199
 6262.0000    15.4189   201.1502
 6262.5000    15.5438   179.4694
 6263.0000    16.1614   170.4939
 6263.5000    16.8996   170.7309
 6264.0000    17.1481   174.2565
 6264.5000    15.4405   181.6629
 6265.0000    14.7109   189.0693
 6265.5000    14.2259   194.0187
 6266.0000    13.9799   171.9410
 6266.5000    13.7447   128.7756
 6267.0000    13.9935   101.5807
 6267.5000    14.0589    90.3563
 6268.0000    16.0275    88.5445
 6268.5000    18.1622    95.5487
 6269.0000    18.1663   103.3661
 6269.5000    17.6288   101.9697
 6270.0000    14.9967    98.5317
 6270.5000    14.2671   103.4811
 6271.0000    13.2930   120.7155
 6271.5000    11.3410   167.4339
 6272.0000    10.1224   182.2113
 6272.5000     9.8818   192.2809
 6273.0000    10.4166   199.8935
 6273.5000    11.7203   208.7346
 6274.0000    13.6652   229.8608
 6274.5000    17.3865   264.7052
 6275.0000    17.4809   296.6830
 6275.5000    17.2412   327.6372
 6276.0000    18.2431   361.8732
 6276.5000    19.4506   408.5916
 6277.0000    18.7211   460.2241
 6277.5000    17.7470   502.0285
 6278.0000    18.2399   534.0049
 6278.5000    18.2438   588.9215
 6279.0000    17.2698   660.6142
 6279.5000    16.7847   723.9189
 6280.0000    16.4720   766.7485
 6280.5000    14.4273   806.7117
 6281.0000    13.8625   841.3513
 6281.5000    14.0506   882.3383
 6282.0000    15.0704   934.7971
 6282.5000    15.0844   956.9454
 6283.0000    13.3912   976.6368
 6283.5000    13.3951   974.2152
 6284.0000    14.6215   930.0246
 6284.5000    16.0924   865.7640
 6285.0000    16.3635   793.3068
 6285.5000    15.3668   700.9934
 6286.0000    17.3843   624.6630
 6286.5000    19.1088   558.3658
 6287.0000    20.4249   502.6772
 6287.5000    21.2510   424.1474
 6288.0000    19.1667   375.0427
 6288.5000    15.4517   340.6801
 6289.0000    14.7877   330.8875
 6289.5000    14.6667   330.9228
 6290.0000    13.2036   330.9582
 6290.5000    10.7625   334.6831
 6291.0000     9.2995   381.4080
 6291.5000     9.2774   450.2559
 6292.0000     9.3073   541.6172
 6292.5000     8.5550   614.7487
 6293.0000     7.8482   670.2758
 6293.5000     8.1940   724.3439
 6294.0000     8.9685   758.7774
