~VERSION INFORMATION
 VERS.                2.0:   CWLS LOG ASCII STANDARD - VERSION 2.0
 WRAP.                 NO:   ONE LINE PER DEPTH STEP
~WELL INFORMATION
#MNEM.UNIT      DATA TYPE    INFORMATION
#----------   ------------   ------------------------------
 STRT.F          200.5000:   START DEPTH
 STOP.F         3012.5000:   STOP DEPTH
 STEP.F            0.5000:   STEP LENGTH
 NULL.          -999.2500:   NO VALUE
 COMP.    FENIX & SCISSON:   COMPANY
 WELL.  FENIX "AX" #75-29:   WELL
 FLD .              NPR-3:   FIELD
 LOC .      S29 T39N R78W:   LOCATION
 CNTY.            NATRONA:   COUNTY
 STAT.            WYOMING:   STATE
 CTRY. UNITED STATES OF AMERICA:   COUNTRY
 SRVC.           BIRDWELL:   SERVICE COMPANY
 DATE.        15-FEB-1978:   LOGDATE
 API .     49025105830000:   API NUMBER
~CURVE INFORMATION
#MNEM.UNIT       API CODE    CURVE DESCRIPTION
#----------   ------------   ------------------------------
 DEPT.F                  :   
 GRD .GAPI   45 310 01 00:   GAMMA RAY FROM DENSITY LOG
 CALD.IN     45 280 60 00:   CALIPER FROM DENSITY LOG
 DEN .G/C3   45 350 01 00:   BULK DENSITY
 DCOR.G/C3   45 356 01 00:   DENSITY CORRECTION
 SPR .MV     05 010 01 00:   SPONTANEOUS POTENTIAL
 SN  .OHMM   05 040 16 00:   SHORT NORMAL 16"
 RILD.OHMM   05 120 46 00:   DEEP INDUCTION RESISTIVITY
~PARAMETER INFORMATION
#MNEM.UNIT          VALUE    DESCRIPTION
#----------   ------------   ------------------------------
 EKB .F         5042.0000:   Kelly bushing
 EGL .F         5032.0000:   Ground level
 EDF .F            0.0000:   Drilling floor
 TD  .F         3010.0000:   Total depth
 DATE.        15-FEB-1978:   Date logged
 CLNT.            A2DTECH:   Client Code
 SL  . 2550' FSL & 950' FEL:   Surface Location
 PD  .                 GL:   Permanent Datum
 EPD .F              5032:   Elevation Permanent Datum
 LMF .                 KB:   Log Measured From
 DMF .                 KB:   Drilling Measured From
 DAPD.F                10:   Feet Above Permanent Datum
 DD  .F              3010:   Depth driller
 DL  .F              3010:   Depth logger
 BLI .F              3002:   Bottom log interval
 TLI .F               200:   Top log interval
 CS1 .IN            8.625:   Casing size
 CBD1.      8.625" @ 222':   Casing driller 1
 CBL1.F               222:   Casing logger 1
 BS1 .IN            7.875:   Bit size
 BSD1.F              3010:   Depth drilled with bit1
 DFT .         LIGNO/SULF:   Type fluid in hole
 DFD .                9.1:   Density
 DFV .                 33:   Viscosity
 DFPH.                 10:   pH
 DFL .                4.9:   Fluid loss
 MSS .           FLOWLINE:   Source of sample
 RMS .OHMM              2:   Rm
 MST .F                66:   Rm Meas. temp.
 RMF .OHMM            2.2:   Rmf
 MFST.F                58:   Rmf Meas. temp.
 RMC .OHMM            1.8:   Rmc
 MCST.F                60:   Rmc Meas. temp.
 MFSS.               MEAS:   Source Rmf.
 RMB .OHMM            1.7:   Rm. at BHT
 BHT .F               118:   BHT.
 TCS .HRS               5:   Time Circ. stopped
 MRT .F               118:   Maximum recorded temp.
 LUN .               2958:   Logging unit number
 LUL .               CASP:   Logging unit location
 ENGI.            POINTER:   Recorded By
 WITN.           MCGINLEY:   Witnessed by
 ORIG.           5" PRINT:   Origin of data
 UWI .     49025105830000:   Unique Well ID
 DICO. A2D TECHNOLOGIES, INC.:   Digitizing Company
~OTHER INFORMATION
~A   DEPT       GRD      CALD        DEN       DCOR        SPR         SN       RILD   
# ...
 2794.0000   104.5960     8.0960     2.4810     0.0670   -38.2600     5.3300     4.6600
 2794.5000   104.9180     8.0940     2.4950     0.0670   -38.2130     5.3160     4.6600
 2795.0000   104.7670     8.0920     2.4990     0.0670   -38.1650     5.3020     4.6600
 2795.5000   104.3040     8.0900     2.5000     0.0670   -38.0470     5.3250     4.6600
 2796.0000   105.1410     8.0880     2.5010     0.0670   -37.8860     5.3470     4.6590
 2796.5000   105.7300     8.0860     2.5020     0.0670   -37.7440     5.3690     4.7110
 2797.0000   103.3610     8.0840     2.5020     0.0670   -37.7490     5.3910     4.7960
 2797.5000    99.5990     8.0820     2.5030     0.0670   -37.7490     5.4610     4.8810
 2798.0000    96.2350     8.0800     2.5090     0.0690   -37.7490     5.5520     4.9710
 2798.5000    96.9700     8.0790     2.5150     0.0710   -37.7500     5.7550     5.0070
 2799.0000    96.8260     8.0790     2.5250     0.0730   -37.7490     5.9690     5.0630
 2799.5000    97.3300     8.0790     2.5270     0.0760   -37.7410     6.1830     5.0240
 2800.0000    95.9190     8.0790     2.5140     0.0820   -38.1000     6.3470     4.9210
 2800.5000    94.0820     8.0790     2.5110     0.0920   -38.5900     6.0490     4.7550
 2801.0000    98.0190     8.0790     2.5170     0.0980   -39.0790     5.7510     4.3920
 2801.5000   107.6380     8.0790     2.5230     0.1120   -39.2940     5.4530     3.9380
 2802.0000   127.5520     8.0890     2.5210     0.1310   -39.2320     4.7740     3.5450
 2802.5000   135.5050     8.1040     2.5120     0.1290   -39.0300     4.1620     3.3750
 2803.0000   135.1140     8.1200     2.5010     0.1260   -38.7730     3.8770     3.3750
 2803.5000   127.5770     8.1690     2.4830     0.1040   -38.5160     3.7010     3.4150
 2804.0000   113.4920     8.2410     2.4740     0.0740   -38.2590     3.8170     3.4550
 2804.5000    98.7380     8.3480     2.4640     0.0650   -38.0020     3.9590     3.4940
 2805.0000    93.9250     8.3090     2.4850     0.0850   -37.8470     4.1020     3.5340
 2805.5000    93.9730     8.2370     2.5070     0.0970   -37.7190     4.6400     3.8060
 2806.0000    94.1410     8.2380     2.5230     0.0980   -37.5900     5.2900     4.1920
 2806.5000    91.3330     8.2380     2.5360     0.1060   -37.4620     5.6960     4.7680
 2807.0000    90.6090     8.2380     2.5350     0.1050   -37.3820     6.0140     5.5010
 2807.5000    91.7220     8.2370     2.5330     0.1320   -37.6060     6.1910     5.3510
 2808.0000    93.4520     8.2490     2.5440     0.1400   -37.8340     6.2760     5.4700
 2808.5000    91.4170     8.2660     2.5530     0.1400   -37.9480     6.3170     5.5520
 2809.0000    90.9330     8.2830     2.5440     0.1370   -37.8980     6.2690     5.1580
 2809.5000    94.5870     8.3000     2.5350     0.1250   -37.8290     6.1700     5.1800
 2810.0000   101.2810     8.3160     2.5220     0.1140   -37.7590     6.0710     5.2050
 2810.5000   102.6260     8.3140     2.5050     0.1000   -37.8700     5.9770     5.0670
 2811.0000   102.4000     8.3100     2.5120     0.0800   -38.0100     5.8750     5.0780
 2811.5000   100.2500     8.3060     2.5070     0.0680   -38.1510     5.7610     5.1000
 2812.0000    95.8100     8.3030     2.5030     0.0680   -38.2920     5.8050     5.1230
 2812.5000    95.8870     8.3000     2.5180     0.0680   -38.4310     5.8580     5.1460
 2813.0000    97.3810     8.2970     2.5360     0.0690   -38.5390     5.9110     5.1680
 2813.5000    99.0570     8.2970     2.5460     0.0700   -38.4750     5.9220     5.2020
 2814.0000   103.0580     8.2970     2.5410     0.0730   -38.4150     5.9220     5.1490
 2814.5000   106.9430     8.2970     2.5310     0.0870   -38.3560     5.8750     4.9970
 2815.0000   113.1170     8.2970     2.5300     0.1010   -38.2960     5.7440     4.8350
 2815.5000   120.5610     8.2900     2.5290     0.1160   -38.2350     5.5440     4.4510
 2816.0000   129.0660     8.2750     2.5250     0.1390   -38.1760     5.2060     4.1130
 2816.5000   136.3870     8.1740     2.5210     0.1630   -38.0150     4.8690     3.9110
 2817.0000   136.0880     8.0690     2.5170     0.1750   -37.7590     4.5310     3.8950
 2817.5000   131.3470     7.9770     2.5020     0.1400   -37.5030     4.1930     3.8780
 2818.0000   116.6760     7.9370     2.4770     0.1140   -37.2460     3.9480     3.8750
 2818.5000   105.9640     7.9280     2.4590     0.1120   -36.9900     4.3200     3.9710
 2819.0000   101.3380     7.9210     2.4920     0.1150   -36.9540     4.6140     4.1780
 2819.5000    98.2660     7.9230     2.5150     0.1180   -37.0300     5.1350     4.5130
 2820.0000    95.0000     7.9250     2.5220     0.1210   -37.2090     5.6990     4.8730
 2820.5000    93.4210     7.9270     2.5350     0.1230   -37.3690     6.1650     5.2320
 2821.0000    95.6450     7.9300     2.5500     0.1200   -37.4360     6.2600     5.4330
 2821.5000    93.7250     7.9320     2.5440     0.1180   -37.5060     6.3550     5.5940
 2822.0000    92.0030     7.9340     2.5310     0.1160   -37.6050     6.6400     5.7610
 2822.5000    94.8130     7.9360     2.5270     0.1180   -37.7530     6.9920     5.9220
 2823.0000    99.0030     7.9380     2.5280     0.1180   -37.9010     7.0110     6.0160
 2823.5000    98.9070     7.9400     2.5380     0.1190   -38.0450     7.0310     6.1140
 2824.0000    93.8180     7.9420     2.5450     0.1200   -38.0870     7.0510     6.2120
 2824.5000    84.8490     7.9450     2.5380     0.1200   -37.8630     7.1900     6.2590
 2825.0000    82.2910     7.9470     2.5450     0.1210   -37.6500     7.4480     6.2590
 2825.5000    82.6100     7.9490     2.5390     0.1210   -37.4360     7.5270     6.3100
 2826.0000    87.8760     7.9510     2.5320     0.1250   -37.2110     7.5270     6.4130
 2826.5000    92.3650     7.9530     2.5350     0.1280   -37.3210     7.8090     6.5170
 2827.0000    92.6350     7.9550     2.5380     0.1280   -37.5620     7.7860     6.6200
 2827.5000    92.2020     7.9570     2.5350     0.1290   -37.8000     7.7640     6.7230
 2828.0000    92.8740     7.9600     2.5340     0.1290   -37.7820     7.7380     6.8260
 2828.5000    91.2930     7.9640     2.5370     0.1320   -37.1420     7.8360     6.9270
 2829.0000    87.9670     7.9690     2.5350     0.1350   -37.4510     7.9550     6.8010
 2829.5000    84.6250     7.9740     2.5290     0.1380   -37.7350     7.9550     6.8710
 2830.0000    83.3380     7.9790     2.5240     0.1500   -37.5570     7.9550     6.9270
 2830.5000    83.4750     7.9900     2.5340     0.1590   -37.3580     7.9070     6.7890
 2831.0000    87.1400     8.0030     2.5400     0.1640   -37.1590     7.7770     6.6470
 2831.5000    91.6020     8.0170     2.5360     0.1580   -36.9540     7.6150     6.5550
 2832.0000    96.1460     8.0300     2.5410     0.1330   -37.1980     7.2600     6.3640
 2832.5000    97.6120     8.0430     2.5120     0.1200   -37.5370     6.9050     6.1450
 2833.0000    96.9480     8.0560     2.5020     0.1190   -37.7330     6.5510     5.9350
 2833.5000   101.7530     8.0700     2.4960     0.1200   -37.9260     6.1960     5.6420
 2834.0000   112.7870     8.0830     2.4920     0.1190   -37.9500     5.8410     5.1790
 2834.5000   159.9920     8.0960     2.4880     0.1370   -38.0060     5.5520     4.6390
 2835.0000   158.7710     8.1030     2.4880     0.1570   -38.2430     5.2670     4.1000
 2835.5000   166.1090     8.1080     2.4930     0.1640   -38.4760     4.8720     3.7410
 2836.0000   170.0000     8.1130     2.4840     0.1180   -38.7210     4.4770     3.6330
 2836.5000   140.3640     8.1180     2.4520     0.0680   -38.3690     4.0960     3.7920
 2837.0000   125.3120     8.1230     2.4200     0.0150   -37.9220     4.0210     3.9130
 2837.5000    97.1100     8.1280     2.3950     0.0330   -37.8860     4.0770     4.0580
 2838.0000    80.6360     8.1330     2.4610     0.0540   -38.1080     4.3690     4.0210
 2838.5000    79.1750     8.1380     2.5200     0.0660   -38.0160     4.9520     4.3570
 2839.0000    81.7260     8.1410     2.5320     0.0660   -37.8550     6.5100     5.1760
