~VERSION INFORMATION
 VERS.                2.0:   CWLS LOG ASCII STANDARD - VERSION 2.0
 WRAP.                 NO:   ONE LINE PER DEPTH STEP
~WELL INFORMATION
#MNEM.UNIT      DATA TYPE    INFORMATION
#----------   ------------   ------------------------------
 STRT.F          200.5000:   START DEPTH
 STOP.F         3012.5000:   STOP DEPTH
 STEP.F            0.5000:   STEP LENGTH
 NULL.          -999.2500:   NO VALUE
 COMP.    FENIX & SCISSON:   COMPANY
 WELL.  FENIX "AX" #75-29:   WELL
 FLD .              NPR-3:   FIELD
 LOC .      S29 T39N R78W:   LOCATION
 CNTY.            NATRONA:   COUNTY
 STAT.            WYOMING:   STATE
 CTRY. UNITED STATES OF AMERICA:   COUNTRY
 SRVC.           BIRDWELL:   SERVICE COMPANY
 DATE.        15-FEB-1978:   LOGDATE
 API .     49025105830000:   API NUMBER
~CURVE INFORMATION
#MNEM.UNIT       API CODE    CURVE DESCRIPTION
#----------   ------------   ------------------------------
 DEPT.F                  :   
 GRD .GAPI   45 310 01 00:   GAMMA RAY FROM DENSITY LOG
 CALD.IN     45 280 60 00:   CALIPER FROM DENSITY LOG
 DEN .G/C3   45 350 01 00:   BULK DENSITY
 DCOR.G/C3   45 356 01 00:   DENSITY CORRECTION
 SPR .MV     05 010 01 00:   SPONTANEOUS POTENTIAL
 SN  .OHMM   05 040 16 00:   SHORT NORMAL 16"
 RILD.OHMM   05 120 46 00:   DEEP INDUCTION RESISTIVITY
~PARAMETER INFORMATION
#MNEM.UNIT          VALUE    DESCRIPTION
#----------   ------------   ------------------------------
 EKB .F         5042.0000:   Kelly bushing
 EGL .F         5032.0000:   Ground level
 EDF .F            0.0000:   Drilling floor
 TD  .F         3010.0000:   Total depth
 DATE.        15-FEB-1978:   Date logged
 CLNT.            A2DTECH:   Client Code
 SL  . 2550' FSL & 950' FEL:   Surface Location
 PD  .                 GL:   Permanent Datum
 EPD .F              5032:   Elevation Permanent Datum
 LMF .                 KB:   Log Measured From
 DMF .                 KB:   Drilling Measured From
 DAPD.F                10:   Feet Above Permanent Datum
 DD  .F              3010:   Depth driller
 DL  .F              3010:   Depth logger
 BLI .F              3002:   Bottom log interval
 TLI .F               200:   Top log interval
 CS1 .IN            8.625:   Casing size
 CBD1.      8.625" @ 222':   Casing driller 1
 CBL1.F               222:   Casing logger 1
 BS1 .IN            7.875:   Bit size
 BSD1.F              3010:   Depth drilled with bit1
 DFT .         LIGNO/SULF:   Type fluid in hole
 DFD .                9.1:   Density
 DFV .                 33:   Viscosity
 DFPH.                 10:   pH
 DFL .                4.9:   Fluid loss
 MSS .           FLOWLINE:   Source of sample
 RMS .OHMM              2:   Rm
 MST .F                66:   Rm Meas. temp.
 RMF .OHMM            2.2:   Rmf
 MFST.F                58:   Rmf Meas. temp.
 RMC .OHMM            1.8:   Rmc
 MCST.F                60:   Rmc Meas. temp.
 MFSS.               MEAS:   Source Rmf.
 RMB .OHMM            1.7:   Rm. at BHT
 BHT .F               118:   BHT.
 TCS .HRS               5:   Time Circ. stopped
 MRT .F               118:   Maximum recorded temp.
 LUN .               2958:   Logging unit number
 LUL .               CASP:   Logging unit location
 ENGI.            POINTER:   Recorded By
 WITN.           MCGINLEY:   Witnessed by
 ORIG.           5" PRINT:   Origin of data
 UWI .     49025105830000:   Unique Well ID
 DICO. A2D TECHNOLOGIES, INC.:   Digitizing Company
~OTHER INFORMATION
~A   DEPT       GRD      CALD        DEN       DCOR        SPR         SN       RILD   
# ...
 1884.0000    98.0760     8.3170     2.4980     0.0860   -50.8800    10.9590     8.9680
 1884.5000   100.7020     8.2850     2.4900     0.0860   -50.8970    10.8810     8.9640
 1885.0000   101.4730     8.2500     2.4800     0.0880   -50.8960    10.8680     8.9540
 1885.5000   101.3370     8.2140     2.4770     0.0900   -50.8970    10.8550     8.9430
 1886.0000   102.5990     8.1790     2.4750     0.0920   -50.8960    10.8410     8.9330
 1886.5000   107.2670     8.1430     2.4800     0.0940   -50.8570    10.8280     8.9220
 1887.0000   109.9690     8.1070     2.4850     0.0950   -50.8140    10.8140     8.9120
 1887.5000   109.8470     8.0700     2.4940     0.0960   -50.7710    10.8010     8.9010
 1888.0000   104.4950     8.0510     2.5040     0.0970   -50.7280    10.7830     8.8910
 1888.5000   100.8580     8.0310     2.5110     0.0890   -50.6850    10.7890     8.8850
 1889.0000   101.8020     8.0120     2.5000     0.0820   -50.6420    10.8010     8.8850
 1889.5000   106.5340     7.9940     2.4850     0.0850   -50.5990    10.8120     8.8850
 1890.0000   107.8940     7.9760     2.4830     0.0870   -50.5570    10.8240     8.8850
 1890.5000   100.2430     7.9580     2.4850     0.0880   -50.5090    10.8350     8.8850
 1891.0000    99.0270     7.9400     2.4880     0.0900   -50.6610    10.8470     8.8850
 1891.5000    99.6400     7.9230     2.4890     0.0920   -50.9030    10.8590     8.8850
 1892.0000   103.1180     7.9040     2.4910     0.0940   -51.0680    10.8700     8.8850
 1892.5000   108.0030     7.9010     2.4920     0.0950   -50.9040    10.8820     8.8850
 1893.0000   110.1930     7.9010     2.4990     0.0950   -50.7480    10.8930     8.8850
 1893.5000   109.5290     7.9000     2.5070     0.0940   -50.5940    10.9050     8.8850
 1894.0000   106.9760     7.8990     2.5090     0.0940   -50.4880    10.9170     8.8850
 1894.5000   105.3270     7.8970     2.5070     0.0930   -50.4610    10.9280     8.8850
 1895.0000   105.7700     7.8960     2.5030     0.0910   -50.4340    10.9400     8.8850
 1895.5000   102.7560     7.8950     2.4960     0.0900   -50.4070    10.9510     8.8850
 1896.0000   101.5360     7.8940     2.4850     0.0880   -50.3810    10.9630     8.8850
 1896.5000   101.9320     7.8930     2.4910     0.0880   -50.3540    10.9740     8.8850
 1897.0000   102.3160     7.8910     2.4990     0.0890   -50.3240    10.9840     8.8850
 1897.5000   100.6370     7.8900     2.5040     0.0910   -50.3100    10.9540     8.8850
 1898.0000    98.5480     7.8890     2.5010     0.0940   -50.9590    10.9280     8.8850
 1898.5000    98.1270     7.8880     2.4970     0.0910   -51.2910    10.9010     8.8850
 1899.0000    98.5520     7.8870     2.4940     0.0920   -51.2870    10.8470     8.8850
 1899.5000   100.7660     7.8850     2.4930     0.0960   -51.1510    10.7320     8.8850
 1900.0000   108.7890     7.8840     2.4930     0.0990   -50.8940    10.6170     8.8850
 1900.5000   117.4770     7.8830     2.5000     0.1030   -50.5940    10.4890     8.8530
 1901.0000   120.6390     7.8820     2.5150     0.0980   -50.6950    10.5260     8.7860
 1901.5000   120.0470     7.8810     2.5240     0.0910   -50.6710    10.5790     8.7200
 1902.0000   116.3420     7.8780     2.5080     0.0860   -50.0780    10.5120     8.6540
 1902.5000   108.0590     7.8760     2.4920     0.0850   -50.0320    10.4030     8.5710
 1903.0000   106.8880     7.8740     2.4860     0.0850   -49.9790    10.5380     8.6420
 1903.5000   107.3200     7.8710     2.4860     0.0900   -49.9230    10.7660     8.7640
 1904.0000   104.7050     7.8690     2.4910     0.0900   -50.0270    10.9950     8.8870
 1904.5000   102.1610     7.8670     2.4920     0.0860   -50.2310    11.0860     9.0100
 1905.0000   102.2730     7.8640     2.4930     0.0830   -50.4370    11.0860     9.1350
 1905.5000   102.4170     7.8620     2.4940     0.0840   -50.6490    11.0860     9.0910
 1906.0000   100.5610     7.8600     2.4950     0.0800   -50.6770    11.0860     9.0350
 1906.5000    99.4940     7.8570     2.4960     0.0850   -50.6540    11.0860     8.9790
 1907.0000   100.0350     7.8550     2.5000     0.0900   -50.6290    11.0860     8.9230
 1907.5000   100.2000     7.8530     2.5030     0.0910   -50.6040    11.0860     8.8850
 1908.0000    98.2240     7.8500     2.5020     0.0920   -50.5790    11.0860     8.8850
 1908.5000    97.7320     7.8480     2.5010     0.0930   -50.5540    11.0860     8.8850
 1909.0000    98.5030     7.8460     2.5010     0.0940   -50.5290    11.0750     8.8850
 1909.5000   101.8090     7.8430     2.5010     0.0950   -50.5040    11.0590     8.8850
 1910.0000   105.6580     7.8420     2.5020     0.0950   -50.4790    11.0430     8.8850
 1910.5000   105.6700     7.8440     2.5020     0.0950   -50.4540    11.0260     8.8850
 1911.0000   106.1110     7.8450     2.5030     0.0950   -50.4290    11.0100     8.8850
 1911.5000   108.7870     7.8470     2.5060     0.0950   -50.4040    10.9940     8.8850
 1912.0000   110.8380     7.8480     2.5090     0.0930   -50.3790    10.9780     8.8850
 1912.5000   110.0840     7.8500     2.5120     0.0890   -50.3540    10.9620     8.8860
 1913.0000   106.8570     7.8510     2.4990     0.0850   -50.3290    10.9460     8.8840
 1913.5000   106.6630     7.8530     2.4860     0.0850   -50.3040    10.9300     8.9130
 1914.0000   106.8730     7.8550     2.4850     0.0910   -50.2790    10.9130     8.9610
 1914.5000   110.7450     7.8560     2.4910     0.0920   -50.2540    10.8970     9.0100
 1915.0000   110.6710     7.8580     2.4970     0.0930   -50.2290    10.8850     9.0510
 1915.5000   107.3120     7.8590     2.5010     0.0930   -50.2040    10.8960     8.9420
 1916.0000   106.8140     7.8610     2.4950     0.0950   -50.1790    10.9080     8.8270
 1916.5000   106.8620     7.8540     2.4930     0.0970   -50.1550    10.9190     8.7220
 1917.0000   107.6270     7.8350     2.4950     0.1000   -50.1290    10.9300     8.7110
 1917.5000   107.6010     7.8160     2.5130     0.1010   -50.1000    10.9420     8.7010
 1918.0000   105.7860     7.7970     2.5150     0.0980   -50.2210    10.9530     8.6900
 1918.5000   102.9500     7.7780     2.5120     0.0960   -50.3680    10.9640     8.6790
 1919.0000   102.5130     7.7590     2.5080     0.0940   -50.5170    10.9760     8.6690
 1919.5000   103.0800     7.7430     2.5020     0.0910   -50.6660    10.9830     8.6580
 1920.0000   106.1950     7.7440     2.4950     0.0890   -50.8150    10.9550     8.6450
 1920.5000   106.5140     7.7460     2.4920     0.0870   -50.9640    10.9310     8.6540
 1921.0000   105.9140     7.7480     2.4920     0.0840   -51.0720    10.9080     8.6720
 1921.5000   106.8380     7.7500     2.4730     0.0830   -50.8880    10.8840     8.6900
 1922.0000   108.2210     7.7510     2.4740     0.0880   -50.7000    10.8840     8.7080
 1922.5000   108.7870     7.7530     2.4820     0.0940   -50.5130    10.8830     8.7230
 1923.0000   109.0390     7.7550     2.4920     0.0990   -50.3260    10.8830     8.6250
 1923.5000   108.7070     7.7570     2.4920     0.1040   -50.3300    10.8830     8.5410
 1924.0000   111.5670     7.7580     2.4970     0.1030   -50.3660    10.8830     8.4560
 1924.5000   113.6190     7.7600     2.5060     0.1020   -50.4030    10.8830     8.3300
 1925.0000   113.8390     7.7620     2.5070     0.0980   -50.4390    10.8830     8.3350
 1925.5000   109.8650     7.7630     2.5020     0.0950   -50.4750    10.8830     8.3450
 1926.0000   109.8640     7.7650     2.4960     0.0950   -50.4980    10.8830     8.3550
 1926.5000   111.6070     7.7670     2.4950     0.0950   -50.4980    10.8830     8.3640
 1927.0000   110.8490     7.7690     2.4970     0.0950   -50.4980    10.8830     8.3740
 1927.5000   107.7050     7.7700     2.4920     0.0950   -50.4970    10.8840     8.3840
 1928.0000   107.4580     7.7720     2.4910     0.0950   -50.4670    10.8980     8.3940
 1928.5000   108.2070     7.7740     2.4910     0.0940   -50.3540    10.9120     8.4060
 1929.0000   111.6490     7.7750     2.4900     0.0890   -50.2450    10.9270     8.3920
