~VERSION INFORMATION
 VERS.                2.0:   CWLS LOG ASCII STANDARD - VERSION 2.0
 WRAP.                 NO:   ONE LINE PER DEPTH STEP
~WELL INFORMATION
#MNEM.UNIT      DATA TYPE    INFORMATION
#----------   ------------   ------------------------------
 STRT.F          150.0000:   START DEPTH
 STOP.F         2980.0000:   STOP DEPTH
 STEP.F            0.5000:   STEP LENGTH
 NULL.          -999.2500:   NO VALUE
 COMP. FENIX & SCISSION U.S. NAVY:   COMPANY
 WELL.   FENIX "A" #84-20:   WELL
 FLD .             NPR #3:   FIELD
 LOC .      S20 T39N R78W:   LOCATION
 CNTY.            NATRONA:   COUNTY
 STAT.            WYOMING:   STATE
 CTRY. UNITED STATES OF AMERICA:   COUNTRY
 SRVC.       SCHLUMBERGER:   SERVICE COMPANY
 DATE.        21-FEB-1977:   LOGDATE
 API .     49025103020000:   API NUMBER
~CURVE INFORMATION
#MNEM.UNIT       API CODE    CURVE DESCRIPTION
#----------   ------------   ------------------------------
 DEPT.F                  :   
 NPHI.DEC    42 890 03 00:   NEUTRON POROSITY SANDSTONE
 GRD .GAPI   45 310 01 00:   GAMMA RAY FROM DENSITY LOG
 CALD.IN     45 280 60 00:   CALIPER FROM DENSITY LOG
 RHOB.G/C3   45 350 01 00:   BULK DENSITY
 DCOR.G/C3   45 356 01 00:   DENSITY CORRECTION
 SPR .MV     07 010 01 00:   SPONTANEOUS POTENTIAL
 LLD .OHMM   11 220 10 00:   LATEROLOG DEEP
 LLS .OHMM   11 220 09 00:   LATEROLOG SHALLOW
 MSFL.OHMM   07 270 04 00:   MICRO SPHERICALLY FOCUSED RES.
~PARAMETER INFORMATION
#MNEM.UNIT          VALUE    DESCRIPTION
#----------   ------------   ------------------------------
 EKB .F         5006.0000:   Kelly bushing
 EGL .F         4996.0000:   Ground level
 EDF .F            0.0000:   Drilling floor
 TD  .F         2973.0000:   Total depth
 DATE.        21-FEB-1977:   Date logged
 CLNT.            A2DTECH:   Client Code
 SL  . 330' FEL & 2310' FNL:   Surface Location
 PD  .                 GL:   Permanent Datum
 EPD .F              4996:   Elevation Permanent Datum
 LMF .                 KB:   Log Measured From
 DMF .                 KB:   Drilling Measured From
 DAPD.F                10:   Feet Above Permanent Datum
 DD  .F              2973:   Depth driller
 DL  .F              2971:   Depth logger
 BLI .F              2970:   Bottom log interval
 TLI .F               164:   Top log interval
 CS1 .IN            8.625:   Casing size
 CBD1.      8.625" @ 167':   Casing driller 1
 CBL1.F               164:   Casing logger 1
 BS1 .IN            7.875:   Bit size
 BSD1.F              2973:   Depth drilled with bit1
 DFT .            KCL MUD:   Type fluid in hole
 DFD .                9.5:   Density
 DFV .                 35:   Viscosity
 DFPH.                6.5:   pH
 DFL .                 11:   Fluid loss
 MSS .              CIRC.:   Source of sample
 RMS .OHMM           0.27:   Rm
 MST .F                72:   Rm Meas. temp.
 RMF .OHMM           0.19:   Rmf
 MFST.F                72:   Rmf Meas. temp.
 RMC .OHMM           0.35:   Rmc
 MCST.F                72:   Rmc Meas. temp.
 MFSS.               MEAS:   Source Rmf.
 MCSS.               CALC:   Source Rmc.
 RMB .OHMM           0.18:   Rm. at BHT
 BHT .F               110:   BHT.
 TCS .HRS            0300:   Time Circ. stopped
 TLAB.HRS            1000:   Time logger at bottom
 MRT .F               110:   Maximum recorded temp.
 LUN .               7711:   Logging unit number
 LUL .               CSPR:   Logging unit location
 ENGI.             SAYLER:   Recorded By
 WITN.               JAPP:   Witnessed by
 ORIG.           5" PRINT:   Origin of data
 UWI .     49025103020000:   Unique Well ID
 DICO. A2D TECHNOLOGIES, INC.:   Digitizing Company
~OTHER INFORMATION
~A   DEPT       NPHI       GRD      CALD       RHOB       DCOR        SPR        LLD        LLS       MSFL   
# ...
  697.5000     0.3660   122.2540    10.5640     2.5210     0.0250   -30.0810     8.7390     9.3220    10.1880
  698.0000     0.3690   122.3210    10.5480     2.5170     0.0270   -30.0790     8.6750     9.2950    10.1520
  698.5000     0.3680   121.4960    10.5330     2.5140     0.0310   -30.0730     8.5850     9.2680    10.0930
  699.0000     0.3630   119.9340    10.5180     2.5100     0.0240   -29.9640     8.6890     9.2410     9.9460
  699.5000     0.3540   117.8430    10.5090     2.5080     0.0210   -29.8520     8.8600     9.3980    10.3690
  700.0000     0.3340   115.7400    10.5190     2.5310     0.0300   -29.7350     9.0320     9.5280     9.7130
  700.5000     0.3210   115.0660    10.5280     2.5320     0.0250   -29.6210     9.2040     9.6590     9.9230
  701.0000     0.3150   114.7640    10.5370     2.5330     0.0200   -29.5070     9.3760     9.7650    10.3430
  701.5000     0.3120   110.9740    10.5470     2.5480     0.0290   -29.3920     9.6670    10.4340    10.7630
  702.0000     0.3050   108.9600    10.5560     2.5570     0.0410   -29.2780    10.3200    10.9950    11.1060
  702.5000     0.2990   107.6450    10.5660     2.5590     0.0380   -29.1630    10.9730    11.5560    11.3120
  703.0000     0.2940   105.8690    10.5560     2.5550     0.0340   -29.0470    11.6260    12.1170    12.3760
  703.5000     0.3020   102.5030    10.5440     2.5500     0.0330   -28.9410    12.2790    12.6780    13.4620
  704.0000     0.3110   100.4220    10.5320     2.5290     0.0320   -28.7530    13.3470    13.5950    14.3650
  704.5000     0.3140    98.6150    10.5300     2.5360     0.0380   -28.4960    13.2920    13.5530    14.2810
  705.0000     0.3140    97.4950    10.5360     2.5300     0.0290   -28.2310    13.1410    13.4380    14.2080
  705.5000     0.3110    98.8810    10.5430     2.5240     0.0250   -28.0530    12.9900    13.3240    14.1040
  706.0000     0.3070   101.2520    10.5490     2.5290     0.0350   -28.0070    12.8390    13.2100    14.3650
  706.5000     0.3060   103.2530    10.5550     2.5400     0.0430   -27.9410    12.6880    13.0950    13.5400
  707.0000     0.3060   103.9330    10.5620     2.5320     0.0370   -27.8790    12.5370    12.9810    13.4670
  707.5000     0.3070   103.8440    10.5650     2.5310     0.0420   -27.8180    12.3860    12.8670    13.3950
  708.0000     0.3140   103.7530    10.5590     2.5450     0.0470   -27.7550    12.2350    12.7520    13.3220
  708.5000     0.3110   103.8970    10.5530     2.5300     0.0330   -27.6940    12.0850    12.6380    13.2490
  709.0000     0.3050   104.0600    10.5470     2.5440     0.0500   -27.6310    11.9530    12.5240    13.1770
  709.5000     0.2990   103.6570    10.5420     2.5330     0.0390   -27.5700    11.9780    12.4010    13.1040
  710.0000     0.3040   102.8050    10.5360     2.5180     0.0270   -27.5070    12.0000    12.4190    13.0310
  710.5000     0.3060   103.5620    10.5310     2.5190     0.0260   -27.4450    12.0220    12.4400    12.9590
  711.0000     0.3110   103.1420    10.5250     2.5100     0.0230   -27.3860    12.0440    12.4590    12.8870
  711.5000     0.3140   102.3450    10.5200     2.5010     0.0130   -27.3120    12.0660    12.4780    12.8400
  712.0000     0.3130   102.5130    10.5140     2.4960     0.0190   -27.3620    12.0880    12.4980    12.8030
  712.5000     0.3110   103.9400    10.5080     2.5070     0.0240   -27.5320    12.1100    12.5170    12.7660
  713.0000     0.3100   105.4890    10.5130     2.5070     0.0290   -27.6890    12.1330    12.5370    12.7290
  713.5000     0.3060   106.8830    10.5200     2.5210     0.0400   -27.8470    12.1550    12.5570    12.6920
  714.0000     0.3020   107.0810    10.5280     2.5170     0.0260   -28.0070    12.1750    12.5760    12.6390
  714.5000     0.3010   105.9790    10.5360     2.5140     0.0200   -28.1640    12.0450    12.5970    12.7320
  715.0000     0.2950   104.0260    10.5440     2.5260     0.0250   -28.3240    11.9250    12.6260    13.2670
  715.5000     0.2920   102.2320    10.5510     2.5390     0.0270   -28.4820    11.8060    12.5800    13.2510
  716.0000     0.2980   102.4240    10.5590     2.5350     0.0200   -28.6390    11.6870    12.3960    12.9040
  716.5000     0.3000   104.4580    10.5670     2.5280     0.0180   -28.8070    11.5680    12.2110    12.5570
  717.0000     0.3030   106.0340    10.5750     2.5210     0.0180   -28.8920    11.4490    12.0270    12.2090
  717.5000     0.3040   107.1370    10.5830     2.5130     0.0170   -28.8820    11.3090    11.8430    12.0160
  718.0000     0.3040   107.3890    10.5900     2.5120     0.0170   -28.8850    11.3140    11.5670    12.2570
  718.5000     0.3060   107.4990    10.5970     2.5300     0.0310   -28.8850    11.3140    11.5910    12.4980
  719.0000     0.3070   107.4700    10.6040     2.5390     0.0380   -28.8840    11.3090    11.8640    13.4560
  719.5000     0.3080   107.2680    10.6110     2.5300     0.0420   -28.8850    11.3120    12.1380    14.1040
  720.0000     0.3100   105.8170    10.6170     2.5340     0.0450   -28.8840    11.2370    12.8740    12.7480
  720.5000     0.3110   105.7530    10.6240     2.5270     0.0320   -28.8840    11.0700    12.8650    11.5380
  721.0000     0.3170   107.0930    10.6310     2.5280     0.0420   -28.8840    10.9020    12.4030    11.6090
  721.5000     0.3200   108.4080    10.6380     2.5180     0.0360   -28.8840    10.7050    11.8510    11.6800
  722.0000     0.3230   108.8160    10.6450     2.5030     0.0280   -28.8840    10.7600    11.3120    11.7500
  722.5000     0.3230   108.1530    10.6520     2.5020     0.0260   -28.8840    10.8260    11.3840    11.8210
  723.0000     0.3210   106.4140    10.6590     2.5030     0.0270   -28.8840    10.8930    11.4540    11.8920
  723.5000     0.3210   105.4280    10.6620     2.4980     0.0280   -28.8840    10.9590    11.5240    11.9630
  724.0000     0.3180   105.1960    10.6470     2.5120     0.0340   -28.8840    11.0260    11.5950    12.0330
  724.5000     0.3140   105.2370    10.6310     2.5080     0.0390   -28.8840    11.1060    11.6650    12.1040
  725.0000     0.3130   105.4120    10.6160     2.5040     0.0350   -28.8840    11.1060    11.7350    12.1750
  725.5000     0.3120   105.2270    10.6010     2.5160     0.0380   -28.8840    11.1060    11.6690    12.0530
  726.0000     0.3100   104.4460    10.5870     2.5240     0.0410   -28.8840    11.1060    11.6020    11.9320
  726.5000     0.3110   105.1320    10.6050     2.5230     0.0450   -28.8840    11.1060    11.3120    11.7350
  727.0000     0.3130   105.9080    10.6260     2.5210     0.0410   -28.8840    11.1060    11.3930    11.8630
  727.5000     0.3110   106.8160    10.6440     2.5220     0.0310   -28.8840    11.1060    11.7350    12.4010
  728.0000     0.3080   107.9620    10.6240     2.5140     0.0210   -28.8840    11.1060    11.7020    12.2960
  728.5000     0.3070   108.9770    10.6030     2.5130     0.0230   -28.8840    11.1060    11.6130    12.0200
  729.0000     0.3100   108.5840    10.5820     2.5140     0.0270   -28.8840    11.1060    11.5220    11.7350
  729.5000     0.3150   107.8880    10.5610     2.5070     0.0160   -28.8840    11.1070    11.6260    11.7830
  730.0000     0.3140   107.6540    10.5400     2.5210     0.0250   -28.8840    11.1050    11.7350    11.8320
  730.5000     0.3130   107.9910    10.5190     2.5360     0.0440   -28.8840    11.1020    11.8430    11.8820
  731.0000     0.3140   107.5240    10.5090     2.5600     0.0570   -28.8840    11.1660    11.9520    11.9310
  731.5000     0.3170   103.7890    10.5130     2.5770     0.0600   -28.8840    11.3410    12.0600    12.3200
  732.0000     0.3210   102.6420    10.5180     2.5800     0.0480   -28.8840    11.5160    12.1750    12.9880
  732.5000     0.3250   103.1850    10.5220     2.5700     0.0490   -28.8840    11.7190    12.1060    13.6550
  733.0000     0.3290   104.4270    10.5270     2.5470     0.0430   -28.8840    11.6840    12.0330    14.3650
  733.5000     0.3270   107.2210    10.5310     2.5340     0.0390   -28.8840    11.6140    11.9600    12.8680
