~VERSION INFORMATION
 VERS.                2.0:   CWLS LOG ASCII STANDARD - VERSION 2.0
 WRAP.                 NO:   ONE LINE PER DEPTH STEP
~WELL INFORMATION
#MNEM.UNIT      DATA TYPE    INFORMATION
#----------   ------------   ------------------------------
 STRT.F          204.0000:   START DEPTH
 STOP.F         3040.0000:   STOP DEPTH
 STEP.F            0.5000:   STEP LENGTH
 NULL.          -999.2500:   NO VALUE
 COMP.    FENIX & SCISSON:   COMPANY
 WELL.   FENIX "A" #47-21:   WELL
 FLD .            N P R 3:   FIELD
 LOC .      S21 T39N R78W:   LOCATION
 CNTY.            NATRONA:   COUNTY
 STAT.            WYOMING:   STATE
 CTRY. UNITED STATES OF AMERICA:   COUNTRY
 SRVC.              WELEX:   SERVICE COMPANY
 DATE.        20-JUN-1977:   LOGDATE
 API .     49025103820000:   API NUMBER
~CURVE INFORMATION
#MNEM.UNIT       API CODE    CURVE DESCRIPTION
#----------   ------------   ------------------------------
 DEPT.F                  :   
 SPR .MV     07 010 01 00:   SPONTANEOUS POTENTIAL
 ILM .OHMM   07 120 44 00:   INDUCTION LOG MEDIUM RESISTIVITY
 ILD .OHMM   07 120 46 00:   DEEP INDUCTION RESISTIVITY
 SGRD.OHMM   07 220 05 00:   SHALLOW GUARD LOG RESISTIVITY
 GRD .GAPI   45 310 01 00:   GAMMA RAY FROM DENSITY LOG
 CALD.IN     45 280 60 00:   CALIPER FROM DENSITY LOG
 RHOB.G/C3   45 350 01 00:   BULK DENSITY
 CORR.G/C3   45 356 01 00:   DENSITY CORRECTION
~PARAMETER INFORMATION
#MNEM.UNIT          VALUE    DESCRIPTION
#----------   ------------   ------------------------------
 EKB .F         5010.0000:   Kelly bushing
 EGL .F         5000.0000:   Ground level
 EDF .F            0.0000:   Drilling floor
 TD  .F         3050.0000:   Total depth
 DATE.        20-JUN-1977:   Date logged
 CLNT.            A2DTECH:   Client Code
 SL  . 990' FSL & 2310' FWL:   Surface Location
 PD  .                 GL:   Permanent Datum
 DD  .F              3050:   Depth driller
 DL  .F              3039:   Depth logger
 BLI .F              3037:   Bottom log interval
 CS1 .IN            8.625:   Casing size
 CBD1.      8.625" @ 210':   Casing driller 1
 CBL1.F               215:   Casing logger 1
 BS1 .IN            7.875:   Bit size
 DFT .                KCL:   Type fluid in hole
 DFD .                9.3:   Density
 DFV .                 35:   Viscosity
 DFPH.                7.5:   pH
 DFL .                7.2:   Fluid loss
 MSS .             MUDPIT:   Source of sample
 RMS .OHMM            .22:   Rm
 MST .F                80:   Rm Meas. temp.
 RMF .OHMM            .19:   Rmf
 MFST.F                80:   Rmf Meas. temp.
 RMC .OHMM            .35:   Rmc
 MCST.F                80:   Rmc Meas. temp.
 MFSS.               MEAS:   Source Rmf.
 RMB .OHMM            .15:   Rm. at BHT
 BHT .F               111:   BHT.
 TCS .HRS               4:   Time Circ. stopped
 MRT .F               111:   Maximum recorded temp.
 LUN .               8766:   Logging unit number
 LUL .             CAPSER:   Logging unit location
 ENGI.          T. JOYNER:   Recorded By
 WITN.         PETTINGILL:   Witnessed by
 ORIG.           5" PRINT:   Origin of data
 UWI .     49025103820000:   Unique Well ID
 DICO. A2D TECHNOLOGIES, INC.:   Digitizing Company
 DAPD.                 10:   Feet Above Permanent Datum
 BSD1.               3050:   Depth drilled with bit1
 MCSS.               MEAS:   Source Rmc.
 EPD .               5000:   Elevation Permanent Datum
 LMF .                 KB:   Log Measured From
 DMF .                 KB:   Drilling Measured From
 TLI .                215:   Top log interval
~OTHER INFORMATION
~A   DEPT      SPR        ILM        ILD       SGRD         GRD        CALD       RHOB      CORR  
# ...
 1500.0000   -28.7440     8.8700     7.7880    10.3290    83.9150    11.7300     2.4930     0.0070
 1500.5000   -28.7270     8.8350     7.8030    10.2180    83.6360    11.7080     2.4940     0.0070
 1501.0000   -28.7100     8.8000     7.8190    10.1070    83.3420    11.6890     2.4960     0.0060
 1501.5000   -28.6930     8.7650     7.8340    10.0050    83.0710    11.6620     2.4970     0.0070
 1502.0000   -28.6750     8.7190     7.8500    10.1310    82.7840    11.6810     2.4970     0.0070
 1502.5000   -28.6580     8.7450     7.8650    10.2850    82.4940    11.6890     2.4970     0.0070
 1503.0000   -28.6410     8.7830     7.8810    10.1740    82.3690    11.6910     2.4960     0.0080
 1503.5000   -28.6230     8.8200     7.8970     9.9140    82.7170    11.6840     2.4950     0.0080
 1504.0000   -28.6060     8.8580     7.9120    10.0440    83.0550    11.7250     2.4940     0.0090
 1504.5000   -28.5940     8.8960     7.9280    10.2370    83.4090    11.7480     2.4940     0.0090
 1505.0000   -28.4290     8.9340     7.9430    10.3790    83.7560    11.7650     2.4930     0.0090
 1505.5000   -28.2440     8.9710     7.9550    10.2000    84.1050    11.7790     2.4920     0.0100
 1506.0000   -28.0560     9.0090     7.9130    10.0050    84.4540    11.7960     2.4910     0.0100
 1506.5000   -27.8690     9.0450     7.8810    10.2090    84.8020    11.8120     2.4930     0.0100
 1507.0000   -27.6810     8.9550     7.8480    10.5720    85.1520    11.8280     2.4960     0.0110
 1507.5000   -27.4940     8.8150     7.8150    10.3760    85.5000    11.8440     2.4990     0.0110
 1508.0000   -27.3060     8.6760     7.7820    10.1440    85.8490    11.8600     2.5010     0.0110
 1508.5000   -27.1190     8.5360     7.7490     9.9120    86.2000    11.8750     2.5010     0.0120
 1509.0000   -26.9320     8.3970     7.7160     9.7340    86.5410    11.8920     2.4990     0.0120
 1509.5000   -26.7440     8.2570     7.6830     9.9190    86.9000    11.9070     2.4980     0.0120
 1510.0000   -26.5570     8.1770     7.6500    10.0980    87.0240    11.9240     2.4960     0.0120
 1510.5000   -26.4110     8.2230     7.6170    10.0470    87.2240    11.9250     2.4950     0.0120
 1511.0000   -26.5280     8.2610     7.5660     9.9640    87.4690    11.9250     2.4950     0.0120
 1511.5000   -26.6470     8.2990     7.4880     9.8820    87.7230    11.9260     2.4960     0.0120
 1512.0000   -26.7650     8.3370     7.4100     9.8000    87.9660    11.9260     2.4980     0.0110
 1512.5000   -26.8830     8.3750     7.3320     9.7340    88.2090    11.9550     2.5000     0.0110
 1513.0000   -27.0010     8.4050     7.2540     9.9320    88.4760    11.9680     2.5010     0.0110
 1513.5000   -27.1190     8.4470     7.1890    10.1910    88.5240    11.9240     2.5030     0.0110
 1514.0000   -27.2370     8.5000     7.1770     9.9720    88.3460    11.7940     2.5040     0.0110
 1514.5000   -27.3550     8.5530     7.1660     9.6960    88.2040    11.6790     2.5050     0.0100
 1515.0000   -27.4730     8.6060     7.1540     9.4700    88.0570    11.5630     2.5030     0.0100
 1515.5000   -27.5920     8.6590     7.1420     9.6230    87.8630    11.4540     2.5020     0.0100
 1516.0000   -27.7100     8.7120     7.1260     9.7800    88.0450    11.4560     2.5000     0.0100
 1516.5000   -27.8280     8.7650     7.2120    10.0050    88.8520    11.4850     2.4990     0.0100
 1517.0000   -27.9460     8.8180     7.3620     9.9730    89.6200    11.5250     2.5010     0.0100
 1517.5000   -28.0640     8.8710     7.5130     9.9140    90.4910    11.5610     2.5040     0.0100
 1518.0000   -28.1820     8.9240     7.6640     9.9630    90.8680    11.5680     2.5050     0.0100
 1518.5000   -28.3000     8.9770     7.8140    10.0140    90.4280    11.5090     2.5010     0.0090
 1519.0000   -28.4190     9.0300     7.8820    10.0640    90.0810    11.4440     2.4980     0.0090
 1519.5000   -28.5370     9.0830     7.8820    10.2470    89.7070    11.3720     2.4930     0.0090
 1520.0000   -28.6260     9.1240     7.8820    10.6800    89.3370    11.3330     2.4910     0.0090
 1520.5000   -28.6950     9.0890     7.8820    10.9670    88.9630    11.3680     2.4910     0.0090
 1521.0000   -28.7640     9.0550     7.8820    10.5770    88.5600    11.3980     2.4940     0.0090
 1521.5000   -28.8330     9.0210     7.8820    10.2860    87.6970    11.4340     2.4950     0.0090
 1522.0000   -28.9020     8.9870     7.8820     9.9950    86.7940    11.4550     2.4980     0.0080
 1522.5000   -28.9710     8.9530     7.8240     9.8530    85.8660    11.4520     2.5000     0.0080
 1523.0000   -29.0400     8.9190     7.7140     9.7680    84.9750    11.4520     2.5020     0.0090
 1523.5000   -29.1090     8.8850     7.6030     9.6830    84.0590    11.4420     2.5040     0.0090
 1524.0000   -29.1820     8.8510     7.4920     9.5570    83.6460    11.4300     2.5050     0.0100
 1524.5000   -29.3070     8.8160     7.3810     9.6330    83.4490    11.4190     2.5030     0.0100
 1525.0000   -29.4410     8.7210     7.2700     9.7820    83.0920    11.4070     2.5000     0.0100
 1525.5000   -29.5760     8.5640     7.1260     9.9320    83.8760    11.3960     2.4970     0.0100
 1526.0000   -29.7110     8.4080     7.1310    10.0820    85.7270    11.3850     2.4940     0.0090
 1526.5000   -29.8460     8.3120     7.1390    10.0030    85.5490    11.3730     2.4910     0.0090
 1527.0000   -29.9800     8.2800     7.1470     9.8960    84.0550    11.3620     2.4880     0.0080
 1527.5000   -30.1150     8.2480     7.1550     9.7890    82.9770    11.3500     2.4850     0.0080
 1528.0000   -30.2500     8.2160     7.1620     9.6100    82.4820    11.3390     2.4820     0.0070
 1528.5000   -30.3760     8.1840     7.1700     9.2120    81.9660    11.3340     2.4790     0.0060
 1529.0000   -30.3790     8.1510     7.1780     9.4180    81.5230    11.3350     2.4760     0.0060
 1529.5000   -30.3790     8.1190     7.1860     9.8540    81.5060    11.3350     2.4730     0.0050
 1530.0000   -30.3780     8.0870     7.1940    10.0980    81.4830    11.3350     2.4720     0.0050
 1530.5000   -30.3780     8.0550     7.2010     9.7340    81.4740    11.3350     2.4740     0.0040
 1531.0000   -30.3780     8.0230     7.2090     9.9060    80.6530    11.3350     2.4760     0.0030
 1531.5000   -30.3790     7.9910     7.2170    10.0430    79.9030    11.3350     2.4780     0.0030
 1532.0000   -30.3780     7.9580     7.2250    10.1800    79.7850    11.3350     2.4800     0.0020
 1532.5000   -30.3770     7.9260     7.2330    10.2850    79.6640    11.3340     2.4820     0.0030
 1533.0000   -30.3780     7.8940     7.2400     9.7010    79.5550    11.3350     2.4850     0.0030
 1533.5000   -30.2510     7.8540     7.2490     9.0450    79.4410    11.3350     2.4870     0.0040
 1534.0000   -30.0270     7.8110     7.2570     9.3140    79.3280    11.3510     2.4900     0.0040
 1534.5000   -30.0350     7.7670     7.2190     9.6370    79.2160    11.3690     2.4930     0.0040
 1535.0000   -30.1040     7.7230     7.1710     9.8420    79.1020    11.3880     2.4950     0.0050
 1535.5000   -30.1740     7.6790     7.1240     9.8850    78.9900    11.4060     2.4940     0.0050
 1536.0000   -30.2450     7.6350     7.0770     9.9280    78.8760    11.4250     2.4920     0.0060
 1536.5000   -30.3160     7.5920     7.0300     9.9710    78.7650    11.4440     2.4920     0.0060
 1537.0000   -30.3860     7.5480     6.9820    10.0050    78.6490    11.4530     2.4940     0.0070
 1537.5000   -30.4570     7.5040     6.9350     9.7160    78.5350    11.4540     2.4960     0.0090
 1538.0000   -30.5250     7.4600     6.8880     9.4270    78.4400    11.4600     2.4970     0.0080
 1538.5000   -30.5310     7.5810     6.8690     9.1390    78.0090    11.4660     2.4950     0.0080
 1539.0000   -30.3390     7.7020     6.8690     8.9710    76.8910    11.4720     2.4930     0.0080
 1539.5000   -30.1540     7.8240     6.8690     9.0440    75.8410    11.4780     2.4910     0.0090
 1540.0000   -29.9810     7.9450     6.8690     9.1030    74.7180    11.4830     2.4890     0.0090
