~VERSION INFORMATION
 VERS.                2.0:   CWLS LOG ASCII STANDARD - VERSION 2.0
 WRAP.                 NO:   ONE LINE PER DEPTH STEP
~WELL INFORMATION
#MNEM.UNIT      DATA TYPE    INFORMATION
#----------   ------------   ------------------------------
 STRT.F          502.0000:   START DEPTH
 STOP.F         4210.0000:   STOP DEPTH
 STEP.F            0.5000:   STEP LENGTH
 NULL.          -999.2500:   NO VALUE
 COMP.   FENIX & SCISSION:   COMPANY
 WELL. FENIX NPR 3 "JX" #43-34:   WELL
 FLD .              N P R:   FIELD
 LOC .      S34 T39N R78W:   LOCATION
 CNTY.            NATRONA:   COUNTY
 STAT.            WYOMING:   STATE
 CTRY. UNITED STATES OF AMERICA:   COUNTRY
 SRVC.              WELEX:   SERVICE COMPANY
 DATE.        05-FEB-1979:   LOGDATE
 API .     49025107690000:   API NUMBER
~CURVE INFORMATION
#MNEM.UNIT       API CODE    CURVE DESCRIPTION
#----------   ------------   ------------------------------
 DEPT.F                  :   
 TENR.LBS    07 635 01 00:   TENSION FROM RESISTIVITY
 SPR .MV     07 010 01 00:   SPONTANEOUS POTENTIAL
 SFL .OHMM   07 220 01 00:   SHALLOW FOCUSED LOG RESISTIVITY
 ILD .OHMM   07 120 46 00:   DEEP INDUCTION RESISTIVITY
 ILM .OHMM   07 120 44 00:   INDUCTION LOG MEDIUM RESISTIVITY
 TEND.LBS    45 635 01 00:   TENSION FROM DENSITY LOG
 CALD.IN     45 280 60 00:   CALIPER FROM DENSITY LOG
 GRD .GAPI   45 310 01 00:   GAMMA RAY FROM DENSITY LOG
 CORR.G/C3   45 356 01 00:   DENSITY CORRECTION
 NPHI.DEC    42 890 03 00:   NEUTRON POROSITY SANDSTONE
 RHOB.G/C3   45 350 01 00:   BULK DENSITY
~PARAMETER INFORMATION
#MNEM.UNIT          VALUE    DESCRIPTION
#----------   ------------   ------------------------------
 EKB .F         5108.0000:   Kelly bushing
 EGL .F         5098.0000:   Ground level
 TD  .F         4204.0000:   Total depth
 DATE.        05-FEB-1979:   Date logged
 CLNT.            A2DTECH:   Client Code
 SL  . 1627' FNL & 2110' FWL:   Surface Location
 PD  .                 GL:   Permanent Datum
 DD  .F              4200:   Depth driller
 DL  .F              4204:   Depth logger
 BLI .F              4202:   Bottom log interval
 CS1 .IN            8.625:   Casing size
 CBD1.      8.625" @ 506':   Casing driller 1
 CBL1.F               506:   Casing logger 1
 BS1 .IN            7.875:   Bit size
 DFT .           CHEM/GEL:   Type fluid in hole
 DFD .                9.2:   Density
 DFV .                 55:   Viscosity
 DFPH.                9.5:   pH
 DFL .                5.7:   Fluid loss
 MSS .            MUD/PIT:   Source of sample
 RMS .OHMM            1.1:   Rm
 MST .F                52:   Rm Meas. temp.
 RMF .OHMM            .45:   Rmf
 MFST.F                52:   Rmf Meas. temp.
 RMC .OHMM            1.8:   Rmc
 MCST.F                52:   Rmc Meas. temp.
 MFSS.               MEAS:   Source Rmf.
 RMB .OHMM           5.06:   Rm. at BHT
 BHT .F               128:   BHT.
 TCS .HRS               8:   Time Circ. stopped
 MRT .F               128:   Maximum recorded temp.
 LUN .               9685:   Logging unit number
 LUL .             CASPER:   Logging unit location
 ENGI.        KEIN/JOINER:   Recorded By
 WITN.        J. DINSMORE:   Witnessed by
 ORIG.           5" PRINT:   Origin of data
 UWI .     49025107690000:   Unique Well ID
 DICO. A2D TECHNOLOGIES, INC.:   Digitizing Company
 DAPD.F                10:   Feet Above Permanent Datum
 BSD1.F              4200:   Depth drilled with bit1
 MCSS.               MEAS:   Source Rmc.
 EPD .F              5098:   Elevation Permanent Datum
 LMF .                 KB:   Log Measured From
 DMF .                 KB:   Drilling Measured From
 TLI .F               500:   Top log interval
~OTHER INFORMATION
~A   DEPT     TENR        SPR        SFL        ILD        ILM        TEND        CALD       GRD        CORR       NPHI       RHOB 
# ...
 3430.0000  1517.7780   -45.6180     3.5760     3.1780     2.8120  1589.5370     8.9330   206.8060    -0.0330     0.2860     2.4010
 3430.5000  1517.8190   -45.6180     3.6020     3.1850     2.8110  1589.5370     8.9310   206.8350    -0.0300     0.2840     2.3970
 3431.0000  1517.8590   -45.6180     3.6280     3.1910     2.8210  1589.5370     8.9300   206.2960    -0.0290     0.2820     2.3950
 3431.5000  1517.9000   -45.6180     3.6550     3.1970     2.8380  1589.5370     8.9280   205.0360    -0.0260     0.2800     2.4000
 3432.0000  1517.9399   -45.6180     3.6810     3.2380     2.8540  1589.5370     8.9270   203.8890    -0.0250     0.2830     2.4130
 3432.5000  1517.9800   -45.6180     3.7070     3.3020     2.8700  1589.5370     8.9250   202.5520    -0.0180     0.2820     2.4340
 3433.0000  1518.0210   -45.6180     3.7650     3.3660     2.8860  1589.5370     8.9240   201.9590    -0.0190     0.2810     2.4110
 3433.5000  1518.0610   -45.6180     3.8230     3.4310     2.9020  1589.5370     8.9230   202.2740    -0.0240     0.2800     2.3950
 3434.0000  1518.1010   -45.6180     4.0650     3.5080     2.9180  1589.5370     8.9210   206.7390    -0.0280     0.2800     2.3890
 3434.5000  1518.1420   -45.6180     3.9910     3.4610     2.9340  1589.5370     8.9200   212.7170    -0.0330     0.2800     2.3940
 3435.0000  1518.1820   -45.6180     3.9370     3.4020     2.9500  1589.5370     8.9180   213.3130    -0.0290     0.2810     2.4010
 3435.5000  1518.2230   -45.6180     3.8470     3.3430     2.9650  1589.5370     8.9170   213.9240    -0.0220     0.2810     2.4030
 3436.0000  1518.2629   -45.6180     3.7760     3.2970     2.9720  1589.5370     8.9150   214.0330    -0.0140     0.2830     2.4050
 3436.5000  1518.3030   -45.6180     3.7350     3.2600     2.9460  1589.5370     8.9140   215.5170    -0.0100     0.2820     2.4100
 3437.0000  1518.3440   -45.6180     3.7020     3.2230     2.9130  1589.5370     8.9120   215.2390     0.0020     0.2800     2.4140
 3437.5000  1518.3840   -45.6180     3.6680     3.1850     2.8800  1589.5370     8.9110   214.7760     0.0000     0.2830     2.4060
 3438.0000  1518.4250   -45.6180     3.6340     3.1410     2.8480  1589.5370     8.9090   215.7260    -0.0060     0.2870     2.4010
 3438.5000  1518.4650   -45.6180     3.6000     3.1000     2.8150  1589.5370     8.9080   217.8120    -0.0130     0.2890     2.3940
 3439.0000  1518.5050   -45.6180     3.5730     3.0490     2.7820  1589.5370     8.9060   219.8410    -0.0200     0.2880     2.3910
 3439.5000  1518.5460   -45.6180     3.4290     2.9990     2.7500  1589.5370     8.9050   220.2880    -0.0230     0.2880     2.3780
 3440.0000  1518.5861   -45.6180     3.2690     2.9480     2.7100  1589.5370     8.9030   219.8120    -0.0260     0.2780     2.3670
 3440.5000  1518.6270   -45.6180     3.0830     2.9180     2.6950  1589.5370     8.9020   219.3700    -0.0290     0.2770     2.3610
 3441.0000  1518.6670   -45.6180     3.0830     2.8590     2.6570  1589.5370     8.9000   218.8880    -0.0270     0.2770     2.3680
 3441.5000  1518.7070   -45.6180     3.0830     2.8000     2.6180  1589.5370     8.8970   219.2820    -0.0250     0.2740     2.3720
 3442.0000  1518.7480   -45.6180     3.0560     2.7410     2.5800  1589.5370     8.8920   220.8040    -0.0220     0.2700     2.3710
 3442.5000  1518.7880   -45.6180     3.0100     2.6820     2.5420  1589.5370     8.8870   222.3190    -0.0200     0.2660     2.3610
 3443.0000  1518.8290   -45.6180     2.9640     2.6230     2.5030  1589.5370     8.8820   223.5760    -0.0180     0.2620     2.3510
 3443.5000  1518.8690   -45.6180     2.9180     2.5650     2.4650  1589.5370     8.8770   222.4910    -0.0160     0.2600     2.3500
 3444.0000  1518.9091   -45.6180     2.9720     2.5450     2.4270  1589.5370     8.8730   225.8680    -0.0060     0.2620     2.3510
 3444.5000  1518.9500   -45.6170     2.9450     2.5260     2.3880  1589.5370     8.8680   229.7460    -0.0010     0.2590     2.3440
 3445.0000  1518.9900   -45.6180     2.9110     2.4720     2.3500  1589.5370     8.8630   231.7290    -0.0140     0.2560     2.3250
 3445.5000  1519.0310   -45.6180     2.8780     2.3490     2.3120  1589.5370     8.8600   235.7830    -0.0230     0.2620     2.3090
 3446.0000  1519.0710   -45.6170     2.8640     2.2470     2.2360  1589.5370     8.8600   239.1190    -0.0250     0.2680     2.2970
 3446.5000  1519.1110   -45.6190     2.7490     2.1450     2.1360  1589.5370     8.8580   242.3440    -0.0210     0.2750     2.3340
 3447.0000  1519.1520   -45.6060     2.5030     2.0430     2.0350  1589.5370     8.8540   237.7160    -0.0100     0.2780     2.3630
 3447.5000  1519.1920   -45.5830     2.1570     1.9400     1.9350  1589.5370     8.8510   232.7740    -0.0050     0.2820     2.3940
 3448.0000  1519.2330   -45.5610     1.7740     1.8370     1.8350  1589.5370     8.8480   227.8300    -0.0130     0.2800     2.4050
 3448.5000  1519.2729   -45.5400     1.7740     1.7740     1.7740  1589.5370     8.8450   222.9110    -0.0190     0.2770     2.3930
 3449.0000  1519.3130   -45.5180     1.8240     1.8240     1.7910  1589.5370     8.8410   215.9850    -0.0230     0.2770     2.3630
 3449.5000  1519.3540   -45.4960     2.1100     1.9570     1.8070  1589.5370     8.8380   208.7800    -0.0240     0.2770     2.3770
 3450.0000  1519.3940   -45.4740     2.6110     2.1630     1.8750  1589.5370     8.8350   200.4970    -0.0190     0.2760     2.3860
 3450.5000  1519.4351   -45.4530     3.1110     2.3680     2.0050  1589.5370     8.8320   196.8270    -0.0140     0.2760     2.3980
 3451.0000  1519.4750   -45.4310     3.5150     2.6120     2.1130  1589.5370     8.8280   198.7230    -0.0170     0.2770     2.3930
 3451.5000  1519.5150   -45.4090     3.5470     2.6980     2.2210  1589.5370     8.8250   201.3160    -0.0260     0.2780     2.3800
 3452.0000  1519.5560   -45.3870     3.7070     2.8640     2.3290  1589.5370     8.8220   202.7200    -0.0290     0.2770     2.3840
 3452.5000  1519.5959   -45.3660     3.6530     2.8580     2.4380  1589.5370     8.8200   203.5500    -0.0220     0.2760     2.3960
 3453.0000  1519.6360   -45.3440     3.5240     2.8410     2.5650  1589.5370     8.8200   203.0830    -0.0140     0.2800     2.4070
 3453.5000  1519.6770   -45.3220     3.3950     2.8250     2.6120  1589.5370     8.8200   202.7250    -0.0060     0.2900     2.4160
 3454.0000  1519.7170   -45.3000     3.2650     2.7610     2.5900  1589.5370     8.8200   202.3840     0.0030     0.2930     2.4060
 3454.5000  1519.7581   -45.2790     3.1410     2.7290     2.5680  1589.5370     8.8200   202.0700     0.0100     0.2920     2.3860
 3455.0000  1519.7980   -45.2570     3.2180     2.6910     2.5460  1589.5370     8.8210   202.8950     0.0110     0.2920     2.3660
 3455.5000  1519.8380   -45.2350     3.3190     2.6540     2.5240  1589.5370     8.8380   203.6130     0.0010     0.2940     2.3510
 3456.0000  1519.8790   -45.2220     3.0450     2.6160     2.5020  1589.5370     8.8530   204.9020    -0.0120     0.2960     2.3360
 3456.5000  1519.9189   -45.2350     2.5180     2.5780     2.4800  1589.5370     8.8690   203.9600    -0.0250     0.2930     2.3580
 3457.0000  1519.9600   -45.2470     2.4700     2.5650     2.4270  1589.5370     8.8830   202.6330    -0.0220     0.2890     2.3830
 3457.5000  1520.0000   -45.2600     2.4270     2.6420     2.4430  1589.5370     8.8990   198.1730    -0.0180     0.2860     2.3920
 3458.0000  1520.0400   -45.2720     2.8030     2.7320     2.4800  1589.5370     8.8960   198.2540    -0.0130     0.2810     2.3960
 3458.5000  1520.0811   -45.2850     3.4330     2.8230     2.5160  1589.5370     8.8920   200.2120    -0.0130     0.2790     2.3900
 3459.0000  1520.1210   -45.2970     3.5460     2.9130     2.5530  1589.5370     8.8880   199.2950    -0.0130     0.2760     2.3840
 3459.5000  1520.1620   -45.3100     3.6580     3.0040     2.5890  1589.5370     8.8840   200.0220    -0.0130     0.2770     2.3760
 3460.0000  1520.2020   -45.3220     3.7700     3.1410     2.6260  1589.5370     8.8800   203.7490    -0.0160     0.2790     2.3790
