~VERSION INFORMATION
 VERS.                2.0:   CWLS LOG ASCII STANDARD - VERSION 2.0
 WRAP.                 NO:   ONE LINE PER DEPTH STEP
~WELL INFORMATION
#MNEM.UNIT      DATA TYPE    INFORMATION
#----------   ------------   ------------------------------
 STRT.F          517.0000:   START DEPTH
 STOP.F         3222.0000:   STOP DEPTH
 STEP.F            0.5000:   STEP LENGTH
 NULL.          -999.2500:   NO VALUE
 COMP.    FENIX & SCISSON:   COMPANY
 WELL.  FENIX "TX" #53-33:   WELL
 FLD .             NPR #3:   FIELD
 LOC .      S33 T39N R78W:   LOCATION
 CNTY.            NATRONA:   COUNTY
 STAT.            WYOMING:   STATE
 CTRY. UNITED STATES OF AMERICA:   COUNTRY
 SRVC.              WELEX:   SERVICE COMPANY
 DATE.        24-AUG-1980:   LOGDATE
 API .     49025108460000:   API NUMBER
~CURVE INFORMATION
#MNEM.UNIT       API CODE    CURVE DESCRIPTION
#----------   ------------   ------------------------------
 DEPT.F                  :   
 CALD.IN     45 280 60 00:   CALIPER FROM DENSITY LOG
 GRD .GAPI   45 310 01 00:   GAMMA RAY FROM DENSITY LOG
 CORR.G/C3   45 356 01 00:   DENSITY CORRECTION
 RHOB.G/C3   45 350 01 00:   BULK DENSITY
 SPR .MV     07 010 01 00:   SPONTANEOUS POTENTIAL
 ILD .OHMM   07 120 46 00:   DEEP INDUCTION RESISTIVITY
 ILM .OHMM   07 120 44 00:   INDUCTION LOG MEDIUM RESISTIVITY
 SGRD.OHMM   07 220 05 00:   SHALLOW SHORT GUARD RESISTIVITY
~PARAMETER INFORMATION
#MNEM.UNIT          VALUE    DESCRIPTION
#----------   ------------   ------------------------------
 EKB .F         5173.0000:   Kelly bushing
 EGL .F         5163.0000:   Ground level
 EDF .F            0.0000:   Drilling floor
 EPD .F            0.0000:   Permanent datum
 TD  .F         3224.0000:   Total depth
 CLNT.            A2DTECH:   Client Code
 SL  . 1650' FNL & 2500' FEL:   Surface Location
 PD  .                 GL:   Permanent Datum
 DAPD.F                10:   Feet Above Permanent Datum
 DATE.        24-AUG-1980:   Date Logged [DD-MMM-YYYY]
 DD  .F              3190:   Depth driller
 DL  .F              3224:   Depth logger
 BLI .F              3222:   Bottom log interval
 TLI .F               528:   Top log interval
 CS1 .IN            8.625:   Casing size
 CBD1.      8.625" @ 532':   Casing driller 1
 CBL1.F               528:   Casing logger 1
 BS1 .IN            7.875:   Bit size
 BSD1.F              3190:   Depth drilled with bit1
 DFT .     WATER BASE MUD:   Type fluid in hole
 DFD .                8.8:   Density
 DFV .                 45:   Viscosity
 DFL .                9.4:   Fluid loss
 MSS .            MUD PIT:   Source of sample
 RMS .OHMM           2.10:   Rm
 MST .F                65:   Rm Meas. temp.
 RMF .OHMM           1.68:   Rmf
 MFST.F                65:   Rmf Meas. temp.
 MFSS.               CALC:   Source Rmf.
 RMC .OHMM           2.52:   Rmc
 MCST.F                65:   Rmc Meas. temp.
 MCSS.               CALC:   Source Rmc.
 RMB .OHMM           1.14:   Rm. at BHT
 BHT .F               120:   BHT.
 TCS .HRS               3:   Time Circ. stopped
 MRT .F               120:   Maximum recorded temp.
 LUN .               1892:   Logging unit number
 LUL .             CASPER:   Logging unit location
 ENGI.           WACHTEIL:   Recorded By
 ORIG.         2.5" PRINT:   Origin of data
 UWI .     49025108460000:   Unique Well ID
 DICO. A2D TECHNOLOGIES, INC.:   Digitizing Company
~OTHER INFORMATION
~A   DEPT     CALD         GRD      CORR       RHOB        SPR        ILD        ILM       SGRD   
# ...
 1934.5000     9.5127   137.9574     0.0325     2.4378   -23.8378     6.2811     9.1316     9.9733
 1935.0000     9.5120   140.9035     0.0311     2.4256   -23.8438     6.2766     9.1052     9.9684
 1935.5000     9.5113   141.1762     0.0246     2.4195   -23.8498     6.2711     8.4693    10.1037
 1936.0000     9.5108   140.0602     0.0200     2.4300   -23.8559     6.2668     8.0169    10.2391
 1936.5000     9.4801   138.7048     0.0350     2.4467   -23.8619     6.2624     7.4299    10.2336
 1937.0000     9.4795   136.4458     0.0530     2.4557   -24.1691     6.3453     7.0506    10.3726
 1937.5000     9.4789   137.3494     0.0559     2.4592   -24.1749     6.3409     7.5856    10.5125
 1938.0000     9.4783   140.0723     0.0558     2.4633   -24.4809     6.3365     9.3462    10.5075
 1938.5000     9.4777   140.9639     0.0526     2.4774   -24.4867     6.4321     9.8727    10.5030
 1939.0000     9.4771   140.7770     0.0560     2.4877   -24.4925     6.5054    10.0050    10.4983
 1939.5000     9.4765   138.8827     0.0629     2.4947   -24.4985     6.5002     9.8610    10.4936
 1940.0000     9.4759   136.6267     0.0724     2.4989   -24.5045     6.4954     9.0692    10.4889
 1940.5000     9.4452   133.7379     0.0836     2.5019   -24.5105     6.4907     8.4465    10.4842
 1941.0000     9.3842   131.9277     0.0791     2.4973   -24.5165     6.4860     8.0673    10.4794
 1941.5000     9.3535   131.4759     0.0579     2.4641   -24.5225     6.5709     7.8815    10.4747
 1942.0000     9.3530   130.9277     0.0548     2.4518   -24.2282     6.5663     8.4991    10.4691
 1942.5000     9.3524   131.9277     0.0547     2.4406   -24.2352     6.5618     9.1573    10.4646
 1943.0000     9.3518   133.2831     0.0515     2.4279   -23.9399     6.5572     9.4910    10.4601
 1943.5000     9.3814   133.7349     0.0333     2.4156   -23.9464     6.5526     9.6772    10.4556
 1944.0000     9.3807   131.8493     0.0302     2.4439   -23.9522     6.5478     9.2769    10.4511
 1944.5000     9.3801   131.4759     0.0521     2.4606   -23.9580     6.5431     8.5320    10.4465
 1945.0000     9.3795   131.9277     0.0647     2.4727   -23.9640     6.5128     8.1799    10.2982
 1945.5000     9.3789   131.9277     0.0721     2.4741   -23.9700     6.4437     8.4075    10.2935
 1946.0000     9.3481   130.5182     0.0590     2.4737   -24.0601     6.4390     9.0270    10.2403
 1946.5000     9.3475   128.3132     0.0507     2.4770   -24.2823     6.4343     9.5597    10.1428
 1947.0000     9.3469   126.5060     0.0536     2.4770   -24.4264     6.5185     9.7703    10.1382
 1947.5000     9.3162   125.1506     0.0595     2.4753   -24.5946     6.5140     9.7131     9.9935
 1948.0000     9.3458   124.2470     0.0533     2.4601   -24.6016     6.5094     9.3698     9.9892
 1948.5000     9.3452   123.3237     0.0472     2.4553   -24.9077     6.5958     9.0850     9.8475
 1949.0000     9.3446   122.8916     0.0380     2.4462   -24.9134     6.5910     7.5940     9.8433
 1949.5000     9.3440   122.8916     0.0318     2.4405   -25.2195     6.5863     7.1805     9.3088
 1950.0000     9.3736   123.6444     0.0483     2.4510   -25.2252     6.5815     7.4807     8.6527
 1950.5000     9.3857   125.2815     0.0648     2.4615   -25.2312     6.5767     8.7066     8.4414
 1951.0000     9.4181   125.3645     0.0688     2.4690   -25.2372     6.6034     9.3297    10.7119
 1951.5000     9.4319   123.7952     0.0750     2.4749   -25.2432     6.6587     9.7444    13.0404
 1952.0000     9.4312   121.0843     0.0766     2.4658   -25.2492     6.6539    10.2625    13.7745
 1952.5000     9.4005   119.7289     0.0776     2.4477   -25.2553     6.9302    10.2555    13.8726
 1953.0000     9.3397   121.0843     0.0461     2.4446   -25.1802     7.1199     9.8647    14.0586
 1953.5000     9.3090   122.9054     0.0460     2.4443   -24.9670     7.3153     9.6274    14.0526
 1954.0000     9.2783   126.1509     0.0428     2.4363   -24.9738     7.5580     9.6269    14.0466
 1954.5000     9.2725   126.5060     0.0337     2.4044   -24.6787     7.7207    10.2289    14.0405
 1955.0000     9.2772   123.3434     0.0142     2.3566   -24.6850     7.8282    10.8051    14.0345
 1955.5000     9.2765   124.4262    -0.0089     2.3364   -24.6907     8.1491    11.1020    14.0281
 1956.0000     9.2896   127.8434    -0.0066     2.3929   -24.7208     8.2825    10.7922    14.0218
 1956.5000     9.2890   134.1868     0.0144     2.4080   -25.0540     8.6382    10.1975    14.2119
 1957.0000     9.2445   136.4458     0.0341     2.4124   -25.3093     8.9356    10.2147    14.2046
 1957.5000     9.2138   137.8012     0.0436     2.4048   -25.3153     9.2668    10.8036    14.3962
 1958.0000     9.1530   139.1566     0.0388     2.4017   -25.3213     9.5318    11.0689    14.3897
 1958.5000     9.0921   140.9639     0.0387     2.4201   -25.6276     9.5802    10.8502    14.3822
 1959.0000     9.0614   142.3526     0.0446     2.4288   -25.6347     9.7068    10.4584    14.3760
 1959.5000     9.0608   143.2999     0.0506     2.4291   -25.9408     9.6992    10.6206    14.3703
 1960.0000     9.0904   143.3886     0.0595     2.4342   -26.2468     9.5591    11.1933    14.3636
 1960.5000     9.0986   142.1150     0.0657     2.4419   -26.5529     9.5524    11.3434    14.3574
 1961.0000     9.1610   135.1005     0.0683     2.4505   -26.8589     9.5310    11.3359    14.3509
 1961.5000     9.1789   126.8045     0.0682     2.4571   -26.8859     9.3817    11.9744    14.3445
 1962.0000     9.2084   121.0843     0.0640     2.4510   -27.1712     9.2346    12.1342    14.2192
 1962.5000     9.2077   118.8253     0.0531     2.4374   -27.1772     9.0899    11.9597    13.4853
 1963.0000     9.2072   117.4699     0.0404     2.4253   -26.7807     9.0048    11.9523    12.9141
 1963.5000     9.2066   116.1145     0.0315     2.4162   -26.3303     8.8745    12.1125    12.3671
 1964.0000     9.2060   115.6627     0.0525     2.4099   -25.8378     8.7450    12.1039    12.1198
 1964.5000     9.2054   117.0798     0.0584     2.4035   -25.3994     8.5001    12.1821    12.2842
 1965.0000     9.1747   118.4789     0.0553     2.4009   -25.4063     8.4942    11.4359    12.6231
 1965.5000     9.1372   119.2771     0.0582     2.4185   -25.4120     8.3715    10.9639    12.7938
 1966.0000     9.0831   119.2771     0.0614     2.4305   -25.4178     8.2506    10.3668    12.7881
 1966.5000     9.0950   118.8253     0.0676     2.4362   -25.4235     8.1221     9.8023    12.7584
 1967.0000     9.1273   118.3735     0.0729     2.4353   -25.7297     8.0136     9.5159    12.3885
 1967.5000     9.2017   119.7289     0.0770     2.4157   -25.7808     7.9793    11.5810    12.4228
 1968.0000     9.2011   121.5361     0.0832     2.4277   -26.0420     7.8543    12.2121    13.0656
 1968.5000     9.2307   121.0843     0.0847     2.4412   -26.0480     7.7777    11.9989    13.5813
 1969.0000     9.2000   121.0873     0.0785     2.4306   -26.0541     7.7720    11.1750    13.4789
 1969.5000     9.1994   123.0318     0.0723     2.4229   -26.0601     7.8747    10.6999    13.2878
 1970.0000     9.1988   125.3315     0.0662     2.4164   -26.0672     7.9787    10.2451    12.7415
 1970.5000     9.1934   126.0542     0.0660     2.4104   -25.7718     7.9723     9.7528    12.5608
 1971.0000     9.1675   124.9729     0.0659     2.4376   -25.7784     7.9668     9.4807    12.0444
 1971.5000     9.1367   124.0257     0.0625     2.4549   -25.4835     8.0723     9.3447    11.3529
 1972.0000     9.1361   122.8916     0.0536     2.4627   -25.4896     8.0665     9.2107    10.1914
 1972.5000     9.1657   121.5361     0.0583     2.4694   -25.4955     8.0449     9.0786    11.3407
 1973.0000     9.1650   121.0843     0.0696     2.4663   -25.5015     7.9440     9.9969    12.1955
 1973.5000     9.1644   123.7952     0.0729     2.4496   -25.2065     7.9382     9.8535    12.9566
 1974.0000     9.1638   125.6024     0.0385     2.4330   -25.2132     7.9324    10.5109    13.0529
 1974.5000     9.1632   125.5390     0.0318     2.4480   -25.2192     7.9267    11.3538    12.6895
