~VERSION INFORMATION
 VERS.                2.0:   CWLS LOG ASCII STANDARD - VERSION 2.0
 WRAP.                 NO:   ONE LINE PER DEPTH STEP
~WELL INFORMATION
#MNEM.UNIT      DATA TYPE    INFORMATION
#----------   ------------   ------------------------------
 STRT.F          620.0000:   START DEPTH
 STOP.F         4350.5000:   STOP DEPTH
 STEP.F            0.5000:   STEP LENGTH
 NULL.          -999.2500:   NO VALUE
 COMP.    FENIX & SCISSON:   COMPANY
 WELL. FENIX NPR 3 "LX" #25-10:   WELL
 FLD .                NPR:   FIELD
 LOC .      S10 T38N R78W:   LOCATION
 CNTY.            NATRONA:   COUNTY
 STAT.            WYOMING:   STATE
 CTRY. UNITED STATES OF AMERICA:   COUNTRY
 SRVC.              WELEX:   SERVICE COMPANY
 DATE.        06-MAR-1980:   LOGDATE
 API .     49025108070000:   API NUMBER
~CURVE INFORMATION
#MNEM.UNIT       API CODE    CURVE DESCRIPTION
#----------   ------------   ------------------------------
 DEPT.F                  :   
 CALD.IN     45 280 60 00:   CALIPER FROM DENSITY LOG
 GRD .GAPI   45 310 01 00:   GAMMA RAY FROM DENSITY LOG
 RHOB.G/C3   45 350 01 00:   BULK DENSITY
 CORR.G/C3   45 356 01 00:   DENSITY CORRECTION
 NPHI.DEC    42 890 03 00:   NEUTRON POROSITY SANDSTONE
 SPR .MV     07 010 01 00:   SPONTANEOUS POTENTIAL
 ILD .OHMM   07 120 46 00:   DEEP INDUCTION RESISTIVITY
 ILM .OHMM   07 120 44 00:   INDUCTION LOG MEDIUM RESISTIVITY
 SGRD.OHMM   07 220 05 00:   SHALLOW SHORT GUARD RESISTIVITY
~PARAMETER INFORMATION
#MNEM.UNIT          VALUE    DESCRIPTION
#----------   ------------   ------------------------------
 EKB .F         5247.0000:   Kelly bushing
 EGL .F         5237.0000:   Ground level
 EDF .F            0.0000:   Drilling floor
 TD  .F         4352.0000:   Total depth
 DATE.        06-MAR-1980:   Date logged
 CLNT.            A2DTECH:   Client Code
 SL  . 1075' FWL & 2450' FSL:   Surface Location
 PD  .                 GL:   Permanent Datum
 EPD .F              5237:   Elevation Permanent Datum
 LMF .                 KB:   Log Measured From
 DMF .                 KB:   Drilling Measured From
 DAPD.F                10:   Feet Above Permanent Datum
 DD  .F              4350:   Depth driller
 DL  .F              4352:   Depth logger
 BLI .F              4350:   Bottom log interval
 TLI .F               630:   Top log interval
 CS1 .IN            8.625:   Casing size
 CBD1.      8.625" @ 600':   Casing driller 1
 CBL1.F               632:   Casing logger 1
 BS1 .IN            7.875:   Bit size
 BSD1.F              4350:   Depth drilled with bit1
 DFT .           CHEM/GEL:   Type fluid in hole
 DFD .                8.9:   Density
 DFV .                 47:   Viscosity
 DFPH.               10.3:   pH
 DFL .                 10:   Fluid loss
 MSS .           FLOWLINE:   Source of sample
 RMS .OHMM            .89:   Rm
 MST .F                90:   Rm Meas. temp.
 RMF .OHMM            .71:   Rmf
 MFST.F                90:   Rmf Meas. temp.
 RMC .OHMM           1.06:   Rmc
 MCST.F                90:   Rmc Meas. temp.
 MFSS.               MEAS:   Source Rmf.
 MCSS.               MEAS:   Source Rmc.
 RMB .OHMM            .60:   Rm. at BHT
 BHT .F               112:   BHT.
 TCS .HRS               1:   Time Circ. stopped
 MRT .F               132:   Maximum recorded temp.
 LUN .               1892:   Logging unit number
 LUL .             CASPER:   Logging unit location
 ENGI.               REIN:   Recorded By
 WITN.           DINSMORE:   Witnessed by
 ORIG.           5" PRINT:   Origin of data
 UWI .     49025108070000:   Unique Well ID
 DICO. A2D TECHNOLOGIES, INC.:   Digitizing Company
~OTHER INFORMATION
~A   DEPT     CALD        GRD       RHOB       CORR       NPHI         SPR       ILD        ILM         SGRD 
# ...
 3540.0000    10.9800   128.8980     2.1430    -0.1020     0.1700   -27.6450     3.8480     4.7970     5.4460
 3540.5000    10.9800   126.8550     2.1460    -0.1040     0.1700   -27.6490     3.7810     4.6630     5.2850
 3541.0000    10.9800   124.8280     2.1500    -0.1060     0.1710   -27.5540     3.7140     4.5290     5.1030
 3541.5000    10.9810   124.2120     2.1530    -0.1080     0.1690   -27.4690     3.6470     4.3950     5.1030
 3542.0000    10.9740   124.6750     2.1570    -0.1120     0.1680   -27.3810     3.5800     4.2430     5.2950
 3542.5000    10.9630   125.8050     2.1480    -0.1170     0.1680   -27.2930     3.5130     4.2980     5.5820
 3543.0000    10.9530   127.0660     2.1340    -0.1210     0.1680   -27.2060     3.4630     4.3620     5.8690
 3543.5000    10.9430   128.2000     2.1230    -0.1260     0.1670   -27.1180     3.5150     4.4260     6.0250
 3544.0000    10.9320   128.0690     2.1170    -0.1310     0.1660   -27.0310     3.5750     4.4900     6.0250
 3544.5000    10.9220   127.8990     2.1120    -0.1350     0.1660   -26.9430     3.6350     4.5540     6.0250
 3545.0000    10.9120   127.6720     2.1110    -0.1340     0.1670   -26.8550     3.6950     4.6530     6.0250
 3545.5000    10.9020   127.0950     2.1100    -0.1330     0.1660   -26.7690     3.7290     4.6480     6.0250
 3546.0000    10.8920   125.7720     2.1130    -0.1310     0.1660   -26.6770     3.7290     4.6350     6.0250
 3546.5000    10.8810   122.9300     2.1170    -0.1240     0.1660   -26.5980     3.7290     4.6230     6.0250
 3547.0000    10.8710   122.0090     2.1200    -0.1170     0.1680   -26.5010     3.7290     4.6100     6.0220
 3547.5000    10.8610   123.0160     2.1240    -0.1100     0.1700   -26.7100     3.7290     4.5980     6.0070
 3548.0000    10.8560   124.1930     2.1260    -0.1040     0.1730   -26.9870     3.7290     4.5860     5.9910
 3548.5000    10.8510   123.9540     2.1280    -0.0970     0.1740   -27.2730     3.7290     4.5680     5.9760
 3549.0000    10.8460   122.5140     2.1300    -0.0900     0.1750   -27.5470     3.7210     4.5780     5.9610
 3549.5000    10.8410   123.4430     2.1270    -0.0840     0.1750   -27.8240     3.6860     4.5950     5.9460
 3550.0000    10.8360   124.1040     2.1160    -0.0800     0.1760   -28.1290     3.6500     4.6110     5.9300
 3550.5000    10.8310   124.6120     2.1070    -0.0760     0.1790   -28.2220     3.6140     4.6270     5.9150
 3551.0000    10.8260   123.9480     2.0960    -0.0820     0.1820   -28.0230     3.5780     4.6530     5.6140
 3551.5000    10.8200   122.3910     2.0870    -0.0870     0.1850   -27.8550     3.5420     4.5430     5.3140
 3552.0000    10.8020   122.7030     2.0830    -0.0930     0.1840   -27.6800     3.5070     4.2750     4.7430
 3552.5000    10.7830   123.0700     2.0850    -0.0990     0.1790   -27.5020     3.4710     4.0070     4.0150
 3553.0000    10.7860   121.1610     2.0950    -0.1050     0.1750   -27.3310     3.4350     3.7980     3.7980
 3553.5000    10.7920   116.6590     2.1140    -0.1110     0.1720   -27.1490     3.4000     3.7290     3.7980
 3554.0000    10.7990   114.0080     2.1160    -0.1170     0.1700   -27.0780     3.4330     4.0070     4.4970
 3554.5000    10.8050   112.9350     2.1180    -0.1230     0.1680   -27.0840     3.4850     4.2780     5.3810
 3555.0000    10.8110   114.0230     2.1200    -0.1280     0.1670   -27.0830     3.5370     4.5040     5.8080
 3555.5000    10.8210   115.2910     2.1250    -0.1290     0.1670   -27.0830     3.5900     4.5840     5.9750
 3556.0000    10.7980   115.8300     2.1320    -0.1310     0.1690   -27.0840     3.6420     4.6640     6.1430
 3556.5000    10.7540   115.7030     2.1390    -0.1270     0.1710   -27.0830     3.6940     4.7400     6.3100
 3557.0000    10.7060   116.4370     2.1450    -0.1220     0.1730   -27.0830     3.7460     4.7880     6.3680
 3557.5000    10.7130   117.5820     2.1520    -0.1160     0.1760   -27.0830     3.7990     4.8330     6.3400
 3558.0000    10.7240   119.5000     2.1590    -0.1110     0.1770   -27.0830     3.8510     4.8780     6.2790
 3558.5000    10.7370   121.8380     2.1650    -0.1050     0.1780   -27.0830     3.9030     4.9230     6.2170
 3559.0000    10.7540   124.4940     2.1720    -0.0990     0.1780   -27.0830     3.9410     4.9680     6.1560
 3559.5000    10.7760   124.6690     2.1750    -0.0940     0.1800   -27.0830     3.9060     5.0100     6.0940
 3560.0000    10.7970   124.7470     2.1710    -0.0880     0.1820   -27.0830     3.8660     4.9390     6.0250
 3560.5000    10.8190   124.7780     2.1680    -0.0830     0.1840   -27.0830     3.8270     4.8720     5.9520
 3561.0000    10.8400   125.1330     2.1660    -0.0770     0.1860   -27.0830     3.7870     4.8060     5.8690
 3561.5000    10.8590   125.8730     2.1650    -0.0710     0.1870   -27.0830     3.7470     4.7400     5.7850
 3562.0000    10.8480   126.9320     2.1650    -0.0660     0.1870   -27.0830     3.7070     4.6740     5.7020
 3562.5000    10.8370   125.2480     2.1750    -0.0600     0.1870   -27.0830     3.6670     4.6070     5.6190
 3563.0000    10.8220   123.8040     2.1820    -0.0540     0.1870   -27.0830     3.6270     4.5410     5.4940
 3563.5000    10.8090   122.4120     2.1880    -0.0490     0.1880   -27.0830     3.5870     4.4750     5.5200
 3564.0000    10.7920   121.2520     2.1940    -0.0440     0.1890   -27.0830     3.5470     4.4030     5.5700
 3564.5000    10.7750   122.7590     2.1870    -0.0410     0.1860   -27.0830     3.5280     4.4450     5.6200
 3565.0000    10.7590   122.9000     2.1800    -0.0420     0.1840   -27.0830     3.5550     4.4910     5.6710
 3565.5000    10.7430   122.9500     2.1750    -0.0460     0.1830   -27.0830     3.5790     4.5380     5.7210
 3566.0000    10.7450   122.7450     2.1700    -0.0500     0.1820   -27.0830     3.6030     4.5840     5.7710
 3566.5000    10.7480   123.0310     2.1650    -0.0540     0.1800   -27.0830     3.6270     4.6310     5.8220
 3567.0000    10.7510   124.5730     2.1670    -0.0590     0.1780   -27.0830     3.6510     4.6770     5.8720
 3567.5000    10.7540   123.2040     2.1750    -0.0590     0.1760   -27.0830     3.6750     4.7240     6.0190
 3568.0000    10.7580   121.8210     2.1880    -0.0570     0.1740   -27.0830     3.6990     4.7700     6.0070
 3568.5000    10.7610   121.9610     2.2000    -0.0550     0.1710   -27.0830     3.7260     4.8170     5.9820
 3569.0000    10.7640   122.4670     2.2110    -0.0530     0.1690   -27.0830     3.7190     4.7950     5.9570
 3569.5000    10.7670   124.6660     2.2190    -0.0530     0.1690   -27.0830     3.7050     4.7500     5.9310
 3570.0000    10.7700   124.6150     2.2130    -0.0580     0.1690   -27.0830     3.6920     4.7060     5.8850
 3570.5000    10.7730   124.8160     2.2060    -0.0630     0.1690   -27.0830     3.6780     4.6610     5.8000
 3571.0000    10.7760   124.0060     2.1940    -0.0680     0.1680   -27.0830     3.6640     4.6170     5.7150
 3571.5000    10.7790   122.6980     2.1870    -0.0690     0.1690   -27.0830     3.6510     4.5720     5.6300
 3572.0000    10.7800   121.8080     2.1830    -0.0710     0.1720   -27.0830     3.6370     4.5280     5.5450
 3572.5000    10.7640   122.5260     2.1790    -0.0730     0.1750   -27.0830     3.6230     4.4830     5.4600
 3573.0000    10.7510   123.1040     2.1770    -0.0740     0.1760   -27.0840     3.6100     4.4390     5.3750
 3573.5000    10.7360   123.7820     2.1760    -0.0750     0.1770   -27.0830     3.5960     4.3940     5.2900
 3574.0000    10.7230   124.3860     2.1850    -0.0710     0.1800   -27.0840     3.5830     4.3500     5.2050
 3574.5000    10.7070   125.0660     2.1970    -0.0670     0.1840   -27.0830     3.5690     4.3050     5.1030
 3575.0000    10.7080   125.1830     2.2070    -0.0640     0.1830   -27.0770     3.5550     4.2430     5.1030
 3575.5000    10.7190   124.7290     2.2220    -0.0570     0.1810   -27.0040     3.5420     4.2880     5.1030
 3576.0000    10.7300   125.4950     2.2430    -0.0510     0.1800   -26.9420     3.5280     4.3620     5.1980
