~VERSION INFORMATION
 VERS.                2.0:   CWLS LOG ASCII STANDARD - VERSION 2.0
 WRAP.                 NO:   ONE LINE PER DEPTH STEP
~WELL INFORMATION
#MNEM.UNIT      DATA TYPE    INFORMATION
#----------   ------------   ------------------------------
 STRT.F           22.5000:   START DEPTH
 STOP.F         4120.0000:   STOP DEPTH
 STEP.F            0.5000:   STEP LENGTH
 NULL.          -999.2500:   NO VALUE
 COMP. LAWRENCE ALLISON & ASSOCIATES:   COMPANY
 WELL. LAWRENCE-ALLISON SHX #37-10:   WELL
 FLD .              N P R:   FIELD
 LOC .      S10 T38N R78W:   LOCATION
 CNTY.            NATRONA:   COUNTY
 STAT.            WYOMING:   STATE
 CTRY. UNITED STATES OF AMERICA:   COUNTRY
 SRVC.      DRESSER ATLAS:   SERVICE COMPANY
 DATE.        29-JUN-1983:   LOGDATE
 API .     49025107370001:   API NUMBER
~CURVE INFORMATION
#MNEM.UNIT       API CODE    CURVE DESCRIPTION
#----------   ------------   ------------------------------
 DEPT.F                  :   
 TEND.LBS    45 635 01 00:   TENSION FROM DENSITY LOG
 CORR.G/C3   45 356 01 00:   DENSITY CORRECTION
 NPHI.DEC    42 890 03 00:   NEUTRON POROSITY SANDSTONE
 CALD.IN     45 280 60 00:   CALIPER FROM DENSITY LOG
 GRR .GAPI   07 310 01 00:   GAMMA RAY FROM RESISTIVITY
 SPR .MV     07 010 01 00:   SPONTANEOUS POTENTIAL
 TENR.LBS    07 635 01 00:   TENSION FROM RESISTIVITY
 RILD.OHMM   07 120 46 00:   DEEP INDUCTION RESISTIVITY
 RILM.OHMM   07 120 44 00:   INDUCTION LOG MEDIUM RESISTIVITY
 RFOC.OHMM   07 220 04 00:   RESISTIVITY FOCUSED LOG RES.
 RHOB.G/C3   45 350 01 00:   BULK DENSITY
~PARAMETER INFORMATION
#MNEM.UNIT          VALUE    DESCRIPTION
#----------   ------------   ------------------------------
 EKB .F         5228.0000:   Kelly bushing
 EGL .F         5218.0000:   Ground level
 EDF .F            0.0000:   Drilling floor
 EPD .F         5218.0000:   Permanent datum
 TD  .F         4125.0000:   Total depth
 DATE.        29-JUN-1983:   Date logged
 CLNT.            A2DTECH:   Client Code
 SL  . 984' FWL & 1620' FEL:   Surface Location
 PD  .                 GL:   Permanent Datum
 DD  .F              4125:   Depth driller
 DL  .F              4107:   Depth logger
 BLI .F              4105:   Bottom log interval
 CS1 .IN              4.5:   Casing size
 CBD1.       4.5" @ 2213':   Casing driller 1
 CBL1.F              2213:   Casing logger 1
 BS1 .IN             6.25:   Bit size
 DFT .                KCL:   Type fluid in hole
 DFD .                8.8:   Density
 DFV .                 45:   Viscosity
 DFPH.                  9:   pH
 DFL .               10.8:   Fluid loss
 MSS .            MUDTANK:   Source of sample
 RMS .OHMM            .44:   Rm
 MST .F               108:   Rm Meas. temp.
 RMF .OHMM            .37:   Rmf
 MFST.F               108:   Rmf Meas. temp.
 RMC .OHMM            .55:   Rmc
 MCST.F               108:   Rmc Meas. temp.
 MFSS.               MEAS:   Source Rmf.
 RMB .OHMM            .36:   Rm. at BHT
 BHT .F               126:   BHT.
 TCS .HRS               2:   Time Circ. stopped
 MRT .F               126:   Maximum recorded temp.
 LUN .               6343:   Logging unit number
 LUL .                 FM:   Logging unit location
 ENGI.          I. GOVETT:   Recorded By
 WITN.          G. STRONG:   Witnessed by
 ORIG.     2.5", 5" PRINT:   Origin of data
 UWI .     49025107370001:   Unique Well ID
 DICO. A2D TECHNOLOGIES, INC.:   Digitizing Company
 DAPD.                 10:   Feet Above Permanent Datum
 BSD1.               4125:   Depth drilled with bit1
 MCSS.               CALC:   Source Rmc.
 TLI .               2213:   Top log interval
~OTHER INFORMATION
~A   DEPT     TEND       CORR       NPHI       CALD         GRR       SPR       TENR       RILD       RILM       RFOC       RHOB   
# ...
 3347.0000     0.0000     0.0880     0.1710     7.4210   118.9350   -35.1630     2.6070     4.7330     4.7620     4.9540     2.5810
 3347.5000     0.0000     0.0630     0.1680     7.4210   119.9700   -35.1590     2.7270     4.8480     4.8320     5.0890     2.5660
 3348.0000     0.0000     0.0240     0.1670     7.4210   122.8620   -35.2030     2.8460     4.9640     4.9030     5.2240     2.5560
 3348.5000     0.0000     0.0280     0.1670     7.4230   125.7250   -35.2460     2.9660     5.0090     4.9730     5.3600     2.5620
 3349.0000     0.0000     0.0360     0.1620     7.4240   128.6000   -35.2880     3.0860     5.0210     5.0440     5.4830     2.5660
 3349.5000     0.0000     0.0420     0.1640     7.4260   128.8780   -35.3310     3.2060     5.0330     5.1030     5.4830     2.5710
 3350.0000     0.0000     0.0380     0.1670     7.4280   126.4400   -35.3740     3.3260     5.0450     5.1370     5.4830     2.5750
 3350.5000     0.0000     0.0380     0.1640     7.4290   123.9990   -35.4170     3.4450     5.0570     5.1710     5.4830     2.5800
 3351.0000     0.0000     0.0400     0.1630     7.4310   121.5400   -35.4600     3.5650     5.0700     5.2040     5.4830     2.5810
 3351.5000     0.0000     0.0760     0.1660     7.4320   121.0750   -35.5020     3.6850     5.0820     5.2380     5.5330     2.5780
 3352.0000     0.0000     0.0890     0.1690     7.4340   124.0140   -35.5450     3.8050     5.0940     5.2710     5.6270     2.5750
 3352.5000     0.0000     0.0870     0.1700     7.4360   128.7740   -35.5880     3.9250     5.1060     5.3050     5.6890     2.5710
 3353.0000     0.0000     0.0580     0.1700     7.4370   132.6560   -35.6310     4.0440     5.1180     5.3380     5.5730     2.5680
 3353.5000     0.0000     0.0510     0.1680     7.4390   130.2590   -35.6740     4.1640     5.1300     5.3720     5.4880     2.5630
 3354.0000     0.0000     0.0490     0.1670     7.4410   126.4270   -35.7170     4.2840     5.1420     5.4050     5.3830     2.5700
 3354.5000     0.0000     0.0450     0.1710     7.4420   128.4780   -35.7830     4.4040     5.1550     5.4390     5.5140     2.5830
 3355.0000     0.0000     0.0560     0.1740     7.4440   130.5530   -35.8890     4.5240     5.1670     5.4720     5.6820     2.5940
 3355.5000     0.0000     0.0800     0.1720     7.4460   127.7590   -35.9940     4.6430     5.1790     5.5060     5.8500     2.6050
 3356.0000     0.0000     0.0830     0.1710     7.4470   122.6270   -36.0990     4.7630     5.1880     5.5390     6.0180     2.6000
 3356.5000     0.0000     0.0710     0.1740     7.4490   117.4110   -36.2040     4.8830     5.1610     5.5810     6.1810     2.5930
 3357.0000     0.0000     0.0620     0.1750     7.4510   118.5290   -36.3100     4.9100     5.1390     5.5550     6.0770     2.5900
 3357.5000     0.0000     0.0670     0.1740     7.4520   120.8570   -36.4150     4.8170     5.1160     5.5060     5.9130     2.5910
 3358.0000     0.0000     0.0720     0.1720     7.4540   123.6470   -36.5200     4.7240     5.0940     5.4580     5.7500     2.5870
 3358.5000     0.0000     0.0780     0.1740     7.4560   126.4760   -36.5640     4.6320     5.0710     5.4100     5.5860     2.5820
 3359.0000     0.0000     0.0830     0.1760     7.4570   129.7640   -36.5990     4.5390     5.0490     5.3620     5.4230     2.5770
 3359.5000     0.0000     0.0760     0.1760     7.4590   133.3800   -36.6330     4.4460     5.0270     5.3130     5.2590     2.5760
 3360.0000     0.0000     0.0680     0.1760     7.4610   136.9900   -36.6680     4.3530     5.0040     5.2650     5.0470     2.5770
 3360.5000     0.0000     0.0600     0.1770     7.4620   137.6780   -36.7020     4.2600     4.9820     5.2170     5.1050     2.5770
 3361.0000     0.0000     0.0530     0.1780     7.4640   135.5230   -36.7370     4.1680     4.9590     5.1690     5.1870     2.5760
 3361.5000     0.0000     0.0440     0.1760     7.4660   134.2080   -36.7710     4.0750     4.9370     5.1210     5.2700     2.5720
 3362.0000     0.0000     0.0430     0.1740     7.4670   135.5640   -36.8060     3.9820     4.9150     5.0720     5.3520     2.5680
 3362.5000     0.0000     0.0480     0.1710     7.4690   136.8990   -36.8400     3.8890     4.8920     5.0240     5.4340     2.5640
 3363.0000     0.0000     0.0540     0.1740     7.4710   138.2310   -36.8750     3.7970     4.8640     4.9550     5.5170     2.5600
 3363.5000     0.0000     0.0500     0.1800     7.4720   139.5640   -36.9090     3.7040     4.8860     4.9710     5.5850     2.5560
 3364.0000     0.0000     0.0430     0.1840     7.4740   140.8980   -36.9200     3.6110     4.9140     4.9990     5.4920     2.5590
 3364.5000     0.0000     0.0380     0.1830     7.4760   142.2300   -36.8890     3.5180     4.9420     5.0280     5.3970     2.5620
 3365.0000     0.0000     0.0340     0.1820     7.4770   143.5650   -36.8590     3.4250     4.9700     5.0560     5.3020     2.5650
 3365.5000     0.0000     0.0430     0.1880     7.4790   144.9110   -36.8280     3.3330     4.9980     5.0850     5.2060     2.5720
 3366.0000     0.0000     0.0500     0.1930     7.4800   144.4580   -36.7980     3.2400     5.0260     5.1130     5.0940     2.5910
 3366.5000     0.0000     0.0590     0.1970     7.4820   143.4680   -36.7680     3.1470     5.0540     5.1410     5.3310     2.6160
 3367.0000     0.0000     0.0350     0.1910     7.4840   139.7100   -36.7360     3.0540     5.0820     5.1700     5.6210     2.6390
 3367.5000     0.0000     0.0190     0.1870     7.4850   133.5370   -36.7760     2.9610     5.1100     5.1980     6.0680     2.6600
 3368.0000     0.0000     0.0100     0.1910     7.4870   136.2340   -36.8260     2.8690     5.1380     5.2270     5.9720     2.6390
 3368.5000     0.0000     0.0290     0.1950     7.4890   142.7210   -36.8770     2.7760     5.1660     5.2360     5.7610     2.6130
 3369.0000     0.0000     0.0390     0.1940     7.4900   149.1160   -36.9280     2.6830     5.1940     5.2320     5.4830     2.5980
 3369.5000     0.0000     0.0420     0.1930     7.4920   150.2280   -36.9790     2.5900     5.2360     5.2160     5.6000     2.6020
 3370.0000     0.0000     0.0450     0.1940     7.4940   147.1990   -37.0300     2.4970     5.2060     5.2000     5.7710     2.6030
 3370.5000     0.0000     0.0490     0.1950     7.4950   143.6870   -37.0810     2.4050     5.1450     5.1840     5.9570     2.6040
 3371.0000     0.0000     0.0580     0.1900     7.4970   142.0300   -37.1310     2.3120     5.0830     5.1680     5.8070     2.6050
 3371.5000     0.0000     0.0700     0.1820     7.4990   144.2510   -37.1820     2.2190     5.0220     5.1520     5.6430     2.6070
 3372.0000     0.0000     0.0830     0.1840     7.4990   146.6850   -37.2330     2.1260     4.9600     5.1360     5.5200     2.6080
 3372.5000     0.0000     0.0870     0.1870     7.4940   148.1670   -37.2840     2.0330     4.8990     5.1200     5.4770     2.6090
 3373.0000     0.0000     0.0840     0.1890     7.4890   147.5570   -37.3300     1.9410     4.8370     5.1040     5.4350     2.6070
 3373.5000     0.0000     0.0810     0.1890     7.4840   146.9860   -37.3400     1.8480     4.7760     5.0440     5.3930     2.6040
 3374.0000     0.0000     0.0830     0.1890     7.4790   148.3320   -37.3510     1.7550     4.7150     4.9100     5.3270     2.6010
 3374.5000     0.0000     0.0920     0.1970     7.4740   151.0200   -37.3620     1.6620     4.6530     4.7750     5.2540     2.5980
 3375.0000     0.0000     0.0880     0.2060     7.4680   152.1960   -37.3730     1.5690     4.5920     4.5610     5.1800     2.5950
 3375.5000     0.0000     0.0830     0.2060     7.4630   150.8610   -37.3850     1.4770     4.5190     4.5750     5.0940     2.5890
 3376.0000     0.0000     0.0780     0.2020     7.4580   152.1710   -37.3960     1.3840     4.5670     4.6090     5.1580     2.5840
 3376.5000     0.0000     0.0730     0.1950     7.4530   153.9590   -37.4070     1.2910     4.6260     4.6440     5.2370     2.5780
 3377.0000     0.0000     0.0680     0.1890     7.4480   154.2460   -37.4180     1.1980     4.6850     4.6780     5.3160     2.5720
