~VERSION INFORMATION
 VERS.                2.0:   CWLS LOG ASCII STANDARD - VERSION 2.0
 WRAP.                 NO:   ONE LINE PER DEPTH STEP
~WELL INFORMATION
#MNEM.UNIT      DATA TYPE    INFORMATION
#----------   ------------   ------------------------------
 STRT.F           48.5000:   START DEPTH
 STOP.F         3509.0000:   STOP DEPTH
 STEP.F            0.5000:   STEP LENGTH
 NULL.          -999.2500:   NO VALUE
 COMP.   TESORO PETROLEUM:   COMPANY
 WELL. TESORO "TX" #45-33:   WELL
 FLD .        TEAPOT DOME:   FIELD
 LOC .      S33 T39N R78W:   LOCATION
 CNTY.            NATRONA:   COUNTY
 STAT.            WYOMING:   STATE
 CTRY. UNITED STATES OF AMERICA:   COUNTRY
 SRVC.      DRESSER ATLAS:   SERVICE COMPANY
 DATE.        03-OCT-1976:   LOGDATE
 API .     49025102700000:   API NUMBER
~CURVE INFORMATION
#MNEM.UNIT       API CODE    CURVE DESCRIPTION
#----------   ------------   ------------------------------
 DEPT.F                  :   
 SPR .MV     07 010 01 00:   SPONTANEOUS POTENTIAL
 TENR.LBS    07 635 01 00:   TENSION FROM RESISTIVITY
 SFL .OHMM   07 220 01 00:   SHALLOW FOCUSED LOG RESISTIVITY
 ILM .OHMM   07 120 44 00:   INDUCTION LOG MEDIUM RESISTIVITY
 ILD .OHMM   07 120 46 00:   DEEP INDUCTION RESISTIVITY
 GRD .GAPI   45 310 01 00:   GAMMA RAY FROM DENSITY LOG
 CALD.IN     45 280 60 00:   CALIPER FROM DENSITY LOG
 NPHI.DEC    42 890 03 00:   NEUTRON POROSITY SANDSTONE
 DPHI.DEC    45 890 12 00:   DENSITY POROSITY SANDSTONE
 TEND.LBS    45 635 01 00:   TENSION FROM DENSITY LOG
~PARAMETER INFORMATION
#MNEM.UNIT          VALUE    DESCRIPTION
#----------   ------------   ------------------------------
 EKB .F         5217.0000:   Kelly bushing
 EGL .F         5206.0000:   Ground level
 EDF .F         5216.0000:   Drilling floor
 EPD .F         5206.0000:   Permanent datum
 TD  .F         3491.0000:   Total depth
 DATE.        03-OCT-1976:   Date logged
 CLNT.            A2DTECH:   Client Code
 SL  . 2030' FWL & 2145' FSL:   Surface Location
 PD  .                 GL:   Permanent Datum
 DD  .F              3491:   Depth driller
 DL  .F              3487:   Depth logger
 BLI .F              3485:   Bottom log interval
 TLI .F               813:   Top log interval
 CS1 .IN            8.625:   Casing size
 CBD1.      8.625" @ 823':   Casing driller 1
 CBL1.F               819:   Casing logger 1
 BS1 .IN            7.875:   Bit size
 BSD1.F              3491:   Depth drilled with bit1
 DFT .           CHEM GEL:   Type fluid in hole
 DFD .                9.4:   Density
 DFV .                 47:   Viscosity
 DFPH.                 10:   pH
 DFL .                5.8:   Fluid loss
 MSS .           FLOWLINE:   Source of sample
 RMS .OHMM           1.09:   Rm
 MST .F                68:   Rm Meas. temp.
 RMF .OHMM              1:   Rmf
 MFST.F                68:   Rmf Meas. temp.
 RMC .OHMM           1.24:   Rmc
 MCST.F                68:   Rmc Meas. temp.
 MFSS.               MEAS:   Source Rmf.
 MCSS.               MEAS:   Source Rmc.
 RMB .OHMM            .62:   Rm. at BHT
 BHT .F               119:   BHT.
 TCS .HRS              12:   Time Circ. stopped
 MRT .F               119:   Maximum recorded temp.
 LUN .               6134:   Logging unit number
 LUL .              GLTTE:   Logging unit location
 ENGI.            VAUGHIN:   Recorded By
 WITN.        WOLF-CARTER:   Witnessed by
 ORIG.     2.5", 5" PRINT:   Origin of data
 UWI .     49025102700000:   Unique Well ID
 DICO. A2D TECHNOLOGIES, INC.:   Digitizing Company
 DAPD.                 11:   Feet Above Permanent Datum
~OTHER INFORMATION
~A   DEPT      SPR        TENR       SFL        ILM        ILD        GRD       CALD       NPHI       DPHI       TEND   
# ...
 3231.0000   -22.5790  -999.2500     2.9920     2.2470     2.1440   150.8880     8.3240     0.2560     0.1020   273.5160
 3231.5000   -22.4620  -999.2500     2.8190     2.2350     2.1270   150.3660     8.3240     0.2540     0.1010   269.5760
 3232.0000   -22.3480  -999.2500     2.7250     2.2240     2.1040   147.3870     8.3240     0.2520     0.0930   265.6370
 3232.5000   -22.2310  -999.2500     2.8240     2.2660     2.1340   144.9650     8.3240     0.2440     0.0830   261.6970
 3233.0000   -22.1170  -999.2500     2.9180     2.3290     2.1790   143.9100     8.3240     0.2400     0.0850   257.7580
 3233.5000   -22.0020  -999.2500     3.0130     2.4030     2.2240   143.4270     8.3240     0.2380     0.0880   253.8180
 3234.0000   -21.8810  -999.2500     3.1000     2.4810     2.2650   142.9180     8.3240     0.2360     0.0800   249.8790
 3234.5000   -21.8390  -999.2500     3.1000     2.5590     2.4650   143.7350     8.3240     0.2350     0.0740   245.9390
 3235.0000   -21.9710  -999.2500     3.1000     2.6370     2.6520   145.6320     8.3240     0.2340     0.0670   249.3430
 3235.5000   -22.0970  -999.2500     3.1000     2.7250     2.8380   147.6650     8.3240     0.2330     0.0600   255.0460
 3236.0000   -22.2300  -999.2500     3.1000     2.9050     3.0240   149.3760     8.3240     0.2320     0.0530   260.7490
 3236.5000   -22.3600  -999.2500     3.4120     3.1080     3.2110   151.0910     8.3240     0.2320     0.0510   266.4510
 3237.0000   -22.4910  -999.2500     3.6990     3.3120     3.3970   153.1960     8.3240     0.2330     0.0570   272.1540
 3237.5000   -22.6210  -999.2500     4.0150     3.5150     3.5280   155.5720     8.3240     0.2350     0.0590   277.8570
 3238.0000   -22.7530  -999.2500     4.0710     3.7190     3.5280   158.6390     8.3240     0.2350     0.0520   283.5600
 3238.5000   -22.8830  -999.2500     4.1350     3.9410     3.5280   161.8840     8.3240     0.2290     0.0640   279.1110
 3239.0000   -22.9910  -999.2500     4.4060     3.4230     3.2900   166.0750     8.3240     0.2260     0.0790   271.2320
 3239.5000   -22.9590  -999.2500     4.9180     2.5780     3.0280   171.0490     8.3240     0.2360     0.0950   263.3530
 3240.0000   -22.9280  -999.2500     4.0250     2.6380     2.7660   172.3900     8.3240     0.2470     0.1060   255.0000
 3240.5000   -22.8910  -999.2500     2.6450     2.7550     2.4840   165.2950     8.3240     0.2380     0.0930   256.6770
 3241.0000   -22.8580  -999.2500     1.9910     2.8720     2.5890   149.0110     8.3240     0.2250     0.0800   258.9450
 3241.5000   -22.8220  -999.2500     2.9030     2.9890     2.7010   138.7150     8.3240     0.2120     0.0670   261.2140
 3242.0000   -22.7880  -999.2500     3.7110     3.1440     2.8140   131.7120     8.3240     0.2020     0.0590   263.4820
 3242.5000   -22.7530  -999.2500     4.5680     3.3320     2.9330   127.0390     8.3240     0.1910     0.0540   265.1990
 3243.0000   -22.7190  -999.2500     5.0100     3.5200     3.3210   124.8580     8.3240     0.1910     0.0490   265.8000
 3243.5000   -22.6850  -999.2500     3.7980     3.7090     3.7330   125.5150     8.3240     0.1910     0.0430   266.4020
 3244.0000   -22.6490  -999.2500     3.8710     3.8970     4.1450   126.0080     8.3240     0.1910     0.0430   267.0030
 3244.5000   -22.6200  -999.2500     4.0020     4.0850     4.5580   125.4600     8.3240     0.1910     0.0420   267.6040
 3245.0000   -22.5520  -999.2500     4.1340     4.2430     4.7400   125.1890     8.3240     0.1910     0.0430   268.2060
 3245.5000   -22.4600  -999.2500     4.2650     4.3740     4.7400   125.6990     8.3240     0.1920     0.0450   268.8070
 3246.0000   -22.3640  -999.2500     4.3220     4.4870     4.7480   126.3540     8.3240     0.1940     0.0460   269.4090
 3246.5000   -22.2770  -999.2500     4.2600     4.6000     4.7620   127.0460     8.3240     0.1970     0.0380   270.0100
 3247.0000   -22.2250  -999.2500     4.2070     4.7130     4.7760   127.7200     8.3240     0.1950     0.0350   270.6110
 3247.5000   -22.5050  -999.2500     4.1540     4.8280     4.7890   129.1030     8.3240     0.1940     0.0400   271.2130
 3248.0000   -22.7380  -999.2500     4.1010     4.8280     4.8030   130.6080     8.3240     0.1950     0.0430   271.8140
 3248.5000   -22.9800  -999.2500     4.3220     4.8060     4.8170   132.4830     8.3240     0.1970     0.0420   272.4160
 3249.0000   -22.8860  -999.2500     4.1380     4.7500     4.8280   133.0210     8.3240     0.1990     0.0410   273.0170
 3249.5000   -22.7830  -999.2500     3.9520     4.6930     4.8140   133.5130     8.3240     0.2000     0.0400   273.6180
 3250.0000   -22.6660  -999.2500     3.7290     4.6360     4.8010   133.8710     8.3240     0.1980     0.0380   274.2200
 3250.5000   -22.5590  -999.2500     4.1080     4.5790     4.7890   134.0910     8.3240     0.1950     0.0390   274.8210
 3251.0000   -22.4470  -999.2500     5.0610     4.5230     4.7770   134.3120     8.3240     0.1970     0.0460   274.6850
 3251.5000   -22.3380  -999.2500     6.1380     4.4660     4.7650   134.5330     8.3240     0.2030     0.0540   274.0590
 3252.0000   -22.2270  -999.2500     6.0250     4.4090     4.7530   134.7150     8.3240     0.2090     0.0560   273.4330
 3252.5000   -22.1190  -999.2500     4.8390     4.3520     4.7400   134.5070     8.3240     0.2100     0.0490   272.8060
 3253.0000   -22.0060  -999.2500     4.0150     4.2960     4.6320   133.9070     8.3240     0.2140     0.0490   272.1800
 3253.5000   -21.8960  -999.2500     4.0430     4.2390     4.5220   132.9000     8.3240     0.2190     0.0550   271.5540
 3254.0000   -21.8130  -999.2500     4.0810     4.1820     4.4120   131.8930     8.3240     0.2170     0.0590   270.9280
 3254.5000   -21.9060  -999.2500     3.9720     4.1250     4.3020   133.3200     8.3240     0.2140     0.0630   270.3010
 3255.0000   -21.9910  -999.2500     3.8200     4.0690     4.1920   134.0090     8.3240     0.2130     0.0650   269.6750
 3255.5000   -22.0850  -999.2500     3.6610     4.0120     4.1480   132.8480     8.3240     0.2140     0.0650   269.0490
 3256.0000   -22.1720  -999.2500     3.6610     3.9550     4.1240   131.9100     8.3240     0.2170     0.0600   268.4230
 3256.5000   -22.2640  -999.2500     3.7480     3.8850     4.1000   133.3670     8.3240     0.2180     0.0560   267.7960
 3257.0000   -22.3530  -999.2500     4.0000     3.8090     4.0340   135.2170     8.3240     0.2200     0.0580   267.1700
 3257.5000   -22.4420  -999.2500     4.2430     3.7340     3.9330   137.5350     8.3240     0.2210     0.0590   266.5440
 3258.0000   -22.5360  -999.2500     4.1270     3.6590     3.8330   137.6150     8.3240     0.2240     0.0610   265.9180
 3258.5000   -22.5780  -999.2500     3.9110     3.5840     3.7320   136.5850     8.3240     0.2250     0.0630   265.2910
 3259.0000   -22.5040  -999.2500     3.6960     3.5090     3.6310   134.3500     8.3240     0.2230     0.0640   265.0000
 3259.5000   -22.4340  -999.2500     3.4630     3.4340     3.5300   133.3670     8.3240     0.2280     0.0620   265.0000
 3260.0000   -22.3590  -999.2500     3.5490     3.3580     3.4290   132.7080     8.3240     0.2330     0.0640   265.0000
 3260.5000   -22.2860  -999.2500     3.6420     3.2770     3.3290   130.8780     8.3240     0.2390     0.0650   265.0000
 3261.0000   -22.2130  -999.2500     3.7980     3.2770     3.2280   130.3970     8.3230     0.2380     0.0660   265.0000
 3261.5000   -22.1400  -999.2500     3.7700     3.2770     3.1580   129.9730     8.3220     0.2350     0.0700   265.0000
 3262.0000   -22.0660  -999.2500     3.6770     3.2770     3.1580   129.5600     8.3210     0.2320     0.0770   265.0000
 3262.5000   -21.9930  -999.2500     3.5840     3.2790     3.1580   129.4400     8.3200     0.2300     0.0830   265.0000
 3263.0000   -21.9220  -999.2500     3.4920     3.2850     3.1580   130.1830     8.3190     0.2290     0.0790   265.0000
 3263.5000   -21.8390  -999.2500     3.4630     3.2920     3.1630   130.5410     8.3180     0.2300     0.0740   265.0000
 3264.0000   -21.8330  -999.2500     3.5380     3.2990     3.1690   130.5420     8.3170     0.2300     0.0700   265.0000
