~VERSION INFORMATION
 VERS.                2.0:   CWLS LOG ASCII STANDARD - VERSION 2.0
 WRAP.                 NO:   ONE LINE PER DEPTH STEP
~WELL INFORMATION
#MNEM.UNIT      DATA TYPE    INFORMATION
#----------   ------------   ------------------------------
 STRT.F          150.0000:   START DEPTH
 STOP.F         2980.0000:   STOP DEPTH
 STEP.F            0.5000:   STEP LENGTH
 NULL.          -999.2500:   NO VALUE
 COMP. FENIX & SCISSION U.S. NAVY:   COMPANY
 WELL.   FENIX "A" #84-20:   WELL
 FLD .             NPR #3:   FIELD
 LOC .      S20 T39N R78W:   LOCATION
 CNTY.            NATRONA:   COUNTY
 STAT.            WYOMING:   STATE
 CTRY. UNITED STATES OF AMERICA:   COUNTRY
 SRVC.       SCHLUMBERGER:   SERVICE COMPANY
 DATE.        21-FEB-1977:   LOGDATE
 API .     49025103020000:   API NUMBER
~CURVE INFORMATION
#MNEM.UNIT       API CODE    CURVE DESCRIPTION
#----------   ------------   ------------------------------
 DEPT.F                  :   
 NPHI.DEC    42 890 03 00:   NEUTRON POROSITY SANDSTONE
 GRD .GAPI   45 310 01 00:   GAMMA RAY FROM DENSITY LOG
 CALD.IN     45 280 60 00:   CALIPER FROM DENSITY LOG
 RHOB.G/C3   45 350 01 00:   BULK DENSITY
 DCOR.G/C3   45 356 01 00:   DENSITY CORRECTION
 SPR .MV     07 010 01 00:   SPONTANEOUS POTENTIAL
 LLD .OHMM   11 220 10 00:   LATEROLOG DEEP
 LLS .OHMM   11 220 09 00:   LATEROLOG SHALLOW
 MSFL.OHMM   07 270 04 00:   MICRO SPHERICALLY FOCUSED RES.
~PARAMETER INFORMATION
#MNEM.UNIT          VALUE    DESCRIPTION
#----------   ------------   ------------------------------
 EKB .F         5006.0000:   Kelly bushing
 EGL .F         4996.0000:   Ground level
 EDF .F            0.0000:   Drilling floor
 TD  .F         2973.0000:   Total depth
 DATE.        21-FEB-1977:   Date logged
 CLNT.            A2DTECH:   Client Code
 SL  . 330' FEL & 2310' FNL:   Surface Location
 PD  .                 GL:   Permanent Datum
 EPD .F              4996:   Elevation Permanent Datum
 LMF .                 KB:   Log Measured From
 DMF .                 KB:   Drilling Measured From
 DAPD.F                10:   Feet Above Permanent Datum
 DD  .F              2973:   Depth driller
 DL  .F              2971:   Depth logger
 BLI .F              2970:   Bottom log interval
 TLI .F               164:   Top log interval
 CS1 .IN            8.625:   Casing size
 CBD1.      8.625" @ 167':   Casing driller 1
 CBL1.F               164:   Casing logger 1
 BS1 .IN            7.875:   Bit size
 BSD1.F              2973:   Depth drilled with bit1
 DFT .            KCL MUD:   Type fluid in hole
 DFD .                9.5:   Density
 DFV .                 35:   Viscosity
 DFPH.                6.5:   pH
 DFL .                 11:   Fluid loss
 MSS .              CIRC.:   Source of sample
 RMS .OHMM           0.27:   Rm
 MST .F                72:   Rm Meas. temp.
 RMF .OHMM           0.19:   Rmf
 MFST.F                72:   Rmf Meas. temp.
 RMC .OHMM           0.35:   Rmc
 MCST.F                72:   Rmc Meas. temp.
 MFSS.               MEAS:   Source Rmf.
 MCSS.               CALC:   Source Rmc.
 RMB .OHMM           0.18:   Rm. at BHT
 BHT .F               110:   BHT.
 TCS .HRS            0300:   Time Circ. stopped
 TLAB.HRS            1000:   Time logger at bottom
 MRT .F               110:   Maximum recorded temp.
 LUN .               7711:   Logging unit number
 LUL .               CSPR:   Logging unit location
 ENGI.             SAYLER:   Recorded By
 WITN.               JAPP:   Witnessed by
 ORIG.           5" PRINT:   Origin of data
 UWI .     49025103020000:   Unique Well ID
 DICO. A2D TECHNOLOGIES, INC.:   Digitizing Company
~OTHER INFORMATION
~A   DEPT       NPHI       GRD      CALD       RHOB       DCOR        SPR        LLD        LLS       MSFL   
# ...
 2194.0000     0.3100   118.3540    11.3460     2.4620     0.0800   -47.8660     9.1230     8.1030    12.2270
 2194.5000     0.3160   119.8470    11.3520     2.4780     0.1010   -47.8980     9.0100     8.0690    11.9530
 2195.0000     0.3210   120.9280    11.3580     2.4810     0.0950   -47.9280     8.8980     8.0360    11.9530
 2195.5000     0.3140   121.8960    11.3640     2.4690     0.0800   -47.9590     8.7450     7.9860    11.9530
 2196.0000     0.3050   122.6000    11.3700     2.4540     0.0660   -47.9930     8.8230     8.0060    11.3120
 2196.5000     0.3000   121.6840    11.3760     2.4500     0.0680   -47.9950     8.9470     8.1310    11.6030
 2197.0000     0.3000   120.7290    11.3820     2.4510     0.0710   -47.9560     9.0700     8.2560    12.4010
 2197.5000     0.2980   121.3360    11.3880     2.4630     0.1000   -47.9220     9.2410     8.4290    12.1750
 2198.0000     0.2980   122.4250    11.3940     2.4780     0.0920   -47.8860     9.1660     8.2780    14.1040
 2198.5000     0.2930   122.9180    11.3990     2.4660     0.0770   -47.8500     8.8230     8.0350    13.1760
 2199.0000     0.2930   122.9440    11.4050     2.4480     0.0690   -47.8150     8.4800     7.7910    12.0370
 2199.5000     0.2990   122.6990    11.4110     2.4510     0.0660   -47.7800     8.2310     7.5490    10.9030
 2200.0000     0.3030   122.5010    11.4090     2.4420     0.0640   -47.7440     8.1200     8.2290    11.1930
 2200.5000     0.3060   122.9000    11.4000     2.4490     0.0740   -47.7090     8.0090     8.9070    11.4820
 2201.0000     0.3000   123.6710    11.3910     2.4560     0.0820   -47.6730     7.8980     8.6810    11.7710
 2201.5000     0.3000   123.5300    11.3820     2.4600     0.0850   -47.6370     7.7260     8.4560    12.1750
 2202.0000     0.3000   122.4550    11.3720     2.4890     0.1130   -47.6020     7.4640     8.2760    11.4840
 2202.5000     0.2990   121.7580    11.3630     2.4880     0.1100   -47.5660     7.2010     8.0030    10.3330
 2203.0000     0.2990   122.3760    11.3540     2.4810     0.1020   -47.5310     6.8860     7.7760     9.4120
 2203.5000     0.2990   123.3510    11.3450     2.4720     0.0930   -47.4950     6.9890     7.5490    11.1060
 2204.0000     0.2990   124.2200    11.3350     2.4820     0.0970   -47.4600     7.1440     7.8630    10.1300
 2204.5000     0.2990   123.6280    11.3260     2.4670     0.0780   -47.4240     7.4010     8.1780    11.3450
 2205.0000     0.3000   123.0190    11.3170     2.4530     0.0890   -47.3890     8.0430     8.4290    12.0870
 2205.5000     0.3000   122.4150    11.3190     2.4800     0.1080   -47.3530     8.5880     8.2810    12.4010
 2206.0000     0.3010   121.5920    11.3220     2.4970     0.1250   -47.3170     8.9070     8.0960    12.0710
 2206.5000     0.2880   120.5520    11.3250     2.4950     0.1190   -47.2840     8.6140     7.9110    11.5220
 2207.0000     0.2980   118.5310    11.3290     2.4830     0.1120   -47.2460     8.3690     7.6890    11.3920
 2207.5000     0.2990   116.6360    11.3320     2.4950     0.1230   -47.2050     8.1250     7.7270    11.2620
 2208.0000     0.3010   116.7120    11.3350     2.4800     0.1000   -47.0680     8.2200     7.7750    11.1060
 2208.5000     0.3040   117.0690    11.3270     2.4920     0.1090   -46.9260     8.3150     7.8230    11.2100
 2209.0000     0.3090   117.8970    11.3180     2.4840     0.0960   -46.8090     8.4290     7.8710    11.3400
 2209.5000     0.3030   118.7180    11.3090     2.4600     0.0750   -46.7420     8.1990     7.9190    11.5220
 2210.0000     0.3020   120.8340    11.3010     2.4670     0.0790   -46.6850     7.9100     7.9770    11.3700
 2210.5000     0.3010   123.1080    11.2920     2.4840     0.1020   -46.6240     7.6220     7.9770    11.1170
 2211.0000     0.2990   125.3870    11.2840     2.4990     0.1170   -46.5670     7.2760     7.9770    10.8640
 2211.5000     0.2980   126.3950    11.2750     2.4920     0.1090   -46.5100     7.2960     7.9770    10.5100
 2212.0000     0.2990   124.8340    11.2670     2.4830     0.0990   -46.4420     7.3200     7.9770    10.7720
 2212.5000     0.3120   123.8590    11.2580     2.4950     0.1000   -46.4580     7.3440     7.9770    11.2100
 2213.0000     0.3140   125.1980    11.2420     2.4980     0.1040   -46.5910     7.3680     7.9770    11.7350
 2213.5000     0.3190   126.6360    11.2190     2.5070     0.1140   -46.7130     7.3920     7.9770    11.4670
 2214.0000     0.3230   126.4080    11.1960     2.5210     0.1190   -46.8370     7.4110     7.8430    11.1310
 2214.5000     0.3250   126.2810    11.1730     2.5330     0.1050   -46.9630     7.2410     7.7090    10.7950
 2215.0000     0.3250   127.7860    11.1500     2.5320     0.1090   -47.0860     7.0990     7.5490    10.4600
 2215.5000     0.3230   129.0520    11.1270     2.5180     0.1020   -47.2110     6.8450     7.1870    10.1240
 2216.0000     0.3120   132.0670    11.1040     2.5080     0.0940   -47.3360     6.4250     6.7340     9.7880
 2216.5000     0.3040   132.6410    11.0810     2.5190     0.1040   -47.4600     5.8360     6.2810     9.1520
 2217.0000     0.3050   131.7320    11.0580     2.5250     0.0990   -47.5850     5.9440     6.6720     7.4110
 2217.5000     0.3060   131.2400    11.0350     2.5290     0.0960   -47.7090     6.0540     7.0630     8.0310
 2218.0000     0.3010   131.5070    11.0210     2.5590     0.1180   -47.8330     7.1440     7.6890    10.5100
 2218.5000     0.2980   131.4570    11.0250     2.5710     0.1100   -47.9570     7.1200     7.6670    10.4440
 2219.0000     0.2980   131.3290    11.0300     2.5560     0.0980   -48.0520     7.0620     7.6130    10.2790
 2219.5000     0.3010   131.2120    11.0340     2.5330     0.0790   -48.1260     7.0030     7.5590    10.1140
 2220.0000     0.3030   130.5120    11.0380     2.5110     0.0690   -48.2000     6.9440     7.5040     9.9490
 2220.5000     0.3060   129.5970    11.0420     2.5210     0.0720   -48.2740     6.8860     7.4500     9.7840
 2221.0000     0.3090   127.7510    11.0460     2.5160     0.0690   -48.3470     6.9050     7.3960     9.5870
 2221.5000     0.3130   126.8400    11.0500     2.5270     0.0700   -48.4210     6.9240     7.3410     9.6520
 2222.0000     0.3160   126.8160    11.0550     2.5350     0.0710   -48.4950     6.9430     7.2760     9.7340
 2222.5000     0.3190   125.7940    11.0590     2.5230     0.0620   -48.5680     6.9620     7.1300     9.8150
 2223.0000     0.3190   123.8340    11.0530     2.5290     0.0670   -48.6440     6.9810     6.9470     9.9460
 2223.5000     0.3170   122.0770    11.0470     2.5430     0.0780   -48.7130     7.0000     6.7640     9.7730
 2224.0000     0.3090   122.1470    11.0410     2.5470     0.0840   -48.7970     7.0190     6.5810     9.3400
 2224.5000     0.3010   124.4040    11.0350     2.5360     0.0760   -48.7600     7.0390     6.3980     8.9070
 2225.0000     0.3000   126.0800    11.0280     2.5380     0.0690   -48.7060     7.0590     6.5170     9.0460
 2225.5000     0.3030   127.5250    11.0220     2.5310     0.0650   -48.6490     7.0770     6.6370     9.2410
 2226.0000     0.3050   127.9730    11.0160     2.5230     0.0660   -48.5940     7.0950     6.5160     9.1780
 2226.5000     0.2960   126.6930    11.0100     2.5390     0.0730   -48.5390     7.1110     6.7290     9.0740
 2227.0000     0.2880   124.8200    11.0030     2.5520     0.0800   -48.4860     7.1320     7.2600     8.9070
 2227.5000     0.2800   123.0530    11.0060     2.5490     0.0710   -48.4210     7.3960     7.7920     9.4150
 2228.0000     0.2710   122.0230    11.0190     2.5420     0.0590   -48.4690     8.0260     8.3230    10.6840
 2228.5000     0.2670   122.3440    11.0310     2.5410     0.0470   -48.5990     8.6560     8.8550    11.9530
 2229.0000     0.2690   122.3110    11.0440     2.5430     0.0450   -48.7170     9.4120     9.3860    12.4910
 2229.5000     0.2800   122.0810    11.0560     2.5420     0.0560   -48.8360     9.5880    10.1300    13.0280
 2230.0000     0.2870   122.0440    11.0690     2.5370     0.0550   -48.9570     9.7650     9.9770    13.5660
