~VERSION INFORMATION
 VERS.                2.0:   CWLS LOG ASCII STANDARD - VERSION 2.0
 WRAP.                 NO:   ONE LINE PER DEPTH STEP
~WELL INFORMATION
#MNEM.UNIT      DATA TYPE    INFORMATION
#----------   ------------   ------------------------------
 STRT.F          700.5000:   START DEPTH
 STOP.F         3060.0000:   STOP DEPTH
 STEP.F            0.5000:   STEP LENGTH
 NULL.          -999.2500:   NO VALUE
 COMP.    FENIX & SCISSON:   COMPANY
 WELL.   FENIX "A" #23-34:   WELL
 FLD .           N P R #3:   FIELD
 LOC .      S34 T39N R78W:   LOCATION
 CNTY.            NATRONA:   COUNTY
 STAT.            WYOMING:   STATE
 CTRY. UNITED STATES OF AMERICA:   COUNTRY
 SRVC.       SCHLUMBERGER:   SERVICE COMPANY
 DATE.        23-APR-1977:   LOGDATE
 API .     49025103590000:   API NUMBER
~CURVE INFORMATION
#MNEM.UNIT       API CODE    CURVE DESCRIPTION
#----------   ------------   ------------------------------
 DEPT.F                  :   
 ILD .OHMM   07 120 46 00:   DEEP INDUCTION RESISTIVITY
 ILM .OHMM   07 120 44 00:   INDUCTION LOG MEDIUM RESISTIVITY
 LL8 .OHMM   07 220 08 00:   LATEROLOG-8 RES.
 SPR .MV     07 010 01 00:   SPONTANEOUS POTENTIAL
 GRD .GAPI   45 310 01 00:   GAMMA RAY FROM DENSITY LOG
 CALD.IN     45 280 60 00:   CALIPER FROM DENSITY LOG
 RHOB.G/C3   45 350 01 00:   BULK DENSITY
 CORR.G/C3   45 356 01 00:   DENSITY CORRECTION
~PARAMETER INFORMATION
#MNEM.UNIT          VALUE    DESCRIPTION
#----------   ------------   ------------------------------
 EKB .F         5094.0000:   Kelly bushing
 EGL .F         5082.0000:   Ground level
 EDF .F            0.0000:   Drilling floor
 EPD .F            0.0000:   Permanent datum
 TD  .F         3051.0000:   Total depth
 DATE.        23-APR-1977:   Date logged
 CLNT.            A2DTECH:   Client Code
 SL  . 990' FWL & 1650' FNL:   Surface Location
 PD  .                 GL:   Permanent Datum
 DD  .F              3050:   Depth driller
 DL  .F              3051:   Depth logger
 BLI .F              3045:   Bottom log interval
 CS1 .IN            8.625:   Casing size
 CBD1.      8.625" @ 718':   Casing driller 1
 CBL1.F               717:   Casing logger 1
 BS1 .IN            7.875:   Bit size
 DFT .                FGM:   Type fluid in hole
 DFD .                8.8:   Density
 DFV .                 34:   Viscosity
 DFPH.                8.5:   pH
 DFL .                8.2:   Fluid loss
 MSS .           FLOWLINE:   Source of sample
 RMS .OHMM           .155:   Rm
 MST .F                66:   Rm Meas. temp.
 RMF .OHMM           .152:   Rmf
 MFST.F                66:   Rmf Meas. temp.
 MFSS.               MEAS:   Source Rmf.
 RMB .OHMM           .085:   Rm. at BHT
 BHT .F               120:   BHT.
 TCS .HRS            0230:   Time Circ. stopped
 MRT .F               120:   Maximum recorded temp.
 LUN .               5642:   Logging unit number
 LUL .               CSPR:   Logging unit location
 ENGI.             TAYLOR:   Recorded By
 WITN.         HARRINGTON:   Witnessed by
 ORIG.           5" PRINT:   Origin of data
 UWI .     49025103590000:   Unique Well ID
 DICO. A2D TECHNOLOGIES, INC.:   Digitizing Company
 DAPD.                 12:   Feet Above Permanent Datum
 BSD1.               3050:   Depth drilled with bit1
 TLI .                717:   Top log interval
 TLAB.               0530:   Time logger at bottom
~OTHER INFORMATION
~A   DEPT      ILD        ILM        LL8        SPR         GRD      CALD       RHOB       CORR   
# ...
 1632.0000     6.0510     5.3060     7.2960   -76.7400   138.5360    10.3160     2.5530     0.0550
 1632.5000     6.2210     5.6490     7.9080   -76.5640   139.3280    10.3140     2.5440     0.0480
 1633.0000     6.4440     5.9920     7.9080   -76.6210   139.6840    10.2980     2.5250     0.0250
 1633.5000     6.6750     6.3350     7.9080   -76.8450   137.6420    10.2780     2.5130     0.0110
 1634.0000     6.9050     6.6780     7.9080   -77.0690   134.6670    10.2250     2.5210     0.0300
 1634.5000     7.1440     6.8220     7.9870   -77.2960   131.9960    10.1260     2.5400     0.0470
 1635.0000     7.1440     6.7590     8.0690   -77.5220   132.0060    10.0260     2.5430     0.0440
 1635.5000     7.1440     6.3840     8.1520   -77.7470   132.4560     9.9270     2.5370     0.0350
 1636.0000     7.0530     5.9920     8.2050   -77.9730   132.6750     9.8300     2.5190     0.0280
 1636.5000     6.9570     5.6010     8.0510   -77.9090   132.2650     9.7970     2.5190     0.0280
 1637.0000     6.8620     5.2200     7.7640   -77.6200   132.1240     9.7980     2.5340     0.0300
 1637.5000     6.7660     5.1950     6.8210   -77.3330   132.7100     9.7970     2.5260     0.0420
 1638.0000     6.6700     5.1720     6.3950   -77.0750   133.2730     9.8110     2.5180     0.0540
 1638.5000     6.5750     5.4780     6.8340   -77.0830   133.7450     9.8300     2.5250     0.0620
 1639.0000     6.4550     5.6810     7.2170   -77.0830   133.2840     9.8500     2.5310     0.0510
 1639.5000     6.5750     5.7390     7.6210   -77.0820   132.8100     9.8690     2.5110     0.0220
 1640.0000     6.6490     5.7780     7.8600   -76.9470   133.9120     9.8890     2.4980     0.0100
 1640.5000     6.7500     5.8810     8.1290   -76.7010   136.1610     9.9080     2.5090     0.0170
 1641.0000     6.8510     6.0200     8.0760   -76.4630   137.3490     9.9270     2.5320     0.0350
 1641.5000     6.9510     6.1600     8.0190   -76.3000   135.4230     9.9250     2.5570     0.0540
 1642.0000     7.0520     6.2990     7.9810   -76.5270   130.9290     9.8810     2.5600     0.0580
 1642.5000     7.1520     6.3370     8.0800   -76.7830   130.7760     9.8380     2.5520     0.0500
 1643.0000     7.2530     6.3050     8.1560   -77.0390   131.2780     9.7950     2.5350     0.0350
 1643.5000     7.3530     6.2710     8.2330   -77.2940   131.8070     9.7510     2.5270     0.0270
 1644.0000     7.4540     6.2370     8.3090   -77.5500   133.0890     9.7090     2.5270     0.0230
 1644.5000     7.5510     6.2030     8.3850   -77.8160   134.8170     9.6780     2.5270     0.0250
 1645.0000     7.5510     6.1690     8.4610   -77.7350   136.8000     9.6790     2.5220     0.0240
 1645.5000     7.5510     6.1340     8.5130   -77.5460   135.8200     9.6740     2.5160     0.0180
 1646.0000     7.5340     6.1000     8.3030   -77.3530   133.9310     9.6600     2.5130     0.0240
 1646.5000     7.4810     6.0660     8.1290   -77.1610   132.8010     9.6760     2.5190     0.0180
 1647.0000     7.4280     6.0320     8.1680   -76.9680   134.0160     9.6920     2.5120     0.0110
 1647.5000     7.3750     5.9980     8.2220   -76.7760   134.7560     9.7080     2.5080     0.0130
 1648.0000     7.3220     5.9640     8.2810   -76.5830   134.7720     9.7250     2.5150     0.0210
 1648.5000     7.2690     5.9300     8.1940   -76.4410   135.8840     9.7410     2.5300     0.0280
 1649.0000     7.2100     5.8960     8.0230   -76.3460   136.9840     9.7570     2.5370     0.0310
 1649.5000     7.2100     5.8860     7.8350   -76.2510   136.9420     9.7730     2.5410     0.0350
 1650.0000     7.2100     6.0430     7.8350   -76.1600   134.9340     9.7890     2.5340     0.0370
 1650.5000     7.2770     6.1650     8.1140   -76.1570   132.6900     9.7970     2.5330     0.0310
 1651.0000     7.3830     6.2860     8.4100   -76.4140   130.4420     9.7980     2.5400     0.0260
 1651.5000     7.4790     6.3950     8.7060   -76.6620   128.4460     9.7980     2.5530     0.0290
 1652.0000     7.5750     6.3950     8.9150   -76.9100   129.8150     9.7980     2.5360     0.0240
 1652.5000     7.6700     6.3180     8.9150   -77.1580   132.3710     9.7970     2.5290     0.0220
 1653.0000     7.7660     6.2070     8.8660   -77.4060   134.9520     9.7950     2.5420     0.0330
 1653.5000     7.8350     6.0950     8.7250   -77.6540   137.5370     9.8210     2.5370     0.0250
 1654.0000     7.8350     5.9840     8.3470   -77.9000   140.1650     9.8360     2.5510     0.0330
 1654.5000     7.7140     5.8720     7.9690   -78.0620   142.4980     9.8580     2.5330     0.0360
 1655.0000     7.6030     5.7610     7.6210   -77.9950   143.2270     9.8810     2.5210     0.0200
 1655.5000     7.4920     5.6490     7.4820   -77.9320   140.4940     9.9030     2.5170     0.0260
 1656.0000     7.3800     5.5690     7.4670   -77.8710   137.5470     9.9260     2.5300     0.0310
 1656.5000     7.2770     5.7930     7.4460   -77.8090   136.1510     9.9500     2.5120     0.0250
 1657.0000     7.2100     5.9950     7.4240   -77.7470   136.9490     9.9570     2.4960     0.0150
 1657.5000     6.5440     5.8860     7.4030   -77.6850   136.1170     9.9570     2.5020     0.0100
 1658.0000     5.6510     5.1510     7.3820   -77.6230   133.5980     9.9570     2.4930     0.0070
 1658.5000     4.7570     4.4650     7.3600   -77.5610   131.1590     9.9560     2.4760     0.0110
 1659.0000     3.8630     3.7790     7.2770   -77.4940   130.9310     9.9560     2.4670     0.0320
 1659.5000     3.2610     3.0930     6.5450   -77.6060   131.1330     9.9960     2.4710     0.0630
 1660.0000     3.1720     2.4060     5.0040   -77.7830   130.6170    10.1160     2.4620     0.1060
 1660.5000     3.2190     2.1530     3.4630   -77.9610   129.7760    10.2910     2.4680     0.1480
 1661.0000     3.2560     2.3170     2.2750   -78.1390   129.0640    10.4640     2.4490     0.1840
 1661.5000     3.2940     2.8000     3.4510   -78.3170   130.4710    10.5680     2.3900     0.0500
 1662.0000     3.3520     3.2830     5.2450   -78.4950   131.8970    10.4030     2.4750     0.0390
 1662.5000     3.9230     3.7660     6.9490   -78.6740   133.2990    10.1820     2.5140     0.0300
 1663.0000     5.0430     4.3760     7.8350   -78.8600   134.3230    10.0170     2.5220     0.0210
 1663.5000     6.1630     5.1430     7.8350   -78.8760   133.9570     9.9510     2.5180     0.0140
 1664.0000     7.2830     5.9090     7.9080   -78.5900   133.6200     9.8960     2.5150     0.0120
 1664.5000     8.0550     6.4170     7.9910   -78.1950   133.2800     9.8410     2.5120     0.0120
 1665.0000     8.2810     6.6000     8.0890   -77.7890   133.0570     9.7870     2.5220     0.0130
 1665.5000     8.2100     6.7830     8.1880   -77.5510   135.1110     9.7330     2.5240     0.0150
 1666.0000     8.1250     6.9300     8.2870   -77.3620   137.2000     9.6780     2.5230     0.0230
 1666.5000     8.0400     7.0310     8.3850   -77.1760   138.8460     9.6590     2.5380     0.0320
 1667.0000     7.9550     7.1320     8.4840   -76.9900   139.4210     9.6410     2.5300     0.0400
 1667.5000     7.8700     7.2710     8.5820   -76.8040   139.5270     9.6140     2.5210     0.0340
 1668.0000     7.7850     7.5340     8.6810   -76.6200   139.0450     9.5870     2.5390     0.0310
 1668.5000     7.7000     7.7980     8.7800   -76.5180   138.5100     9.5600     2.5270     0.0280
 1669.0000     7.6150     8.0550     8.8780   -76.6460   136.9840     9.5330     2.5150     0.0250
 1669.5000     7.5300     7.7670     8.9510   -76.7680   135.7980     9.5060     2.5240     0.0220
 1670.0000     7.4450     7.4170     9.0070   -76.8890   137.0290     9.4780     2.5170     0.0180
 1670.5000     7.3600     7.1440     9.0640   -77.0100   138.3330     9.4510     2.5080     0.0110
 1671.0000     7.3450     7.1440     9.1210   -77.1320   137.5420     9.4240     2.4960     0.0080
 1671.5000     7.3450     7.2130     9.1660   -77.2530   134.7150     9.3970     2.4930     0.0110
 1672.0000     7.4130     7.2980     9.0610   -77.3750   135.9830     9.3700     2.5090     0.0190
