~VERSION INFORMATION
 VERS.                2.0:   CWLS LOG ASCII STANDARD - VERSION 2.0
 WRAP.                 NO:   ONE LINE PER DEPTH STEP
~WELL INFORMATION
#MNEM.UNIT      DATA TYPE    INFORMATION
#----------   ------------   ------------------------------
 STRT.F          205.0000:   START DEPTH
 STOP.F         3171.5000:   STOP DEPTH
 STEP.F            0.5000:   STEP LENGTH
 NULL.          -999.2500:   NO VALUE
 COMP.    FENIX & SCISSON:   COMPANY
 WELL. FENIX & SCISSON  "AX" #27-28:   WELL
 FLD .              NPR 3:   FIELD
 LOC .      S28 T39N R78W:   LOCATION
 CNTY.            NATRONA:   COUNTY
 STAT.            WYOMING:   STATE
 CTRY. UNITED STATES OF AMERICA:   COUNTRY
 SRVC.       SCHLUMBERGER:   SERVICE COMPANY
 DATE.        30-MAY-1977:   LOGDATE
 API .     49025103870000:   API NUMBER
~CURVE INFORMATION
#MNEM.UNIT       API CODE    CURVE DESCRIPTION
#----------   ------------   ------------------------------
 DEPT.F                  :   
 NPHI.DEC    42 890 03 00:   NEUTRON POROSITY SANDSTONE
 CALD.IN     45 280 60 00:   CALIPER FROM DENSITY LOG
 GRD .GAPI   45 310 01 00:   GAMMA RAY FROM DENSITY LOG
 RHOB.G/C3   45 350 01 00:   BULK DENSITY
 CORR.G/C3   45 356 01 00:   DENSITY CORRECTION
 SPR .MV     11 010 01 00:   SPONTANEOUS POTENTIAL
 MSFL.OHMM   11 270 04 00:   MICRO SPHERICALLY FOCUSED RES.
 LLD .OHMM   11 220 10 00:   LATEROLOG LOG DEEP
 LLS .OHMM   11 220 09 00:   LATEROLOG LOG SHALLOW
~PARAMETER INFORMATION
#MNEM.UNIT          VALUE    DESCRIPTION
#----------   ------------   ------------------------------
 EKB .F         5094.0000:   Kelly bushing
 EGL .F         5084.0000:   Ground level
 EDF .F            0.0000:   Drilling floor
 EPD .F            0.0000:   Permanent datum
 TD  .F         3169.0000:   Total depth
 DATE.        30-MAY-1977:   Date logged
 CLNT.            A2DTECH:   Client Code
 SL  . 1266' FSL & 871' FWL:   Surface Location
 PD  .                 GL:   Permanent Datum
 DD  .F              3163:   Depth driller
 DL  .F              3169:   Depth logger
 BLI .F              3168:   Bottom log interval
 CS1 .IN            8.625:   Casing size
 CBD1.      8.625" @ 210':   Casing driller 1
 CBL1.F               219:   Casing logger 1
 BS1 .IN            7.875:   Bit size
 DFT .           SALT/MUD:   Type fluid in hole
 DFD .                8.9:   Density
 DFV .                 32:   Viscosity
 DFPH.                8.5:   pH
 DFL .                5.8:   Fluid loss
 MSS .                PIT:   Source of sample
 RMS .OHMM           .194:   Rm
 MST .F                65:   Rm Meas. temp.
 RMF .OHMM           .165:   Rmf
 MFST.F                65:   Rmf Meas. temp.
 MFSS.               MEAS:   Source Rmf.
 RMB .OHMM           .107:   Rm. at BHT
 BHT .F               118:   BHT.
 MRT .F               118:   Maximum recorded temp.
 LUN .               5642:   Logging unit number
 LUL .               CSPR:   Logging unit location
 ENGI.             MARTIN:   Recorded By
 WITN.         PETTINGILL:   Witnessed by
 ORIG.           5" PRINT:   Origin of data
 UWI .     49025103870000:   Unique Well ID
 DICO. A2D TECHNOLOGIES, INC.:   Digitizing Company
 DAPD.F                10:   Feet Above Permanent Datum
 BSD1.F              3163:   Depth drilled with bit1
 TLI .F               219:   Top log interval
 TLAB.HRS            0930:   Time logger at bottom
~OTHER INFORMATION
~A   DEPT     NPHI         CALD      GRD         RHOB      CORR       SPR       MSFL        LLD        LLS   
# ...
 2139.5000     0.3851     8.4600   191.2594     2.4820     0.0783   -68.8648    11.8479     9.0706     9.6414
 2140.0000     0.3811     8.4604   188.8876     2.5010     0.0644   -69.0662    10.8101     8.3484     8.8821
 2140.5000     0.3804     8.4610   188.1101     2.4940     0.0953   -69.6631     9.0000     7.8264     8.3328
 2141.0000     0.3891     8.4814   184.5543     2.4751     0.0624   -69.6646     8.5184     7.2698     7.7467
 2141.5000     0.3955     8.4820   180.2044     2.4631     0.0534   -69.8660     8.4392     6.8590     7.3137
 2142.0000     0.4039     8.4826   179.8234     2.4562     0.0594   -69.8697     9.1611     6.1993     6.8578
 2142.5000     0.4055     8.4832   185.7934     2.4522     0.0624   -70.0711    10.0376     5.8802     7.0481
 2143.0000     0.4059     8.5036   187.3974     2.4512     0.0435   -69.8770    12.8481     7.3093     7.6704
 2143.5000     0.4043     8.4447   185.0318     2.4632     0.0495   -69.8807    12.8458     7.7932     8.5412
 2144.0000     0.3987     8.4255   184.6510     2.4672     0.0435   -69.8843    12.6106     8.0829     9.0235
 2144.5000     0.3812     8.4059   187.8430     2.4622     0.0365   -70.4813    12.1552     8.0077     9.0218
 2145.0000     0.3684     8.4065   189.0502     2.4592     0.0316   -70.6828    11.7163     7.7889     8.7750
 2145.5000     0.3640     8.4067   187.4784     2.4613     0.0406   -70.6864    11.0885     7.3704     8.4576
 2146.0000     0.3664     8.4100   185.1125     2.4932     0.0465   -70.6901    10.4944     7.0592     8.0033
 2146.5000     0.3740     8.4133   185.5256     2.5042     0.0535   -70.6938     9.4883     7.1023     7.5733
 2147.0000     0.3748     8.4166   189.5090     2.5212     0.0745   -70.8953     7.9718     7.2327     7.0362
 2147.5000     0.3692     8.4199   192.3048     2.5062     0.0665   -71.4923     5.9476     7.5882     6.3016
 2148.0000     0.3676     8.4232   189.5416     2.4993     0.0416   -71.8960     5.0551     7.9612     5.7480
 2148.5000     0.3804     8.4265   187.9695     2.5262     0.0835   -71.8975     4.9625     8.3525     5.5908
 2149.0000     0.4055     8.4313   188.3829     2.5352     0.0526   -71.6040     5.3394     8.8429     5.6421
 2149.5000     0.4143     8.4315   186.0196     2.5083     0.0456   -71.3104     6.1261     8.8425     6.0367
 2150.0000     0.4103     8.4124   182.4616     2.4993     0.0606   -71.0169     6.2209     7.0281     6.2958
 2150.5000     0.3557     8.4130   180.4920     2.4834     0.0736   -70.7234     4.4330     6.7739     6.2951
 2151.0000     0.3569     8.4334   180.1108     2.4764     0.1215   -70.3349     4.1577     6.5287     6.1791
 2151.5000     0.3716     8.4737   180.1268     2.5263     0.1819   -70.3371     4.0509     6.0657     5.7935
 2152.0000     0.3764     8.5537   181.3343     2.5722     0.2074   -70.3408     4.6054     5.6352     5.4322
 2152.5000     0.3812     8.6734   183.3331     2.5643     0.2329   -70.3445     7.0635     5.2838     5.3816
 2153.0000     0.3844     8.6739   186.1296     2.4895     0.2472   -70.5459     7.7395     5.2342     5.5308
 2153.5000     0.3972     8.6149   189.7208     2.4566     0.1575   -70.5496     8.7154     5.2819     5.7897
 2154.0000     0.3972     8.4765   191.7232     2.4306     0.0836   -70.5533     9.5489     5.3795     6.0050
 2154.5000     0.3944     8.3779   189.3561     2.4606     0.0408   -70.3591     9.7234     6.0703     6.7015
 2155.0000     0.3904     8.3387   186.9888     2.4796     0.0617   -69.9672     9.8508     6.8499     7.0801
 2155.5000     0.3812     8.3393   188.5941     2.4885     0.0687   -69.3774     9.6699     7.4796     7.4794
 2156.0000     0.3820     8.3399   191.7887     2.4955     0.0568   -68.5897     9.4057     7.6164     7.4780
 2156.5000     0.3932     8.3603   191.4078     2.4926     0.0707   -68.5934     8.9004     7.5455     7.4766
 2157.0000     0.3988     8.3609   184.6725     2.4806     0.0807   -68.7949     7.9432     7.4070     7.4752
 2157.5000     0.3984     8.3416   177.5340     2.4746     0.0704   -68.6007     7.2475     7.2710     7.2710
 2158.0000     0.3912     8.3422   175.5632     2.4547     0.0598   -68.4058     5.2606     7.0723     7.0078
 2158.5000     0.3812     8.3825   174.3870     2.4697     0.0718   -68.2116     5.2597     6.7541     6.7541
 2159.0000     0.3725     8.3831   172.8134     2.4757     0.0897   -68.2152     5.4547     6.3912     6.5695
 2159.5000     0.3725     8.3836   169.6532     2.4657     0.0987   -68.8131     6.1426     5.8300     6.3317
 2160.0000     0.3673     8.3842   170.0568     2.4927     0.1336   -68.6182     9.5648     5.8289     6.2154
 2160.5000     0.3808     8.3848   172.3644     2.4309     0.0788   -68.3430     9.5641     5.8820     6.3294
 2161.0000     0.3884     8.3854   174.6720     2.4229     0.0459   -68.0677     9.4750     8.1810     8.5650
 2161.5000     0.3828     8.3858   178.0682     2.4628     0.0339   -67.8378     9.3010     8.1051     8.5640
 2162.0000     0.3829     8.3864   178.4720     2.4299     0.0459   -68.2371     9.0469     7.5997     8.1681
 2162.5000     0.3908     8.3870   178.0905     2.4140     0.0579   -68.4386     8.5609     6.8254     7.2783
 2163.0000     0.3964     8.4273   175.7216     2.4459     0.0719   -68.6401     7.7375     6.3398     6.7661
 2163.5000     0.3996     8.4077   173.3525     2.4360     0.0609   -68.4459     7.0581     6.0537     6.4642
 2164.0000     0.4020     8.4201   174.1633     2.4410     0.0480   -68.4496     6.4383     5.7277     6.1198
 2164.5000     0.4036     8.4325   176.9616     2.4639     0.0769   -68.2554     5.9270     5.5076     5.7659
 2165.0000     0.4048     8.4449   180.9527     2.4599     0.1018   -68.0612     4.9779     5.6603     5.8182
 2165.5000     0.4060     8.4573   182.9564     2.4540     0.1128   -68.2627     4.4583     6.2601     6.2029
 2166.0000     0.4060     8.4697   180.1897     2.4111     0.0799   -68.6620     4.8410     7.4511     7.6581
 2166.5000     0.4048     8.4821   177.4227     2.3992     0.0859   -68.6664     5.2087     9.8467     9.4558
 2167.0000     0.4016     8.4945   171.8750     2.4451     0.1069   -68.6672     5.7458     9.4889     9.2822
 2167.5000     0.3956     8.5069   157.5807     2.4560     0.0820   -68.6717     8.5139     8.8148     8.3898
 2168.0000     0.3693     8.5193   149.2379     2.4650     0.0640   -68.6762     8.9110     7.7794     7.1113
 2168.5000     0.3474     8.5331   145.6863     2.4461     0.0401   -68.6818     7.2847     6.8657     6.0832
 2169.0000     0.3414     8.5535   149.2738     2.4581     0.0611   -69.0797     5.7937     6.0593     5.2999
 2169.5000     0.3346     8.6336   154.0604     2.4671     0.0740   -69.0841     4.8245     5.3476     4.7471
 2170.0000     0.3657     8.6342   158.4467     2.4791     0.1159   -69.2834     4.2051     5.3966     4.7031
 2170.5000     0.3897     8.6149   158.0643     2.4801     0.1089   -70.0398     3.5659     5.7009     5.2490
 2171.0000     0.3953     8.5558   155.6935     2.4572     0.0870   -71.0754     3.1400     6.1334     5.7524
 2171.5000     0.4032     8.4967   153.7202     2.4542     0.0790   -70.6818     4.3594     6.2463     5.9663
 2172.0000     0.4036     8.4774   152.9399     2.4612     0.0980   -69.8932     4.6044     6.7826     6.0201
 2172.5000     0.3985     8.4581   152.5573     2.4712     0.0781   -70.0948     4.8636     6.4182     5.9634
 2173.0000     0.3913     8.4388   154.1633     2.4483     0.0442   -70.4950     5.4766     6.0734     5.4521
 2173.5000     0.3454     8.4394   156.9649     2.4702     0.0831   -70.8944     5.1830     5.8000     4.9847
 2174.0000     0.3478     8.4201   164.9415     2.4702     0.0612   -71.0945     4.3953     5.4383     4.5574
 2174.5000     0.3524     8.4208   166.9396     2.4433     0.0392   -71.1812     4.0845     4.5675     4.1667
 2175.0000     0.3570     8.4015   169.7397     2.4394     0.0472   -71.2679     4.1211     4.0704     3.8712
 2175.5000     0.3616     8.4021   171.7453     2.4633     0.0682   -71.3546     5.3720     3.0216     3.1358
