~VERSION INFORMATION
 VERS.                2.0:   CWLS LOG ASCII STANDARD - VERSION 2.0
 WRAP.                 NO:   ONE LINE PER DEPTH STEP
~WELL INFORMATION
#MNEM.UNIT      DATA TYPE    INFORMATION
#----------   ------------   ------------------------------
 STRT.F          448.5000:   START DEPTH
 STOP.F         4490.5000:   STOP DEPTH
 STEP.F            0.5000:   STEP LENGTH
 NULL.          -999.2500:   NO VALUE
 COMP.  FENIX AND SCISSON:   COMPANY
 WELL. FENIX AND SCISSON NPR 3 #11-10:   WELL
 FLD .              NPR-3:   FIELD
 LOC .      S10 T38N R78W:   LOCATION
 CNTY.            NATRONA:   COUNTY
 STAT.            WYOMING:   STATE
 CTRY. UNITED STATES OF AMERICA:   COUNTRY
 SRVC.              WELEX:   SERVICE COMPANY
 DATE.        22-DEC-1978:   LOGDATE
 API .     49025107450000:   API NUMBER
~CURVE INFORMATION
#MNEM.UNIT       API CODE    CURVE DESCRIPTION
#----------   ------------   ------------------------------
 DEPT.F                  :   
 SPR .MV     07 010 01 00:   SPONTANEOUS POTENTIAL
 ILM .OHMM   07 120 44 00:   INDUCTION LOG MEDIUM
 ILD .OHMM   07 120 46 00:   DEEP RESISTIVITY
 SGRD.OHMM   07 220 01 00:   SHALLOW SHORT GUARD RESISTIVITY
 TENR.LBS    07 635 01 00:   TENSION FROM RESISTIVITY
 NPHI.DEC    42 890 03 00:   NEUTRON POROSITY SANDSTONE
 CALD.IN     45 280 60 00:   CALIPER FROM DENSITY LOG
 GRD .GAPI   45 310 01 00:   GAMMA RAY FROM DENSITY LOG
 RHOB.G/C3   45 350 01 00:   BULK DENSITY
 DRHO.G/C3   45 356 01 00:   DENSITY CORRECTION
 TEND.LBS    45 635 01 00:   TENSION FROM DENSITY
~PARAMETER INFORMATION
#MNEM.UNIT          VALUE    DESCRIPTION
#----------   ------------   ------------------------------
 EKB .F         5275.0000:   Kelly bushing
 EGL .F         5265.0000:   Ground level
 EDF .F            0.0000:   Drilling floor
 EPD .F         5265.0000:   Permanent datum
 TD  .F         4500.0000:   Total depth
 DATE.        22-DEC-1978:   Date logged
 CLNT.            A2DTECH:   Client Code
 SL  . 300' FNL & 500' FWL:   Surface Location
 DD  .F              4500:   Depth driller
 DL  .F              4481:   Depth logger
 BLI .F              4479:   Bottom log interval
 TLI .F               450:   Top log interval
 CS1 .IN            8.625:   Casing size
 CBD1.      8.625" @ 500':   Casing driller 1
 CBL1.F               473:   Casing logger 1
 BS1 .IN            7.875:   Bit size
 BSD1.F              4500:   Depth drilled with bit1
 DFT .               LSND:   Type fluid in hole
 DFD .                8.7:   Density
 DFV .                 49:   Viscosity
 DFPH.               11.0:   pH
 DFL .                7.6:   Fluid loss
 MSS .           FLOWLINE:   Source of sample
 RMS .OHMM            1.1:   Rm
 MST .F                86:   Rm Meas. temp.
 RMF .OHMM           0.73:   Rmf
 MFST.F                86:   Rmf Meas. temp.
 RMC .OHMM           1.68:   Rmc
 MCST.F                86:   Rmc Meas. temp.
 MFSS.               CALC:   Source Rmf.
 MCSS.               CALC:   Source Rmc.
 RMB .OHMM           0.72:   Rm. at BHT
 BHT .F               130:   BHT.
 TCS .HRS             3.5:   Time Circ. stopped
 MRT .F               130:   Maximum recorded temp.
 LUN .               9685:   Logging unit number
 LUL .             CASPER:   Logging unit location
 ENGI.            BENTSEN:   Recorded By
 WITN.           DINSMORE:   Witnessed by
 ORIG.           5" PRINT:   Origin of data
 UWI .     49025107450000:   Unique Well ID
 DICO. A2D TECHNOLOGIES, INC.:   Digitizing Company
~OTHER INFORMATION
~A  DEPTH      SPR        ILM        ILD       SGRD       TENR       NPHI       CALD        GRD       RHOB       DRHO       TEND
# ...
 2065.0000   -64.9333     6.7476     7.0352     7.6001   972.8223     0.3454    12.4682    87.1833     2.5112     0.0057  1272.8635
 2065.5000   -64.9200     6.7532     6.9616     7.6092   973.1273     0.3496    12.4546    87.2646     2.5045     0.0044  1271.8141
 2066.0000   -65.0523     6.7588     6.9016     7.6183   973.4323     0.3519    12.4474    87.6975     2.4986     0.0031  1270.7646
 2066.5000   -65.1877     6.7469     6.8594     7.6274   973.7372     0.3532    12.4498    87.7876     2.4957     0.0034  1269.7151
 2067.0000   -65.1749     6.7234     6.8528     7.6382   974.0422     0.3531    12.4608    88.0612     2.4950     0.0037  1268.6656
 2067.5000   -65.1621     6.7290     6.9347     7.6470   974.3472     0.3519    12.4985    88.2452     2.4967     0.0089  1267.6161
 2068.0000   -65.1493     6.7345     7.1592     7.5505   974.6522     0.3494    12.5597    87.6439     2.5028     0.0208  1266.5667
 2068.5000   -65.1363     6.7401     7.3165     7.5592   974.9571     0.3455    12.6386    86.2377     2.5059     0.0300  1265.5172
 2069.0000   -65.1230     6.7457     7.4258     7.6204   975.2621     0.3415    12.6706    85.1088     2.4992     0.0423  1264.4677
 2069.5000   -65.1096     6.7807     7.4849     7.7370   975.5670     0.3415    12.7176    84.4925     2.4978     0.0516  1263.4182
 2070.0000   -65.0963     6.8039     7.4923     7.9127   975.8720     0.3439    12.7347    84.2177     2.4994     0.0669  1262.3687
 2070.5000   -65.0830     6.8431     7.3965     8.0372   976.1769     0.3473    12.7369    84.1990     2.5018     0.0777  1261.3192
 2071.0000   -65.0696     6.8984     7.2969     8.1561   976.4819     0.3516    12.7222    84.4587     2.5034     0.0900  1260.2697
 2071.5000   -65.0563     6.9160     7.1491     8.2133   976.7869     0.3555    12.7121    84.9371     2.4553     0.1023  1259.2202
 2072.0000   -65.0430     6.9227     6.9989     7.9973   977.0919     0.3593    12.7145    85.9178     2.4336     0.1236  1258.1708
 2072.5000   -65.0296     6.8329     6.8221     7.7504   977.3969     0.3636    12.7168    86.8817     2.4097     0.1449  1257.1212
 2073.0000   -65.0163     6.6978     6.7320     7.5786   977.7018     0.3675    12.7124    87.4898     2.3564     0.1632  1256.0718
 2073.5000   -65.0030     6.5653     6.6431     7.3891   978.0068     0.3701    12.7462    86.5196     2.3285     0.1785  1255.0222
 2074.0000   -64.9896     6.4802     6.5436     7.2585   978.3117     0.3730    12.8915    84.3936     2.2904     0.1893  1253.9728
 2074.5000   -64.9763     6.3927     6.4241     7.1632   978.6167     0.3755    13.0858    82.9352     2.2326     0.1986  1252.9233
 2075.0000   -64.9630     6.3064     6.3393     7.0916   978.9216     0.3770    12.9449    82.8241     2.1914     0.1988  1251.8738
 2075.5000   -64.9496     6.2212     6.2715     7.0735   979.2266     0.3752    13.5214    83.4822     2.1554     0.1720  1250.7731
 2076.0000   -64.9363     6.1372     6.2157     7.0555   979.5316     0.3718    14.0750    84.4755     2.1457     0.1360  1249.7750
 2076.5000   -64.9230     6.0630     6.1712     7.0415   979.8365     0.3697    13.4811    85.4688     2.2390     0.1212  1263.7180
 2077.0000   -64.9096     6.0245     6.1572     7.0197   980.1415     0.3703    13.1108    86.6533     2.3293     0.1139  1262.6686
 2077.5000   -64.8937     5.9741     6.1195     7.0096   980.4465     0.3732    13.1726    87.1316     2.3535     0.1022  1261.6191
 2078.0000   -64.8810     5.9070     6.1054     7.0180   980.7515     0.3765    13.0817    87.6099     2.3258     0.0888  1260.5697
 2078.5000   -64.8682     5.8694     6.1368     6.9545   981.0564     0.3789    12.9353    87.8651     2.3033     0.0845  1259.5203
 2079.0000   -65.0035     5.8489     6.1873     6.8262   981.3614     0.3786    12.9417    87.8987     2.2809     0.0953  1258.4707
 2079.5000   -64.9908     5.8724     6.2383     6.6652   981.6664     0.3763    13.0287    87.9322     2.2456     0.1061  1257.4213
 2080.0000   -64.9780     5.9199     6.2593     6.4907   981.9713     0.3738    13.0959    87.9136     2.2194     0.1139  1256.3718
 2080.5000   -65.1134     5.9902     6.2340     6.3207   982.2763     0.3709    13.0414    87.7757     2.2127     0.1186  1255.3224
 2081.0000   -65.0993     6.0823     6.1959     6.0706   982.5812     0.3680    12.9450    87.6394     2.2264     0.1355  1254.2729
 2081.5000   -65.0859     6.0698     6.1511     6.0776   982.8862     0.3656    12.8040    87.2943     2.1934     0.1643  1253.2235
 2082.0000   -65.1007     5.9878     6.1572     6.4478   983.1912     0.3641    12.6348    86.7347     2.1536     0.2112  1252.1740
 2082.5000   -65.2420     5.9359     6.1634     7.0032   983.4962     0.3628    12.4966    85.9426     2.0838     0.2566  1251.1245
 2083.0000   -65.3422     5.8982     6.1696     7.1014   983.8011     0.3631    12.6479    85.1057     2.0229     0.2931  1250.0751
 2083.5000   -65.3289     5.9348     6.1757     6.4905   984.1061     0.3639    12.8885    84.1794     1.9810     0.2842  1249.0256
 2084.0000   -65.3156     5.9395     6.2248     5.8851   984.4111     0.3648    13.5838    83.0980     1.9698     0.2709  1247.9762
 2084.5000   -65.3022     5.9855     6.2745     5.7881   984.7160     0.3648    14.6266    82.2351     1.9631     0.2591  1246.9268
 2085.0000   -65.2889     6.0319     6.2810     6.5856   985.0210     0.3644    15.6549    81.1486     1.9610     0.2443  1245.8772
 2085.5000   -65.3486     6.0787     6.2875     7.4437   985.3259     0.3641    16.0426    80.2602     1.9626     0.2265  1244.8278
 2086.0000   -65.4104     6.1258     6.2940     7.5912   985.6309     0.3637    16.0450    79.5738     1.9680     0.2101  1243.7783
 2086.5000   -65.3970     6.1753     6.3005     7.3448   985.9359     0.3653    16.0409    78.8873     1.9786     0.1923  1242.7289
 2087.0000   -65.3837     6.2252     6.3071     7.0846   986.2408     0.3671    16.0349    78.1431     2.0005     0.1790  1242.4312
 2087.5000   -65.3704     6.2810     6.3136     6.8916   986.5458     0.3687    15.5507    77.2168     2.0149     0.1552  1244.2445
 2088.0000   -65.3570     6.3702     6.3455     6.7519   986.8508     0.3645    14.1386    76.2906     2.0638     0.1328  1246.0579
 2088.5000   -65.3437     6.4216     6.4438     6.6891   987.1558     0.3608    13.3980    75.4716     2.2128     0.1587  1247.8712
 2089.0000   -65.3278     6.4848     6.5436     6.6490   987.4607     0.3579    12.8854    75.1565     2.2655     0.1830  1249.6844
 2089.5000   -65.3150     6.5845     6.6450     6.6386   987.7657     0.3561    12.7386    75.7502     2.2513     0.1907  1251.4978
 2090.0000   -65.3022     6.6548     6.7479     6.6781   988.0706     0.3557    12.7110    76.9002     2.2108     0.1684  1253.3112
 2090.5000   -65.4376     6.6603     6.8301     6.7343   988.3756     0.3566    12.7133    77.9604     2.1636     0.1491  1255.1245
 2091.0000   -65.4248     6.6659     6.8864     6.8273   988.6805     0.3580    12.7156    77.0838     2.1291     0.1358  1256.9377
 2091.5000   -65.5620     6.6503     6.9170     7.0516   988.9855     0.3587    12.7180    75.9973     2.1307     0.1344  1258.7511
 2092.0000   -65.6955     6.6080     6.9242     7.3590   989.2905     0.3584    12.7132    76.2521     2.1345     0.1468  1260.5645
 2092.5000   -65.6815     6.5906     6.9314     7.7868   989.5955     0.3578    12.6788    77.4627     2.1098     0.1560  1262.3778
 2093.0000   -65.6681     6.5431     6.9073     8.3542   989.9005     0.3572    12.6274    78.4247     2.0828     0.1607  1264.1912
 2093.5000   -65.6548     6.5108     6.8325     8.2489   990.2054     0.3576    12.5589    79.1304     2.0371     0.1128  1266.0044
 2094.0000   -65.6415     6.4564     6.8102     7.9167   990.5104     0.3598    12.5293    79.5797     2.0342     0.0694  1267.8177
 2094.5000   -65.6281     6.3692     6.8534     7.3233   990.8153     0.3632    12.7022    79.8532     2.1192     0.0380  1269.6311
 2095.0000   -65.6148     6.2508     6.8731     6.7823   991.1203     0.3627    12.8092    80.7076     2.3276     0.0714  1271.4445
