~VERSION INFORMATION
 VERS.                2.0:   CWLS LOG ASCII STANDARD - VERSION 2.0
 WRAP.                 NO:   ONE LINE PER DEPTH STEP
~WELL INFORMATION
#MNEM.UNIT      DATA TYPE    INFORMATION
#----------   ------------   ------------------------------
 STRT.F           34.0000:   START DEPTH
 STOP.F         2909.0000:   STOP DEPTH
 STEP.F            0.5000:   STEP LENGTH
 NULL.          -999.2500:   NO VALUE
 COMP.   TESORO PETROLEUM:   COMPANY
 WELL. TESORO NPR "A" #3-28:   WELL
 FLD .             TEAPOT:   FIELD
 LOC .      S28 T39N R78W:   LOCATION
 CNTY.            NATRONA:   COUNTY
 STAT.            WYOMING:   STATE
 CTRY. UNITED STATES OF AMERICA:   COUNTRY
 SRVC.              WELEX:   SERVICE COMPANY
 DATE.        22-JUL-1968:   LOGDATE
 API .     49025102620000:   API NUMBER
~CURVE INFORMATION
#MNEM.UNIT       API CODE    CURVE DESCRIPTION
#----------   ------------   ------------------------------
 DEPT.F                  :   
 GRD .GAPI   45 310 01 00:   GAMMA RAY FROM DENSITY LOG
 SPR .MV     05 010 01 00:   SPONTANEOUS POTENTIAL FROM RES.
 ASN .OHMM   05 041 16 00:   AMPLIFIED SHORT NORMAL 16"
 ILD .OHMM   05 120 46 00:   INDUCTION LOG DEEP
~PARAMETER INFORMATION
#MNEM.UNIT          VALUE    DESCRIPTION
#----------   ------------   ------------------------------
 EKB .F         5050.0000:   Kelly bushing
 EGL .F         5039.0000:   Ground level
 EDF .F            0.0000:   Drilling floor
 EPD .F         5039.0000:   Permanent datum
 TD  .F         2906.0000:   Total depth
 CLNT.            A2DTECH:   Client Code
 DATE.       22-JULY-1968:   Date Logged [DD-MMM-YYYY]
 DD  .F              2906:   Depth driller
 DL  .F              2906:   Depth logger
 BLI .F              2901:   Bottom log interval
 TLI .F               356:   Top log interval
 CS1 .              10.75:   Casing size
 CBD1.      10.75" @ 356':   Casing driller 1
 CBL1.IN              356:   Casing logger 1
 BS1 .IN                9:   Bit size
 DFT .     WATER BASE MUD:   Type fluid in hole
 DFD .                9.6:   Density
 DFV .                 60:   Viscosity
 DFPH.                9.0:   pH
 DFL .                  6:   Fluid loss
 MSS .               CTRC:   Source of sample
 RMS .OHMM            2.1:   Rm
 MST .F                74:   Rm Meas. temp.
 RMF .OHMM            1.6:   Rmf
 MFST.F                71:   Rmf Meas. temp.
 MFSS.               MEAS:   Source Rmf.
 RMC .OHMM            3.0:   Rmc
 MCST.F                66:   Rmc Meas. temp.
 RMB .OHMM            1.3:   Rm. at BHT
 BHT .F               120:   BHT.
 MRT .F               120:   Maximum recorded temp.
 LUN .               6869:   Logging unit number
 ORIG.         2.5" PRINT:   Origin of data
 UWI .     49025102620000:   Unique Well ID
 DICO. A2D TECHNOLOGIES, INC.:   Digitizing Company
 LUL .          NEWCASTLE:   Logging unit location
~OTHER INFORMATION
~A   DEPT      GRD        SPR         ASN         ILD 
# ...
 2443.0000    86.5243   -31.2160     8.5196     7.5940
 2443.5000    86.9131   -31.2058     8.5498     7.4401
 2444.0000    85.7430   -31.1957     8.5801     7.2871
 2444.5000    84.5083   -31.1855     8.4621     7.2910
 2445.0000    83.4482   -31.1754     8.3530     7.1372
 2445.5000    82.8257   -31.1652     8.1774     7.1419
 2446.0000    83.0245   -31.1551     7.8550     7.1457
 2446.5000    83.4458   -31.1449     7.5831     6.9913
 2447.0000    85.5031   -31.1348     7.4622     6.8376
 2447.5000    91.3147   -31.1246     7.4018     6.6838
 2448.0000    93.9030   -31.1144     7.4320     6.5300
 2448.5000    88.4752   -31.1043     7.5831     6.5339
 2449.0000    82.1702   -31.0941     7.7688     6.5379
 2449.5000    76.9163   -31.0840     8.2150     6.7166
 2450.0000    74.6719   -31.0738     8.7614     7.0451
 2450.5000    72.4275   -31.0637     9.0612     7.2516
 2451.0000    70.5569   -31.0535     9.2324     7.5447
 2451.5000    70.5725   -31.0433     9.3681     7.8194
 2452.0000    71.4033   -31.1182     9.4562     7.8234
 2452.5000    72.1034   -31.4524     9.4413     7.8273
 2453.0000    72.1166   -31.6614     9.3621     7.8312
 2453.5000    72.1298   -31.6537     9.3051     7.8352
 2454.0000    72.7122   -31.6472     9.3051     7.6814
 2454.5000    74.0395   -31.6407     9.2749     7.6859
 2455.0000    75.5569   -31.6342     9.3051     7.6898
 2455.5000    75.5695   -31.6277     9.3353     7.6936
 2456.0000    74.8298   -31.6212     9.4260     7.6974
 2456.5000    73.7139   -31.6147     9.3047     7.7012
 2457.0000    72.2135   -31.6082     9.2424     7.7051
 2457.5000    70.6086   -31.6017     9.1843     7.8667
 2458.0000    69.1661   -31.5953     9.1479     7.8707
 2458.5000    68.0189   -31.5888     9.1950     7.8996
 2459.0000    66.8716   -31.5823     9.4667     8.0705
 2459.5000    66.6065   -31.5758     9.7284     8.3991
 2460.0000    67.8121   -31.5693    10.4230     8.6225
 2460.5000    69.3071   -31.5628    10.8761     9.0562
 2461.0000    70.2188   -31.5563    10.8761     9.1562
 2461.5000    71.3350   -31.5498    10.8761     9.0799
 2462.0000    72.4511   -31.5433    10.7071     8.9169
 2462.5000    73.5672   -31.5369    10.2341     8.6948
 2463.0000    74.6833   -31.5304     9.8806     8.5410
 2463.5000    75.7994   -31.5239     9.5308     8.3872
 2464.0000    76.9155   -31.5174     9.1455     8.2334
 2464.5000    78.0316   -31.5109     8.9495     7.9222
 2465.0000    79.1478   -31.5044     8.8082     7.7683
 2465.5000    80.2639   -31.4979     8.7000     7.6144
 2466.0000    73.5484   -31.4914     8.5752     7.4553
 2466.5000    72.0940   -31.4849     8.5391     7.3066
 2467.0000    72.4853   -31.4785     8.5586     7.3107
 2467.5000    73.2508   -31.4720     8.4894     7.3147
 2468.0000    71.6697   -31.4655     8.4290     7.3186
 2468.5000    69.5176   -31.4590     8.3686     7.3225
 2469.0000    70.2826   -31.4525     8.3082     7.3265
 2469.5000    71.0476   -31.4460     8.2175     7.3304
 2470.0000    69.9317   -31.4395     8.2266     7.3344
 2470.5000    68.8158   -31.4330     8.3533     7.1806
 2471.0000    69.2311   -31.4265     8.4592     7.1853
 2471.5000    70.0870   -31.4201     8.3721     7.0314
 2472.0000    70.8264   -31.4136     8.1330     7.0352
 2472.5000    70.7472   -31.4071     7.9071     6.8813
 2473.0000    70.7624   -31.4006     7.7045     6.8851
 2473.5000    71.1517   -31.3941     7.5965     6.7310
 2474.0000    71.1649   -31.3876     7.4924     6.7351
 2474.5000    71.1802   -31.3811     7.4622     6.5812
 2475.0000    70.4405   -31.3746     7.4622     6.5721
 2475.5000    68.9484   -31.3681     7.4320     6.4311
 2476.0000    67.8325   -31.3617     7.3716     6.4037
 2476.5000    67.8451   -31.3552     7.3414     6.2811
 2477.0000    67.8583   -31.3487     7.2503     6.1272
 2477.5000    67.9373   -31.3422     7.1578     6.1317
 2478.0000    68.4568   -31.3357     7.1299     6.1356
 2478.5000    70.8042   -31.3292     7.1361     6.1396
 2479.0000    72.3891   -31.3227     7.2287     5.9858
 2479.5000    70.4021   -31.3162     7.4020     5.9905
 2480.0000    68.4152   -31.3097     7.6555     5.9937
 2480.5000    66.4251   -31.3033     8.0882     6.6523
 2481.0000    63.2153   -31.2968     8.5872     7.7974
 2481.5000    59.0631   -31.2903     9.5468     9.2907
 2482.0000    54.2062   -31.2838    11.4804    11.0199
 2482.5000    49.8900   -31.2773    15.1057    12.3815
 2483.0000    45.9071   -31.2708    17.2205    14.9136
 2483.5000    43.9753   -31.2643    19.3353    18.0037
 2484.0000    46.2269   -31.2578    19.7885    19.9894
 2484.5000    48.8728   -31.2514    19.7885    20.1011
 2485.0000    51.1424   -31.2449    19.7885    18.9011
 2485.5000    53.7883   -31.2384    19.7885    17.6207
 2486.0000    56.4341   -31.2319    19.9396    16.8928
 2486.5000    57.9515   -31.2254    20.1276    16.7495
 2487.0000    55.9449   -31.2189    20.6374    17.4211
 2487.5000    53.6837   -31.2124    21.3746    18.4163
 2488.0000    51.5312   -31.2059    22.6224    18.8972
 2488.5000    48.4068   -31.1994    23.5665    19.2204
 2489.0000    46.3837   -31.1930    24.3414    19.5436
 2489.5000    45.9931   -31.1865    24.9245    20.4977
 2490.0000    46.0086   -31.1800    25.3776    22.0827
 2490.5000    46.0212   -31.1735    25.8308    23.1945
 2491.0000    45.6577   -31.1670    25.8565    23.3599
 2491.5000    45.2934   -31.1605    24.7734    22.8945
 2492.0000    45.3068   -31.1540    24.6105    22.4290
 2492.5000    45.3198   -31.1475    24.9245    22.9233
 2493.0000    45.7091   -31.1410    24.3066    23.2331
 2493.5000    45.8080   -31.1346    23.8202    21.6645
 2494.0000    46.7235   -31.1281    23.0786    19.7000
 2494.5000    48.4557   -31.1216    22.3352    18.9327
 2495.0000    50.6394   -31.1151    21.0878    18.2965
 2495.5000    53.0249   -31.1086    20.2048    17.9759
 2496.0000    54.9466   -31.1021    19.0451    17.5499
 2496.5000    53.7010   -31.0956    18.3467    17.1767
 2497.0000    53.6475   -31.0891    18.2779    16.8296
 2497.5000    54.1040   -31.0826    18.7311    16.8375
 2498.0000    54.4928   -31.0762    18.8822    17.0032
 2498.5000    54.8821   -31.0697    18.7311    17.0110
 2499.0000    54.9569   -31.0632    18.1269    17.1110
 2499.5000    55.2847   -31.0567    18.1269    17.6592
 2500.0000    57.6793   -31.0502    18.1269    17.0360
 2500.5000    59.0170   -31.0437    18.1269    16.7283
 2501.0000    59.0654   -31.0372    17.8043    16.2550
 2501.5000    58.0821   -31.0454    17.6443    15.7801
 2502.0000    56.2185   -31.0641    17.6406    15.6246
 2502.5000    54.3299   -31.0829    17.6367    15.7847
 2503.0000    52.8186   -31.1017    17.6329    15.8008
 2503.5000    51.3074   -31.1204    17.6289    15.9472
 2504.0000    50.9282   -31.1392    17.3125    15.9853
 2504.5000    52.8131   -31.1579    17.1523    16.1093
 2505.0000    56.2075   -31.1767    16.9922    15.8964
 2505.5000    59.2999   -31.1955    16.9883    15.7300
 2506.0000    62.3924   -31.2142    16.8273    15.4059
 2506.5000    64.7300   -31.2330    16.5111    15.0818
 2507.0000    65.6342   -31.2517    16.0386    14.5446
 2507.5000    64.2484   -31.2705    15.4098    14.0737
 2508.0000    63.2152   -31.2893    15.0935    13.6028
 2508.5000    62.2568   -31.3080    14.6210    13.6051
 2509.0000    61.0730   -31.3268    14.7880    13.6073
 2509.5000    64.4921   -31.3480    15.2958    13.7674
 2510.0000    63.7355   -31.3480    15.8908    13.9275
 2510.5000    60.7149   -31.3480    16.2113    13.9514
 2511.0000    56.9394   -31.0345    16.3755    14.1226
 2511.5000    57.6923   -31.0405    16.2493    14.2500
 2512.0000    59.5773   -31.3480    15.9208    14.0942
 2512.5000    61.4623   -31.3480    15.3451    13.9393
 2513.0000    61.3849   -31.3480    15.0540    13.8649
 2513.5000    58.2385   -31.3480    15.0503    13.6286
 2514.0000    56.0979   -31.3480    15.2028    13.4732
 2514.5000    55.7944   -31.2038    15.1990    13.3178
 2515.0000    56.1701   -31.0345    15.1952    13.3205
 2515.5000    56.5457   -30.7210    15.0352    13.4805
