~VERSION INFORMATION
 VERS.                2.0:   CWLS LOG ASCII STANDARD - VERSION 2.0
 WRAP.                 NO:   ONE LINE PER DEPTH STEP
~WELL INFORMATION
#MNEM.UNIT      DATA TYPE    INFORMATION
#----------   ------------   ------------------------------
 STRT.F           36.0000:   START DEPTH
 STOP.F         4960.0000:   STOP DEPTH
 STEP.F            0.5000:   STEP LENGTH
 NULL.          -999.2500:   NO VALUE
 COMP.   TESORO PETROLEUM:   COMPANY
 WELL. TESORO NPR 3 "DX" #55-23:   WELL
 FLD .        TEAPOT DOME:   FIELD
 LOC .      S23 T38N R78W:   LOCATION
 CNTY.            NATRONA:   COUNTY
 STAT.            WYOMING:   STATE
 CTRY. UNITED STATES OF AMERICA:   COUNTRY
 SRVC.           BIRDWELL:   SERVICE COMPANY
 DATE.        17-AUG-1975:   LOGDATE
 API .     49025102510000:   API NUMBER
~CURVE INFORMATION
#MNEM.UNIT       API CODE    CURVE DESCRIPTION
#----------   ------------   ------------------------------
 DEPT.F                  :   
 TEND.LBS    45 635 01 00:   TENSION FROM DENSITY LOG
 CALD.IN     45 280 60 00:   CALIPER FROM DENSITY LOG
 CORR.G/C3   45 356 01 00:   DENSITY CORRECTION
 GRD .GAPI   45 310 01 00:   GAMMA RAY FROM DENSITY LOG
 RHOB.G/C3   45 350 01 00:   BULK DENSITY
 SPR .MV     07 010 01 00:   SPONTANEOUS POTENTIAL
 ILM .OHMM   07 120 44 00:   INDUCTION LOG MEDIUM RESISTIVITY
 ILD .OHMM   07 120 46 00:   DEEP INDUCTION RESISTIVITY
 SFL .OHMM   07 220 01 00:   SHALLOW FOCUSED LOG RESISTIVITY
~PARAMETER INFORMATION
#MNEM.UNIT          VALUE    DESCRIPTION
#----------   ------------   ------------------------------
 EKB .F         5371.0000:   Kelly bushing
 EGL .F         5360.0000:   Ground level
 EDF .F            0.0000:   Drilling floor
 TD  .F         4955.0000:   Total depth
 DATE.        17-AUG-1975:   Date logged
 CLNT.            A2DTECH:   Client Code
 SL  . 1980' FSL & 2030' FEL:   Surface Location
 PD  .                 GL:   Permanent Datum
 DD  .F              4955:   Depth driller
 DL  .F              4945:   Depth logger
 BLI .F              4943:   Bottom log interval
 CS1 .IN            8.625:   Casing size
 CBD1.     8.625" @ 1450':   Casing driller 1
 CBL1.F              1457:   Casing logger 1
 BS1 .IN            7.875:   Bit size
 DFT .            KCL/GEL:   Type fluid in hole
 DFD .                9.5:   Density
 DFV .                 53:   Viscosity
 DFPH.                8.5:   pH
 DFL .                7.4:   Fluid loss
 MSS .           FLOWLINE:   Source of sample
 RMS .OHMM            1.2:   Rm
 MST .F                72:   Rm Meas. temp.
 RMF .OHMM            .94:   Rmf
 MFST.F                74:   Rmf Meas. temp.
 MFSS.               MEAS:   Source Rmf.
 RMB .OHMM            .71:   Rm. at BHT
 BHT .F               121:   BHT.
 TCS .HRS               4:   Time Circ. stopped
 MRT .F               121:   Maximum recorded temp.
 LUN .               6078:   Logging unit number
 LUL .              GLTTE:   Logging unit location
 ENGI.      NORDEN/SUTTON:   Recorded By
 WITN.          UNDERWOOD:   Witnessed by
 ORIG.           5" PRINT:   Origin of data
 UWI .     49025102510000:   Unique Well ID
 DICO. A2D TECHNOLOGIES, INC.:   Digitizing Company
 DAPD.F                11:   Feet Above Permanent Datum
 BSD1.F              5360:   Depth drilled with bit1
 EPD .F              5360:   Elevation Permanent Datum
 LMF .                 KB:   Log Measured From
 DMF .                 KB:   Drilling Measured From
 TLI .F              1457:   Top log interval
~OTHER INFORMATION
~A   DEPT     TEND       CALD       CORR        GRD       RHOB        SPR        ILM        ILD          SFL 
# ...
 4124.0000  2507.4150     8.3830     0.0450    66.3980     2.4180   -26.6600     2.8430     2.9640     3.9330
 4124.5000  2513.6270     8.3970     0.0540    67.9100     2.4110   -26.6350     2.7260     2.8690     3.2650
 4125.0000  2505.7810     8.4110     0.0690    68.6940     2.4240   -26.6110     2.6290     2.7740     3.3940
 4125.5000  2497.9341     8.4250     0.0820    68.3890     2.4300   -26.5860     2.5540     2.6800     3.6790
 4126.0000  2490.0879     8.4400     0.0820    67.7010     2.4240   -26.5610     2.4780     2.5850     3.6140
 4126.5000  2482.2410     8.4580     0.1000    66.9760     2.4040   -26.5360     2.4030     2.4910     3.5240
 4127.0000  2474.3950     8.4780     0.1180    66.3560     2.3860   -26.5120     2.3270     2.3960     3.4500
 4127.5000  2466.5481     8.4990     0.1360    67.2120     2.3750   -26.4870     2.2520     2.3010     3.4500
 4128.0000  2458.7019     8.5180     0.1470    68.0990     2.3290   -26.4620     2.1760     2.2800     3.4500
 4128.5000  2463.6941     8.5790     0.1430    67.6420     2.2680   -26.4370     2.1180     2.2800     3.4500
 4129.0000  2480.6951     8.6550     0.1250    66.4450     2.2070   -26.4130     2.2350     2.3510     3.2780
 4129.5000  2497.6951     8.7310     0.1050    64.2240     2.1450   -26.3940     2.3290     2.4200     3.1130
 4130.0000  2514.6960     8.7990     0.0850    61.2820     2.0910   -26.3940     2.4320     2.5910     3.0610
 4130.5000  2531.6970     8.6330     0.0810    56.9090     2.1380   -26.3940     2.6660     2.8690     3.7370
 4131.0000  2507.0371     8.5210     0.1110    54.0780     2.2530   -26.3940     2.9260     3.1480     4.6950
 4131.5000  2472.0640     8.5110     0.1470    52.1720     2.4280   -26.3940     3.1850     3.4260     5.1450
 4132.0000  2437.0911     8.5630     0.1670    50.2840     2.4360   -26.3950     3.4500     3.6600     5.2800
 4132.5000  2402.1189     8.6970     0.1630    49.8100     2.4020   -26.4060     3.6340     3.8600     5.4150
 4133.0000  2367.1460     8.7670     0.1460    49.6620     2.3230   -26.0140     3.8170     4.0590     5.1110
 4133.5000  2332.1731     8.7660     0.1280    50.8080     2.3140   -25.5510     4.0130     4.2590     4.6740
 4134.0000  2294.5891     8.7670     0.1260    51.7930     2.3390   -25.1980     4.2050     4.4590     4.7940
 4134.5000  2451.9041     8.7560     0.1020    51.6610     2.3880   -25.4130     4.3970     4.6580     4.9790
 4135.0000  2511.3081     8.7420     0.0710    50.9090     2.3680   -25.6190     4.5880     4.8580     5.1650
 4135.5000  2533.1660     8.7230     0.0500    49.0800     2.3550   -25.7920     4.7800     5.0580     5.2760
 4136.0000  2555.1101     8.6080     0.0450    47.2470     2.3650   -25.5150     4.9720     5.2580     5.3870
 4136.5000  2500.9221     8.4870     0.0640    45.5920     2.4080   -25.2120     5.1720     5.4650     6.3670
 4137.0000  2446.5200     8.4420     0.0670    44.9250     2.4500   -25.2910     5.2690     5.5260     7.6450
 4137.5000  2394.7900     8.4130     0.0630    44.7890     2.4430   -25.3910     5.3970     5.5900     8.3450
 4138.0000  2486.5161     8.3850     0.0690    46.7880     2.4380   -25.4900     5.5250     5.6540     5.4150
 4138.5000  2506.4380     8.3640     0.0810    48.5530     2.4350   -25.5890     5.6520     5.7180     5.9450
 4139.0000  2493.6870     8.3640     0.0790    48.0140     2.4180   -25.6880     5.7220     5.7820     7.0710
 4139.5000  2480.9370     8.3640     0.0760    47.3690     2.3850   -25.7840     5.6480     5.8460     6.8780
 4140.0000  2468.1860     8.3640     0.0780    46.9120     2.3280   -25.5540     5.6180     5.9100     6.5890
 4140.5000  2455.4360     8.3570     0.0760    47.9020     2.3380   -25.2700     5.6060     5.9920     6.3900
 4141.0000  2442.6851     8.3480     0.0490    46.8060     2.3560   -25.3950     5.5950     5.9630     6.7790
 4141.5000  2437.6899     8.3390     0.0250    45.5790     2.4360   -25.7510     5.5840     5.9230     7.0750
 4142.0000  2444.9761     8.3300     0.0370    44.4380     2.5090   -26.1110     5.5680     5.8840     7.2020
 4142.5000  2452.2620     8.3450     0.0490    45.2720     2.5240   -26.4720     5.6060     5.8340     6.7090
 4143.0000  2480.8821     8.3970     0.0550    45.9460     2.5300   -26.8310     5.7070     5.8850     6.2160
 4143.5000  2521.6831     8.4390     0.0570    45.7120     2.5360   -27.1890     5.8070     5.9780     6.4090
 4144.0000  2530.3269     8.3370     0.0510    45.9000     2.5420   -27.3890     5.8820     6.0470     7.0060
 4144.5000  2513.3269     8.2450     0.0440    47.2380     2.5450   -27.2490     5.7870     5.9680     6.9680
 4145.0000  2496.3259     8.2430     0.0380    47.7390     2.5450   -27.0880     5.6450     5.9050     6.8780
 4145.5000  2479.3250     8.2430     0.0340    47.4970     2.5450   -26.9250     5.5020     5.8420     6.4880
 4146.0000  2529.0581     8.2430     0.0370    47.2290     2.5390   -26.7620     5.3600     5.7750     6.0550
 4146.5000  2561.9241     8.2430     0.0410    47.6280     2.5310   -26.5970     5.1840     5.5650     5.6700
 4147.0000  2525.9221     8.2430     0.0530    48.1480     2.5310   -26.4770     4.9480     5.3410     5.7470
 4147.5000  2489.9209     8.2360     0.0650    47.4610     2.5050   -26.3560     4.7120     5.1170     5.8820
 4148.0000  2454.9099     8.2160     0.0720    47.6450     2.4650   -26.2350     4.3420     4.8930     5.6470
 4148.5000  2493.0220     8.1960     0.0730    48.7580     2.4210   -26.1140     4.3660     4.6690     5.2590
 4149.0000  2530.1150     8.1770     0.0780    49.8450     2.4250   -25.9930     4.4230     4.5460     4.8940
 4149.5000  2473.1819     8.1570     0.0830    49.4230     2.4340   -25.8730     4.5190     4.7680     4.9490
 4150.0000  2394.7900     8.1480     0.0810    48.7530     2.4690   -25.7510     4.7190     4.9780     5.2590
 4150.5000  2416.6211     8.1690     0.0730    48.9220     2.5200   -25.6240     4.9200     5.1870     6.0370
 4151.0000  2440.8110     8.1900     0.0650    49.3670     2.5240   -25.7210     5.1200     5.3970     7.0060
 4151.5000  2465.0010     8.2110     0.0630    49.8180     2.5280   -25.8860     5.3210     5.6060     6.9080
 4152.0000  2469.4480     8.2310     0.0720    50.1510     2.5320   -26.0530     5.5210     5.8160     6.6680
 4152.5000  2460.1021     8.2410     0.0810    49.0430     2.5350   -26.2200     5.7220     6.0250     6.4490
 4153.0000  2450.7561     8.2360     0.0910    47.8750     2.5480   -26.3870     5.9220     6.1890     6.5920
 4153.5000  2441.4099     8.2300     0.0980    46.7670     2.5560   -26.5540     6.0490     6.3250     6.7090
 4154.0000  2436.3391     8.2240     0.0850    46.0130     2.5500   -26.7210     6.1750     6.4490     6.8150
 4154.5000  2441.2351     8.2190     0.0710    45.4180     2.5530   -26.8880     6.3010     6.5250     6.8740
 4155.0000  2446.1299     8.2130     0.0570    46.0940     2.5540   -27.0550     6.4260     6.5950     6.9280
 4155.5000  2451.0259     8.2080     0.0440    46.7820     2.5410   -27.2220     6.5520     6.6640     7.2950
 4156.0000  2452.6741     8.2020     0.0550    47.9400     2.5370   -27.3850     6.6300     6.7330     7.7690
 4156.5000  2441.8521     8.1970     0.0660    49.1400     2.5340   -27.2870     6.6030     6.8150     8.3610
 4157.0000  2431.0300     8.1910     0.0770    50.3410     2.5310   -27.1180     6.5140     6.7830     8.0130
 4157.5000  2420.2090     8.1850     0.0890    51.5420     2.5270   -26.9490     6.2760     6.6910     7.3540
 4158.0000  2422.5850     8.1800     0.1000    52.7420     2.5050   -26.7770     6.0350     6.4470     6.8910
 4158.5000  2438.0061     8.1740     0.1110    53.8620     2.4850   -26.6020     5.7890     6.2030     6.7280
 4159.0000  2453.4270     8.1690     0.1220    54.7820     2.4830   -26.5420     5.5420     5.9590     6.6020
 4159.5000  2468.8479     8.1640     0.1330    55.6850     2.4850   -26.4730     5.2960     5.7150     6.3400
 4160.0000  2464.5959     8.1770     0.1440    54.6430     2.4440   -26.4030     5.0500     5.4710     6.0280
