~VERSION INFORMATION
 VERS.                2.0:   CWLS LOG ASCII STANDARD - VERSION 2.0
 WRAP.                 NO:   ONE LINE PER DEPTH STEP
~WELL INFORMATION
#MNEM.UNIT      DATA TYPE    INFORMATION
#----------   ------------   ------------------------------
 STRT.F          545.0000:   START DEPTH
 STOP.F         3193.0000:   STOP DEPTH
 STEP.F            0.5000:   STEP LENGTH
 NULL.          -999.2500:   NO VALUE
 COMP. FENIX & SCISSON-U.S. NAVY:   COMPANY
 WELL.   FENIX "A" #47-34:   WELL
 FLD .          N.P.R. #3:   FIELD
 LOC .      S34 T39N R78W:   LOCATION
 CNTY.            NATRONA:   COUNTY
 STAT.            WYOMING:   STATE
 CTRY. UNITED STATES OF AMERICA:   COUNTRY
 SRVC.       SCHLUMBERGER:   SERVICE COMPANY
 DATE.        26-MAR-1977:   LOGDATE
 API .     49025103260000:   API NUMBER
~CURVE INFORMATION
#MNEM.UNIT       API CODE    CURVE DESCRIPTION
#----------   ------------   ------------------------------
 DEPT.F                  :   
 SPR .MV     07 010 01 00:   SPONTANEOUS POTENTIAL FROM RES.
 ILM .OHMM   07 120 44 00:   INDUCTION LOG MEDIUM RESISTIVITY
 ILD .OHMM   07 120 46 00:   DEEP INDUCTION RESISTIVITY
 LL8 .OHMM   07 220 08 00:   LATEROLOG-8 RES.
 CALD.IN     45 280 60 00:   CALIPER FROM DENSITY LOG
 GRD .GAPI   45 310 01 00:   GAMMA RAY FROM DENSITY LOG
 RHOB.G/C3   45 350 01 00:   BULK DENSITY
 CORR.G/C3   45 356 01 00:   DENSITY CORRECTION
~PARAMETER INFORMATION
#MNEM.UNIT          VALUE    DESCRIPTION
#----------   ------------   ------------------------------
 EKB .F         5144.0000:   Kelly bushing
 EGL .F         5132.0000:   Ground level
 TD  .F         3194.0000:   Total depth
 CLNT.            A2DTECH:   Client Code
 SL  . 2310' FWL & 990' FSL:   Surface Location
 PD  .                 GL:   Permanent Datum
 EPD .F              5132:   Elevation Permanent Datum
 LMF .                 KB:   Log Measured From
 DMF .                 KB:   Drilling Measured From
 DAPD.F                12:   Feet Above Permanent Datum
 DATE.        26-MAR-1977:   Date Logged [DD-MMM-YYYY]
 DD  .F              3188:   Depth driller
 DL  .F              3194:   Depth logger
 BLI .F              3188:   Bottom log interval
 TLI .F               564:   Top log interval
 CS1 .IN            8.625:   Casing size
 CBD1.      8.625" @ 570':   Casing driller 1
 CBL1.F               564:   Casing logger 1
 BS1 .IN            7.875:   Bit size
 BSD1.F              3188:   Depth drilled with bit1
 DFT .                KCL:   Type fluid in hole
 DFD .                9.2:   Density
 DFV .                 30:   Viscosity
 DFL .                9.2:   Fluid loss
 MSS .                PIT:   Source of sample
 RMS .OHMM          0.354:   Rm
 MST .F                70:   Rm Meas. temp.
 RMF .OHMM          0.326:   Rmf
 MFST.F                70:   Rmf Meas. temp.
 MFSS.               MEAS:   Source Rmf.
 RMC .OHMM          0.531:   Rmc
 MCST.F                70:   Rmc Meas. temp.
 MCSS.               CALC:   Source Rmc.
 RMB .OHMM          0.205:   Rm. at BHT
 BHT .F               121:   BHT.
 TLAB.HRS            1900:   Time logger at bottom
 MRT .F               121:   Maximum recorded temp.
 LUN .               5642:   Logging unit number
 LUL .               CSPR:   Logging unit location
 ENGI.             MARTIN:   Recorded By
 WITN.         PETTINGILL:   Witnessed by
 ORIG.           5" PRINT:   Origin of data
 UWI .     49025103260000:   Unique Well ID
 DICO. A2D TECHNOLOGIES, INC.:   Digitizing Company
~OTHER INFORMATION
~A   DEPT      SPR        ILM        ILD        LL8       CALD         GRD      RHOB       CORR   
# ...
 1760.0000   -61.8095     6.9440     6.4914    11.0297     8.1838   132.0292     2.5505     0.0227
 1760.5000   -61.7915     6.9017     6.4968    10.9623     8.1838   130.7095     2.5671     0.0305
 1761.0000   -61.9267     6.9086     6.4584    11.2003     8.1838   129.5343     2.5694     0.0213
 1761.5000   -62.2014     6.9142     6.4628    10.6821     8.1838   128.2098     2.5523     0.0245
 1762.0000   -62.1834     6.9677     6.4682    10.1860     8.1838   127.3331     2.5614     0.0341
 1762.5000   -62.3143     6.9733     6.4739    11.3061     8.1838   125.4116     2.5720     0.0432
 1763.0000   -62.2813     7.0273     6.4789    11.8751     8.1838   123.3409     2.5660     0.0270
 1763.5000   -62.1251     7.0329     6.4843    11.9666     8.1838   121.4194     2.5474     0.0201
 1764.0000   -61.9337     7.0388     6.4906    11.9758     8.1838   119.7610     2.5603     0.0210
 1764.5000   -61.6434     6.9489     6.4958    11.8125     8.1838   119.5168     2.5551     0.0226
 1765.0000   -61.4769     6.9489     6.5010    11.4305     8.1822   121.4806     2.5432     0.0157
 1765.5000   -61.4589     6.9489     6.5061    11.1277     8.1803   124.7830     2.5350     0.0103
 1766.0000   -61.4410     6.9023     6.5113    10.9080     8.1785   128.8317     2.5374     0.0064
 1766.5000   -61.4227     6.9074     6.5166    10.4013     8.1766   130.4923     2.5479     0.0066
 1767.0000   -61.5537     6.9125     6.5681     9.9163     8.1747   128.7201     2.5578     0.0152
 1767.5000   -61.5312     6.9657     6.6189    11.0852     8.1729   122.7687     2.5414     0.0199
 1768.0000   -61.5133     7.0690     6.6241    11.4844     8.1710   120.1010     2.5175     0.0107
 1768.5000   -61.3467     7.1233     6.6749    11.5721     8.1692   124.4529     2.5303     0.0045
 1769.0000   -61.3288     7.1779     6.6806    11.6632     8.1673   126.1135     2.5641     0.0131
 1769.5000   -61.0136     7.3337     6.7639    11.7530     8.1654   126.4261     2.5560     0.0202
 1770.0000   -60.8470     7.4412     6.8787    12.0083     8.1636   120.1810     2.5493     0.0179
 1770.5000   -61.2749     7.5503     6.8931    13.5141     8.1617   117.2147     2.5749     0.0141
 1771.0000   -61.5497     7.6610     6.9865    15.1042     8.1599   114.9948     2.5908     0.0118
 1771.5000   -61.6848     7.7735     7.0405    15.1398     8.1580   113.5210     2.5906     0.0096
 1772.0000   -61.6623     7.8345     7.0461    14.1029     8.1562   112.7936     2.5774     0.0275
 1772.5000   -61.6444     7.9493     7.1006    13.0082     8.1543   116.3992     2.5693     0.0355
 1773.0000   -61.6264     8.0103     7.1064    12.3186     8.1524   117.9106     2.5641     0.0292
 1773.5000   -61.4596     8.0162     7.1132    13.3930     8.1506   117.3324     2.5710     0.0221
 1774.0000   -61.1441     8.0778     7.1189    14.3587     8.1487   116.4557     2.5935     0.0317
 1774.5000   -61.1223     8.0837     7.1241    13.4136     8.1468   116.3205     2.6011     0.0372
 1775.0000   -60.9558     8.0897     7.1300    12.9684     8.1452   118.7321     2.5892     0.0465
 1775.5000   -60.7892     8.0958     7.1359    13.6211     8.1449   120.6912     2.5599     0.0357
 1776.0000   -60.7713     8.0458     7.1418    13.8213     8.1656   121.6056     2.5541     0.0242
 1776.5000   -60.9027     7.9963     7.1487    13.4575     8.1659   119.9873     2.5588     0.0188
 1777.0000   -60.8840     7.7855     7.1038    13.1010     8.1668   118.9567     2.5603     0.0329
 1777.5000   -61.1647     7.6300     7.0129    12.4066     8.1681   120.1742     2.5477     0.0310
 1778.0000   -61.1422     7.4804     6.9695    11.5081     8.1694   124.2229     2.5350     0.0128
 1778.5000   -61.1243     7.3831     6.9636    11.1261     8.1707   125.4311     2.5539     0.0090
 1779.0000   -61.2556     7.2370     6.8865    10.9817     8.1719   123.6635     2.5554     0.0261
 1779.5000   -61.5342     7.1362     6.7976    10.8397     8.1732   123.6824     2.5586     0.0239
 1780.0000   -62.1106     6.9546     6.7563    12.6512     8.1745   126.9251     2.5646     0.0162
 1780.5000   -62.6825     6.7700     6.6245    11.4751     8.1758   131.0381     2.5617     0.0132
 1781.0000   -62.6645     6.5903     6.5753    10.4259     8.1770   131.7985     2.5536     0.0312
 1781.5000   -62.6466     6.5035     6.4533     9.9416     8.1783   130.4788     2.5521     0.0273
 1782.0000   -62.6286     6.5095     6.3275    10.8836     8.1796   128.5573     2.5515     0.0219
 1782.5000   -62.6107     6.5143     6.2458    11.3504     8.1809   128.2729     2.5508     0.0243
 1783.0000   -62.2955     6.5191     6.1216    10.6769     8.1821   132.7740     2.5502     0.0259
 1783.5000   -62.1135     6.5239     6.0437    10.3910     8.1835   137.2705     2.5472     0.0221
 1784.0000   -61.9580     6.4577     5.9657    10.1888     8.1838   140.1413     2.5282     0.0106
 1784.5000   -61.6428     6.3939     5.9234    10.2692     8.1838   138.0591     2.5205     0.0029
 1785.0000   -61.4763     6.3301     5.8139    10.5649     8.1838   136.8839     2.5251     0.0037
 1785.5000   -61.4583     6.2664     5.7785    10.7943     8.1838   137.4997     2.5461     0.0131
 1786.0000   -61.4404     6.2026     5.7820    10.9528     8.1838   138.8618     2.5620     0.0209
 1786.5000   -61.4224     6.1388     5.7469    10.9613     8.1838   137.8359     2.5673     0.0272
 1787.0000   -61.4042     6.0750     5.7128    10.8193     8.1838   138.4517     2.5366     0.0187
 1787.5000   -61.3820     6.0416     5.6782    10.2341     8.1838   139.6646     2.5292     0.0041
 1788.0000   -61.3641     6.0045     5.6830     9.4401     8.1838   137.6952     2.5207     0.0003
 1788.5000   -61.4992     6.0091     5.6876     9.3161     8.1838   134.4783     2.5137     0.0019
 1789.0000   -61.7739     6.0145     5.6922     9.5861     8.1838   134.9496     2.5333     0.0084
 1789.5000   -61.7560     5.9775     5.6576     9.7943     8.1838   133.6252     2.5491     0.0168
 1790.0000   -61.8871     5.9397     5.6236     9.9381     8.1838   131.8482     2.5507     0.0246
 1790.5000   -62.0173     5.9031     5.6289    10.0841     8.1838   136.0509     2.5448     0.0146
 1791.0000   -61.9948     5.9085     5.6330    10.1617     8.1838   137.7115     2.5441     0.0170
 1791.5000   -61.9769     5.9129     5.6770    10.1698     8.1838   138.0288     2.5457     0.0225
 1792.0000   -61.9589     5.9172     5.6815    10.0397     8.1838   136.0684     2.5497     0.0318
 1792.5000   -61.7924     5.9217     5.7051     9.7738     8.1838   130.4702     2.5631     0.0430
 1793.0000   -61.7756     5.9271     5.7302     9.3844     8.1838   131.0751     2.5677     0.0413
 1793.5000   -61.6079     5.9314     5.7349     9.0087     8.1838   133.6312     2.5565     0.0243
 1794.0000   -61.5899     5.9358     5.7401    10.2107     8.1838   132.6052     2.5956     0.0135
 1794.5000   -61.5713     5.9402     5.7444    11.2556     8.1838   129.9375     2.5972     0.0260
 1795.0000   -61.7026     5.9446     5.7501    11.4209     8.1838   129.5039     2.5891     0.0276
 1795.5000   -61.5316     5.9489     5.7540    10.6318     8.1838   133.7065     2.5674     0.0253
 1796.0000   -61.5136     5.9533     5.7590     9.6269     8.1835   139.5560     2.5389     0.0230
 1796.5000   -61.4970     5.9578     5.7635     9.4350     8.1831   140.7591     2.5435     0.0329
 1797.0000   -61.6270     6.0045     5.7683     9.6417     8.1828   136.4542     2.5767     0.0480
 1797.5000   -61.6084     6.0090     5.7730     9.9881     8.1824   133.3387     2.5670     0.0520
 1798.0000   -61.9039     6.0134     5.7778    10.1348     8.1820   131.7158     2.5551     0.0327
 1798.5000   -62.0182     6.0596     5.7834    10.2836     8.1817   130.0928     2.5477     0.0188
 1799.0000   -62.1465     6.0640     5.7874    10.4347     8.1813   130.2609     2.5448     0.0111
 1799.5000   -62.1270     6.1106     5.7927    10.3014     8.1810   130.7274     2.5659     0.0143
 1800.0000   -62.4059     6.1575     5.8375     9.6882     8.1806   129.9966     2.5405     0.0205
