~VERSION INFORMATION
 VERS.                2.0:   CWLS LOG ASCII STANDARD - VERSION 2.0
 WRAP.                 NO:   ONE LINE PER DEPTH STEP
~WELL INFORMATION
#MNEM.UNIT      DATA TYPE    INFORMATION
#----------   ------------   ------------------------------
 STRT.F           27.5000:   START DEPTH
 STOP.F         5889.0000:   STOP DEPTH
 STEP.F            0.5000:   STEP LENGTH
 NULL.          -999.2500:   NO VALUE
 COMP.   LAWRENCE ALLISON:   COMPANY
 WELL. LAWRENCE "X" #25-11:   WELL
 FLD .        N.P.R NO. 3:   FIELD
 LOC .      S11 T38N R78W:   LOCATION
 CNTY.            NATRONA:   COUNTY
 STAT.            WYOMING:   STATE
 CTRY. UNITED STATES OF AMERICA:   COUNTRY
 SRVC.      DRESSER ATLAS:   SERVICE COMPANY
 DATE.        09-FEB-1983:   LOGDATE
 API .     49025109170000:   API NUMBER
~CURVE INFORMATION
#MNEM.UNIT       API CODE    CURVE DESCRIPTION
#----------   ------------   ------------------------------
 DEPT.F                  :   
 CN  .DEC    42 890 03 00:   NEUTRON POROSITY
 GRD .GAPI   45 310 01 00:   GAMMA RAY FROM DENSITY LOG
 CORR.G/C3   45 356 01 00:   DENSITY CORRECTION
 DEN .G/C3   45 350 01 00:   BULK DENSITY
 CALD.IN     45 280 60 00:   CALIPER FROM DENSITY LOG
 TEND.LBS    45 635 01 00:   TENSION FORM DENSITY LOG
 GRS .GAPI   60 310 01 00:   GAMMA RAY FROM SONIC LOG
 TENS.LBS    60 635 01 00:   TENSION FROM SONIC
 DT  .US/F   60 520 00 00:   DELTA TIME
 SPR .MV     11 010 01 00:   SPONTANEOUS POTENTIAL FROM RES.
 RD  .OHMM   11 220 10 00:   RESISTIVITY DEEP
 RS  .OHMM   11 220 09 00:   RESISTIVITY SHALLOW
 RMLL.OHMM   11 270 04 00:   MICRO LATEROLOG
 TENR.LBS    11 635 01 00:   TENSION FROM RES.
~PARAMETER INFORMATION
#MNEM.UNIT          VALUE    DESCRIPTION
#----------   ------------   ------------------------------
 EKB .F         5196.0000:   Kelly bushing
 EGL .F         5186.0000:   Ground level
 TD  .F         5883.0000:   Total depth
 CLNT.            A2DTECH:   Client Code
 SL  . 1989' FSL & 1148' FWL:   Surface Location
 PD  .                 GL:   Permanent Datum
 EPD .F              5186:   Elevation Permanent Datum
 LMF .                 KB:   Log Measured From
 DMF .                 KB:   Drilling Measured From
 DAPD.F                10:   Feet Above Permanent Datum
 DATE.        09-FEB-1983:   Date Logged [DD-MMM-YYYY]
 DD  .F              5883:   Depth driller
 DL  .F              5882:   Depth logger
 BLI .F              5871:   Bottom log interval
 TLI .F               700:   Top log interval
 CS1 .IN            9.625:   Casing size
 CBD1.      9.625" @ 701':   Casing driller 1
 CBL1.F               700:   Casing logger 1
 BS1 .IN             8.75:   Bit size
 BSD1.F              5883:   Depth drilled with bit1
 DFT .    HEC/DRISPAC/KCL:   Type fluid in hole
 DFD .                  9:   Density
 DFV .                 35:   Viscosity
 DFPH.                  8:   pH
 DFL .                6.4:   Fluid loss
 MSS .           FLOWLINE:   Source of sample
 RMS .OHMM           0.23:   Rm
 MST .F                50:   Rm Meas. temp.
 RMF .OHMM           0.17:   Rmf
 MFST.F                54:   Rmf Meas. temp.
 MFSS.               MEAS:   Source Rmf.
 BHT .F               176:   BHT.
 TCS .HRS              10:   Time Circ. stopped
 MRT .F               176:   Maximum recorded temp.
 LUN .               6274:   Logging unit number
 LUL .               GLTE:   Logging unit location
 ENGI.          TOLLEFSON:   Recorded By
 WITN.           JENNINGS:   Witnessed by
 ORIG.           5" PRINT:   Origin of data
 UWI .     49025109170000:   Unique Well ID
 DICO. A2D TECHNOLOGIES, INC.:   Digitizing Company
 RMC .OHMM           0.41:   Rmc
 MCST.F                54:   Rmc Meas. temp.
 MCSS.               MEAS:   Source Rmc.
~OTHER INFORMATION
~A  DEPTH       CN        GRD       CORR        DEN       CALD       TEND        GRS       TENS         DT        SPR         RD         RS       RMLL       TENR
# ...
 1375.0000     0.2392   122.2255     0.0670     2.5041     9.8900   -27.4071  -999.2500  -999.2500  -999.2500   162.4751     9.5825     8.0167     6.8126   -41.1344
 1375.5000     0.2461   121.6429     0.0535     2.4929     9.8900   -26.7054  -999.2500  -999.2500  -999.2500   162.3385     9.0545     7.7883     6.3075   -42.0757
 1376.0000     0.2477   120.4515     0.0445     2.4900     9.8900   -32.2290  -999.2500  -999.2500  -999.2500   162.3284     8.6771     7.7790     6.2585   -43.0171
 1376.5000     0.2519   120.7916     0.0509     2.4954     9.8900   -37.6913  -999.2500  -999.2500  -999.2500   162.3182     8.4900     7.8237     6.1671   -43.9584
 1377.0000     0.2643   123.8591     0.0597     2.5013     9.8900   -43.1537  -999.2500  -999.2500  -999.2500   162.3081     8.4228     7.6513     6.0726   -44.8998
 1377.5000     0.2720   126.3206     0.0597     2.5006     9.8900   -43.7306  -999.2500  -999.2500  -999.2500   162.4477     8.3561     7.1308     5.6642   -45.8647
 1378.0000     0.2571   126.6447     0.0598     2.5037     9.8900   -40.8477  -999.2500  -999.2500  -999.2500   162.4350     8.2896     6.9759     5.4302   -47.0178
 1378.5000     0.2532   124.2422     0.0673     2.5105     9.8900   -37.9648  -999.2500  -999.2500  -999.2500   162.5763     8.2793     7.0180     5.9765   -55.2426
 1379.0000     0.2520   122.1376     0.0815     2.5181     9.8900   -34.1036  -999.2500  -999.2500  -999.2500   162.5645     8.3305     7.1053     6.8110   -48.6652
 1379.5000     0.2524   120.9461     0.0991     2.5242     9.8900   -23.7251  -999.2500  -999.2500  -999.2500   162.7066     8.4945     7.1957     8.0914   -42.0877
 1380.0000     0.2587   124.6319     0.1036     2.5122     9.8900   -13.3466  -999.2500  -999.2500  -999.2500   162.8462     8.6041     7.3868     6.4775   -39.9749
 1380.5000     0.2636   127.3979     0.0735     2.4987     9.8899    -2.9621  -999.2500  -999.2500  -999.2500   162.8335     8.8367     7.5851     6.1229   -36.5301
 1381.0000     0.2678   128.6418     0.0661     2.4905     9.8958     3.2909  -999.2500  -999.2500  -999.2500   162.8234     9.0107     7.7888     6.3759   -37.8638
 1381.5000     0.2709   128.0592     0.0691     2.4913     9.9029    -0.7663  -999.2500  -999.2500  -999.2500   162.8129     9.0664     7.7795     6.9224   -38.8050
 1382.0000     0.2619   127.4766     0.0722     2.4959     9.9129    -4.7656  -999.2500  -999.2500  -999.2500   162.9503     9.1177     7.6633     6.9660   -31.9922
 1382.5000     0.2541   126.2405     0.0737     2.4982     9.9264    -5.5777  -999.2500  -999.2500  -999.2500   162.9416     9.1719     7.6013     6.5380   -33.1689
 1383.0000     0.2517   124.4915     0.0723     2.4990     9.9048    -8.0406  -999.2500  -999.2500  -999.2500   162.9311     9.1620     7.8573     6.2232   -34.1104
 1383.5000     0.2502   122.3868     0.0572     2.4953     9.9034   -17.4756  -999.2500  -999.2500  -999.2500   162.9207     9.1505     8.0684     6.0899   -35.0375
 1384.0000     0.2475   120.2822     0.0468     2.4938     9.9000   -27.0518  -999.2500  -999.2500  -999.2500   162.9098     9.2687     8.2850     6.7961   -36.0150
 1384.5000     0.2440   118.7863     0.0558     2.4976     9.8965   -37.4303  -999.2500  -999.2500  -999.2500   162.8997     9.7191     8.5075     7.2269   -37.1698
 1385.0000     0.2410   117.5852     0.0664     2.5105     9.8930   -45.4183  -999.2500  -999.2500  -999.2500   163.0393    10.1914     8.7360     7.7384   -38.1110
 1385.5000     0.2398   117.0123     0.0680     2.5180     9.8899   -45.4183  -999.2500  -999.2500  -999.2500   163.0266    10.6171     8.8489     8.0597   -31.5337
 1386.0000     0.2389   117.9584     0.0695     2.5218     9.8900   -33.9143  -999.2500  -999.2500  -999.2500   163.1687    10.7587     8.8980     7.7787   -32.4060
 1386.5000     0.2347   119.2023     0.0726     2.5219     9.8900   -20.9412  -999.2500  -999.2500  -999.2500   163.0063    10.1575     8.8234     7.2519   -33.3835
 1387.0000     0.2284   119.8308     0.0756     2.5249     9.8901    -7.9681  -999.2500  -999.2500  -999.2500   162.9962     9.8699     8.7520     7.4027   -26.8388
 1387.5000     0.2246   118.0371     0.0787     2.5304     9.8956     4.3825  -999.2500  -999.2500  -999.2500   162.9861     9.7242     8.6812     8.0301   -27.8195
 1388.0000     0.2245   116.1804     0.0727     2.5371     9.9086     1.2749  -999.2500  -999.2500  -999.2500   162.9760     9.5806     8.5516     9.1533   -28.9570
 1388.5000     0.2318   115.0454     0.0637     2.5409     9.9213    -1.6904  -999.2500  -999.2500  -999.2500   163.1156     9.6373     8.4824     8.4143   -29.8983
 1389.0000     0.2382   116.2959     0.0683     2.5349     9.9283    -4.6557  -999.2500  -999.2500  -999.2500   163.1029     9.7592     8.4134     7.6832   -30.7519
 1389.5000     0.2461   117.8442     0.0729     2.5132     9.9227    -7.6209  -999.2500  -999.2500  -999.2500   163.0928     9.8195     8.2856     7.3133   -31.7812
 1390.0000     0.2473   120.0013     0.0699     2.4989     9.9173   -10.5862  -999.2500  -999.2500  -999.2500   163.1237     9.5390     8.1618     7.1073   -32.7224
 1390.5000     0.2479   123.0717     0.0394     2.4855     9.9118   -13.5515  -999.2500  -999.2500  -999.2500   163.2248     9.3333     8.0399     7.0033   -33.6842
 1391.0000     0.2489   125.2764     0.0429     2.4893     9.9100   -15.5378  -999.2500  -999.2500  -999.2500   163.3618     9.1932     7.9198     6.8521   -34.8406
 1391.5000     0.2471   124.9572     0.0550     2.4946     9.9100   -15.5378  -999.2500  -999.2500  -999.2500   163.5015     9.1204     7.9104     6.7054   -43.3007
 1392.0000     0.2435   122.5481     0.0625     2.4924     9.9100   -15.5378  -999.2500  -999.2500  -999.2500   163.6477     9.1121     7.8403     6.6074   -44.2421
 1392.5000     0.2417   120.7479     0.0627     2.4887     9.9100   -15.5378  -999.2500  -999.2500  -999.2500   163.7805     9.1017     7.7805     6.6952   -45.1833
 1393.0000     0.2427   119.8600     0.0486     2.4919     9.9100   -11.5981  -999.2500  -999.2500  -999.2500   163.7679     9.0924     7.7712     6.7813   -46.1248
 1393.5000     0.2475   121.1162     0.0446     2.4978     9.9100    -5.8322  -999.2500  -999.2500  -999.2500   163.7578     9.0201     7.8182     6.7706   -47.0677
 1394.0000     0.2554   123.2685     0.0477     2.5016     9.9100    -0.0664  -999.2500  -999.2500  -999.2500   163.5988     8.9467     7.8631     6.5376   -43.6833
 1394.5000     0.2596   124.5124     0.0552     2.5024     9.9148     4.3825  -999.2500  -999.2500  -999.2500   163.4381     8.7538     7.7433     6.4869   -41.5037
 1395.0000     0.2548   124.8430     0.0733     2.5025     9.9241     4.3825  -999.2500  -999.2500  -999.2500   163.2783     8.6845     7.7339     6.5731   -42.6067
 1395.5000     0.2533   124.8693     0.0915     2.5003     9.9290     4.3825  -999.2500  -999.2500  -999.2500   163.1072     8.7966     7.7225     6.8445   -43.5481
 1396.0000     0.2573   124.5906     0.0825     2.4988     9.9262     4.3825  -999.2500  -999.2500  -999.2500   162.8064     8.9102     7.7132     7.1287   -44.4894
 1396.5000     0.2610   123.9797     0.0705     2.4959     9.9235     4.3825  -999.2500  -999.2500  -999.2500   162.7963     9.0252     7.8686     7.2219   -37.9120
 1397.0000     0.2625   122.5192     0.0600     2.4914     9.9208     4.3825  -999.2500  -999.2500  -999.2500   162.7861     9.1417     7.9659     7.0086   -38.8721
 1397.5000     0.2562   121.0234     0.0525     2.4877     9.9181     4.3825  -999.2500  -999.2500  -999.2500   162.6263     9.1300     8.0119     6.5872   -40.0300
 1398.0000     0.2514   119.8254     0.0450     2.4848     9.9154     4.3825  -999.2500  -999.2500  -999.2500   162.7684     9.1206     8.0576     6.5361   -40.9715
 1398.5000     0.2475   119.2428     0.0526     2.4848     9.9126     4.3825  -999.2500  -999.2500  -999.2500   162.8244     9.1111     7.9900     6.6230   -34.1586
 1399.0000     0.2415   120.1889     0.0617     2.4871     9.9101     4.3825  -999.2500  -999.2500  -999.2500   162.9720     9.2266     7.9805     6.8031   -35.3354
