~VERSION INFORMATION
 VERS.                2.0:   CWLS LOG ASCII STANDARD - VERSION 2.0
 WRAP.                 NO:   ONE LINE PER DEPTH STEP
~WELL INFORMATION
#MNEM.UNIT      DATA TYPE    INFORMATION
#----------   ------------   ------------------------------
 STRT.F          197.0000:   START DEPTH
 STOP.F         3238.5000:   STOP DEPTH
 STEP.F            0.5000:   STEP LENGTH
 NULL.          -999.2500:   NO VALUE
 COMP.    FENIX & SCISSON:   COMPANY
 WELL. FENIX 28 "A" #28-11:   WELL
 FLD .              NPR-3:   FIELD
 LOC .      S11 T38N R78W:   LOCATION
 CNTY.            NATRONA:   COUNTY
 STAT.            WYOMING:   STATE
 CTRY. UNITED STATES OF AMERICA:   COUNTRY
 SRVC.              WELEX:   SERVICE COMPANY
 DATE.        25-OCT-1977:   LOGDATE
 API .     49025104350000:   API NUMBER
~CURVE INFORMATION
#MNEM.UNIT       API CODE    CURVE DESCRIPTION
#----------   ------------   ------------------------------
 DEPT.F                  :   
 SPR .MV     07 010 01 00:   SPONTANEOUS POTENTIAL
 TENR.LBS    07 635 01 00:   TENSION FROM RESISTIVITY
 ILM .OHMM   07 120 44 00:   INDUCTION LOG MEDIUM RESISTIVITY
 SGRD.OHMM   07 220 05 00:   SHALLOW SHORT GUARD RESISTIVITY
 ILD .OHMM   07 120 46 00:   INDUCTION LOG DEEP RESISTIVITY
 GRD .GAPI   45 310 01 00:   GAMMA RAY FROM DENSITY LOG
 CALD.IN     45 280 60 00:   CALIPER FROM DENSITY LOG
 CORR.G/C3   45 356 01 00:   DENSITY CORRECTION
 RHOB.G/C3   45 350 01 00:   BULK DENSITY
~PARAMETER INFORMATION
#MNEM.UNIT          VALUE    DESCRIPTION
#----------   ------------   ------------------------------
 EKB .F         5211.0000:   Kelly bushing
 EGL .F         5201.0000:   Ground level
 EDF .F            0.0000:   Drilling floor
 EPD .F         5201.0000:   Permanent datum
 TD  .F         3235.0000:   Total depth
 CLNT.            A2DTECH:   Client Code
 SL  . 330' FSL & 990' FWL:   Surface Location
 PD  .                 GL:   Permanent Datum
 DAPD.F                10:   Feet Above Permanent Datum
 DATE.        25-OCT-1977:   Date Logged [DD-MMM-YYYY]
 DD  .F              3235:   Depth driller
 DL  .F              3231:   Depth logger
 BLI .F              3229:   Bottom log interval
 TLI .F               200:   Top log interval
 CS1 .IN            8.625:   Casing size
 CBD1.      8.625" @ 217':   Casing driller 1
 CBL1.F               217:   Casing logger 1
 BS1 .              7.875:   Bit size
 BSD1.IN             3235:   Depth drilled with bit1
 DFT .            KCL MUD:   Type fluid in hole
 DFD .                8.9:   Density
 DFV .                 35:   Viscosity
 DFPH.               11.5:   pH
 DFL .               16.4:   Fluid loss
 MSS .           FLOWLINE:   Source of sample
 RMS .OHMM           1.18:   Rm
 MST .F                74:   Rm Meas. temp.
 RMF .OHMM           1.74:   Rmf
 MFST.F                74:   Rmf Meas. temp.
 MFSS.               MEAS:   Source Rmf.
 MCSS.               MEAS:   Source Rmc.
 RMB .OHMM           1.15:   Rm. at BHT
 BHT .F               116:   BHT.
 TCS .HRS               3:   Time Circ. stopped
 MRT .F               116:   Maximum recorded temp.
 LUN .               8611:   Logging unit number
 LUL .             CASPER:   Logging unit location
 ENGI.            C. DOAK:   Recorded By
 WITN.      W. PETTINGILL:   Witnessed by
 ORIG.           5" PRINT:   Origin of data
 UWI .     49025104350000:   Unique Well ID
 DICO. A2D TECHNOLOGIES, INC.:   Digitizing Company
~OTHER INFORMATION
~A   DEPT      SPR       TENR        ILM       SGRD        ILD         GRD      CALD       CORR       RHOB   
# ...
 1182.5000   -78.8523  1056.8887     5.2803     8.5119     5.0427   101.2296    10.2318     0.2800     2.1298
 1183.0000   -78.8639  1057.4850     5.1351     7.4597     4.9375   100.2724    10.3238     0.2520     2.0561
 1183.5000   -78.8756  1058.1893     5.4640     6.6709     4.9358    99.6272    10.4942     0.2100     1.9584
 1184.0000   -78.8872  1058.7673     8.8673     6.6310     4.9685    98.3579    10.6023     0.1898     1.9456
 1184.5000   -78.8989  1059.3456    13.5561     6.8157     5.1061    97.4007    10.6949     0.1679     1.9666
 1185.0000   -78.9107  1059.9236    19.9164     6.6280     5.3255    96.7447    11.0218     0.1423     2.0029
 1185.5000   -78.9251  1060.5017    16.7491     6.4905     5.5055    95.7929    11.4112     0.1166     2.0395
 1186.0000   -78.6342  1076.0498    15.6262     6.5796     5.5423    97.0197    11.7693     0.0809     2.0621
 1186.5000   -78.3404  1076.6466    15.3021     6.7201     5.6176   100.1186    11.4701     0.0234     2.1493
 1187.0000   -78.8088  1075.2009    12.6042     6.9993     5.7727   102.2815    10.2687    -0.0278     2.2034
 1187.5000   -79.1230  1062.8141    10.5267     7.0468     5.9326   104.4444     9.9998    -0.0388     2.2808
 1188.0000   -79.4372  1063.5366     8.3096     7.0451     6.0550   105.6766     9.8579    -0.0311     2.4552
 1188.5000   -79.1463  1064.1147     6.8988     7.0929     6.1846   104.7140     9.7942    -0.0048     2.4831
 1189.0000   -79.1609  1064.6927     6.6629     7.3918     6.2638   104.6928     9.7618     0.0028     2.4958
 1189.5000   -79.0184  1065.2709     6.6616     7.8652     6.3051   105.6076     9.7449     0.0123     2.4943
 1190.0000   -79.0329  1065.8682     6.7534     8.0843     6.3467   105.5811     9.7437     0.0197     2.4904
 1190.5000   -78.7420  1066.5717     6.7051     7.9713     6.3004   104.9359     9.7425     0.0212     2.4890
 1191.0000   -78.4511  1067.1497     6.6116     7.9697     6.2983   103.3546     9.7395     0.0195     2.4912
 1191.5000   -78.4629  1067.7278     6.7486     8.0792     6.2962   101.7734     9.7085     0.0163     2.4965
 1192.0000   -78.4773  1068.3058     6.9367     8.3043     6.2940   100.5041     9.7073     0.0054     2.5040
 1192.5000   -78.7916  1068.8839     6.8874     8.4261     6.2481   100.1709     9.7220    -0.0009     2.5123
 1193.0000   -78.9545  1069.4619     6.8861     8.3582     6.2030   100.7737     9.7364    -0.0010     2.5183
 1193.5000   -79.1174  1070.0599     6.9806     8.1284     6.1157   102.0333     9.7665     0.0020     2.5222
 1194.0000   -79.2804  1070.7627     6.9792     7.9049     6.0716   102.9851     9.7650     0.0066     2.5385
 1194.5000   -79.2920  1071.3408     6.7356     7.9582     5.9862   104.2161     9.7794     0.0096     2.5498
 1195.0000   -79.4554  1071.9188     6.4202     8.1235     5.9429   105.4082     9.7766     0.0079     2.5535
 1195.5000   -79.4696  1072.4969     6.3747     8.4085     5.9000   106.6606     9.7555     0.0031     2.5422
 1196.0000   -79.4812  1073.0750     6.3294     8.5232     5.8165   107.8175     9.7349     0.0015     2.5219
 1196.5000   -79.6441  1073.6532     6.3282     8.1182     5.7347   109.3892     9.7118     0.0014     2.5136
 1197.0000   -79.5016  1074.2515     6.4154     8.0050     5.6933   110.8952     9.7106    -0.0018     2.5035
 1197.5000   -79.5162  1074.9539     6.6857     7.9482     5.6133   112.4547     9.7875    -0.0081     2.4911
 1198.0000   -79.5280  1075.5320     6.7775     8.0574     5.5727   113.9676     9.8725    -0.0159     2.4843
 1198.5000   -79.5424  1076.1100     6.5454     8.3973     5.4943   110.2022    10.0348    -0.0207     2.4812
 1199.0000   -79.7053  1076.6882     6.2779     8.7515     5.4546   107.3729     9.9554    -0.0223     2.4850
 1199.5000   -79.7170  1077.2662     6.0214     8.8717     5.4524   106.4157     9.7199    -0.0209     2.4851
 1200.0000   -79.7287  1077.8444     5.9787     8.6273     5.5269   107.4911     9.6565    -0.0210     2.4744
 1200.5000   -79.7403  1078.4431     5.9656     7.7208     5.6404   110.7504     9.7961    -0.0223     2.4683
 1201.0000   -79.7520  1064.0304     5.8533     7.3538     5.7170   110.4263     9.8422    -0.0179     2.4684
 1201.5000   -79.7636  1049.6384     5.9340     7.5582     5.6757   110.1022     9.8739    -0.0118     2.4706
 1202.0000   -79.7406  1035.4379     5.9740     8.2675     5.6738   109.4661     9.8405    -0.0057     2.4804
 1202.5000   -79.7183  1036.3223     5.8905     9.2352     5.6329   109.1420     9.7460     0.0005     2.4991
 1203.0000   -79.6960  1037.2068     5.7683     9.4896     5.5532   109.1270     9.6202     0.0035     2.5134
 1203.5000   -79.6737  1038.0912     5.7271     9.2275     5.4374   109.1659     9.5413     0.0127     2.5286
 1204.0000   -79.6514  1083.8940     5.9687     8.6083     5.2873   110.0389     9.5251     0.0205     2.5402
 1204.5000   -79.6290  1114.5459     6.2637     7.9203     5.1771   110.6509     9.6179     0.0281     2.5485
 1205.0000   -79.6067  1115.2694     6.7112     7.8094     5.1754   111.4926     9.6797     0.0281     2.5537
 1205.5000   -79.5844  1100.9993     6.9521     8.2512     5.3924   112.6354     9.7102     0.0233     2.5499
 1206.0000   -79.5621  1086.7410     6.6619     8.8400     5.5418   113.4248     9.7092     0.0202     2.5461
 1206.5000   -79.5397  1087.6307     6.3019     9.0857     5.6561   114.0822     9.7085     0.0201     2.5431
 1207.0000   -79.5310  1088.3423     6.1712     9.1464     5.7334   114.6468     9.7077     0.0216     2.5416
 1207.5000   -79.3871  1089.0719     6.3432     9.0809     5.8109   114.6317     9.7070     0.0216     2.5400
 1208.0000   -79.5475  1074.7957     6.2507     9.0780     5.8085   114.6196     9.7062     0.0215     2.5385
 1208.5000   -79.8573  1060.7153     6.0825     9.0130     5.7666   113.6715     9.7055     0.0214     2.5370
 1209.0000   -80.0158  1061.4270     5.9977     8.9485     5.7250   112.7696     9.7047     0.0198     2.5354
 1209.5000   -80.0230  1062.1388     5.9551     8.8844     5.7231   111.4633     9.7196     0.0197     2.5317
 1210.0000   -79.8790  1062.8743     5.9540     8.8820     5.6818   109.8908     9.7345     0.0166     2.5264
 1210.5000   -79.7349  1063.7402     5.9117     8.8792     5.6794   108.6281     9.7649     0.0150     2.5166
 1211.0000   -79.8952  1064.4518     5.9103     9.0005     5.6776   108.6160     9.7640     0.0134     2.5098
 1211.5000   -79.9025  1065.1637     5.8684     9.1236     5.6757   108.6040     9.7320     0.0101     2.5068
 1212.0000   -79.9097  1065.8752     5.8267     9.2483     5.6738   109.2189     9.7156     0.0055     2.5053
 1212.5000   -79.9169  1066.7650     5.7854     9.3747     5.6720   110.4004     9.6992     0.0023     2.5052
 1213.0000   -79.9244  1067.4768     5.7037     9.1791     5.6306   111.6796     9.6670    -0.0008     2.5022
 1213.5000   -80.0845  1068.1885     5.6640     9.1134     5.5514   112.6469     9.6819    -0.0040     2.4977
 1214.0000   -80.0917  1068.9003     5.6629     9.1109     5.5496   114.1569     9.6812    -0.0041     2.4924
 1214.5000   -80.0990  1069.6119     5.7014     9.2355     5.5862   115.0809     9.6804    -0.0041     2.5006
 1215.0000   -80.1062  1070.5017     5.7398     9.4332     5.6622   115.3838     9.6955    -0.0042     2.4965
 1215.5000   -80.2647  1071.2133     5.8184     9.6213     5.6996   115.6808     9.7101    -0.0042     2.4818
 1216.0000   -80.1207  1071.9252     5.9390     9.6188     5.6972   115.9837     9.7256    -0.0028     2.4773
 1216.5000   -80.1297  1072.6367     5.9790     9.6162     5.6953   115.9687     9.7866    -0.0019     2.4863
 1217.0000   -80.1369  1058.3785     5.9366     9.4162     5.6542   116.4389     9.8172    -0.0013     2.4982
 1217.5000   -80.1442  1059.2681     5.8538     9.2842     5.6134   117.5016     9.8632    -0.0014     2.5064
 1218.0000   -80.1514  1059.9799     5.8123     9.1537     5.5341   118.4286     9.8468    -0.0015     2.5117
 1218.5000   -80.1589  1060.6915     5.7711     9.1513     5.5322   119.6616     9.8148    -0.0015     2.5154
