~VERSION INFORMATION
 VERS.                2.0:   CWLS LOG ASCII STANDARD - VERSION 2.0
 WRAP.                 NO:   ONE LINE PER DEPTH STEP
~WELL INFORMATION
#MNEM.UNIT      DATA TYPE    INFORMATION
#----------   ------------   ------------------------------
 STRT.F           40.0000:   START DEPTH
 STOP.F         1336.0000:   STOP DEPTH
 STEP.F            0.5000:   STEP LENGTH
 NULL.          -999.2500:   NO VALUE
 COMP. LAWRENCE - ALLISON WEST:   COMPANY
 WELL. LAWRENCE NPR 3 "AX" #54-23:   WELL
 FLD .              N P R:   FIELD
 LOC .      S23 T38N R78W:   LOCATION
 CNTY.            NATRONA:   COUNTY
 STAT.            WYOMING:   STATE
 CTRY. UNITED STATES OF AMERICA:   COUNTRY
 SRVC.       SCHLUMBERGER:   SERVICE COMPANY
 DATE.        13-MAY-1982:   LOGDATE
 API .     49025108880000:   API NUMBER
~CURVE INFORMATION
#MNEM.UNIT       API CODE    CURVE DESCRIPTION
#----------   ------------   ------------------------------
 DEPT.F                  :   
 NPOR.DEC    42 890 03 00:   ALPHA PROCESSED NEUTRON POROSITY
 TEND.LBS    45 635 01 00:   TENSION FROM DENSITY LOG
 CORR.G/C3   45 356 01 00:   DENSITY CORRECTION
 RHOB.G/C3   45 350 01 00:   BULK DENSITY
 GRD .GAPI   45 310 01 00:   GAMMA RAY FROM DENSITY LOG
 CALD.IN     45 280 60 00:   CALIPER FROM DENSITY LOG
 SPR .MV     07 010 01 00:   SPONTANEOUS POTENTIAL
 TENR.LBS    07 635 01 00:   TENSION
 ILD .OHMM   07 120 46 00:   DEEP INDUCTION RESISTIVITY
 ILM .OHMM   07 120 44 00:   INDUCTION LOG MEDIUM RESISTIVITY
 SFL .OHMM   07 220 01 00:   SHALLOW FOCUSED LOG RESISTIVITY
~PARAMETER INFORMATION
#MNEM.UNIT          VALUE    DESCRIPTION
#----------   ------------   ------------------------------
 EKB .F         5342.0000:   Kelly bushing
 EGL .F         5332.0000:   Ground level
 EDF .F            0.0000:   Drilling floor
 TD  .F         1325.0000:   Total depth
 DATE.        13-MAY-1982:   Date logged
 CLNT.            A2DTECH:   Client Code
 SL  . 2278' FSL & 2665' FWL:   Surface Location
 PD  .                 GL:   Permanent Datum
 DD  .F              1325:   Depth driller
 DL  .F              1314:   Depth logger
 BLI .F              1308:   Bottom log interval
 CS1 .IN             15.5:   Casing size
 CBD1.        15.5" @ 40':   Casing driller 1
 CBL1.F                54:   Casing logger 1
 BS1 .IN            12.25:   Bit size
 DFT .             LT/GEL:   Type fluid in hole
 DFD .                8.9:   Density
 DFV .                 33:   Viscosity
 DFPH.                8.8:   pH
 DFL .                 16:   Fluid loss
 MSS .                PIT:   Source of sample
 RMS .OHMM           2.47:   Rm
 MST .F                61:   Rm Meas. temp.
 RMF .OHMM           2.12:   Rmf
 MFST.F                62:   Rmf Meas. temp.
 MFSS.               MEAS:   Source Rmf.
 RMB .OHMM           1.73:   Rm. at BHT
 BHT .F                87:   BHT.
 TCS .HRS            2300:   Time Circ. stopped
 MRT .F                87:   Maximum recorded temp.
 LUN .               8043:   Logging unit number
 LUL .               CSPR:   Logging unit location
 ENGI.        WAGNER/CSPR:   Recorded By
 WITN.           JENNINGS:   Witnessed by
 ORIG.           5" PRINT:   Origin of data
 UWI .     49025108880000:   Unique Well ID
 DICO. A2D TECHNOLOGIES, INC.:   Digitizing Company
 BSD1.F              1325:   Depth drilled with bit1
 EPD .F              5332:   Elevation Permanent Datum
 LMF .                 KB:   Log Measured From
 DMF .                 KB:   Drilling Measured From
 TLI .F                54:   Top log interval
 DAPD.F                10:   Feet Above Permanent Datum
~OTHER INFORMATION
~A   DEPT     NPOR       TEND       CORR       RHOB        GRD       CALD        SPR       TENR        ILD        ILM        SFL   
   40.0000  -999.2500  -999.2500  -999.2500  -999.2500   260.1130  -999.2500  -999.2500  -999.2500  -999.2500  -999.2500  -999.2500
   40.5000  -999.2500  -999.2500  -999.2500  -999.2500   260.1130  -999.2500  -999.2500  -999.2500  -999.2500  -999.2500  -999.2500
   41.0000  -999.2500  -999.2500  -999.2500  -999.2500   260.1130  -999.2500  -999.2500  -999.2500  -999.2500  -999.2500  -999.2500
   41.5000  -999.2500  -999.2500  -999.2500  -999.2500   260.1130  -999.2500  -999.2500  -999.2500  -999.2500  -999.2500  -999.2500
   42.0000    -0.0110  -999.2500  -999.2500  -999.2500   260.1520  -999.2500  -999.2500  -999.2500  -999.2500  -999.2500  -999.2500
   42.5000    -0.0110  -999.2500  -999.2500  -999.2500   255.7560  -999.2500  -999.2500  -999.2500  -999.2500  -999.2500  -999.2500
   43.0000    -0.0110  -999.2500  -999.2500  -999.2500   248.7450  -999.2500  -999.2500  -999.2500  -999.2500  -999.2500  -999.2500
   43.5000    -0.0110  -999.2500  -999.2500  -999.2500   241.7280  -999.2500  -999.2500  -999.2500  -999.2500  -999.2500  -999.2500
   44.0000    -0.0110  -999.2500  -999.2500  -999.2500   234.7100  -999.2500  -999.2500  -999.2500  -999.2500  -999.2500  -999.2500
   44.5000    -0.0110  -999.2500  -999.2500  -999.2500   227.4890  -999.2500  -999.2500  -999.2500  -999.2500  -999.2500  -999.2500
   45.0000    -0.0110  -999.2500  -999.2500  -999.2500   225.7520  -999.2500  -999.2500  -999.2500  -999.2500  -999.2500  -999.2500
   45.5000    -0.0110  -999.2500  -999.2500  -999.2500   226.2170  -999.2500  -999.2500  -999.2500  -999.2500  -999.2500  -999.2500
   46.0000    -0.0110  -999.2500  -999.2500  -999.2500   235.2000  -999.2500  -999.2500  -999.2500  -999.2500  -999.2500  -999.2500
   46.5000    -0.0100  -999.2500  -999.2500  -999.2500   243.5400  -999.2500  -999.2500  -999.2500  -999.2500  -999.2500  -999.2500
   47.0000    -0.0100  -999.2500  -999.2500  -999.2500   256.8710  -999.2500  -999.2500  -999.2500  -999.2500  -999.2500  -999.2500
   47.5000    -0.0100  -999.2500  -999.2500  -999.2500   270.7210  -999.2500  -999.2500  -999.2500  -999.2500  -999.2500  -999.2500
   48.0000    -0.0100  -999.2500  -999.2500  -999.2500   291.6460  -999.2500  -999.2500  -999.2500  -999.2500  -999.2500  -999.2500
   48.5000    -0.0100  -999.2500  -999.2500  -999.2500  -999.2500  -999.2500  -999.2500  -999.2500  -999.2500  -999.2500  -999.2500
   49.0000    -0.0100  -999.2500  -999.2500  -999.2500  -999.2500  -999.2500  -999.2500  -999.2500  -999.2500  -999.2500  -999.2500
   49.5000    -0.0100  -999.2500  -999.2500  -999.2500  -999.2500  -999.2500  -999.2500  -999.2500  -999.2500  -999.2500  -999.2500
   50.0000    -0.0100  -999.2500    -0.2500     1.0010  -999.2500  -999.2500  -999.2500  -999.2500  -999.2500  -999.2500  -999.2500
   50.5000    -0.0100  -999.2500    -0.2500     1.0010  -999.2500  -999.2500  -999.2500  -999.2500  -999.2500  -999.2500  -999.2500
   51.0000    -0.0100  -999.2500    -0.2500     1.0010  -999.2500  -999.2500  -999.2500  -999.2500  -999.2500  -999.2500  -999.2500
   51.5000    -0.0090  -999.2500    -0.2500     1.0010  -999.2500  -999.2500  -999.2500  -999.2500  -999.2500  -999.2500  -999.2500
   52.0000    -0.0090  -999.2500    -0.2500     1.0010  -999.2500  -999.2500  -999.2500  -999.2500  -999.2500  -999.2500  -999.2500
   52.5000    -0.0090  -999.2500    -0.2500     1.0010  -999.2500  -999.2500  -999.2500  -999.2500  -999.2500  -999.2500  -999.2500
   53.0000    -0.0090  -999.2500    -0.2500     1.0010  -999.2500  -999.2500  -999.2500  -999.2500  -999.2500  -999.2500  -999.2500
   53.5000    -0.0100  -999.2500    -0.2500     1.0010  -999.2500  -999.2500  -999.2500  -999.2500  -999.2500  -999.2500  -999.2500
   54.0000    -0.0110   178.1500    -0.2500     1.0010  -999.2500  -999.2500  -999.2500  -999.2500  -999.2500  -999.2500  -999.2500
   54.5000    -0.0120   165.0900    -0.2500  -999.2500  -999.2500    20.1540  -999.2500  -999.2500  -999.2500  -999.2500  -999.2500
   55.0000    -0.0130   162.4240    -0.2510  -999.2500  -999.2500    20.3660  -999.2500  -999.2500  -999.2500  -999.2500  -999.2500
   55.5000    -0.0150   181.7850    -0.2510  -999.2500  -999.2500    21.4930  -999.2500  -999.2500  -999.2500  -999.2500  -999.2500
   56.0000    -0.0160   179.1100    -0.2510  -999.2500  -999.2500    22.4000  -999.2500  -999.2500  -999.2500  -999.2500  -999.2500
   56.5000    -0.0170   175.3780    -0.2520  -999.2500  -999.2500    22.4680  -999.2500  -999.2500  -999.2500  -999.2500  -999.2500
   57.0000    -0.0180   171.6470    -0.2520  -999.2500  -999.2500    22.4670  -999.2500  -999.2500  -999.2500  -999.2500  -999.2500
   57.5000    -0.0170   167.9150    -0.2520  -999.2500  -999.2500    22.4650  -999.2500  -999.2500  -999.2500  -999.2500  -999.2500
   58.0000    -0.0170   164.1840    -0.2530  -999.2500   290.2310    22.4620  -999.2500  -999.2500  -999.2500  -999.2500  -999.2500
   58.5000    -0.0160   160.4520    -0.2530  -999.2500   282.6190    22.4590  -999.2500  -999.2500  -999.2500  -999.2500  -999.2500
   59.0000    -0.0150   156.7210    -0.2530  -999.2500   277.6020    22.4540  -999.2500  -999.2500  -999.2500  -999.2500  -999.2500
   59.5000    -0.0160   152.9900    -0.2540  -999.2500   278.2940    22.4490   -78.2350  -999.2500  -999.2500  -999.2500  -999.2500
   60.0000    -0.0160   115.7080    -0.2560  -999.2500   276.0100    22.4520   -97.4510    25.5050     9.5940    11.8030  1872.9670
   60.5000    -0.0160    84.0890    -0.2280     1.0700   263.8840    21.9190   -99.0470    25.1800     8.5230     9.3740  1835.8300
   61.0000    -0.0150    91.8920    -0.1100     1.2390   253.5140    20.7370  -101.3730    24.8540     7.3880     7.6530  1803.1851
   61.5000    -0.0130    93.5240    -0.0110     1.4070   266.6700    19.0930  -109.4030    24.5290     6.2530     6.3740  1827.8280
   62.0000    -0.0110    95.1570     0.0420     1.6430   289.5460    16.8760  -127.2550    24.2040     4.7790     4.7790  1862.1620
   62.5000    -0.0090    96.7890     0.0500     1.6300   301.1360    17.0430  -128.8720    23.8790     4.8680     4.8320  1900.2510
   63.0000    -0.0090    98.4220     0.0480     1.6100   299.6450    17.0210  -123.5110    23.5540     5.1660     5.0570  1874.2550
   63.5000    -0.0090   100.0540     0.0440     1.5920   290.8400    16.7580   -98.8710    23.3920     5.3150     5.0420  1861.2570
   64.0000    -0.0080   101.6870     0.0300     1.5940   278.7260    16.3350  -101.8490    23.0660     5.6140     5.4380  1835.2610
   64.5000    -0.0080   103.3190     0.0280     1.8010   265.9440    16.0310   -96.9020    22.7410     5.9120     5.8030  1803.1851
   65.0000    -0.0080   104.9520     0.0540     1.8060   254.9330    15.9800   -89.6710    22.4160     6.2100     6.1680  1837.4700
   65.5000    -0.0080   106.5840     0.0800     1.8110   247.3000    15.5180   -82.4360    22.0910     6.5080     6.5330  1880.2450
   66.0000    -0.0080   108.2170     0.1070     1.8440   238.1890    15.0120   -73.4170    21.7660     6.7080     6.8970  1924.8180
   66.5000    -0.0080   109.8490     0.1320     1.8930   239.9810    14.9120   -83.3540    21.4410     7.1640     7.2620  1981.2531
   67.0000    -0.0070   111.5070     0.1610     1.9300   243.9450    15.1100  -102.6790    21.1160     7.6470     7.6530  1837.4700
   67.5000    -0.0070   113.0070     0.1760     1.9300   247.8960    15.3100  -102.6270    20.7910     8.1300     7.9060  1872.4060
   68.0000    -0.0070   114.9060     0.0760     1.8890   252.6810    15.6580   -99.1780    20.4660     8.6130     8.3870  1912.3710
   68.5000    -0.0070   116.8060     0.0450     1.8000   248.0850    16.1390   -82.0560    20.1410     9.0950     8.8680  1944.2860
   69.0000    -0.0070   118.7060     0.0230     1.7110   236.1660    16.6840   -83.4510    19.8150     9.2400     9.5940  1944.2860
   69.5000    -0.0080   120.6050     0.0740     1.6220   224.3620    17.2620   -81.5900    19.4900     9.4150     9.5510  1908.0081
   70.0000    -0.0080   122.5050     0.0240     1.5330   215.0560    17.8840   -79.9570    19.1650     9.2400     9.4620  1866.2930
