~VERSION INFORMATION
 VERS.                2.0:   CWLS LOG ASCII STANDARD - VERSION 2.0
 WRAP.                 NO:   ONE LINE PER DEPTH STEP
~WELL INFORMATION
#MNEM.UNIT      DATA TYPE    INFORMATION
#----------   ------------   ------------------------------
 STRT.F           60.0000:   START DEPTH
 STOP.F         3758.0000:   STOP DEPTH
 STEP.F            0.5000:   STEP LENGTH
 NULL.          -999.2500:   NO VALUE
 COMP. LAWRENCE ALLISON & ASSOCIATES:   COMPANY
 WELL. LAWRENCE "MX" #72-10:   WELL
 FLD .            N P R 3:   FIELD
 LOC .      S10 T38N R78W:   LOCATION
 CNTY.            NATRONA:   COUNTY
 STAT.            WYOMING:   STATE
 CTRY. UNITED STATES OF AMERICA:   COUNTRY
 SRVC.       SCHLUMBERGER:   SERVICE COMPANY
 DATE.        03-JUL-1982:   LOGDATE
 API .     49025108910000:   API NUMBER
~CURVE INFORMATION
#MNEM.UNIT       API CODE    CURVE DESCRIPTION
#----------   ------------   ------------------------------
 DEPT.F                  :   
 GRD .GAPI   45 310 01 00:   GAMMA RAY FROM DENSITY LOG
 NPHI.DEC    42 890 03 00:   NEUTRON POROSITY SANDSTONE
 CALD.IN     45 280 60 00:   CALIPER FROM DENSITY LOG
 RHOB.G/C3   45 350 01 00:   BULK DENSITY
 DRHO.G/C3   45 356 01 00:   DENSITY CORRECTION
 TEND.LBS    45 635 01 00:   TENSION FROM DENSITY LOG
 SPR .MV     07 010 01 00:   SPONTANEOUS POTENTIAL
 SFL .OHMM   07 220 01 00:   SHALLOW FOCUSED LOG RESISTIVITY
 ILD .OHMM   07 120 46 00:   DEEP INDUCTION RESISTIVITY
 ILM .OHMM   07 120 44 00:   INDUCTION LOG MEDIUM RESISTIVITY
 TENR.LBS    07 635 01 00:   TENSION FROM RESISTIVITY
~PARAMETER INFORMATION
#MNEM.UNIT          VALUE    DESCRIPTION
#----------   ------------   ------------------------------
 EKB .F         5182.0000:   Kelly bushing
 EGL .F         5172.0000:   Ground level
 EDF .F            0.0000:   Drilling floor
 EPD .F            0.0000:   Permanent datum
 TD  .F         3770.0000:   Total depth
 DATE.        03-JUL-1982:   Date logged
 CLNT.            A2DTECH:   Client Code
 SL  . 1119' FNL & 21' FEL:   Surface Location
 PD  .                 GL:   Permanent Datum
 DD  .F              3770:   Depth driller
 DL  .F              3750:   Depth logger
 BLI .F              3744:   Bottom log interval
 CS1 .IN            9.625:   Casing size
 CBD1.      9.625" @ 473':   Casing driller 1
 CBL1.F               482:   Casing logger 1
 BS1 .IN            7.875:   Bit size
 DFT .                GEL:   Type fluid in hole
 DFD .                9.1:   Density
 DFV .                 34:   Viscosity
 DFPH.               10.5:   pH
 DFL .                 12:   Fluid loss
 MSS .            MUD PIT:   Source of sample
 RMS .OHMM           1.50:   Rm
 MST .F                84:   Rm Meas. temp.
 RMF .OHMM           1.37:   Rmf
 MFST.F                83:   Rmf Meas. temp.
 RMC .OHMM           1.20:   Rmc
 MCST.F                83:   Rmc Meas. temp.
 MFSS.               MEAS:   Source Rmf.
 RMB .OHMM              1:   Rm. at BHT
 BHT .F               130:   BHT.
 TCS .HRS            1500:   Time Circ. stopped
 MRT .F               130:   Maximum recorded temp.
 LUN .               8039:   Logging unit number
 LUL .               CSPR:   Logging unit location
 ENGI. CONOSCENTI/PIRAKIS:   Recorded By
 WITN.             STRONG:   Witnessed by
 ORIG.       2.5"5" PRINT:   Origin of data
 UWI .     49025108910000:   Unique Well ID
 DICO. A2D TECHNOLOGIES, INC.:   Digitizing Company
 DAPD.                 10:   Feet Above Permanent Datum
 BSD1.               3770:   Depth drilled with bit1
 MCSS.               CALC:   Source Rmc.
 TLI .                482:   Top log interval
 TLAB.HR             1800:   Time logger at bottom
~OTHER INFORMATION
~A   DEPT      GRD       NPHI       CALD       RHOB       DRHO       TEND        SPR        SFL        ILD        ILM       TENR   
# ...
 2652.5000    78.8190     0.1640    11.2740     2.5380     0.0020  1569.2130   -50.5860    13.3880    11.5820    11.9840  1482.7910
 2653.0000    79.5380     0.1740    11.2750     2.5280     0.0030  1569.4000   -50.6030    12.1350    11.4220    11.8070  1483.4139
 2653.5000    80.3860     0.1760    11.2750     2.5230     0.0040  1569.5861   -50.6190    11.3380    11.2620    11.6220  1484.0360
 2654.0000    81.1340     0.1700    11.2750     2.5230     0.0040  1569.7729   -50.6350    11.8510    11.1310    11.4360  1484.6591
 2654.5000    81.9590     0.1730    11.2740     2.5180     0.0050  1569.9600   -50.6520    12.2070    10.9240    11.2510  1485.2810
 2655.0000    82.7450     0.1790    11.2750     2.5150     0.0060  1570.1470   -50.6680    11.9440    10.7900    11.0650  1485.9041
 2655.5000    83.4590     0.1850    11.2740     2.5190     0.0070  1570.3340   -50.6840    11.7220    10.6560    10.7410  1486.5260
 2656.0000    84.6780     0.1940    11.2760     2.5300     0.0080  1570.5200   -50.7010    11.5490    10.5220    10.3830  1487.1490
 2656.5000    88.4150     0.1920    11.2800     2.5370     0.0090  1570.7070   -50.7170    11.5490    10.3880    10.0240  1487.7720
 2657.0000    94.0390     0.1880    11.2840     2.5450     0.0100  1570.8940   -50.7330    11.5490    10.0070     9.6660  1488.3940
 2657.5000   101.8200     0.1900    11.2870     2.5500     0.0120  1571.0811   -50.7500    11.3070     9.4840     9.3080  1489.0170
 2658.0000   108.7620     0.2010    11.2910     2.5480     0.0120  1571.2670   -50.7660    10.5770     8.9620     8.8590  1489.6390
 2658.5000   115.8130     0.2150    11.2940     2.5350     0.0120  1571.4540   -50.7830     8.8220     8.4390     8.2540  1490.2620
 2659.0000   119.1310     0.2270    11.2980     2.5240     0.0120  1571.6410   -50.7800     7.8450     7.9160     7.6480  1490.8850
 2659.5000   123.1380     0.2300    11.3010     2.5120     0.0120  1571.8280   -50.7730     6.9820     7.3930     7.0430  1491.5070
 2660.0000   127.9540     0.2410    11.3050     2.5010     0.0110  1572.0150   -50.7660     6.4530     6.8700     6.4380  1492.1300
 2660.5000   132.4280     0.2650    11.3080     2.5000     0.0100  1572.2010   -50.7590     5.9640     6.3470     5.8320  1492.7520
 2661.0000   129.5090     0.2750    11.3130     2.5020     0.0090  1572.3879   -50.7520     5.6530     5.8240     5.4190  1493.3750
 2661.5000   126.1760     0.2810    11.3060     2.5030     0.0090  1572.5750   -50.7450     5.4190     5.3690     5.3640  1493.9969
 2662.0000   122.5150     0.2680    11.2890     2.4980     0.0080  1572.7620   -50.7380     5.7300     5.4760     5.3200  1494.6200
 2662.5000   123.4520     0.2510    11.2750     2.4920     0.0070  1572.9490   -50.7310     6.4570     5.5920     5.4080  1495.2430
 2663.0000   126.0720     0.2550    11.2590     2.4850     0.0060  1573.1350   -50.7240     6.4240     5.7070     5.6700  1495.8650
 2663.5000   125.8790     0.2620    11.2450     2.4780     0.0060  1573.3220   -50.7170     6.3650     5.9060     5.8340  1496.4880
 2664.0000   121.4370     0.2540    11.2210     2.4710     0.0060  1573.5090   -50.7100     6.2930     6.2470     6.2350  1497.1100
 2664.5000   105.2760     0.2290    11.1810     2.4660     0.0060  1573.6960   -50.7030     7.0440     6.6610     6.6490  1497.7330
 2665.0000    94.1060     0.2040    11.1440     2.4820     0.0060  1573.8831   -50.6960     8.2240     7.1870     7.0620  1498.3550
 2665.5000    89.7220     0.1800    11.1010     2.4990     0.0060  1574.0690   -50.6890    10.2390     7.7140     7.4760  1498.9780
 2666.0000    93.6910     0.1840    11.0770     2.5160     0.0170  1574.2560   -50.6820    10.9270     8.2410     7.8890  1499.6010
 2666.5000    98.5370     0.1970    11.0830     2.5290     0.0150  1574.4430   -50.6750    10.7730     8.5130     8.2080  1500.2230
 2667.0000   101.9790     0.2090    11.0850     2.5220     0.0060  1574.6300   -50.6680    10.2700     8.6310     8.4260  1500.8459
 2667.5000   105.3460     0.2200    11.0880     2.5130    -0.0030  1574.8170   -50.6610     9.5470     8.7490     8.6380  1501.4680
 2668.0000   104.6910     0.2210    11.0910     2.5120    -0.0040  1575.0031   -50.6540     8.4390     8.8370     8.8370  1502.0909
 2668.5000   102.9440     0.2210    11.0940     2.5190     0.0000  1575.1899   -50.6470     8.6020     8.7110     8.7200  1502.7130
 2669.0000    99.5160     0.2200    11.0970     2.5190     0.0040  1575.3770   -50.6400     8.9540     8.6100     8.5840  1503.3361
 2669.5000    97.6420     0.2150    11.0990     2.5130     0.0080  1575.5640   -50.6330     9.3050     8.5100     8.4480  1503.9590
 2670.0000    98.3240     0.2100    11.1020     2.5040     0.0030  1575.7510   -50.6260     9.6920     8.3730     8.3120  1504.5811
 2670.5000   101.2440     0.2050    11.1050     2.5090    -0.0020  1575.9370   -50.6190     9.7230     8.1530     8.1750  1505.2040
 2671.0000   103.1090     0.2000    11.1070     2.5180    -0.0060  1576.1240   -50.6120     9.7580     7.9330     8.0390  1505.8260
 2671.5000   104.6140     0.1980    11.1120     2.5250     0.0070  1576.3110   -50.6050     9.7820     7.7120     7.9030  1506.4490
 2672.0000   105.8200     0.2240    11.1110     2.5350     0.0400  1576.4980   -50.5980     9.1450     7.4920     7.7670  1507.0720
 2672.5000   106.9710     0.2510    11.1230     2.5220     0.0580  1576.6851   -50.5910     7.7330     7.3480     7.6240  1507.6940
 2673.0000   106.8530     0.2510    11.0620     2.4790     0.0480  1576.8710   -50.5840     6.8250     7.4240     7.6500  1508.3170
 2673.5000   106.6100     0.2370    10.9570     2.4880     0.0260  1577.0580   -50.5770     7.4750     7.4910     7.6830  1508.9390
 2674.0000   106.4190     0.2230    10.8540     2.5020     0.0020  1577.2450   -50.5700     8.6760     7.5570     7.7170  1509.5620
 2674.5000   106.0770     0.2120    10.8280     2.5180    -0.0020  1577.4320   -50.5630    10.1490     7.6240     7.7510  1510.1840
 2675.0000   107.3510     0.2240    10.8110     2.5220    -0.0050  1577.6190   -50.5560    10.1490     7.6740     7.7850  1510.8070
 2675.5000   109.9760     0.2340    10.7940     2.5200    -0.0050  1577.8051   -50.5490     9.5470     7.7240     7.8180  1511.4301
 2676.0000   109.4900     0.2440    10.7750     2.5190    -0.0010  1577.9919   -50.5420     9.0450     7.7730     7.8750  1512.0520
 2676.5000   108.8380     0.2480    10.7580     2.5250     0.0030  1578.1790   -50.5350     8.6760     7.8230     7.9620  1512.6750
 2677.0000   103.5990     0.2480    10.7400     2.5320     0.0060  1578.3660   -50.5280     8.5960     7.8730     8.0500  1513.0690
 2677.5000   101.0780     0.2440    10.7230     2.5390     0.0100  1578.5530   -50.5210     8.7960     7.9440     8.1330  1513.1680
 2678.0000    99.1280     0.2400    10.7050     2.5450     0.0130  1578.7390   -50.5140     9.2440     8.0770     8.2510  1513.2670
 2678.5000    99.3420     0.2340    10.6870     2.5460     0.0130  1578.9260   -50.5070     9.6930     8.2100     8.3630  1513.3650
 2679.0000    99.3800     0.2260    10.6800     2.5470     0.0090  1579.1130   -50.5000    10.1410     8.3430     8.4760  1513.4640
 2679.5000    99.5980     0.2140    10.6740     2.5410     0.0050  1579.3000   -50.4930    10.7270     8.4770     8.5880  1513.5630
 2680.0000    99.7110     0.2160    10.6670     2.5280     0.0040  1579.4860   -50.4860    10.1930     8.6100     8.7000  1513.6610
 2680.5000    99.8560     0.2200    10.6610     2.5230     0.0030  1579.6730   -50.4790     9.9310     8.6760     8.7560  1513.7600
 2681.0000   100.0410     0.2240    10.6540     2.5200     0.0020  1579.8600   -50.4720     9.8650     8.5040     8.5930  1513.8590
 2681.5000   100.4150     0.2250    10.6480     2.5330     0.0040  1580.0640   -50.4650     9.8000     8.3170     8.4150  1513.9580
 2682.0000   103.0100     0.2270    10.6410     2.5450     0.0110  1580.3170   -50.4580     9.7340     8.1290     8.2360  1514.0560
 2682.5000   106.5580     0.2300    10.6350     2.5510     0.0130  1580.5699   -50.4510     9.4860     7.9410     8.0570  1514.1550
