~VERSION INFORMATION
 VERS.                2.0:   CWLS LOG ASCII STANDARD - VERSION 2.0
 WRAP.                 NO:   ONE LINE PER DEPTH STEP
~WELL INFORMATION
#MNEM.UNIT      DATA TYPE    INFORMATION
#----------   ------------   ------------------------------
 STRT.F          298.0000:   START DEPTH
 STOP.F         3084.0000:   STOP DEPTH
 STEP.F            0.5000:   STEP LENGTH
 NULL.          -999.2500:   NO VALUE
 COMP. LAWERNCE ALLISON AND ASSOCIATED:   COMPANY
 WELL. LAWERNCE "TX" #77-20:   WELL
 FLD .        TEAPOT DOME:   FIELD
 LOC .      S20 T39N R78W:   LOCATION
 CNTY.            NATRONA:   COUNTY
 STAT.            WYOMING:   STATE
 CTRY. UNITED STATES OF AMERICA:   COUNTRY
 SRVC.       SCHLUMBERGER:   SERVICE COMPANY
 DATE.        22-JAN-1982:   LOGDATE
 API .     49025108840000:   API NUMBER
~CURVE INFORMATION
#MNEM.UNIT       API CODE    CURVE DESCRIPTION
#----------   ------------   ------------------------------
 DEPT.F                  :   
 CALD.IN     45 280 60 00:   CALIPER FROM DENSITY LOG
 GRD .GAPI   45 310 01 00:   GAMMA RAY FROM DENSITY LOG
 TEND.LBS    45 635 01 00:   TENSION FROM DENSITY LOG
 RHOB.G/C3   45 350 01 00:   BULK DENSITY
 NPHI.DEC    42 890 03 00:   NEUTRON POROSITY SANDSTONE
 CORR.G/C3   45 356 01 00:   DENSITY CORRECTION
 SFLU.OHMM   07 220 01 00:   SPHERICALLY FOCUSED LOG UNAVERAGED RESISTIVITY
 ILD .OHMM   07 120 46 00:   INDUCTION LOG DEEP RESISTIVITY
 ILM .OHMM   07 120 44 00:   INDUCTION LOG MEDIUM RESISTIVITY
 TENR.LBS    07 635 01 00:   TENSION
 SPR .MV     07 010 01 00:   SPONTANEOUS POTENTIAL
~PARAMETER INFORMATION
#MNEM.UNIT          VALUE    DESCRIPTION
#----------   ------------   ------------------------------
 EKB .F         5022.0000:   Kelly bushing
 EGL .F         5012.0000:   Ground level
 EDF .F         5021.0000:   Drilling floor
 TD  .F         3079.0000:   Total depth
 DATE.        22-JAN-1982:   Date logged
 CLNT.            A2DTECH:   Client Code
 SL  . 986' FSL & 779' FEL:   Surface Location
 PD  .                 GL:   Permanent Datum
 EPD .F              5012:   Elevation Permanent Datum
 LMF .                 KB:   Log Measured From
 DMF .                 KB:   Drilling Measured From
 DAPD.F                10:   Feet Above Permanent Datum
 DD  .F              3079:   Depth driller
 DL  .F              3070:   Depth logger
 BLI .F              3064:   Bottom log interval
 TLI .F               328:   Top log interval
 CS1 .IN            9.625:   Casing size
 CBD1.      9.625" @ 300':   Casing driller 1
 CBL1.F               328:   Casing logger 1
 BS1 .IN            7.875:   Bit size
 BSD1.F              3079:   Depth drilled with bit1
 DFT .           CHEM/GEL:   Type fluid in hole
 DFD .                8.9:   Density
 DFV .                 50:   Viscosity
 DFPH.               10.5:   pH
 DFL .                  8:   Fluid loss
 MSS .           FLOWLINE:   Source of sample
 RMS .OHMM           2.53:   Rm
 MST .F                49:   Rm Meas. temp.
 RMF .OHMM           2.04:   Rmf
 MFST.F                49:   Rmf Meas. temp.
 RMC .OHMM           3.80:   Rmc
 MCST.F                49:   Rmc Meas. temp.
 MFSS.               MEAS:   Source Rmf.
 MCSS.               CALC:   Source Rmc.
 RMB .OHMM           1.04:   Rm. at BHT
 BHT .F               119:   BHT.
 TCS .HRS            0330:   Time Circ. stopped
 TLAB.HRS            0800:   Time logger at bottom
 MRT .F               119:   Maximum recorded temp.
 LUN .               8043:   Logging unit number
 LUL .               CSPR:   Logging unit location
 ENGI.            PERAKIS:   Recorded By
 WITN.              SCOTT:   Witnessed by
 ORIG.           5" PRINT:   Origin of data
 UWI .     49025108840000:   Unique Well ID
 DICO. A2D TECHNOLOGIES, INC.:   Digitizing Company
~OTHER INFORMATION
~A   DEPT       CALD       GRD      TEND         RHOB       NPHI     CORR       SFLU        ILD        ILM       TENR        SPR   
# ...
  511.5000    12.0260    98.5110   595.7880     2.4820     0.3370     0.0130     6.2710     6.2690     5.8880   613.3110    30.7160
  512.0000    12.0400    99.2240   596.3720     2.4750     0.3550     0.0140     6.3560     6.1920     5.8460   601.9180    30.7160
  512.5000    12.0560    98.4370   596.9570     2.4670     0.3700     0.0110     6.4290     6.1160     5.8010   590.5250    30.7160
  513.0000    12.0720    97.5450   597.5410     2.4590     0.3620     0.0070     6.3690     6.0400     5.5980   579.1310    30.6860
  513.5000    12.0880    97.3850   598.1250     2.4610     0.3500     0.0090     6.1430     5.9000     5.3840   567.7380    30.4290
  514.0000    12.1030    98.2270   598.7090     2.4700     0.3380     0.0120     5.8470     5.7410     5.1690   558.3760    30.1680
  514.5000    12.1190   100.0370   599.3160     2.4800     0.3450     0.0200     5.5510     5.5810     4.9960   566.1370    29.9090
  515.0000    12.1350   101.7990   599.9440     2.4890     0.3540     0.0300     5.2550     5.4850     4.9490   576.0600    29.6490
  515.5000    12.1510   103.5370   600.5720     2.4970     0.3630     0.0400     5.0900     5.4960     4.9490   585.9830    29.3830
  516.0000    12.1670   105.0400   601.2000     2.5020     0.3660     0.0500     5.0900     5.5070     4.9490   595.9060    29.3260
  516.5000    12.1830   104.6950   601.8270     2.4990     0.3560     0.0590     5.3920     5.5190     4.9960   605.8290    29.3560
  517.0000    12.2380   104.4000   602.4550     2.4930     0.3620     0.0690     5.6880     5.5300     5.1090   615.7520    29.5540
  517.5000    12.3210   104.1200   603.0830     2.4760     0.3700     0.0730     5.9100     5.6040     5.2450   617.2590    29.7260
  518.0000    12.3680   103.7500   603.7110     2.4580     0.3780     0.0540     6.1680     5.7560     5.3810   612.7020    29.5220
  518.5000    12.3250   101.1480   604.3390     2.4480     0.3720     0.0340     6.2510     5.9080     5.5170   608.1440    29.1930
  519.0000    12.1680    98.4470   604.9670     2.4550     0.3610     0.0150     6.2560     6.0600     5.6410   603.5870    28.9170
  519.5000    12.0710    96.8920   605.5940     2.4680     0.3440     0.0100     6.2730     6.0990     5.7260   599.0300    28.9270
  520.0000    12.0690    97.1490   606.2220     2.4810     0.3500     0.0180     6.2910     6.1300     5.7750   594.4730    28.9910
  520.5000    12.0700    98.3850   606.8500     2.4940     0.3640     0.0270     6.3100     6.1600     5.8230   589.9150    29.3050
  521.0000    12.0720    99.6560   607.4780     2.4980     0.3780     0.0320     6.3630     6.1930     5.8550   585.3580    29.6190
  521.5000    12.0740   100.9410   608.1060     2.4870     0.3860     0.0220     6.4890     6.2050     5.8550   580.8010    29.9720
  522.0000    12.0760   101.1750   608.7330     2.4760     0.3880     0.0110     6.4890     6.2210     5.8550   579.4470    29.5810
  522.5000    12.0780    99.7160   609.3610     2.4800     0.3910     0.0070     6.3660     6.2370     5.8550   581.7260    28.9680
  523.0000    12.0800    97.6880   609.9890     2.4870     0.3960     0.0140     6.1930     6.2510     5.8550   584.0050    28.3180
  523.5000    12.0820    96.0620   610.6170     2.4920     0.4010     0.0190     6.1350     6.2620     5.8550   586.2830    28.0010
  524.0000    12.0840    96.2880   611.2450     2.4900     0.3910     0.0210     6.1350     6.2770     5.8550   588.5620    27.7950
  524.5000    12.0860    97.1360   611.8730     2.4860     0.3710     0.0210     6.2530     6.2920     5.8550   590.8400    27.5850
  525.0000    12.0850    98.1420   612.5000     2.4770     0.3500     0.0140     6.3740     6.3070     5.9010   593.1190    27.7230
  525.5000    12.0350    99.7110   613.1280     2.4650     0.3420     0.0080     6.4940     6.3430     5.9770   595.3980    27.9870
  526.0000    11.9860   100.8640   613.7560     2.4540     0.3400     0.0020     6.6140     6.4260     6.0540   597.6760    28.2680
  526.5000    11.9360    99.2170   614.3840     2.4540     0.3430     0.0010     6.7340     6.5090     6.1300   597.3680    28.0870
  527.0000    11.8880    97.4750   615.0120     2.4580     0.3470     0.0010     6.8550     6.5920     6.2070   593.5700    27.7570
  527.5000    11.8630    97.7700   615.6400     2.4540     0.3500     0.0010     6.9750     6.6750     6.3100   589.7730    27.4140
  528.0000    11.8350   100.8210   616.2670     2.4550     0.3450     0.0060     6.9930     6.7360     6.2680   585.9750    26.9760
  528.5000    11.8070   106.1430   616.8950     2.4660     0.3440     0.0140     6.9110     6.6380     6.2030   582.1770    26.9650
  529.0000    11.7810   109.0930   617.5230     2.4770     0.3470     0.0220     6.7890     6.5610     6.1390   578.6800    27.1770
  529.5000    11.7520   109.9630   618.1510     2.4850     0.3500     0.0290     6.6670     6.4830     6.0750   581.0860    27.3890
  530.0000    11.7200   108.3540   618.7790     2.4840     0.3530     0.0310     6.5440     6.4050     6.0100   583.3150    27.5980
  530.5000    11.6870   106.3720   619.2890     2.4810     0.3530     0.0300     6.4220     6.3270     5.9660   585.5440    27.8040
  531.0000    11.6810   104.3660   619.2890     2.4780     0.3510     0.0240     6.3000     6.2490     5.9660   587.7730    27.8580
  531.5000    11.6890   102.3440   619.2890     2.4760     0.3410     0.0190     6.2010     6.1720     5.9660   590.0020    27.4400
  532.0000    11.6980   102.1330   619.2890     2.4770     0.3290     0.0140     6.2600     6.1350     5.9660   592.2310    27.0260
  532.5000    11.7060   102.3020   619.2890     2.4780     0.3170     0.0130     6.3180     6.1600     5.9660   594.4600    26.6050
  533.0000    11.7140   102.4830   619.2890     2.4790     0.3110     0.0130     6.3700     6.1940     5.9660   596.6890    26.7500
  533.5000    11.7230   102.3700   619.2890     2.4840     0.3100     0.0160     6.4230     6.2280     5.9660   598.9190    26.9930
  534.0000    11.7310   101.8580   619.2890     2.4960     0.3180     0.0240     6.4750     6.2620     5.9660   601.1480    27.2290
  534.5000    11.7390   101.3510   619.2890     2.5120     0.3260     0.0300     6.5280     6.2950     5.9660   603.3770    27.5380
  535.0000    11.7480   101.3090   619.2890     2.5120     0.3410     0.0310     6.5800     6.3290     5.9660   605.6060    27.2770
  535.5000    11.7560   102.0250   619.2890     2.5010     0.3540     0.0240     6.6320     6.3690     5.9660   607.8350    26.8970
  536.0000    11.7570   103.4240   619.2890     2.4920     0.3440     0.0170     6.6740     6.3590     5.9660   610.0640    26.5120
  536.5000    11.7350   104.5770   619.2890     2.4850     0.3340     0.0100     6.6320     6.3430     5.9620   612.2930    26.1270
  537.0000    11.7130   105.0850   619.2890     2.4790     0.3370     0.0060     6.5360     6.3270     5.9430   614.5220    25.7430
  537.5000    11.6920   105.6120   619.2890     2.4800     0.3460     0.0080     6.4390     6.3110     5.9240   616.7510    25.5310
  538.0000    11.6850   105.0930   619.2890     2.4890     0.3510     0.0140     6.3420     6.2950     5.9060   618.9800    25.4960
  538.5000    11.7240   104.4310   619.2890     2.5000     0.3450     0.0240     6.1930     6.2790     5.8870   609.4750    25.4600
  539.0000    11.7640   102.9050   619.2890     2.5100     0.3410     0.0330     6.1350     6.2630     5.8690   598.0820    25.4260
  539.5000    11.7820   101.2500   619.2890     2.5100     0.3470     0.0440     6.1920     6.2510     5.8550   586.6890    25.3910
  540.0000    11.7820    99.7880   619.2890     2.5020     0.3540     0.0460     6.3080     6.2970     5.8820   575.2960    25.3560
  540.5000    11.7540    98.5690   619.2890     2.4930     0.3600     0.0440     6.4240     6.3400     5.9030   563.9030    25.3380
  541.0000    11.7030    98.7060   619.2890     2.4910     0.3540     0.0420     6.5500     6.3690     5.9240   565.4150    25.2690
  541.5000    11.6530    98.1310   619.2890     2.4950     0.3460     0.0410     6.5500     6.2860     5.9450   579.0860    25.2000
