~VERSION INFORMATION
 VERS.                2.0:   CWLS LOG ASCII STANDARD - VERSION 2.0
 WRAP.                 NO:   ONE LINE PER DEPTH STEP
~WELL INFORMATION
#MNEM.UNIT      DATA TYPE    INFORMATION
#----------   ------------   ------------------------------
 STRT.F          216.0000:   START DEPTH
 STOP.F         3241.0000:   STOP DEPTH
 STEP.F            0.5000:   STEP LENGTH
 NULL.          -999.2500:   NO VALUE
 COMP.    FENIX & SCISSON:   COMPANY
 WELL.    FENIX "A" #72-4:   WELL
 FLD .             NPR #3:   FIELD
 LOC .       S4 T38N R78W:   LOCATION
 CNTY.            NATRONA:   COUNTY
 STAT.            WYOMING:   STATE
 CTRY. UNITED STATES OF AMERICA:   COUNTRY
 SRVC.              WELEX:   SERVICE COMPANY
 DATE.        09-JUL-1977:   LOGDATE
 API .     49025103900000:   API NUMBER
~CURVE INFORMATION
#MNEM.UNIT       API CODE    CURVE DESCRIPTION
#----------   ------------   ------------------------------
 DEPT.F                  :   
 CORR.G/C3   45 356 01 00:   DENSITY CORRECTION
 GRD .GAPI   45 310 01 00:   GAMMA RAY FROM DENSITY LOG
 RHOB.G/C3   45 350 01 00:   BULK DENSITY
 CALD.IN     45 280 60 00:   CALIPER FROM DENSITY LOG
 SPR .MV     07 010 01 00:   SPONTANEOUS POTENTIAL
 ILD .OHMM   07 120 46 00:   DEEP INDUCTION RESISTIVITY
 ILM .OHMM   07 120 44 00:   INDUCTION LOG MEDIUM RESISTIVITY
 SGRD.OHMM   07 220 05 00:   SHALLOW SHORT GUARD RESISTIVITY
~PARAMETER INFORMATION
#MNEM.UNIT          VALUE    DESCRIPTION
#----------   ------------   ------------------------------
 EKB .F         5192.0000:   Kelly bushing
 EGL .F         5182.0000:   Ground level
 TD  .F         3243.0000:   Total depth
 CLNT.            A2DTECH:   Client Code
 SL  . 990' FNL & 990' FEL:   Surface Location
 PD  .                 GL:   Permanent Datum
 EPD .F              5182:   Elevation Permanent Datum
 LMF .                 KB:   Log Measured From
 DMF .                 KB:   Drilling Measured From
 DAPD.F                10:   Feet Above Permanent Datum
 DATE.        09-JUL-1977:   Date Logged [DD-MMM-YYYY]
 DD  .F              3230:   Depth driller
 DL  .F              3243:   Depth logger
 BLI .F              3241:   Bottom log interval
 TLI .F               224:   Top log interval
 CS1 .IN            8.625:   Casing size
 CBD1.      8.625" @ 221':   Casing driller 1
 CBL1.F               224:   Casing logger 1
 BS1 .IN            7.875:   Bit size
 BSD1.F              3230:   Depth drilled with bit1
 DFT .                KCL:   Type fluid in hole
 DFD .                8.9:   Density
 DFV .                 44:   Viscosity
 DFPH.                7.5:   pH
 DFL .                5.8:   Fluid loss
 MSS .            MUD PIT:   Source of sample
 RMS .OHMM           0.24:   Rm
 MST .F                68:   Rm Meas. temp.
 RMF .OHMM           0.20:   Rmf
 MFST.F                68:   Rmf Meas. temp.
 MFSS.               MEAS:   Source Rmf.
 RMC .OHMM           0.31:   Rmc
 MCST.F                68:   Rmc Meas. temp.
 MCSS.               MEAS:   Source Rmc.
 RMB .OHMM           0.13:   Rm. at BHT
 BHT .F               117:   BHT.
 TCS .HRS               3:   Time Circ. stopped
 MRT .F               117:   Maximum recorded temp.
 LUN .               8766:   Logging unit number
 LUL .             CASPER:   Logging unit location
 ENGI.          T. JOYNER:   Recorded By
 WITN.         HARRINGTON:   Witnessed by
 ORIG.           5" PRINT:   Origin of data
 UWI .     49025103900000:   Unique Well ID
 DICO. A2D TECHNOLOGIES, INC.:   Digitizing Company
~OTHER INFORMATION
~A   DEPT     CORR         GRD        RHOB     CALD        SPR        ILD        ILM       SGRD   
# ...
 1795.5000     0.0295   124.3491     2.5632     9.5767   -72.2093     6.3535     7.2758     9.1846
 1796.0000     0.0288   124.3751     2.5632     9.5623   -72.2112     6.3570     7.2792     9.2529
 1796.5000     0.0273   122.3213     2.5625     9.5481   -72.2112     6.3604     7.2827     9.3218
 1797.0000     0.0274   122.6454     2.5618     9.5487   -72.2111     6.3199     7.2862     9.3262
 1797.5000     0.0252   123.5657     2.5604     9.5344   -72.2112     6.3242     7.2904     9.2020
 1798.0000     0.0185   121.5053     2.5514     9.5200   -72.2112     6.3276     7.2427     9.2064
 1798.5000     0.0133   120.6306     2.5388     9.5206   -72.2109     6.2864     7.2470     9.2109
 1799.0000     0.0096   121.8555     2.5231     9.5063   -72.2111     6.2906     7.2505     9.2252
 1799.5000     0.0067   122.7757     2.5157     9.4919   -72.2148     6.3379     7.3043     9.2838
 1800.0000     0.0045   123.3979     2.5084     9.4926   -72.2129     6.3855     7.3077     9.2239
 1800.5000     0.0029   121.8997     2.5029     9.4634   -72.4293     6.3439     7.4131     9.1645
 1801.0000     0.0046   121.0655     2.4964     9.4042   -72.3914     6.3482     7.4681     9.2359
 1801.5000     0.0066   122.0061     2.4979     9.3748   -72.6078     6.3520     7.5313     9.2474
 1802.0000     0.0099   122.3368     2.5099     9.3337   -72.6059     6.3572     7.6438     9.4513
 1802.5000     0.0130   122.3760     2.5204     9.2756   -72.6096     6.3624     7.7015     9.3935
 1803.0000     0.0108   121.8038     2.5212     9.2769   -72.6099     6.3675     7.4456     9.1419
 1803.5000     0.0086   120.6515     2.5228     9.2782   -72.6096     6.3720     7.2482     8.9005
 1804.0000     0.0071   120.0873     2.5243     9.3094   -72.6096     6.3763     7.1543     8.9077
 1804.5000     0.0087   119.2250     2.5190     9.3256   -72.6096     6.4260     7.2613     9.0395
 1805.0000     0.0088   120.1512     2.5147     9.3419   -72.6096     6.4751     7.3684     9.1732
 1805.5000     0.0111   121.9715     2.5102     9.3432   -72.6096     6.4795     7.4307     9.3178
 1806.0000     0.0134   122.5995     2.5080     9.3445   -72.6096     6.4838     7.4846     9.4486
 1806.5000     0.0134   121.4392     2.5103     9.3159   -72.6096     6.5789     7.5950     9.6552
 1807.0000     0.0135   120.8750     2.5134     9.3176   -72.6096     6.5833     7.6012     9.7303
 1807.5000     0.0135   120.9149     2.5156     9.2890   -72.6096     6.6337     7.7133     9.8059
 1808.0000     0.0136   122.1391     2.5195     9.2903   -72.6096     6.6392     7.8271     9.8822
 1808.5000     0.0136   124.2575     2.5247     9.2767   -72.6096     6.6429     7.8334     9.8902
 1809.0000     0.0122   125.1836     2.5255     9.2631   -72.6096     6.6481     7.8397     9.8983
 1809.5000     0.0106   125.2156     2.5181     9.2644   -72.6096     6.6054     7.8462     9.9081
 1810.0000     0.0093   125.8436     2.5054     9.2358   -72.6096     6.6306     7.8539     9.9852
 1810.5000     0.0108   126.4717     2.5009     9.2372   -72.6096     6.7079     7.8602     9.9932
 1811.0000     0.0124   127.9979     2.4987     9.2235   -72.6096     6.7124     7.8658     9.9301
 1811.5000     0.0139   127.3232     2.5018     9.2252   -72.6096     6.7171     7.8728     9.8714
 1812.0000     0.0140   124.1910     2.5087     9.2414   -72.6096     6.7225     7.8792     9.7431
 1812.5000     0.0133   122.4345     2.5071     9.2129   -72.6096     6.7264     7.8855     9.6835
 1813.0000     0.0111   123.6587     2.4997     9.2142   -72.6096     6.7316     7.8919     9.6243
 1813.5000     0.0088   123.3926     2.4922     9.1853   -72.6096     6.7361     7.6311     9.7011
 1814.0000     0.0067   119.8478     2.4885     9.1869   -72.6096     6.7406     7.4288     9.7766
 1814.5000     0.0060   118.3894     2.4878     9.1584   -72.6096     6.7451     7.3820     9.8526
 1815.0000     0.0083   117.8241     2.4924     9.1597   -72.6096     6.7498     7.7027     9.8605
 1815.5000     0.0099   118.7513     2.4969     9.1312   -72.6092     6.7545     7.9803     9.9372
 1816.0000     0.0122   120.3221     2.5032     9.1328   -72.6064     6.7599     7.8226     9.9452
 1816.5000     0.0130   122.1019     2.5112     9.1339   -72.6036     6.7644     7.7212     9.8844
 1817.0000     0.0138   122.1338     2.5143     9.1201   -72.6008     6.7689     7.7276     9.8944
 1817.5000     0.0161   121.8677     2.5210     9.1065   -72.5981     6.7735     7.7342     9.9023
 1818.0000     0.0184   120.4093     2.5390     9.1081   -72.5953     6.8251     7.6341     9.9103
 1818.5000     0.0192   119.2490     2.5473     9.1094   -72.5925     6.8466     7.5803    10.0570
 1819.0000     0.0215   117.7906     2.5482     9.1108   -72.5898     6.8832     7.5413    10.0651
 1819.5000     0.0223   116.9270     2.5436     9.1121   -72.5870     6.8878     7.6541    10.0732
 1820.0000     0.0223   118.4302     2.5452     9.1137   -72.5842     6.8332     7.6602    10.0813
 1820.5000     0.0239   119.3830     2.5505     9.1150   -72.5814     6.8008     7.7196    10.1694
 1821.0000     0.0254   119.4098     2.5543     9.1163   -72.5787     6.7583     7.7795    10.2387
 1821.5000     0.0278   119.4486     2.5536     9.1176   -72.5759     6.7171     7.7857     9.9664
 1822.0000     0.0300   120.0766     2.5499     9.1189   -72.5731     6.6290     7.6849     9.8369
 1822.5000     0.0316   120.7047     2.5432     9.1202   -72.5703     6.5420     7.5346     9.7091
 1823.0000     0.0324   120.1405     2.5380     9.1215   -72.5676     6.4950     7.3857     9.5850
 1823.5000     0.0316   120.1725     2.5390     9.1228   -72.5648     6.4605     7.3917     9.5927
 1824.0000     0.0317   120.2044     2.5471     9.1242   -72.5620     6.4212     7.3976     9.6005
 1824.5000     0.0295   119.6393     2.5473     9.1106   -72.5593     6.3808     7.5067     9.6101
 1825.0000     0.0277   119.0760     2.5442     9.1118   -72.5565     6.3410     7.6175     9.6178
 1825.5000     0.0258   119.1079     2.5412     9.0984   -72.5537     6.3016     7.6236     9.6926
 1826.0000     0.0244   118.5438     2.5383     9.0998   -72.5509     6.3059     7.6878     9.7005
 1826.5000     0.0215   119.1798     2.5316     9.0862   -72.5482     6.3111     7.6374     9.7759
 1827.0000     0.0171   119.9306     2.5226     9.0835   -72.5454     6.3147     7.3327     9.7838
 1827.5000     0.0134   121.0320     2.5110     9.0739   -72.5426     6.4079     6.8479     9.8599
 1828.0000     0.0082   121.0640     2.5010     9.0752   -72.5398     6.5019     6.6664     9.9368
 1828.5000     0.0052   121.6920     2.4966     9.0616   -72.5371     6.5972     6.6717    10.0158
 1829.0000     0.0038   121.7664     2.4929     9.0480   -72.5343     6.6476     6.6771    10.0937
 1829.5000     0.0038   121.7436     2.4892     9.0496   -72.5315     6.6984     6.7289    10.1722
 1830.0000     0.0031   123.3387     2.4877     9.0357   -72.5288     6.7040     6.6878    10.2513
 1830.5000     0.0047   125.4496     2.4900     9.0220   -72.5260     6.7552     6.6946    10.2596
 1831.0000     0.0077   125.1384     2.4938     9.0237   -72.5232     6.8062     6.7000    10.3394
 1831.5000     0.0108   124.8643     2.5006     9.0250   -72.5204     6.9066     6.8460    10.4199
 1832.0000     0.0131   125.5003     2.5096     9.0263   -72.5177     6.9112     7.0927    10.4303
 1832.5000     0.0139   126.4264     2.5149     9.0276   -72.5149     7.0126     7.3993    10.5846
 1833.0000     0.0147   126.7564     2.5127     8.9991   -72.5121     7.0422     7.6660    10.5932
 1833.5000     0.0140   127.3765     2.5150     9.0004   -72.5094     7.1203     7.7255    10.6017
 1834.0000     0.0133   124.4358     2.5195     8.9867   -72.5066     7.1261     7.7319    10.4640
 1834.5000     0.0119   123.8716     2.5233     8.9884   -72.5038     7.1309     7.7932    10.3280
 1835.0000     0.0104   124.5007     2.5241     8.9975   -72.5010     7.0851     7.8536    10.1939
 1835.5000     0.0112   125.1357     2.5264     9.0059   -72.4983     7.0420     7.9145    10.0615
