~VERSION INFORMATION
 VERS.                2.0:   CWLS LOG ASCII STANDARD - VERSION 2.0
 WRAP.                 NO:   ONE LINE PER DEPTH STEP
~WELL INFORMATION
#MNEM.UNIT      DATA TYPE    INFORMATION
#----------   ------------   ------------------------------
 STRT.F         3288.0000:   START DEPTH
 STOP.F         4421.0000:   STOP DEPTH
 STEP.F            0.5000:   STEP LENGTH
 NULL.          -999.2500:   NO VALUE
 COMP.       FLUOR DANIEL:   COMPANY
 WELL. FLUOR 22 "X" #2-10:   WELL
 FLD . TEA POT DOME NAVAL PETROLEUM DO:   FIELD
 LOC .      S10 T38N R78W:   LOCATION
 CNTY.            NATRONA:   COUNTY
 STAT.            WYOMING:   STATE
 CTRY. UNITED STATES OF AMERICA:   COUNTRY
 SRVC.        HALLIBURTON:   SERVICE COMPANY
 DATE.        13-DEC-1996:   LOGDATE
 API .     49025228330000:   API NUMBER
~CURVE INFORMATION
#MNEM.UNIT       API CODE    CURVE DESCRIPTION
#----------   ------------   ------------------------------
 DEPT.F                  :   
 NPHI.DEC    42 890 03 00:   NEUTRON POROSITY SANDSTONE
 GRD .GAPI   45 310 01 00:   GAMMA RAY FROM DENSITY LOG
 CALD.IN     45 280 60 00:   CALIPER FROM DENSITY LOG
 PE  .B/E    45 358 01 00:   PHOTOELECTRIC FACTOR
 CORR.G/C3   45 356 01 00:   DENSITY CORRECTION
 TEND.LBS    45 635 01 00:   TENSION FORM DENSITY LOG
 RHOB.G/C3   45 350 01 00:   BULK DENSITY
 TENR.LBS    07 635 01 00:   TENSION FROM RESISTIVITY
 ILD .OHMM   07 120 46 00:   DEEP INDUCTION RESISTIVITY
 ILM .OHMM   07 120 44 00:   INDUCTION LOG MEDIUM RESISTIVITY
 SFL .OHMM   07 220 01 00:   SHALLOW FOCUSED LOG RESISTIVITY
~PARAMETER INFORMATION
#MNEM.UNIT          VALUE    DESCRIPTION
#----------   ------------   ------------------------------
 EKB .F         5268.0000:   Kelly bushing
 EGL .F         5258.0000:   Ground level
 EDF .F         5267.0000:   Drilling floor
 TD  .F         4435.0000:   Total depth
 CLNT.            A2DTECH:   Client Code
 SL  . 569' FNL & 1440' FWL:   Surface Location
 PD  .                 GL:   Permanent Datum
 EPD .F              5258:   Elevation Permanent Datum
 LMF .                 KB:   Log Measured From
 DMF .                 KB:   Drilling Measured From
 DAPD.F                10:   Feet Above Permanent Datum
 DATE.        13-DEC-1996:   Date Logged [DD-MMM-YYYY]
 DD  .F              4435:   Depth driller
 DL  .F              4412:   Depth logger
 BLI .F              4403:   Bottom log interval
 TLI .F              3308:   Top log interval
 CS1 .IN            9.625:   Casing size
 CBD1.     9.625" @ 3307':   Casing driller 1
 CBL1.F              3308:   Casing logger 1
 BS1 .IN              8.5:   Bit size
 BSD1.F              4435:   Depth drilled with bit1
 DFT .           POLY-KCL:   Type fluid in hole
 DFD .                  9:   Density
 DFV .                 50:   Viscosity
 DFPH.                  9:   pH
 DFL .                  7:   Fluid loss
 MSS .           MUD TANK:   Source of sample
 RMS .OHMM           0.47:   Rm
 MST .F                56:   Rm Meas. temp.
 RMF .OHMM           0.36:   Rmf
 MFST.F                61:   Rmf Meas. temp.
 MFSS.               MEAS:   Source Rmf.
 RMC .OHMM           0.48:   Rmc
 MCST.F                68:   Rmc Meas. temp.
 MCSS.               MEAS:   Source Rmc.
 RMB .OHMM           0.20:   Rm. at BHT
 BHT .F               138:   BHT.
 TCS .HRS              20:   Time Circ. stopped
 TLAB.HRS            0108:   Time logger at bottom
 MRT .F               138:   Maximum recorded temp.
 LUN .              52546:   Logging unit number
 LUL .              VERNI:   Logging unit location
 ENGI.        JOHN SAVAGE:   Recorded By
 WITN.          STEBBINGS:   Witnessed by
 ORIG.         2.5" PRINT:   Origin of data
 UWI .     49025228330000:   Unique Well ID
 DICO. A2D TECHNOLOGIES, INC.:   Digitizing Company
~OTHER INFORMATION
~A  DEPT        NPHI       GRD      CALD         PE       CORR       TEND       RHOB       TENR        ILD        ILM        SFL   
# ...
 3745.5000     0.2438   158.1840     9.1278     2.5922     0.0375  3009.9070     2.4571  3034.8533     1.9936     2.5082     2.5060
 3746.0000     0.2309   127.8787     9.2203     2.6788     0.0362  2979.4561     2.4688  3035.8823     3.0702     3.6595     3.2293
 3746.5000     0.2181   103.3728     9.2827     2.7719     0.0347  2979.0027     2.4696  3036.9119     4.0754     4.1309     6.4880
 3747.0000     0.2150    98.9571     9.3281     2.7918     0.0332  3008.8110     2.4617  3037.9412     4.2422     4.2449     6.9921
 3747.5000     0.2208    98.4894     9.3277     2.7875     0.0333  3017.3687     2.4502  3038.9707     4.2983     4.2071     6.7115
 3748.0000     0.2291   101.5834     9.3274     2.7625     0.0333  3038.1482     2.4385  3039.9998     4.2857     3.8048     6.1867
 3748.5000     0.2407   106.5501     9.3272     2.7541     0.0333  2993.9167     2.4319  3041.1904     4.1803     3.8403     5.3306
 3749.0000     0.2504   110.5979     9.3269     2.7223     0.0318  2946.5256     2.4289  3012.7544     4.1547     4.0632     4.8207
 3749.5000     0.2555   113.5952     9.2964     2.6904     0.0303  2945.9834     2.4275  3013.7302     4.1209     4.0349     4.5161
 3750.0000     0.2579   113.5952     9.2961     2.6435     0.0288  2975.7578     2.4260  2985.2944     4.1749     4.0092     4.5279
 3750.5000     0.2555   112.3867     9.2958     2.6440     0.0273  3035.7439     2.4245  2956.8579     4.4125     4.0621     4.7066
 3751.0000     0.2495   111.7825     9.2955     2.6445     0.0273  3005.0952     2.4245  2928.4219     4.6009     4.1181     4.9810
 3751.5000     0.2428   110.5740     9.2952     2.6449     0.0289  2883.8123     2.4261  2919.8557     4.6891     4.4052     5.3173
 3752.0000     0.2386   109.3656     9.2949     2.6151     0.0321  2822.9519     2.4263  2871.7649     4.9626     4.7331     5.9217
 3752.5000     0.2356   107.5125     9.2946     2.6156     0.0352  3036.0063     2.4292  2827.2209     5.1788     5.0026     6.2480
 3753.0000     0.2350   106.9486     9.2810     2.6462     0.0395  3093.9810     2.4292  2844.5779     5.3197     5.1087     6.3306
 3753.5000     0.2362   108.1571     9.2637     2.6467     0.0416  3057.8499     2.4292  2933.7888     5.3190     5.0394     6.2431
 3754.0000     0.2354   108.7613     9.2634     2.6486     0.0432  3062.8953     2.4323  3022.9995     5.3183     4.9711     6.2406
 3754.5000     0.2350   108.7613     9.2329     2.6813     0.0456  3092.6694     2.4323  3053.3872     5.3177     4.9037     6.1544
 3755.0000     0.2366   107.9153     9.2326     2.7085     0.0456  3080.0667     2.4323  3054.4119     5.3170     4.9030     6.1134
 3755.5000     0.2385   106.3769     9.2021     2.7089     0.0456  3016.9729     2.4339  3025.9270     5.3985     4.9024     5.9047
 3756.0000     0.2389   103.2670     9.1716     2.7094     0.0441  3000.6042     2.4385  3017.6592     5.4789     5.0360     5.9025
 3756.5000     0.2367   101.5106     9.2015     2.6795     0.0411  2969.8564     2.4431  2998.6765     5.6625     5.1173     6.1550
 3757.0000     0.2326   100.3021     9.2020     2.6498     0.0396  2969.4192     2.4445  2970.2939     5.7976     5.4169     6.2372
 3757.5000     0.2295   100.1613     9.2311     2.6503     0.0366  2976.0732     2.4408  2942.0823     6.0449     5.7090     6.5816
 3758.0000     0.2314   102.1148     9.2308     2.6508     0.0382  2938.3337     2.4326  2943.0581     6.1634     5.7281     6.9451
 3758.5000     0.2411   105.7402     9.2305     2.6815     0.0413  2937.8965     2.4280  2973.4458     6.0799     5.4917     6.6493
 3759.0000     0.2435   108.1571     9.2205     2.7121     0.0430  2967.6736     2.4302  3003.8335     5.8378     5.1696     6.3475
 3759.5000     0.2417   106.9126     9.1997     2.7428     0.0457  2997.4451     2.4334  3004.8530     5.8370     5.0996     6.1452
 3760.0000     0.2311   101.7112     9.1692     2.7734     0.0437  2966.7671     2.4357  3000.0059     5.8362     5.1683     6.2722
 3760.5000     0.2265    97.0314     9.1689     2.7739     0.0415  2966.3140     2.4327  2968.3826     5.9424     5.3812     6.5707
 3761.0000     0.2279    95.2989     9.1685     2.7743     0.0390  2935.6497     2.4282  2948.9126     6.2281     5.5409     6.6583
 3761.5000     0.2284    95.8951     9.1682     2.7748     0.0367  2945.8792     2.4221  2950.1470     6.5328     5.8024     7.2184
 3762.0000     0.2278    97.7964     9.1982     2.7752     0.0337  2964.9548     2.4176  2921.7649     6.7201     6.1253     7.7207
 3762.5000     0.2289   100.9063     9.1979     2.7392     0.0337  2964.5015     2.4116  2922.9163     6.7664     6.3247     7.8237
 3763.0000     0.2329   103.7583     9.1976     2.7073     0.0322  2964.0481     2.4086  2923.8921     6.2340     6.1513     7.8012
 3763.5000     0.2435   105.7402     9.2275     2.6557     0.0307  2963.5178     2.4038  2954.2791     5.6386     5.5240     7.4482
 3764.0000     0.2471   106.9486     9.2272     2.6437     0.0307  2963.0808     2.3996  2955.2942     5.1627     5.0250     6.3666
 3764.5000     0.2435   106.3444     9.2269     2.6264     0.0307  2962.6436     2.4031  2961.9023     5.1620     4.9570     5.5758
 3765.0000     0.2350   105.7402     9.1964     2.6435     0.0308  2992.4182     2.4067  2986.7646     5.1613     5.0921     5.6498
 3765.5000     0.2272   100.9063     9.1961     2.6576     0.0308  3022.1924     2.4130  2987.7939     5.2690     5.2473     5.8819
 3766.0000     0.2199    98.4809     9.1958     2.6883     0.0327  3021.3542     2.4193  2973.5269     5.6714     5.7152     6.3768
 3766.5000     0.2175    97.8852     9.1955     2.7189     0.0358  2988.4604     2.4256  2960.4409     6.4035     6.3095     7.9128
 3767.0000     0.2163    97.8852     9.2101     2.7194     0.0411  2955.5916     2.4315  2932.1855     7.2302     7.0997     8.5870
 3767.5000     0.2151    98.0260     9.2251     2.7802     0.0474  2929.8093     2.4346  2933.1614     7.7343     7.1792     8.8335
 3768.0000     0.2174    98.6747     9.2549     2.7807     0.0537  2968.7820     2.4361  2934.1372     7.9450     6.9411     9.0500
 3768.5000     0.2245    99.9275     9.2849     2.8122     0.0581  2989.3582     2.4392  2964.5588     7.8046     6.7553     8.6410
 3769.0000     0.2282   100.8501     9.2846     2.8420     0.0582  2988.8218     2.4394  2965.5879     7.4730     6.4862     8.5101
 3769.5000     0.2303   102.7508     9.2843     2.8072     0.0585  2942.2561     2.4347  2966.6177     7.0595     6.3126     7.6891
 3770.0000     0.2350   105.1359     9.2840     2.7754     0.0552  2927.4050     2.4271  2967.6467     6.5469     6.0611     7.2829
 3770.5000     0.2378   105.7402     9.2535     2.7527     0.0476  2987.3909     2.4242  2983.6855     6.0957     5.9790     6.8056
 3771.0000     0.2357   105.1359     9.2532     2.7834     0.0400  2986.9539     2.4242  3058.1265     6.0594     5.9782     6.4461
 3771.5000     0.2308   102.7190     9.2529     2.7838     0.0292  3046.9397     2.4277  3066.9148     6.1410     6.0096     6.6324
 3772.0000     0.2266    99.6979     9.2224     2.8145     0.0217  3046.5022     2.4318  3030.5881     6.7490     6.3101     6.9421
 3772.5000     0.2272    96.0725     9.2221     2.8150     0.0204  3015.8538     2.4406  2972.8186     7.1227     7.0270     7.9176
 3773.0000     0.2290    96.0969     9.2218     2.8155     0.0219  3015.4080     2.4440  2975.6089     7.3167     7.0205     7.9927
 3773.5000     0.2309    97.3495     9.1912     2.7857     0.0240  3014.9548     2.4432  3033.6765     7.1992     6.8380     7.9901
 3774.0000     0.2321    99.3189     9.1909     2.7559     0.0271  3014.5015     2.4425  3064.1177     7.0642     6.6718     7.9876
 3774.5000     0.2339   101.6673     9.1906     2.7261     0.0318  3014.0483     2.4396  3094.5588     6.7998     6.1870     7.6685
 3775.0000     0.2339   102.7190     9.1903     2.6662     0.0341  3013.5952     2.4366  3095.5884     6.6085     6.0530     7.3621
 3775.5000     0.2339   103.3233     9.1900     2.6666     0.0341  3013.1418     2.4336  3037.9846     6.3879     5.7337     7.0680
