~VERSION INFORMATION
 VERS.                2.0:   CWLS LOG ASCII STANDARD - VERSION 2.0
 WRAP.                 NO:   ONE LINE PER DEPTH STEP
~WELL INFORMATION
#MNEM.UNIT      DATA TYPE    INFORMATION
#----------   ------------   ------------------------------
 STRT.F          620.0000:   START DEPTH
 STOP.F         3209.0000:   STOP DEPTH
 STEP.F            0.5000:   STEP LENGTH
 NULL.          -999.2500:   NO VALUE
 COMP. FENIX & SCISSON - US NAVY:   COMPANY
 WELL.   FENIX "A" #23-33:   WELL
 FLD .             NPR #3:   FIELD
 LOC .      S33 T39N R78W:   LOCATION
 CNTY.            NATRONA:   COUNTY
 STAT.            WYOMING:   STATE
 CTRY. UNITED STATES OF AMERICA:   COUNTRY
 SRVC.              WELEX:   SERVICE COMPANY
 DATE.        26-MAR-1977:   LOGDATE
 API .     49025103250000:   API NUMBER
~CURVE INFORMATION
#MNEM.UNIT       API CODE    CURVE DESCRIPTION
#----------   ------------   ------------------------------
 DEPT.F                  :   
 GRD .GAPI   45 310 01 00:   GAMMA RAY FROM DENSITY LOG
 CALD.IN     45 280 60 00:   CALIPER FROM DENSITY LOG
 CORR.G/C3   45 356 01 00:   DENSITY CORRECTION
 RHOB.G/C3   45 350 01 00:   BULK DENSITY
 SPR .MV     07 010 01 00:   SPONTANEOUS POTENTIAL
 ILD .OHMM   07 120 46 00:   DEEP INDUCTION RESISTIVITY
 ILM .OHMM   07 120 44 00:   INDUCTION LOG MEDIUM RESISTIVITY
 SGRD.OHMM   07 220 05 00:   SHALLOW SHORT GUARD RESISTIVITY
~PARAMETER INFORMATION
#MNEM.UNIT          VALUE    DESCRIPTION
#----------   ------------   ------------------------------
 EKB .F         5183.0000:   Kelly bushing
 EGL .F         5172.0000:   Ground level
 TD  .F         3213.0000:   Total depth
 CLNT.            A2DTECH:   Client Code
 SL  . 900' FWL & 1650' FNL:   Surface Location
 PD  .                 GL:   Permanent Datum
 EPD .F              5172:   Elevation Permanent Datum
 LMF .                 KB:   Log Measured From
 DMF .                 KB:   Drilling Measured From
 DAPD.F                11:   Feet Above Permanent Datum
 DATE.        26-MAR-1977:   Date Logged [DD-MMM-YYYY]
 DD  .F              3210:   Depth driller
 DL  .F              3213:   Depth logger
 BLI .F              3211:   Bottom log interval
 TLI .F               625:   Top log interval
 CS1 .IN            8.625:   Casing size
 CBD1.      8.625" @ 633':   Casing driller 1
 CBL1.F               635:   Casing logger 1
 BS1 .IN            7.875:   Bit size
 BSD1.F              3210:   Depth drilled with bit1
 DFT .            KCL MUD:   Type fluid in hole
 DFD .                9.5:   Density
 DFV .                 34:   Viscosity
 DFPH.                8.5:   pH
 DFL .                 14:   Fluid loss
 MSS .           FLOWLINE:   Source of sample
 RMS .OHMM           0.34:   Rm
 MST .F                86:   Rm Meas. temp.
 RMF .OHMM           0.25:   Rmf
 MFST.F                86:   Rmf Meas. temp.
 MFSS.            FANN KL:   Source Rmf.
 RMC .OHMM           0.55:   Rmc
 MCST.F                86:   Rmc Meas. temp.
 MCSS.            FANN KL:   Source Rmc.
 RMB .OHMM           0.31:   Rm. at BHT
 BHT .F                92:   BHT.
 TCS .HRS             2.5:   Time Circ. stopped
 MRT .F                92:   Maximum recorded temp.
 LUN .               8611:   Logging unit number
 LUL .             CASPER:   Logging unit location
 ENGI.            C. DOAK:   Recorded By
 WITN.            K. JAPP:   Witnessed by
 ORIG.           5" PRINT:   Origin of data
 UWI .     49025103250000:   Unique Well ID
 DICO. A2D TECHNOLOGIES, INC.:   Digitizing Company
~OTHER INFORMATION
~A   DEPT       GRD        CALD      CORR        RHOB      SPR        ILD        ILM       SGRD   
  620.0000    55.3511     8.1189    -0.3819     1.9895  -999.2500  -999.2500  -999.2500  -999.2500
  620.5000    55.8217     8.1199    -0.3818     1.9791  -999.2500  -999.2500  -999.2500  -999.2500
  621.0000    56.4107     8.0912    -0.3832     1.9701  -999.2500  -999.2500  -999.2500  -999.2500
  621.5000    56.8696     8.0626    -0.3815     1.9664  -999.2500  -999.2500  -999.2500  -999.2500
  622.0000    57.3286     8.0339    -0.3784     1.9673  -999.2500  -999.2500  -999.2500  -999.2500
  622.5000    57.6391     8.0199    -0.3752     1.9613  -999.2500  -999.2500  -999.2500  -999.2500
  623.0000    57.8013     8.0060    -0.3736     1.9569  -999.2500  -999.2500  -999.2500  -999.2500
  623.5000    57.8152     8.0073    -0.3705     1.9525  -999.2500  -999.2500  -999.2500  -999.2500
  624.0000    57.8290     8.0083    -0.3658     1.9465  -999.2500  -999.2500  -999.2500  -999.2500
  624.5000    57.8428     8.0093    -0.3627     1.9420  -999.2500  -999.2500  -999.2500  -999.2500
  625.0000    57.5593     8.0252    -0.3535     1.9467  -999.2500  -999.2500  -999.2500  -999.2500
  625.5000    57.4251     8.0114    -0.3444     1.9543  -999.2500  -999.2500  -999.2500  -999.2500
  626.0000    56.8457     8.0127    -0.3290     1.9656  -999.2500  -999.2500  -999.2500  -999.2500
  626.5000    56.1177     7.9988    -0.3071     1.9815  -999.2500  -999.2500  -999.2500  -999.2500
  627.0000    56.8946     7.9848    -0.2747     2.0004  -999.2500  -999.2500  -999.2500  -999.2500
  627.5000    58.3744     7.9709    -0.2369     2.0282  -999.2500  -999.2500  -999.2500  -999.2500
  628.0000    59.4268     7.9571    -0.1690     2.0509  -999.2500  -999.2500  -999.2500  -999.2500
  628.5000    60.9243     7.9433    -0.1312     2.1192  -999.2500  -999.2500  -999.2500  -999.2500
  629.0000    62.1251     7.9001    -0.0498     2.1708  -999.2500  -999.2500  -999.2500  -999.2500
  629.5000    64.2160     7.7527     0.0603     2.2109  -999.2500  -999.2500  -999.2500  -999.2500
  630.0000    68.2358     7.6054     0.0980     2.2320  -999.2500  -999.2500  -999.2500  -999.2500
  630.5000    70.6235     8.0218     0.0846     2.1487  -999.2500  1975.2905  -999.2500  -999.2500
  631.0000    71.2308     8.5664     0.0787     2.1608  -999.2500  1294.3699  1961.6947     0.2713
  631.5000    71.0957     9.1263     0.0788     2.1774  -999.2500   553.3065  1607.7942     1.0569
  632.0000    70.8131     9.5978     0.0820     2.2090  -999.2500     1.2415   617.5021     3.4239
  632.5000    70.0854     9.9846     0.0854     2.2384  -999.2500     0.5987    35.1863     4.8023
  633.0000    69.3397    10.1637     0.0913     2.2632  -999.2500     0.4396     6.5552     5.7547
  633.5000    68.7376    10.2834     0.0959     2.2873  -999.2500     0.3555     3.6604     5.9992
  634.0000    68.1981    10.2399     0.1006     2.3137  -999.2500     0.2834     5.6106     6.7973
  634.5000    67.9152    10.1667     0.1022     2.3191  -999.2500     0.3614     6.2606     7.7548
  635.0000    68.3776    10.1378     0.1024     2.3311   -30.2756     0.4801     5.4149     8.3732
  635.5000    70.4685    10.1539     0.1010     2.3522   -30.6165     0.7372     5.2780     8.6155
  636.0000    72.4077    10.2885     0.0996     2.3868   -30.7530     1.2552     4.2076     8.6837
  636.5000    70.9413    10.5862     0.0952     2.4019   -31.0295     3.5842     4.5106     8.3908
  637.0000    69.7682    10.9459     0.0833     2.3846   -32.0459     5.1012     5.2522     7.4802
  637.5000    69.1851    11.1094     0.0503     2.3870   -33.3570     5.6258     5.5919     6.4799
  638.0000    69.2024    11.1533     0.0655     2.4817   -33.7850     5.9119     5.7151     6.8367
  638.5000    70.1064    11.1543     0.0686     2.4795   -33.4753     6.0855     5.7965     8.2057
  639.0000    71.0105    11.1554     0.0687     2.4743   -33.1663     6.3074     6.0869     8.6789
  639.5000    70.8677    11.1564     0.0749     2.4714   -33.7410     6.4926     7.5410     9.0539
  640.0000    70.4446    11.1722     0.0750     2.4685   -33.7261     6.6832     8.3675     9.2521
  640.5000    69.8685    11.1881     0.0721     2.4595   -33.1194     6.8827     9.1575     9.4545
  641.0000    69.5821    11.1891     0.0692     2.4521   -32.6631     6.9859     9.6163     9.5952
  641.5000    69.0059    11.2198     0.0694     2.4507   -32.6487     7.0438     9.6894     9.8776
  642.0000    68.7196    11.2208     0.0695     2.4575   -32.7851     7.1021    10.0371    10.0915
  642.5000    68.5850    11.2515     0.0666     2.4591   -31.8834     7.1118    10.4676    10.2416
  643.0000    68.4505    11.2674     0.0607     2.4477   -29.9543     7.1707    10.7672    10.3940
  643.5000    68.4678    11.2832     0.0548     2.4427   -27.1417     7.2301     9.5178    10.1917
  644.0000    68.4816    11.2845     0.0504     2.4420   -28.3054     7.2900     7.5875    10.0599
  644.5000    68.4954    11.2707     0.0490     2.4496   -34.6238     7.2999     7.1846     9.8666
  645.0000    68.8060    11.2420     0.0507     2.4512   -36.0821     7.2596     6.9869     9.7414
  645.5000    68.8198    11.1688     0.0493     2.4490   -35.7731     7.1175     6.8562     9.6843
  646.0000    69.2789    11.0806     0.0464     2.4483   -34.7119     6.9363     6.9567     9.5614
  646.5000    69.6090    11.1709     0.0443     2.4514   -34.7133     7.1918     7.2551     9.5734
  647.0000    70.3484    11.2164     0.0444     2.4485   -35.1370     7.5057     8.6859     9.6483
  647.5000    70.9557    11.1729     0.0430     2.4388   -36.3008     7.7794    10.6864     9.8595
  648.0000    71.8598    11.0849     0.0356     2.4306   -39.6737     8.0078    12.5288    10.2953
  648.5000    73.0605    10.8930     0.0297     2.4397   -42.3102     8.2429    13.4312    10.8068
  649.0000    73.9646    10.5670     0.0328     2.4519   -42.4466     8.4848    13.6298    11.1964
  649.5000    74.2752     9.9232     0.0390     2.4556   -42.4286     8.6739    11.9647    11.4414
  650.0000    74.4374     9.7833     0.0421     2.4557   -43.1505     8.9285     9.8046    11.5320
  650.5000    74.5995     9.7695     0.0467     2.4550   -42.2524     9.1906     9.0881    11.3076
  651.0000    74.9101     9.7560     0.0513     2.4514   -40.9125     9.2636     9.0257    11.0114
  651.5000    74.9240     9.7570     0.0559     2.4372   -39.7198     9.0734     8.9637    10.5670
  652.0000    75.2345     9.7580     0.0605     2.4207   -36.1707     8.9558     8.6918     9.9723
  652.5000    75.2485     9.7442     0.0651     2.3983   -36.8998     8.5993     8.3292     9.5742
  653.0000    75.2814     9.7301     0.0697     2.3713   -37.6328     7.8139     7.5368     9.1921
  653.5000    75.4278     9.7014     0.0743     2.3504   -37.4493     7.0030     7.2370     8.7046
  654.0000    75.2898     9.6433     0.0789     2.3279   -36.8457     6.2332     6.6224     8.2400
  654.5000    74.4169     9.5702     0.0820     2.2950   -36.9821     5.5480     5.5036     7.7879
  655.0000    73.5405     9.4822     0.0819     2.2440   -36.9641     4.8370     4.9674     7.3422
  655.5000    72.5158     9.5168     0.0762     2.1935   -36.6551     3.8557     4.5456     6.8268
  656.0000    71.4910     9.7495     0.0643     2.1038   -36.0515     3.0947     3.6752     5.7232
  656.5000    70.9114    10.0641     0.0509     2.0708   -35.4480     2.6930     3.2050     4.6067
  657.0000    71.8154    10.3025     0.0300     2.0513   -34.6971     2.3183     2.8532     3.8280
  657.5000    72.7195    10.5261     0.0046     2.1265   -34.0936     2.2901     2.4198     3.0106
  658.0000    73.4751    10.7200    -0.0043     2.2617   -33.3428     2.5419     3.0861     2.2873
  658.5000    74.5275    10.8246     0.0213     2.4683   -33.0295     2.7254     6.0519     4.7782
  659.0000    75.4387    10.3808     0.0289     2.4946   -33.7624     3.0877     9.1501     6.2089
  659.5000    76.0393    10.0109     0.0275     2.4939   -34.3481     3.5961     9.9424     7.9578
  660.0000    76.3529     9.6262     0.0261     2.4925   -34.9050     4.3350     5.2848     8.2976
