~VERSION INFORMATION
 VERS.                2.0:   CWLS LOG ASCII STANDARD - VERSION 2.0
 WRAP.                 NO:   ONE LINE PER DEPTH STEP
~WELL INFORMATION
#MNEM.UNIT      DATA TYPE    INFORMATION
#----------   ------------   ------------------------------
 STRT.F           14.0000:   START DEPTH
 STOP.F         3030.0000:   STOP DEPTH
 STEP.F            0.5000:   STEP LENGTH
 NULL.          -999.2500:   NO VALUE
 COMP. LAWRENCE ALLISON & ASSOC. WEST:   COMPANY
 WELL. LAWRENCE "X" #37-28:   WELL
 FLD .          N.P.R. #3:   FIELD
 LOC .      S28 T39N R78W:   LOCATION
 CNTY.            NATRONA:   COUNTY
 STAT.            WYOMING:   STATE
 CTRY. UNITED STATES OF AMERICA:   COUNTRY
 SRVC.      DRESSER ATLAS:   SERVICE COMPANY
 DATE.        22-SEP-1986:   LOGDATE
 API .     49025111090000:   API NUMBER
~CURVE INFORMATION
#MNEM.UNIT       API CODE    CURVE DESCRIPTION
#----------   ------------   ------------------------------
 DEPT.F                  :   
 GRR .GAPI   07 310 01 00:   GAMMA RAY FROM RESISTIVITY
 SPR .MV     07 010 01 00:   SPONTANEOUS POTENTIAL
 TENR.LBS    07 635 01 00:   TENSION FROM RESISTIVITY
 RILD.OHMM   07 120 46 00:   DEEP INDUCTION RESISTIVITY
 RILM.OHMM   07 120 44 00:   INDUCTION LOG MEDIUM RESISTIVITY
 RFOC.OHMM   07 220 04 00:   RESISTIVITY FOCUSED LOG RES.
 CNC .DEC    42 890 03 00:   NEUTRON PORISITY SANDSTONE
 RHOB.G/C3   45 350 01 00:   BULK DENSITY
 CORR.G/C3   45 356 01 00:   DENSITY CORRECTION
 TEND.LBS    45 635 01 00:   TENSION FROM DENSITY LOG
 CALD.IN     45 280 60 00:   CALIPER FROM DENSITY LOG
~PARAMETER INFORMATION
#MNEM.UNIT          VALUE    DESCRIPTION
#----------   ------------   ------------------------------
 EKB .F         5124.0000:   Kelly bushing
 EGL .F         5113.0000:   Ground level
 EDF .F         5123.0000:   Drilling floor
 TD  .F         3026.0000:   Total depth
 DATE.        22-SEP-1986:   Date logged
 CLNT.            A2DTECH:   Client Code
 SL  . 1097' FSL & 1722' FWL:   Surface Location
 PD  .                 GL:   Permanent Datum
 EPD .F              5113:   Elevation Permanent Datum
 LMF .                 KB:   Log Measured From
 DMF .                 KB:   Drilling Measured From
 DAPD.F                11:   Feet Above Permanent Datum
 DD  .F              3026:   Depth driller
 DL  .F              3023:   Depth logger
 BLI .F              3020:   Bottom log interval
 CS1 .IN            8.625:   Casing size
 CBD1.      8.625" @ 517':   Casing driller 1
 CBL1.F               518:   Casing logger 1
 BS1 .IN            7.875:   Bit size
 BSD1.F              3026:   Depth drilled with bit1
 DFT .            KCL-GEL:   Type fluid in hole
 DFD .                8.6:   Density
 DFV .                 41:   Viscosity
 DFPH.                9.5:   pH
 DFL .                6.8:   Fluid loss
 MSS .           FLOWLINE:   Source of sample
 RMS .OHMM           0.37:   Rm
 MST .F                58:   Rm Meas. temp.
 RMF .OHMM           0.33:   Rmf
 MFST.F                63:   Rmf Meas. temp.
 RMC .OHMM           0.59:   Rmc
 MCST.F                58:   Rmc Meas. temp.
 MFSS.               MEAS:   Source Rmf.
 MCSS.               CALC:   Source Rmc.
 RMB .OHMM           0.16:   Rm. at BHT
 BHT .F               131:   BHT.
 TCS .HRS               3:   Time Circ. stopped
 MRT .F               131:   Maximum recorded temp.
 LUN .            HL 6426:   Logging unit number
 LUL .                 RS:   Logging unit location
 ENGI.               RALL:   Recorded By
 WITN.             STRONG:   Witnessed by
 ORIG.           5" PRINT:   Origin of data
 UWI .     49025111090000:   Unique Well ID
 DICO. A2D TECHNOLOGIES, INC.:   Digitizing Company
~OTHER INFORMATION
~A   DEPT      GRR        SPR       TENR       RILD       RILM       RFOC        CNC       RHOB       CORR       TEND       CALD   
# ...
  868.0000    87.6900     1.8410   -51.3370     9.0220     8.7760     8.8510  -999.2500  -999.2500  -999.2500  -999.2500  -999.2500
  868.5000    86.8430     1.9840   -50.4870     9.0580     8.8560     8.9010  -999.2500  -999.2500  -999.2500  -999.2500  -999.2500
  869.0000    93.4570     2.1250   -49.6380     9.0930     8.8260     8.9390  -999.2500  -999.2500  -999.2500  -999.2500  -999.2500
  869.5000    99.2790     2.2630   -48.7890     9.0990     8.7950     8.9050  -999.2500  -999.2500  -999.2500  -999.2500  -999.2500
  870.0000    97.3730     2.4090   -47.9400     9.0880     8.7650     8.8770  -999.2500  -999.2500  -999.2500  -999.2500  -999.2500
  870.5000    94.8200     2.5180   -47.0900     9.0760     8.7350     8.8490  -999.2500  -999.2500  -999.2500  -999.2500  -999.2500
  871.0000    94.6630     2.5920   -46.2410     9.0650     8.7040     8.8220  -999.2500  -999.2500  -999.2500  -999.2500  -999.2500
  871.5000    94.8670     2.6150   -45.3920     9.0540     8.6740     8.7940  -999.2500  -999.2500  -999.2500  -999.2500  -999.2500
  872.0000    93.7980     2.6940   -44.5430     9.0430     8.6440     8.7720  -999.2500  -999.2500  -999.2500  -999.2500  -999.2500
  872.5000    89.7200     2.7130   -43.9700     9.0320     8.6130     8.7620  -999.2500  -999.2500  -999.2500  -999.2500  -999.2500
  873.0000    86.5200     2.4510   -46.9960     9.0220     8.5830     8.7530  -999.2500  -999.2500  -999.2500  -999.2500  -999.2500
  873.5000    87.9450     2.1590   -49.6770     8.9020     8.5530     8.7430  -999.2500  -999.2500  -999.2500  -999.2500  -999.2500
  874.0000    90.6120     1.8780   -52.3590     8.8780     8.5230     8.7340  -999.2500  -999.2500  -999.2500  -999.2500  -999.2500
  874.5000    91.1680     1.6120   -55.0410     8.9160     8.4920     8.7240  -999.2500  -999.2500  -999.2500  -999.2500  -999.2500
  875.0000    90.4700     1.6350   -57.7230     8.9540     8.4560     8.7150  -999.2500  -999.2500  -999.2500  -999.2500  -999.2500
  875.5000    89.8580     1.8530   -60.4050     8.9920     8.5100     8.7050  -999.2500  -999.2500  -999.2500  -999.2500  -999.2500
  876.0000    89.6750     2.0240   -63.0860     9.0220     8.5770     8.6940  -999.2500  -999.2500  -999.2500  -999.2500  -999.2500
  876.5000    89.8180     1.9850   -65.2650     8.9700     8.6440     8.7100  -999.2500  -999.2500  -999.2500  -999.2500  -999.2500
  877.0000    91.5960     1.7320   -67.1520     8.9280     8.6940     8.7300  -999.2500  -999.2500  -999.2500  -999.2500  -999.2500
  877.5000    95.6890     1.4570   -69.0400     8.8860     8.6160     8.7490  -999.2500  -999.2500  -999.2500  -999.2500  -999.2500
  878.0000   100.1250     1.2330   -70.9270     8.8440     8.5540     8.7690  -999.2500  -999.2500  -999.2500  -999.2500  -999.2500
  878.5000   104.4760     0.9350   -72.8140     8.8010     8.4910     8.7340  -999.2500  -999.2500  -999.2500  -999.2500  -999.2500
  879.0000   106.7940     0.7290   -74.1210     8.7590     8.4290     8.6740  -999.2500  -999.2500  -999.2500  -999.2500  -999.2500
  879.5000   105.2500     0.8690   -69.8770     8.7170     8.3670     8.6140  -999.2500  -999.2500  -999.2500  -999.2500  -999.2500
  880.0000   103.0300     1.0750   -66.0550     8.6750     8.3010     8.5540  -999.2500  -999.2500  -999.2500  -999.2500  -999.2500
  880.5000   101.2710     1.2280   -62.2340     8.6320     8.3010     8.4940  -999.2500  -999.2500  -999.2500  -999.2500  -999.2500
  881.0000    99.7430     1.4160   -58.4120     8.6140     8.3010     8.4340  -999.2500  -999.2500  -999.2500  -999.2500  -999.2500
  881.5000    99.2080     1.5810   -54.5900     8.6140     8.3010     8.3740  -999.2500  -999.2500  -999.2500  -999.2500  -999.2500
  882.0000    98.7590     1.7660   -50.7690     8.6140     8.3010     8.3140  -999.2500  -999.2500  -999.2500  -999.2500  -999.2500
  882.5000    98.0310     1.9230   -46.9470     8.4560     8.1700     8.2540  -999.2500  -999.2500  -999.2500  -999.2500  -999.2500
  883.0000    97.8800     2.1240   -43.9700     8.2240     8.0610     8.1940  -999.2500  -999.2500  -999.2500  -999.2500  -999.2500
  883.5000    98.8530     2.3040   -46.0150     8.2620     7.9990     8.1490  -999.2500  -999.2500  -999.2500  -999.2500  -999.2500
  884.0000    99.8640     2.2190   -48.0140     8.3070     8.0650     8.1850  -999.2500  -999.2500  -999.2500  -999.2500  -999.2500
  884.5000   100.5380     2.0280   -50.0120     8.3520     8.1280     8.2150  -999.2500  -999.2500  -999.2500  -999.2500  -999.2500
  885.0000    99.5280     1.8910   -52.0100     8.3970     8.1920     8.2450  -999.2500  -999.2500  -999.2500  -999.2500  -999.2500
  885.5000    96.3290     1.7310   -54.0080     8.4560     8.1750     8.2740  -999.2500  -999.2500  -999.2500  -999.2500  -999.2500
  886.0000    96.5320     1.5530   -56.0070     8.3790     8.0740     8.3010  -999.2500  -999.2500  -999.2500  -999.2500  -999.2500
  886.5000   100.7670     1.4350   -58.0050     8.2690     7.9730     8.1950  -999.2500  -999.2500  -999.2500  -999.2500  -999.2500
  887.0000   105.2250     1.2250   -60.0030     8.1580     7.8820     8.0990  -999.2500  -999.2500  -999.2500  -999.2500  -999.2500
  887.5000   109.2150     1.1390   -62.0010     8.0480     7.8010     7.9990  -999.2500  -999.2500  -999.2500  -999.2500  -999.2500
  888.0000   111.0220     1.4830   -64.0700     7.9700     7.7200     7.9240  -999.2500  -999.2500  -999.2500  -999.2500  -999.2500
  888.5000   109.9740     1.5730   -64.0700     7.9160     7.6370     7.8440  -999.2500  -999.2500  -999.2500  -999.2500  -999.2500
  889.0000   105.3560     1.2360   -64.0700     7.8520     7.6570     7.7800  -999.2500  -999.2500  -999.2500  -999.2500  -999.2500
  889.5000    97.2670     0.9440   -64.0700     7.9230     7.6770     7.8040  -999.2500  -999.2500  -999.2500  -999.2500  -999.2500
  890.0000    91.9780     0.6120   -64.0700     8.0110     7.6970     7.8250  -999.2500  -999.2500  -999.2500  -999.2500  -999.2500
  890.5000    93.8140     0.3130   -64.0700     8.0990     7.6730     7.8450  -999.2500  -999.2500  -999.2500  -999.2500  -999.2500
  891.0000    99.5080     0.0870   -64.0700     8.1490     7.5890     7.8790  -999.2500  -999.2500  -999.2500  -999.2500  -999.2500
  891.5000   104.5110    -0.0860   -64.0700     8.1490     7.5050     7.9250  -999.2500  -999.2500  -999.2500  -999.2500  -999.2500
  892.0000   107.0640    -0.0220   -64.0700     8.0530     7.4280     7.8600  -999.2500  -999.2500  -999.2500  -999.2500  -999.2500
  892.5000   107.9660     0.0950   -64.0700     7.9090     7.4380     7.7630  -999.2500  -999.2500  -999.2500  -999.2500  -999.2500
  893.0000   108.6200     0.1650   -64.0700     7.7800     7.4470     7.6370  -999.2500  -999.2500  -999.2500  -999.2500  -999.2500
  893.5000   107.5350     0.2690   -64.0700     7.8050     7.4560     7.6370  -999.2500  -999.2500  -999.2500  -999.2500  -999.2500
  894.0000   103.2980     0.3530   -64.0700     7.8280     7.4660     7.6370  -999.2500  -999.2500  -999.2500  -999.2500  -999.2500
  894.5000    99.5200     0.4450   -64.0700     7.8520     7.4750     7.6370  -999.2500  -999.2500  -999.2500  -999.2500  -999.2500
  895.0000   100.0730     0.4940   -64.0700     7.7800     7.4840     7.6370  -999.2500  -999.2500  -999.2500  -999.2500  -999.2500
  895.5000   103.0880     0.4590   -64.0700     7.8520     7.4930     7.6370  -999.2500  -999.2500  -999.2500  -999.2500  -999.2500
  896.0000   106.1720     0.4260   -64.0700     7.9650     7.5890     7.6370  -999.2500  -999.2500  -999.2500  -999.2500  -999.2500
  896.5000   105.4810     0.3910   -64.0700     8.1100     7.7480     8.0210  -999.2500  -999.2500  -999.2500  -999.2500  -999.2500
  897.0000   101.4290     0.3550   -64.0700     8.2240     7.9070     8.3460  -999.2500  -999.2500  -999.2500  -999.2500  -999.2500
  897.5000   102.7150     0.3260   -64.0700     8.5540     8.0730     8.6720  -999.2500  -999.2500  -999.2500  -999.2500  -999.2500
  898.0000   108.3960     0.2970   -64.0700     8.8270     8.4820     8.9980  -999.2500  -999.2500  -999.2500  -999.2500  -999.2500
