~VERSION INFORMATION
 VERS.                2.0:   CWLS LOG ASCII STANDARD - VERSION 2.0
 WRAP.                 NO:   ONE LINE PER DEPTH STEP
~WELL INFORMATION
#MNEM.UNIT      DATA TYPE    INFORMATION
#----------   ------------   ------------------------------
 STRT.F          634.0000:   START DEPTH
 STOP.F         3464.0000:   STOP DEPTH
 STEP.F            0.5000:   STEP LENGTH
 NULL.          -999.2500:   NO VALUE
 COMP. LAWRENCE-ALLISON & ASSOCIATES W:   COMPANY
 WELL. LAWRENCE "TX" #44-27:   WELL
 FLD .   NAVAL RESERVE #3:   FIELD
 LOC .      S27 T39N R78W:   LOCATION
 CNTY.            NATRONA:   COUNTY
 STAT.            WYOMING:   STATE
 CTRY. UNITED STATES OF AMERICA:   COUNTRY
 SRVC.       SCHLUMBERGER:   SERVICE COMPANY
 DATE.        13-MAR-1982:   LOGDATE
 API .     49025108870000:   API NUMBER
~CURVE INFORMATION
#MNEM.UNIT       API CODE    CURVE DESCRIPTION
#----------   ------------   ------------------------------
 DEPT.F                  :   
 TENR.LBS    07 635 01 00:   TENSION FROM RESISTIVITY
 ILD .OHMM   07 120 46 00:   DEEP INDUCTION RESISTIVITY
 ILM .OHMM   07 120 44 00:   INDUCTION LOG MEDIUM RESISTIVITY
 SFLU.OHMM   07 220 01 00:   SPHERICALLY FOCUSED LOG UNAVERAGED RESISTIVITY
 SPR .MV     07 010 01 00:   SPONTANEOUS POTENTIAL
 TENN.LBS    42 635 01 00:   TENSION FROM COMPENSATE NEUTRON
 CALD.IN     45 280 60 00:   CALIPER FROM DENSITY LOG
 GRD .GAPI   45 310 01 00:   GAMMA RAY FROM DENSITY LOG
 RHOB.G/C3   45 350 01 00:   BULK DENSITY
 DRHO.G/C3   45 356 01 00:   DENSITY CORRECTION
 NPHI.DEC    42 890 03 00:   NEUTRON POROSITY SANDSTONE
~PARAMETER INFORMATION
#MNEM.UNIT          VALUE    DESCRIPTION
#----------   ------------   ------------------------------
 EKB .F         5049.0000:   Kelly bushing
 EGL .F         5039.0000:   Ground level
 EDF .F            0.0000:   Drilling floor
 EPD .F            0.0000:   Permanent datum
 TD  .F         3440.0000:   Total depth
 DATE.        13-MAR-1982:   Date logged
 CLNT.            A2DTECH:   Client Code
 PD  .                 GL:   Permanent Datum
 DD  .F              3440:   Depth driller
 DL  .F              3439:   Depth logger
 BLI .F              3433:   Bottom log interval
 CS1 .IN            9.625:   Casing size
 CBD1.      9.625" @ 650':   Casing driller 1
 CBL1.F               647:   Casing logger 1
 BS1 .IN            7.875:   Bit size
 DFT .                GEL:   Type fluid in hole
 DFD .                9.3:   Density
 DFV .                 48:   Viscosity
 DFPH.                 10:   pH
 DFL .                  8:   Fluid loss
 MSS .                PIT:   Source of sample
 RMS .OHMM           1.82:   Rm
 MST .F                67:   Rm Meas. temp.
 RMF .OHMM           1.32:   Rmf
 MFST.F                67:   Rmf Meas. temp.
 MFSS.               MEAS:   Source Rmf.
 RMB .OHMM           1.09:   Rm. at BHT
 BHT .F               112:   BHT.
 TCS .HRS            1300:   Time Circ. stopped
 MRT .F               112:   Maximum recorded temp.
 LUN .               8039:   Logging unit number
 LUL .               CSPR:   Logging unit location
 ENGI.   WAGNER/CONOSENTI:   Recorded By
 WITN.           JENNINGS:   Witnessed by
 ORIG.           5" PRINT:   Origin of data
 UWI .     49025108870000:   Unique Well ID
 DICO. A2D TECHNOLOGIES, INC.:   Digitizing Company
 DAPD.                 10:   Feet Above Permanent Datum
 BSD1.F              3440:   Depth drilled with bit1
 TLI .F               647:   Top log interval
 TLAB.HRS            1800:   Time logger at bottom
~OTHER INFORMATION
~A   DEPT     TENR        ILD        ILM       SFLU        SPR       TENN       CALD         GRD      RHOB       DRHO       NPHI   
# ...
 1000.0000   808.3830     7.7570     7.2430     8.1620   -29.6400  1220.2380    10.5270    97.5950     2.5000     0.0320     0.2860
 1000.5000   808.3830     7.7550     7.2430     8.1620   -29.8670  1220.2380    10.4950   100.0610     2.4880     0.0160     0.2910
 1001.0000   808.3830     7.7520     7.2430     8.1620   -30.0960  1220.2380    10.4620   102.3300     2.4910     0.0080     0.2910
 1001.5000   808.3830     7.7490     7.2430     8.1620   -30.3260  1220.2380    10.4290   102.6080     2.5080     0.0110     0.2840
 1002.0000   808.3830     7.7470     7.2430     8.1620   -30.4390  1220.2380    10.4270   100.9800     2.5240     0.0180     0.2770
 1002.5000   808.3830     7.7440     7.2430     8.1620   -30.2550  1220.2380    10.4280    99.6090     2.5410     0.0290     0.2810
 1003.0000   808.3830     7.7410     7.2430     8.1520   -30.0140  1220.2380    10.4320   100.0130     2.5440     0.0390     0.2870
 1003.5000   808.3830     7.7390     7.2430     8.1410   -29.7710  1220.2380    10.4360   100.4340     2.5390     0.0490     0.2880
 1004.0000   808.3830     7.7360     7.2430     8.1300   -29.5280  1220.2380    10.4390   100.8520     2.5340     0.0510     0.2790
 1004.5000   808.3830     7.7340     7.2430     8.1190   -29.2840  1220.2380    10.4430   100.4330     2.5280     0.0490     0.2660
 1005.0000   808.3830     7.7310     7.2430     8.1080   -29.1220  1220.2380    10.4470    99.3110     2.5200     0.0400     0.2650
 1005.5000   808.3830     7.7280     7.2430     8.0970   -28.9820  1220.5920    10.4510    98.6050     2.5080     0.0300     0.2700
 1006.0000   808.3830     7.7260     7.2250     8.0870   -28.8420  1221.3311    10.4540   100.4210     2.5140     0.0210     0.2760
 1006.5000   808.3830     7.7190     7.2080     8.0760   -28.7030  1222.0699    10.4580   102.2230     2.5300     0.0250     0.2760
 1007.0000   808.3830     7.7070     7.1910     8.0650   -28.5620  1222.8090    10.4620   103.4820     2.5440     0.0330     0.2760
 1007.5000   808.3830     7.6950     7.1740     8.0540   -28.4230  1223.5470    10.4650   101.2070     2.5480     0.0410     0.2770
 1008.0000   808.3830     7.6830     7.1560     8.0430   -28.6160  1224.2860    10.4590    98.9670     2.5440     0.0390     0.2780
 1008.5000   808.3830     7.6710     7.1390     8.0320   -28.8450  1225.0250    10.4480    96.6760     2.5350     0.0350     0.2770
 1009.0000   808.3830     7.6590     7.1220     8.0210   -29.0730  1225.7640    10.4480    97.4140     2.5280     0.0410     0.2730
 1009.5000   808.3830     7.6470     7.1050     8.0100   -29.2990  1226.5031    10.4350    98.8990     2.5290     0.0580     0.2710
 1010.0000   808.3830     7.6350     7.0870     7.9990   -29.4660  1227.2419    10.4130   100.4210     2.5270     0.0730     0.2740
 1010.5000   808.3830     7.6230     7.0700     7.9880   -29.7430  1227.9810    10.3920   100.8350     2.5160     0.0660     0.2760
 1011.0000   808.3830     7.6110     7.0530     7.9780   -29.9330  1228.7190    10.3700   100.2840     2.5040     0.0430     0.2780
 1011.5000   808.3830     7.5990     7.0350     7.9670   -30.1140  1229.4580    10.3480    99.8430     2.4930     0.0190     0.2780
 1012.0000   808.3830     7.5870     7.0180     7.9560   -30.2940  1230.1970    10.3260    99.9960     2.4890     0.0100     0.2770
 1012.5000   808.3830     7.5740     7.0010     7.9450   -30.4750  1230.9360    10.3050    99.7330     2.4950     0.0080     0.2740
 1013.0000   808.3830     7.5620     6.9840     7.9340   -30.6340  1231.6750    10.2870    97.4140     2.5020     0.0070     0.2710
 1013.5000   808.3830     7.5490     6.9660     7.9230   -30.5700  1232.4139    10.2910    97.1440     2.5050     0.0080     0.2690
 1014.0000   808.3830     7.5370     6.9490     7.9120   -30.4950  1233.1530    10.3130    98.1150     2.5100     0.0110     0.2680
 1014.5000   808.3830     7.5240     6.9320     7.9010   -30.4210  1233.8920    10.3340    99.0730     2.5190     0.0150     0.2690
 1015.0000   808.3830     7.5110     6.9150     7.8900   -30.3470  1234.6300    10.3550    99.5470     2.5270     0.0180     0.2740
 1015.5000   808.3830     7.4990     6.8970     7.8800   -30.2720  1235.3690    10.3760    97.9070     2.5210     0.0170     0.2850
 1016.0000   808.3830     7.4860     6.8800     7.8690   -30.1980  1236.1080    10.3980    96.3080     2.5150     0.0140     0.2870
 1016.5000   808.3830     7.4740     6.8630     7.8580   -30.1240  1236.8470    10.4190    94.6850     2.5090     0.0110     0.2860
 1017.0000   808.3830     7.4610     6.8460     7.8470   -30.0490  1237.5861    10.4400    94.9610     2.5040     0.0130     0.2830
 1017.5000   808.3830     7.4490     6.8280     7.8360   -30.0340  1238.3250    10.4480    96.2470     2.5110     0.0180     0.2780
 1018.0000   808.3830     7.4360     6.8110     7.8250   -30.0330  1239.0640    10.4480    97.5380     2.5190     0.0250     0.2720
 1018.5000   808.3830     7.4230     6.7940     7.8140   -30.0330  1239.8020    10.4480    97.8290     2.5220     0.0320     0.2710
 1019.0000   808.3830     7.4110     6.7760     7.8030   -30.0340  1240.0790    10.4480    97.9290     2.5200     0.0330     0.2790
 1019.5000   808.3830     7.3980     6.7590     7.7870   -30.0370  1240.0790    10.4470    98.1090     2.5210     0.0290     0.2850
 1020.0000   808.3830     7.3860     6.7420     7.7550   -30.3840  1240.0790    10.4520    99.9440     2.5270     0.0290     0.2860
 1020.5000   808.3830     7.3730     6.7250     7.7240   -31.2380  1240.0790    10.4680   101.7700     2.5320     0.0340     0.2760
 1021.0000   808.3830     7.3610     6.7070     7.6930   -32.0860  1240.0790    10.4720   103.4780     2.5350     0.0390     0.2680
 1021.5000   808.3830     7.3480     6.6900     7.6620   -32.9360  1240.0790    10.4750   104.4420     2.5270     0.0350     0.2630
 1022.0000   808.3830     7.3350     6.6730     7.5810   -33.7870  1240.0790    10.4780   105.2350     2.5190     0.0290     0.2620
 1022.5000   808.3830     7.3230     6.6560     7.4810   -34.6270  1240.0790    10.4810   104.4620     2.5150     0.0240     0.2750
 1023.0000   808.3830     7.3100     6.6380     7.3770   -35.1540  1240.0790    10.4840   102.0930     2.5160     0.0190     0.2870
 1023.5000   808.3830     7.2700     6.6210     7.6310   -34.6340  1240.0790    10.4870    99.5280     2.5160     0.0170     0.2920
 1024.0000   808.3830     7.2290     6.6010     7.8950   -34.1410  1240.0790    10.4900    99.3610     2.5140     0.0150     0.2920
 1024.5000   808.3830     7.1880     6.5660     8.1620   -33.6510  1240.0790    10.4930   102.0880     2.5170     0.0190     0.2920
 1025.0000   808.3830     7.1470     6.5310     7.7260   -33.1590  1240.0790    10.4960   104.7470     2.5210     0.0220     0.2890
 1025.5000   808.3830     7.1060     6.4960     7.3770   -32.6680  1240.0790    10.4990   107.3740     2.5130     0.0220     0.2870
 1026.0000   808.3830     7.0650     6.4610     7.5140   -32.1740  1240.0790    10.5020   109.9970     2.5000     0.0150     0.2820
 1026.5000   808.3830     7.0240     6.4260     7.4530   -31.7220  1240.0790    10.5040   110.5790     2.5060     0.0200     0.2940
 1027.0000   808.3830     6.9830     6.3910     7.4100   -31.3210  1240.0790    10.5070   107.1760     2.5170     0.0250     0.3010
 1027.5000   808.3830     6.9420     6.3560     7.3770   -30.9270  1240.0790    10.5100   103.7560     2.5200     0.0270     0.3100
 1028.0000   808.3830     6.9010     6.3220     7.3500   -30.5230  1240.0790    10.5130   101.6890     2.5210     0.0280     0.3010
 1028.5000   808.3830     6.8600     6.2870     7.2890   -30.5180  1240.0790    10.5160   103.6950     2.5280     0.0440     0.2960
 1029.0000   808.3830     6.8270     6.2520     7.2290   -30.6200  1240.0790    10.5190   106.3910     2.5380     0.0610     0.2910
 1029.5000   808.3830     6.7880     6.2170     7.1690   -30.7260  1240.0790    10.5220   106.8260     2.5400     0.0780     0.2860
 1030.0000   808.3830     6.7480     6.1820     7.1080   -30.8460  1240.0790    10.5250   104.0260     2.5160     0.0650     0.2840
