~VERSION INFORMATION
 VERS.                2.0:   CWLS LOG ASCII STANDARD - VERSION 2.0
 WRAP.                 NO:   ONE LINE PER DEPTH STEP
~WELL INFORMATION
#MNEM.UNIT      DATA TYPE    INFORMATION
#----------   ------------   ------------------------------
 STRT.F          720.0000:   START DEPTH
 STOP.F         3416.0000:   STOP DEPTH
 STEP.F            0.5000:   STEP LENGTH
 NULL.          -999.2500:   NO VALUE
 COMP.    FENIX & SCISSON:   COMPANY
 WELL.  FENIX "AX" #31-14:   WELL
 FLD .                NPR:   FIELD
 LOC .      S14 T38N R78W:   LOCATION
 CNTY.            NATRONA:   COUNTY
 STAT.            WYOMING:   STATE
 CTRY. UNITED STATES OF AMERICA:   COUNTRY
 SRVC.       SCHLUMBERGER:   SERVICE COMPANY
 DATE.        04-JUN-1981:   LOGDATE
 API .     49025108730000:   API NUMBER
~CURVE INFORMATION
#MNEM.UNIT       API CODE    CURVE DESCRIPTION
#----------   ------------   ------------------------------
 DEPT.F                  :   
 TEND.LBS    45 635 01 00:   TENSION FROM DENSITY LOG
 CORR.G/C3   45 356 01 00:   DENSITY CORRECTION
 RHOB.G/C3   45 350 01 00:   BULK DENSITY
 CALD.IN     45 280 60 00:   CALIPER FROM DENSITY LOG
 GRD .GAPI   45 310 01 00:   GAMMA RAY FROM DENSITY LOG
 SPR .MV     07 010 01 00:   SPONTANEOUS POTENTIAL
 SFL .OHMM   07 220 01 00:   SHALLOW FOCUSED LOG RESISTIVITY
 ILD .OHMM   07 120 46 00:   INDUCTION LOG DEEP RESISTIVITY
 ILM .OHMM   07 120 44 00:   INDUCTION LOG MEDIUM RESISTIVITY
 TENR.LBS    07 635 01 00:   TENSION FROM RESISTIVITY
~PARAMETER INFORMATION
#MNEM.UNIT          VALUE    DESCRIPTION
#----------   ------------   ------------------------------
 EKB .F         5196.0000:   Kelly bushing
 EGL .F         5186.0000:   Ground level
 EDF .F            0.0000:   Drilling floor
 TD  .F         3402.0000:   Total depth
 DATE.        04-JUN-1981:   Date logged
 CLNT.            A2DTECH:   Client Code
 SL  . 377' FWL & 1733' FWL:   Surface Location
 PD  .                 GL:   Permanent Datum
 DD  .F              3400:   Depth driller
 DL  .F              3402:   Depth logger
 BLI .F              3395:   Bottom log interval
 TLI .F               720:   Top log interval
 CS1 .IN            8.625:   Casing size
 CBD1.      8.625" @ 707':   Casing driller 1
 CBL1.F               751:   Casing logger 1
 BS1 .IN            7.875:   Bit size
 BSD1.F              3400:   Depth drilled with bit1
 DFT .                FGM:   Type fluid in hole
 DFD .                8.8:   Density
 DFV .                 55:   Viscosity
 DFPH.                9.5:   pH
 DFL .                  9:   Fluid loss
 MSS .           MUD TANK:   Source of sample
 RMS .OHMM            1.7:   Rm
 MST .F                78:   Rm Meas. temp.
 RMF .OHMM           1.45:   Rmf
 MFST.F                78:   Rmf Meas. temp.
 MFSS.               MEAS:   Source Rmf.
 RMB .OHMM           1.12:   Rm. at BHT
 BHT .F               118:   BHT.
 TCS .HRS            1200:   Time Circ. stopped
 TLAB.HRS            1600:   Time logger at bottom
 MRT .F               118:   Maximum recorded temp.
 LUN .               8043:   Logging unit number
 LUL .             CASPER:   Logging unit location
 ENGI.             LARSON:   Recorded By
 WITN.              FIVAS:   Witnessed by
 ORIG.      2.5" 5" PRINT:   Origin of data
 UWI .     49025108730000:   Unique Well ID
 DICO. A2D TECHNOLOGIES, INC.:   Digitizing Company
 EPD .               5186:   Elevation Permanent Datum
 LMF .                 KB:   Log Measured From
 DMF .                 KB:   Drilling Measured From
 DAPD.                 10:   Feet Above Permanent Datum
~OTHER INFORMATION
~A   DEPT     TEND       CORR       RHOB       CALD         GRD       SPR        SFL        ILD        ILM       TENR   
# ...
 1959.5000  1184.2111     0.0030     2.5670     8.4910   117.2760   -10.4610     7.2860     6.2080     6.0780  1256.4180
 1960.0000  1184.2111     0.0040     2.5630     8.4900   119.0250   -10.5060     7.5730     6.3590     6.1830  1256.2410
 1960.5000  1184.2111     0.0040     2.5580     8.4900   118.9750   -10.5530     7.8840     6.5120     6.2870  1256.0640
 1961.0000  1184.2111     0.0040     2.5560     8.4900   116.1500   -10.5990     8.1600     6.6650     6.3910  1255.8870
 1961.5000  1184.2111     0.0020     2.5590     8.4890   113.3520   -10.6450     8.2290     6.8180     6.4950  1255.7100
 1962.0000  1184.2111     0.0020     2.5630     8.4890   108.9380   -10.6910     8.3270     6.9710     6.6300  1255.5330
 1962.5000  1184.2111     0.0030     2.5570     8.4890   104.1200   -10.7370     8.4250     6.8620     6.6050  1255.3560
 1963.0000  1184.2111     0.0040     2.5440     8.4880   104.4900   -10.7860     8.4740     6.7830     6.5210  1255.1790
 1963.5000  1184.2111     0.0050     2.5360     8.4880   106.3920   -10.7950     8.3910     6.7040     6.4360  1255.0020
 1964.0000  1184.2111     0.0050     2.5420     8.4880   110.2130   -10.7210     8.1090     6.6260     6.3520  1254.8250
 1964.5000  1184.2111     0.0220     2.5560     8.4870   114.1190   -10.6500     7.8260     6.5470     6.2680  1254.6479
 1965.0000  1184.2111     0.0220     2.5610     8.4870   116.7210   -10.5770     7.5670     6.4690     6.1840  1254.4709
 1965.5000  1184.2111     0.0190     2.5600     8.4870   115.5380   -10.5050     7.5670     6.3900     6.1000  1254.2939
 1966.0000  1184.2111     0.0150     2.5560     8.4860   114.4020   -10.4320     7.5670     6.3110     6.0160  1254.1169
 1966.5000  1184.2111     0.0060     2.5510     8.4860   113.4550   -10.3590     7.3790     6.2330     5.9200  1253.9399
 1967.0000  1184.2111     0.0050     2.5510     8.4850   114.7900   -10.2870     7.2860     6.1540     5.9200  1253.7629
 1967.5000  1184.2111     0.0040     2.5510     8.4850   116.0490   -10.2140     7.3480     6.0760     5.9200  1253.5861
 1968.0000  1184.2111     0.0030     2.5450     8.4850   119.1320   -10.1430     7.4050     6.0330     5.9200  1253.4100
 1968.5000  1184.2111     0.0020     2.5390     8.4840   122.2870   -10.0690     7.4250     6.0500     5.9200  1253.2330
 1969.0000  1184.2111     0.0020     2.5380     8.4840   124.7710    -9.9980     7.2820     6.0660     5.9200  1253.0560
 1969.5000  1184.2111     0.0010     2.5380     8.4840   124.7530   -10.0200     7.1140     6.0820     5.9200  1252.8790
 1970.0000  1184.2111     0.0010     2.5380     8.4830   122.0480    -9.9580     6.8850     6.0980     5.9200  1252.7020
 1970.5000  1184.2111    -0.0010     2.5360     8.4830   117.9070   -10.3280     6.9250     6.1130     5.9200  1252.6560
 1971.0000  1184.2111    -0.0030     2.5340     8.4830   115.0920   -10.4100     7.0910     6.1290     5.9200  1253.0320
 1971.5000  1184.2111     0.0000     2.5330     8.4820   113.6420   -10.4160     7.2860     6.1480     5.9200  1253.4080
 1972.0000  1184.2111     0.0030     2.5340     8.4820   112.7930   -10.4010     7.3270     6.1480     5.9200  1253.7841
 1972.5000  1184.2111     0.0060     2.5430     8.4820   114.3160   -10.4120     7.3770     6.0120     5.9200  1254.1600
 1973.0000  1184.2111     0.0050     2.5480     8.4810   117.6750   -10.4070     7.4250     5.8790     5.7740  1254.5360
 1973.5000  1184.2111     0.0020     2.5320     8.4810   117.8550   -10.4090     7.5350     5.7460     5.5960  1254.9120
 1974.0000  1184.2111     0.0020     2.5160     8.4800   116.2320   -10.3940     7.8050     5.6130     5.4180  1255.2870
 1974.5000  1184.2111     0.0050     2.5070     8.4800   112.5440   -10.3550     7.7110     5.4810     5.2400  1255.6630
 1975.0000  1184.2111     0.0170     2.5090     8.4800   108.8550   -10.3180     7.4250     5.3480     5.0620  1256.0389
 1975.5000  1184.2111     0.0300     2.5090     8.5090   107.1300   -10.2800     6.3410     5.1880     4.8830  1256.4150
 1976.0000  1184.2111     0.0350     2.4870     8.5400   107.2840   -10.2420     5.2570     5.1880     4.7050  1256.7910
 1976.5000  1184.2111     0.0220     2.4640     8.5350   108.1570   -10.2050     4.3770     5.0910     4.6320  1257.1670
 1977.0000  1184.2111     0.0050     2.4600     8.5260   110.5920   -10.1670     4.6320     5.0910     4.6320  1257.5430
 1977.5000  1184.2111    -0.0110     2.4810     8.5170   113.1320   -10.1290     5.6200     5.2040     4.8750  1257.9189
 1978.0000  1184.2111    -0.0090     2.5060     8.5080   115.8540   -10.0920     6.6240     5.4000     5.1220  1258.2950
 1978.5000  1184.2111    -0.0060     2.5130     8.5000   118.4310   -10.0540     7.6280     5.5960     5.3680  1258.6710
 1979.0000  1184.2111    -0.0050     2.5100     8.5000   118.2950   -10.0150     7.8860     5.7910     5.6150  1259.0470
 1979.5000  1184.2111    -0.0050     2.5060     8.5000   117.5230   -10.0020     7.9240     6.0330     5.8850  1259.4230
 1980.0000  1184.2111    -0.0050     2.5120     8.5000   117.2510    -9.9610     7.9610     5.9850     5.8170  1259.7990
 1980.5000  1184.2111     0.0020     2.5200     8.5000   118.7450    -9.8450     7.9980     5.8510     5.6810  1260.1750
 1981.0000  1184.2111     0.0150     2.5290     8.5000   119.2440    -9.7340     8.0070     5.7170     5.5460  1260.5510
 1981.5000  1184.2111     0.0270     2.5270     8.5000   117.6620    -9.6200     7.2620     5.5830     5.4110  1260.9270
 1982.0000  1184.2111     0.0390     2.5210     8.5000   114.4640    -9.5080     6.4780     5.4480     5.2750  1261.3030
 1982.5000  1184.2111     0.0330     2.5010     8.5000   112.7820    -9.3940     5.6940     5.3870     5.1400  1261.6790
 1983.0000  1184.2111     0.0200     2.4770     8.5000   112.9510    -9.2820     5.3630     5.3870     4.9950  1262.0551
 1983.5000  1184.2111     0.0060     2.4890     8.5000   114.7180    -9.1880     5.1880     5.4440     5.0970  1262.4310
 1984.0000  1184.2111     0.0020     2.5120     8.5000   116.5020    -9.2490     5.5880     5.5520     5.2060  1262.8060
 1984.5000  1184.2111     0.0000     2.5330     8.5000   115.0170    -9.3380     6.5030     5.6590     5.3150  1263.1820
 1985.0000  1184.2111     0.0020     2.5330     8.5000   113.3030    -9.4290     7.1000     5.7660     5.4240  1263.5580
 1985.5000  1184.2111     0.0030     2.5300     8.5000   112.7400    -9.5180     7.8580     5.8730     5.5340  1263.9340
 1986.0000  1184.2889     0.0030     2.5290     8.5000   116.6420    -9.6080     7.7940     5.9810     5.6430  1264.3101
 1986.5000  1184.8149     0.0050     2.5340     8.5000   116.2040    -9.6980     7.5910     6.0830     5.7520  1264.6860
 1987.0000  1185.3400     0.0060     2.5400     8.5000   113.9040    -9.7870     7.3870     6.1810     5.8610  1265.0620
 1987.5000  1185.8660     0.0070     2.5450     8.5000   110.1680    -9.8770     7.2860     6.2790     5.9700  1265.4380
 1988.0000  1186.3920     0.0050     2.5430     8.5000   110.1060    -9.9660     7.4250     6.3780     6.0790  1265.8140
 1988.5000  1186.9180     0.0040     2.5390     8.5000   112.7410   -10.0570     7.6110     6.5060     6.1880  1266.1899
 1989.0000  1187.4440     0.0030     2.5370     8.5000   116.9810   -10.1440     7.8180     6.4500     6.2430  1266.5660
 1989.5000  1187.9690     0.0030     2.5370     8.5000   117.7290   -10.2380     8.0070     6.3690     6.1650  1266.9420
 1990.0000  1188.4950     0.0030     2.5370     8.5000   118.3080   -10.3240     7.9420     6.2880     6.0860  1267.3180
 1990.5000  1189.0210     0.0030     2.5330     8.5000   119.0740   -10.3950     7.7090     6.2070     6.0080  1267.6940
 1991.0000  1189.5470     0.0020     2.5300     8.5000   121.2810   -10.2680     7.4760     6.1260     5.9300  1268.0699
 1991.5000  1190.0730     0.0050     2.5310     8.5000   123.9510   -10.1470     7.2430     6.0450     5.8520  1268.4460
 1992.0000  1190.5990     0.0160     2.5420     8.5000   124.6140   -10.0160     7.0100     5.9640     5.7740  1268.8220
 1992.5000  1191.1240     0.0240     2.5490     8.5000   121.0450    -9.8900     6.8850     5.9200     5.7010  1269.1980
