~VERSION INFORMATION
 VERS.                2.0:   CWLS LOG ASCII STANDARD - VERSION 2.0
 WRAP.                 NO:   ONE LINE PER DEPTH STEP
~WELL INFORMATION
#MNEM.UNIT      DATA TYPE    INFORMATION
#----------   ------------   ------------------------------
 STRT.F          482.0000:   START DEPTH
 STOP.F         4000.0000:   STOP DEPTH
 STEP.F            0.5000:   STEP LENGTH
 NULL.          -999.2500:   NO VALUE
 COMP.    FENIX & SCISSON:   COMPANY
 WELL. FENIX  NPR 3 "LX" #56-10:   WELL
 FLD .              N P R:   FIELD
 LOC .      S10 T38N R78W:   LOCATION
 CNTY.            NATRONA:   COUNTY
 STAT.            WYOMING:   STATE
 CTRY. UNITED STATES OF AMERICA:   COUNTRY
 SRVC.       SCHLUMBERGER:   SERVICE COMPANY
 DATE.        11-JUL-1978:   LOGDATE
 API .     49025107100000:   API NUMBER
~CURVE INFORMATION
#MNEM.UNIT       API CODE    CURVE DESCRIPTION
#----------   ------------   ------------------------------
 DEPT.F                  :   
 GRD .GAPI   45 310 01 00:   GAMMA RAY FROM DENSITY LOG
 CALD.IN     45 280 60 00:   CALIPER FROM DENSITY LOG
 RHOB.G/C3   45 350 01 00:   BULK DENSITY
 NPHI.DEC    42 890 03 00:   NEUTRON POROSITY SANDSTONE
 DRHO.G/C3   45 356 01 00:   DENSITY CORRECTION
 TEND.LBS    45 635 01 00:   TENSION FROM DENSITY LOG
 SPR .MV     07 010 01 00:   SPONTANEOUS POTENTIAL
 TENR.LBS    07 635 01 00:   TENSION FROM RESISTIVITY
 ILD .OHMM   07 120 46 00:   DEEP INDUCTION RESISTIVITY
 ILM .OHMM   07 120 44 00:   INDUCTION LOG MEDIUM RESISTIVITY
 SFLU.OHMM   07 220 01 00:   SPHERICALLY FOCUSED LOG UNAVERAGED RESISTIVITY
~PARAMETER INFORMATION
#MNEM.UNIT          VALUE    DESCRIPTION
#----------   ------------   ------------------------------
 EKB .F         5212.0000:   Kelly bushing
 EGL .F         5202.0000:   Ground level
 EDF .F            0.0000:   Drilling floor
 TD  .F         4000.0000:   Total depth
 DATE.        11-JUL-1978:   Date logged
 CLNT.            A2DTECH:   Client Code
 SL  . 1144' FSL & 2183' FEL:   Surface Location
 PD  .                 GL:   Permanent Datum
 EPD .F              5202:   Elevation Permanent Datum
 LMF .                 KB:   Log Measured From
 DMF .                 KB:   Drilling Measured From
 DD  .F              4000:   Depth driller
 DL  .F              3990:   Depth logger
 BLI .F              3985:   Bottom log interval
 TLI .F               501:   Top log interval
 CS1 .IN            9.625:   Casing size
 CBD1.      9.625" @ 500':   Casing driller 1
 CBL1.F               501:   Casing logger 1
 BS1 .IN            7.875:   Bit size
 DFT .                FGM:   Type fluid in hole
 DFD .                9.1:   Density
 DFV .                 50:   Viscosity
 DFPH.                 12:   pH
 DFL .                4.4:   Fluid loss
 MSS .           MUD/TANK:   Source of sample
 RMS .OHMM           .714:   Rm
 MST .F                83:   Rm Meas. temp.
 RMF .OHMM           .585:   Rmf
 MFST.F                83:   Rmf Meas. temp.
 MFSS.               MEAS:   Source Rmf.
 RMB .OHMM            .42:   Rm. at BHT
 BHT .F               140:   BHT.
 TCS .HRS            1000:   Time Circ. stopped
 MRT .F               140:   Maximum recorded temp.
 LUN .               8035:   Logging unit number
 LUL .       ROCK SPRINGS:   Logging unit location
 ENGI.             MARTIN:   Recorded By
 WITN.           MCCINLEY:   Witnessed by
 ORIG.           5" PRINT:   Origin of data
 UWI .     49025107100000:   Unique Well ID
 DICO. A2D TECHNOLOGIES, INC.:   Digitizing Company
 DAPD.F                10:   Feet Above Permanent Datum
 BSD1.F              4000:   Depth drilled with bit1
 TLAB.HRS            1300:   Time logger at bottom
~OTHER INFORMATION
~A   DEPT       GRD      CALD       RHOB         NPHI     DRHO       TEND        SPR       TENR        ILD        ILM       SFLU   
# ...
 1641.0000   106.8290    11.0800     2.5020     0.3420     0.2500   853.1750   -46.1620   738.5230     6.3920     7.0000     7.0930
 1641.5000   101.8940    11.5570     2.4750     0.3520     0.2500   853.1750   -46.4440   738.5230     6.2770     6.8200     6.9620
 1642.0000   101.5890    12.0090     2.4510     0.3630     0.2500   853.1750   -46.6160   738.5230     6.1620     6.6390     6.8310
 1642.5000   102.2240    12.6540     2.4370     0.3730     0.2310   853.1750   -46.5990   738.5230     6.0540     6.3980     6.7600
 1643.0000   104.0470    12.5410     2.4230     0.3770     0.1730   853.1750   -46.5950   738.5230     6.0540     6.4160     6.7270
 1643.5000   105.6560    12.1570     2.4210     0.3750     0.1160   853.1750   -46.6110   738.5230     6.0540     6.4880     6.6760
 1644.0000   106.2650    11.9030     2.4380     0.3710     0.0660   853.1750   -46.5980   738.5230     6.0540     6.5590     6.6370
 1644.5000   105.1520    12.2300     2.4600     0.3660     0.0250   853.3330   -46.5710   738.5230     6.0540     6.6310     6.6370
 1645.0000   104.8860    12.3340     2.4520     0.3620     0.0740   853.8440   -46.9420   738.5230     6.0540     6.7020     6.8030
 1645.5000   107.4350    11.8850     2.4130     0.3700     0.1520   854.3550   -47.2800   738.5230     6.0540     6.7740     6.9810
 1646.0000   109.5190    11.3400     2.3150     0.3810     0.2500   854.8660   -46.7970   738.5230     6.0540     6.8450     7.1600
 1646.5000   111.6330    10.7760     2.2170     0.3740     0.2470   855.3770   -46.4170   738.5230     6.5700     6.8860     7.3380
 1647.0000   112.6150    10.7230     2.0990     0.3540     0.2500   855.8880   -46.0290   739.1910     7.1900     7.0980     7.5160
 1647.5000   111.0860    10.8940     2.1160     0.3340     0.2500   856.3990   -45.6170   739.8410     7.5490     7.3040     7.6940
 1648.0000   106.7090    11.0630     2.1390     0.3170     0.2500   856.9100   -45.2300   740.4910     7.6680     7.5490     7.8720
 1648.5000   102.6140    11.2360     2.1620     0.3200     0.2490   857.4210   -44.8340   741.1410     7.8310     7.4250     8.1250
 1649.0000   102.4940    11.2770     2.1170     0.3280     0.2370   857.9330   -44.4060   741.7910     7.7890     7.2730     7.8310
 1649.5000   102.5860    11.2730     2.0720     0.3360     0.2250   858.4440   -44.2170   742.4420     7.7200     7.1220     7.6960
 1650.0000   106.4380    11.1690     2.1300     0.3350     0.2170   858.9550   -44.3460   743.0920     7.6500     6.9700     7.5290
 1650.5000   109.7690    11.1620     2.1860     0.3360     0.2400   859.4660   -44.4400   743.7420     7.5810     6.8180     7.3610
 1651.0000   113.2590    11.2640     2.2420     0.3430     0.2490   859.9770   -44.5390   744.3920     7.5110     6.6660     7.1930
 1651.5000   115.8880    11.4030     2.2990     0.3530     0.2480   860.4880   -44.6410   745.0420     7.4420     6.5160     7.0260
 1652.0000   114.5460    11.6720     2.3560     0.3500     0.2490   860.9990   -44.7420   745.6920     7.3720     6.4950     6.7600
 1652.5000   112.0290    11.5890     2.4090     0.3390     0.2440   861.5100   -44.8420   746.3420     7.3030     6.3970     6.8140
 1653.0000   109.6220    10.9150     2.4120     0.3320     0.2290   862.0210   -44.9350   746.9920     7.0270     6.2810     6.9410
 1653.5000   107.2570    10.2870     2.4160     0.3370     0.1940   862.5320   -45.1780   747.6420     6.6250     6.1670     7.0140
 1654.0000   104.8110     9.5770     2.4110     0.3510     0.1610   863.0430   -45.6090   748.2920     6.2230     5.9440     6.8830
 1654.5000   102.4460     9.5140     2.3880     0.3700     0.0980   863.5540   -46.0610   748.9420     5.8360     5.6620     6.7600
 1655.0000   100.0590     9.6880     2.3960     0.3640     0.0410   864.0660   -46.1110   749.5920     5.4250     5.3240     6.4650
 1655.5000    97.4320     9.8670     2.4170     0.3550     0.0300   864.5770   -45.9260   750.2420     4.7820     4.9860     6.0000
 1656.0000    96.1410    10.0410     2.4410     0.3440     0.0400   865.0880   -45.8440   750.8920     4.0400     4.6470     5.3350
 1656.5000    96.9610    10.2170     2.3980     0.3670     0.0710   865.5990   -46.0430   751.5420     4.0400     4.3090     4.5600
 1657.0000    97.5580    10.3880     2.2350     0.4140     0.1020   866.1100   -46.3750   752.1920     4.0400     4.1920     3.7840
 1657.5000    96.8770    10.5690     1.9990     0.4580     0.1330   866.6210   -46.7120   752.8420     4.0400     4.1920     2.7460
 1658.0000    96.2180    10.5480     2.0000     0.4730     0.1640   867.1320   -47.9750   753.4920     4.2110     4.2690     3.4800
 1658.5000    95.5220    10.3760     2.0090     0.4380     0.1960   867.6430   -47.8700   754.1430     4.3710     4.4550     4.5890
 1659.0000    94.5030    10.2750     2.0230     0.3990     0.2150   868.1540   -47.5330   754.7930     4.5320     4.6830     5.6980
 1659.5000    96.5760    10.4770     2.1110     0.3680     0.2090   868.6650   -47.1020   755.4430     4.6800     4.9110     6.2810
 1660.0000   100.4330    10.7440     2.1960     0.3480     0.2070   869.1760   -46.9540   756.0930     5.2420     5.1400     6.8860
 1660.5000   104.4480    10.9970     2.2960     0.3290     0.2210   869.6870   -46.8710   756.7430     5.7640     5.3680     6.8860
 1661.0000   104.6840    11.2300     2.2990     0.3420     0.2300   870.1980   -46.7930   757.3930     6.2860     5.5960     6.8860
 1661.5000   104.8170    11.1830     2.2910     0.3540     0.1960   870.7100   -46.7170   758.0430     6.7600     5.8240     6.8860
 1662.0000   104.6840    11.0100     2.2880     0.3620     0.1420   871.2210   -46.6380   758.6930     6.7760     6.0520     6.8550
 1662.5000   105.2410    10.8300     2.3390     0.3620     0.1610   871.7320   -46.5610   759.3430     6.7900     6.2810     6.7600
 1663.0000   107.0760    10.6290     2.3840     0.3590     0.2300   872.2430   -46.4830   759.9930     6.8050     6.3390     6.8100
 1663.5000   108.7460    10.5940     2.4050     0.3490     0.2500   872.7540   -46.4070   760.6430     6.8190     6.3910     6.8560
 1664.0000   110.0190    10.8460     2.4150     0.3210     0.2500   873.2650   -46.3300   761.2930     6.8330     6.4430     6.9010
 1664.5000   107.5850    11.0960     2.3910     0.3270     0.2490   873.7760   -46.2450   761.9430     6.8480     6.4960     6.9460
 1665.0000   105.4030    11.2390     2.3730     0.3390     0.2230   874.2870   -46.2210   762.5930     6.8620     6.5480     6.9920
 1665.5000   104.5630    11.5990     2.3560     0.3450     0.2270   874.7980   -46.3120   763.2430     6.8760     6.6000     7.0140
 1666.0000   106.0680    11.8350     2.4170     0.3420     0.2500   875.3090   -46.3930   763.8930     6.8940     6.6520     7.0140
 1666.5000   108.6420    11.5470     2.4820     0.3340     0.2500   875.8200   -46.4770   764.5430     6.9200     6.7050     7.0140
 1667.0000   110.1460    11.3090     2.4460     0.3540     0.2500   876.3310   -46.5620   765.1930     6.9460     6.7600     7.0140
 1667.5000   108.9400    11.1040     2.4040     0.3810     0.2500   876.8430   -46.6450   765.8430     6.9720     6.6370     7.0140
 1668.0000   107.2110    11.1920     2.4110     0.3870     0.2370   877.3540   -46.7290   766.4940     6.9980     6.6140     7.0140
 1668.5000   106.1710    11.2440     2.4630     0.3830     0.2070   877.8650   -46.8140   767.1440     7.0240     6.5940     7.0130
 1669.0000   107.0450    11.1270     2.5100     0.3880     0.1790   878.3760   -46.8950   767.7940     7.0500     6.5740     7.0120
 1669.5000   109.0510    10.6810     2.5050     0.4030     0.1500   878.8870   -46.9790   768.4440     7.0760     6.5540     6.9690
 1670.0000   111.2840    10.2550     2.5120     0.4120     0.1220   879.3980   -46.9230   769.0940     7.1010     6.5330     6.9240
 1670.5000   113.4890     9.8680     2.5240     0.4000     0.0940   879.9090   -46.8150   769.7440     7.1270     6.5160     6.8860
 1671.0000   114.7640     9.8800     2.5220     0.3820     0.0750   880.4200   -46.7080   770.3940     7.2010     6.5990     6.9090
