~VERSION INFORMATION
 VERS.                2.0:   CWLS LOG ASCII STANDARD - VERSION 2.0
 WRAP.                 NO:   ONE LINE PER DEPTH STEP
~WELL INFORMATION
#MNEM.UNIT      DATA TYPE    INFORMATION
#----------   ------------   ------------------------------
 STRT.F          210.0000:   START DEPTH
 STOP.F         3128.0000:   STOP DEPTH
 STEP.F            0.5000:   STEP LENGTH
 NULL.          -999.2500:   NO VALUE
 COMP.    PENIX & SCISSON:   COMPANY
 WELL. FENIX NPR 3 "A" #14-27:   WELL
 FLD .                NPR:   FIELD
 LOC .      S27 T39N R78W:   LOCATION
 CNTY.            NATRONA:   COUNTY
 STAT.            WYOMING:   STATE
 CTRY. UNITED STATES OF AMERICA:   COUNTRY
 SRVC.      DRESSER ATLAS:   SERVICE COMPANY
 DATE.        31-AUG-1977:   LOGDATE
 API .     49025104280000:   API NUMBER
~CURVE INFORMATION
#MNEM.UNIT       API CODE    CURVE DESCRIPTION
#----------   ------------   ------------------------------
 DEPT.F                  :   
 GRD .GAPI   45 310 01 00:   GAMMA RAY FROM DENSITY LOG
 CALD.IN     45 280 60 00:   CALIPER FROM DENSITY LOG
 RHOB.G/C3   45 350 01 00:   BULK DENSITY
 CORR.G/C3   45 356 01 00:   DENSITY CORRECTION
 NPHI.DEC    42 890 03 00:   NEUTRON POROSITY SANDSTONE
 SPR .MV     11 010 01 00:   SPONTANEOUS POTENTIAL
 RXO .OHMM   11 220 01 00:   FLUSHED ZONE RESISTIVITY
 LLD .OHMM   11 220 10 00:   LATEROLOG LOG DEEP
 LLS .OHMM   11 220 09 00:   LATEROLOG LOG SHALLOW
 TENR.LBS    11 635 01 00:   TENSION FROM RESISTIVITY
 TEND.LBS    45 635 01 00:   TENSION FROM DENSITY LOG
~PARAMETER INFORMATION
#MNEM.UNIT          VALUE    DESCRIPTION
#----------   ------------   ------------------------------
 EKB .F         5046.0000:   Kelly bushing
 EGL .F         5036.0000:   Ground level
 TD  .F         3111.0000:   Total depth
 DATE.        31-AUG-1977:   Date logged
 CLNT.            A2DTECH:   Client Code
 SL  . 2310' FNL & 330' FWL:   Surface Location
 PD  .                 GL:   Permanent Datum
 EPD .F              5036:   Elevation Permanent Datum
 LMF .                 KB:   Log Measured From
 DMF .                 KB:   Drilling Measured From
 DAPD.F                10:   Feet Above Permanent Datum
 DD  .F              3109:   Depth driller
 DL  .F              3111:   Depth logger
 BLI .F              3109:   Bottom log interval
 TLI .F               217:   Top log interval
 CS1 .IN             8.75:   Casing size
 CBD1.       8.75" @ 215':   Casing driller 1
 CBL1.F               217:   Casing logger 1
 BS1 .IN            7.875:   Bit size
 BSD1.F              3109:   Depth drilled with bit1
 DFT .                GEL:   Type fluid in hole
 DFD .                8.8:   Density
 DFV .                 35:   Viscosity
 DFPH.                 10:   pH
 DFL .                8.8:   Fluid loss
 MSS .                PIT:   Source of sample
 RMS .OHMM            .36:   Rm
 MST .F                67:   Rm Meas. temp.
 RMF .OHMM            .24:   Rmf
 MFST.F                67:   Rmf Meas. temp.
 RMC .OHMM            .51:   Rmc
 MCST.F                67:   Rmc Meas. temp.
 MFSS.               MEAS:   Source Rmf.
 MCSS.               CALC:   Source Rmc.
 RMB .OHMM            .20:   Rm. at BHT
 BHT .F               121:   BHT.
 TCS .HRS               5:   Time Circ. stopped
 MRT .F               121:   Maximum recorded temp.
 LUN .               6080:   Logging unit number
 LUL .              WLSTN:   Logging unit location
 ENGI.               BALL:   Recorded By
 WITN.         PETTINGILL:   Witnessed by
 ORIG.      2.5" 5" PRINT:   Origin of data
 UWI .     49025104280000:   Unique Well ID
 DICO. A2D TECHNOLOGIES, INC.:   Digitizing Company
~OTHER INFORMATION
~A   DEPT      GRD         CALD     RHOB       CORR       NPHI        SPR        RXO        LLD        LLS        TENR      TEND   
# ...
 2497.5000   105.5567     9.5910     2.5467     0.0128     0.2535   -33.6545     7.1842     8.2869     8.1126   101.9038    86.6552
 2498.0000   106.3503     9.6704     2.5238     0.0089     0.2440   -33.6566     7.4500     8.5937     8.4131   101.9925    94.5676
 2498.5000    99.6031     9.6506     2.5159     0.0029     0.2357   -33.6569     7.4497     8.5930     8.5673   102.0811    94.5275
 2499.0000    94.4440     9.6507     2.5209     0.0029     0.2338   -33.6593     7.5856     8.7502     8.7241   102.1698    94.4873
 2499.5000    93.6505     9.6507     2.5229     0.0089     0.2338   -34.0608     7.5850     8.7495     8.7234   102.2584    78.5420
 2500.0000    91.6665     9.6508     2.5268     0.0109     0.2362   -34.0624     7.5845     8.7486     8.5648   102.3470    82.4781
 2500.5000    97.6209     9.6158     2.5298     0.0070     0.2441   -34.0648     7.5841     8.4443     8.2579   102.4357    85.9433
 2501.0000    99.2103     9.6112     2.5338     0.0050     0.2524   -33.6600     7.4472     8.4352     8.1087   102.4799    86.4513
 2501.5000   100.0059     9.5915     2.5368    -0.0010     0.2532   -33.2584     7.4472     8.2829     7.9621   102.5242    94.4036
 2502.0000   100.0079     9.5717     2.5358    -0.0030     0.2457   -33.2563     7.0511     8.2829     7.9621   102.5685    98.3797
 2502.5000   103.1845     9.5718     2.5308    -0.0030     0.2433   -33.2532     7.0511     8.2829     7.9621   102.6127    98.3797
 2503.0000   104.3772     9.5917     2.5437    -0.0010     0.2485   -33.2511     7.0511     8.2829     7.9621   102.6570    82.4751
 2503.5000   105.1730     9.6116     2.5388     0.0030     0.2493   -33.2479     7.0511     8.4352     7.9621   102.7012    82.4751
 2504.0000   107.1596     9.6117     2.5298     0.0089     0.2485   -33.2458     7.3127     8.4352     8.2579   102.7455    90.4274
 2504.5000   107.5586     9.6117     2.5408     0.0109     0.2450   -33.6412     7.4472     8.5904     8.4099   102.7897    90.4274
 2505.0000   107.1638     9.6118     2.5467     0.0109     0.2426   -34.0376     7.5841     8.5904     8.2579   102.8340   106.3320
 2505.5000   107.1660     9.6119     2.5408     0.0109     0.2406   -34.0346     7.7235     8.5904     7.9621   102.8783    86.4513
 2506.0000   105.5804     9.6120     2.5417     0.0109     0.2394   -34.0325     7.7235     8.2829     7.6769   102.9225    66.5706
 2506.5000   103.2009     9.6120     2.5477     0.0109     0.2367   -34.0294     6.7988     7.8421     7.5382    95.0495    94.4036
 2507.0000    99.6308     9.6121     2.5477     0.0109     0.2410   -34.0273     6.7988     7.7004     7.4020    95.0495    94.4036
 2507.5000    98.8389     9.6122     2.5437     0.0109     0.2403   -34.0242     6.9238     7.7004     7.4020    95.0495   102.3559
 2508.0000    96.8561     9.5726     2.5080     0.0010     0.2375   -33.2237     6.9238     7.5613     7.6769    95.0495    86.4513
 2508.5000    99.6368     9.5528     2.4811    -0.0169     0.2339   -33.6203     7.3127     7.5613     7.9621    95.0495   106.3320
 2509.0000   101.2262     9.5330     2.4791    -0.0209     0.2339   -32.8187     7.3127     7.8421     7.8182    95.0495    90.4274
 2509.5000   104.0071     9.5132     2.5030    -0.0030     0.2339   -32.8169     6.8812     7.9863     7.5382    95.0495   102.3559
 2510.0000   105.2001     9.5331     2.5189     0.0050     0.2395   -33.8119     6.7149     7.9863     7.2682    95.0495    86.4513
 2510.5000   104.8052     9.5134     2.5099     0.0050     0.2502   -33.8098     6.5526     7.7004     7.2682   102.9703   114.2843
 2511.0000   103.2193     9.5134     2.5109     0.0070     0.2510   -33.8077     6.6347     7.7004     7.2682   110.8911    78.4990
 2511.5000   102.8243     9.5532     2.5070     0.0070     0.2495   -33.8049     6.6347     7.5613     7.2682   118.8119    78.4990
 2512.0000   101.2383     9.6128     2.5030     0.0070     0.2475   -33.8021     6.6347     7.5613     7.4020   118.8119    70.5467
 2512.5000   102.4314     9.5732     2.5099     0.0070     0.2479   -33.7994     6.6347     7.5613     7.5382   118.8119    78.4990
 2513.0000   104.0216     9.5733     2.5239     0.0109     0.2511   -33.7966     6.8812     7.9863     7.8182   118.8119    86.4513
 2513.5000   106.0088     9.5535     2.5338     0.0209     0.2550   -33.7938     6.8812     8.4352     7.9621   118.8119    78.4990
 2514.0000   107.9962     9.5536     2.5517     0.0268     0.2546   -33.7910     7.2682     8.5904     7.9621   118.8119    82.4751
 2514.5000   108.7925     9.4941     2.5477     0.0268     0.2538   -33.7882     7.1807     8.5904     7.9621   110.8911    86.4513
 2515.0000   107.2064     9.4941     2.5487     0.0209     0.2515   -33.7847     6.9238     8.2829     7.8182   102.9703   102.3559
 2515.5000   101.6494     9.4942     2.5487     0.0109     0.2463   -33.7837     6.9238     8.1332     7.8182    95.0495   102.3559
 2516.0000   100.0635     9.4943     2.5457     0.0050     0.2408   -33.1816     6.6760     7.9863     7.8182    95.0495   102.3559
 2516.5000    99.2713     9.5142     2.5229    -0.0010     0.2392   -33.1787     6.5555     7.7004     7.6769    87.1287   118.2604
 2517.0000   100.0675     9.5143     2.5129    -0.0030     0.2468   -33.1774     6.5555     7.5613     7.6769    87.2303   114.2843
 2517.5000   101.6579     9.5143     2.5139     0.0010     0.2531   -33.1733     6.5555     7.5613     7.6769    87.3319    86.4513
 2518.0000   104.0422     9.5144     2.5249     0.0010     0.2555   -33.1732     6.5555     7.5613     7.6769    87.4335   102.3559
 2518.5000   105.2356     9.5343     2.5268     0.0030     0.2559   -33.1680     6.5555     7.5613     7.6769    87.5351   102.3559
 2519.0000   106.4291     9.5344     2.5308     0.0050     0.2539   -33.1679     6.5555     7.5613     7.6769    87.6367    90.4274
 2519.5000   105.6370     9.5543     2.5368     0.0089     0.2519   -33.1638     6.5555     7.5613     7.8182    87.7383   102.3559
 2520.0000   104.0505     9.5544     2.5139     0.0089     0.2559   -33.1605     6.5555     7.5613     7.8182    87.8399   102.3559
 2520.5000   101.2728     9.5545     2.5030     0.0010     0.2595   -33.1879     6.6760     7.5613     7.8182    87.9415    86.4513
 2521.0000   100.8777     9.5744     2.4911    -0.0050     0.2619   -33.2153     6.7988     7.5613     7.6769    88.0431   105.1074
 2521.5000   100.8797     9.5546     2.4791    -0.0129     0.2603   -33.2426     6.7988     7.5613     7.5382    88.1447    98.3797
 2522.0000   103.6615     9.5944     2.4960    -0.0050     0.2583   -33.2700     6.7988     7.1589     7.4020    88.2463    94.4036
 2522.5000   105.6495     9.5945     2.5040     0.0010     0.2615   -33.2974     6.6760     6.9026     7.1368    88.3479    90.4274
 2523.0000   108.8292     9.5945     2.5089    -0.0010     0.2655   -33.3248     6.5555     6.6555     6.7568    88.4495   116.8843
 2523.5000   111.2146     9.6145     2.5040    -0.0070     0.2718   -33.3521     6.0947     6.6555     6.5148    88.5511    94.4036
 2524.0000   112.4084     9.6145     2.5080    -0.0070     0.2726   -33.3795     6.0947     6.6555     6.3971    88.6527    78.4990
 2524.5000   110.8218     9.6345     2.5109    -0.0050     0.2687   -33.4069     6.0947     6.7779     6.3971    88.7543   114.2843
 2525.0000   108.4406     9.6743     2.5139    -0.0010     0.2612   -33.4343     6.2068     7.0296     6.3971    88.8559   102.3559
 2525.5000   105.6621     9.6545     2.5189     0.0050     0.2524   -33.4617     6.2068     7.2906     6.5148    88.9575   122.2366
 2526.0000   100.8977     9.5950     2.5258     0.0109     0.2497   -33.4890     6.3209     7.4247     6.6347    89.0591   122.2366
 2526.5000   100.8997     9.6546     2.5268     0.0089     0.2556   -33.5239     6.3209     7.5613     6.8812    89.1607   102.3559
 2527.0000   101.6962     9.6746     2.5258     0.0050     0.2620   -33.5228     6.4371     7.5613     7.0078    89.2623    94.4036
 2527.5000   104.8760     9.6746     2.5249     0.0010     0.2675   -33.5197     6.5555     7.7004     7.2682    89.3639    94.4036
