~VERSION INFORMATION
 VERS.                2.0:   CWLS LOG ASCII STANDARD - VERSION 2.0
 WRAP.                 NO:   ONE LINE PER DEPTH STEP
~WELL INFORMATION
#MNEM.UNIT      DATA TYPE    INFORMATION
#----------   ------------   ------------------------------
 STRT.F          206.0000:   START DEPTH
 STOP.F         3080.5000:   STOP DEPTH
 STEP.F            0.5000:   STEP LENGTH
 NULL.          -999.2500:   NO VALUE
 COMP.    FENIX & SCISSON:   COMPANY
 WELL.   FENIX "A" #61-28:   WELL
 FLD .           N P R #3:   FIELD
 LOC .      S28 T39N R78W:   LOCATION
 CNTY.            NATRONA:   COUNTY
 STAT.            WYOMING:   STATE
 CTRY. UNITED STATES OF AMERICA:   COUNTRY
 SRVC.        SCHLUMBEGER:   SERVICE COMPANY
 DATE.        16-MAY-1977:   LOGDATE
 API .     49025103680000:   API NUMBER
~CURVE INFORMATION
#MNEM.UNIT       API CODE    CURVE DESCRIPTION
#----------   ------------   ------------------------------
 DEPT.F                  :   
 SPR .MV     07 010 01 00:   SPONTANEOUS POTENTIAL
 LL8 .OHMM   07 220 08 00:   LATEROLOG-8 RES.
 ILM .OHMM   07 120 44 00:   INDUCTION LOG MEDIUM RESISTIVITY
 ILD .OHMM   07 120 46 00:   DEEP INDUCTION RESISTIVITY
 CALD.IN     45 280 60 00:   CALIPER FROM DENSITY LOG
 GRD .GAPI   45 310 01 00:   GAMMA RAY FROM DENSITY LOG
 RHOB.G/C3   45 350 01 00:   BULK DENSITY
 CORR.G/C3   45 356 01 00:   DENSITY CORRECTION
~PARAMETER INFORMATION
#MNEM.UNIT          VALUE    DESCRIPTION
#----------   ------------   ------------------------------
 EKB .F         5019.0000:   Kelly bushing
 EGL .F         5009.0000:   Ground level
 EDF .F            0.0000:   Drilling floor
 TD  .F         3050.0000:   Total depth
 DATE.        16-MAY-1977:   Date logged
 CLNT.            A2DTECH:   Client Code
 SL  . 330' FNL & 1650' FEL:   Surface Location
 PD  .                 GL:   Permanent Datum
 DD  .F              3050:   Depth driller
 DL  .F              3079:   Depth logger
 BLI .F              3072:   Bottom log interval
 CS1 .IN            8.625:   Casing size
 CBD1.      8.625" @ 213':   Casing driller 1
 CBL1.F               213:   Casing logger 1
 BS1 .IN            7.875:   Bit size
 DFT .            KCL-MUD:   Type fluid in hole
 DFD .                9.2:   Density
 DFV .                 32:   Viscosity
 DFPH.                  8:   pH
 DFL .                7.6:   Fluid loss
 MSS .              CIRC.:   Source of sample
 RMS .OHMM          0.128:   Rm
 MST .F                62:   Rm Meas. temp.
 RMF .OHMM          0.126:   Rmf
 MFST.F                62:   Rmf Meas. temp.
 RMC .OHMM          0.192:   Rmc
 MCST.F                62:   Rmc Meas. temp.
 MFSS.               MEAS:   Source Rmf.
 RMB .OHMM           0.07:   Rm. at BHT
 BHT .F               112:   BHT.
 TCS .HRS            0900:   Time Circ. stopped
 MRT .F               112:   Maximum recorded temp.
 LUN .               7711:   Logging unit number
 LUL .               CSPR:   Logging unit location
 ENGI.             SAYLER:   Recorded By
 WITN.         PETTINGILL:   Witnessed by
 ORIG.           5" PRINT:   Origin of data
 UWI .     49025103680000:   Unique Well ID
 DICO. A2D TECHNOLOGIES, INC.:   Digitizing Company
 DAPD.                 10:   Feet Above Permanent Datum
 BSD1.               3050:   Depth drilled with bit1
 MCSS.               CALC:   Source Rmc.
 EPD .F              5009:   Elevation Permanent Datum
 LMF .                 KB:   Log Measured From
 DMF .                 KB:   Drilling Measured From
 TLI .F               213:   Top log interval
 TLAB.               1100:   Time logger at bottom
~OTHER INFORMATION
~A   DEPT      SPR        LL8        ILM        ILD       CALD         GRD      RHOB       CORR   
# ...
 2109.5000   -45.7760     9.7650     8.9070     8.7210     8.8490   113.4030     2.4990     0.0160
 2110.0000   -45.8370     9.5870     8.9070     8.5850     8.8470   114.4230     2.4890    -0.0040
 2110.5000   -45.8990     9.8200     8.9070     8.6150     8.8440   115.0430     2.4790    -0.0010
 2111.0000   -45.9600    10.1130     8.9070     8.6390     8.8420   115.1210     2.4760     0.0060
 2111.5000   -46.0210    10.4070     8.9070     8.6640     8.8400   116.7700     2.4800     0.0040
 2112.0000   -46.0830    10.7000     8.9070     8.6880     8.8380   117.4920     2.4840     0.0020
 2112.5000   -46.1440    10.9030     8.9070     8.7120     8.8360   117.8020     2.4860     0.0000
 2113.0000   -46.1980    10.7790     8.9070     8.7450     8.8340   116.9830     2.4860    -0.0030
 2113.5000   -46.1980    10.5240     8.8670     8.5850     8.8320   115.5690     2.4860    -0.0050
 2114.0000   -46.2150    10.2690     8.8070     8.5280     8.8290   113.8870     2.4910    -0.0040
 2114.5000   -46.2490    10.0150     8.7480     8.4620     8.8270   111.9960     2.5000     0.0040
 2115.0000   -46.2830     9.7600     8.6880     8.3950     8.8250   110.6200     2.5010     0.0110
 2115.5000   -46.3170     9.5060     8.6280     8.3290     8.8230   111.5400     2.4990     0.0100
 2116.0000   -46.3500     9.2410     8.5690     8.2620     8.8210   113.7690     2.4890     0.0070
 2116.5000   -46.3840     9.6550     8.5090     8.1960     8.8190   116.2920     2.4780     0.0030
 2117.0000   -46.4180     9.9460     8.4490     8.1290     8.8210   120.1500     2.4760     0.0000
 2117.5000   -46.4520     9.7690     8.3920     8.0620     8.8220   123.6690     2.4760    -0.0040
 2118.0000   -46.4850     9.5780     8.3310     7.9960     8.8240   122.1980     2.4720    -0.0070
 2118.5000   -46.5190     9.3860     8.2760     7.9290     8.8260   118.9630     2.4660    -0.0080
 2119.0000   -46.5550     9.2410     8.1530     7.8630     8.8270   112.8470     2.4620    -0.0100
 2119.5000   -46.5810     9.2410     7.9650     7.7960     8.8290   106.7270     2.4710    -0.0110
 2120.0000   -46.6680     9.4140     7.7780     7.7300     8.8310   103.9430     2.4810    -0.0120
 2120.5000   -46.7990     9.5870     7.5900     7.6050     8.8320   101.4680     2.4880    -0.0020
 2121.0000   -46.9200     9.0950     7.4020     7.3890     8.8340   100.4150     2.4740     0.0060
 2121.5000   -47.0410     8.2350     7.2150     7.1730     8.8350   100.3120     2.4650     0.0040
 2122.0000   -47.1660     7.8310     7.0270     6.9560     8.8370   102.0370     2.4720     0.0070
 2122.5000   -47.2870     7.7530     6.8390     6.7400     8.8390   104.7760     2.4770     0.0120
 2123.0000   -47.3950     7.6890     6.6520     6.5240     8.8430   105.4400     2.4730     0.0130
 2123.5000   -47.3990     7.3890     6.4640     6.3080     8.8460   103.1240     2.4680     0.0110
 2124.0000   -47.4010     6.9440     6.2760     6.0920     8.8500   100.3940     2.4640     0.0050
 2124.5000   -47.3990     6.4990     6.0540     5.8360     8.8540   100.5350     2.4590     0.0000
 2125.0000   -47.4000     6.0540     6.2360     5.9500     8.8580   101.9460     2.4550    -0.0020
 2125.5000   -47.4000     6.5920     6.4580     6.0910     8.8570   104.4160     2.4570     0.0000
 2126.0000   -47.4000     7.5010     6.6810     6.2310     8.8540   104.8090     2.4610     0.0020
 2126.5000   -47.4000     8.4100     6.9030     6.3710     8.8510   103.0510     2.4660     0.0040
 2127.0000   -47.4000     9.3190     7.1440     6.5110     8.8480   101.4580     2.4700     0.0060
 2127.5000   -47.4000     9.9460     7.2760     6.6370     8.8460   100.4390     2.4700     0.0080
 2128.0000   -47.4000     9.1850     7.0580     6.5750     8.8430    99.5140     2.4680     0.0100
 2128.5000   -47.4000     8.4950     6.7450     6.3580     8.8400    98.5170     2.4670     0.0050
 2129.0000   -47.4000     7.8060     6.4310     6.1410     8.8380    94.8230     2.4700     0.0000
 2129.5000   -47.4000     7.0980     6.1170     5.9240     8.8350    91.4400     2.4750    -0.0030
 2130.0000   -47.4000     6.3670     5.8030     5.7070     8.8320    93.5620     2.4810     0.0020
 2130.5000   -47.4000     5.6360     5.4890     5.4900     8.8290    96.6820     2.4770     0.0050
 2131.0000   -47.4000     5.1900     5.2260     5.2730     8.8270    99.8420     2.4650    -0.0010
 2131.5000   -47.4000     5.0380     5.2760     5.1310     8.8240   103.1450     2.4540    -0.0030
 2132.0000   -47.4000     6.2810     5.3410     5.1310     8.8210   103.8180     2.4470     0.0030
 2132.5000   -47.4000     6.7760     5.4060     5.1310     8.8180   103.2000     2.4600     0.0100
 2133.0000   -47.4000     7.4680     5.4710     5.1310     8.8090   104.5840     2.4710     0.0140
 2133.5000   -47.4000     7.9770     5.5360     5.2260     8.8000   106.6790     2.4820     0.0120
 2134.0000   -47.4000     7.1230     5.6010     5.2260     8.7910   108.7990     2.4780     0.0110
 2134.5000   -47.3990     5.9440     5.7290     5.3910     8.7810   110.4380     2.4730     0.0110
 2135.0000   -47.4030     6.4060     5.8480     5.5490     8.7770   111.8750     2.4680     0.0140
 2135.5000   -47.3670     6.6370     5.9940     5.7070     8.7750   112.4130     2.4670     0.0190
 2136.0000   -47.3020     6.5500     6.1400     5.8650     8.7730   112.6770     2.4750     0.0230
 2136.5000   -47.2410     6.5160     6.2860     6.0230     8.7710   113.2070     2.4790     0.0260
 2137.0000   -47.1800     6.7420     6.4310     6.1810     8.7680   114.6340     2.4800     0.0230
 2137.5000   -47.1190     7.0500     6.5770     6.3390     8.7660   117.4930     2.4720     0.0150
 2138.0000   -47.0580     8.0430     6.7230     6.5160     8.7640   119.6060     2.4640     0.0130
 2138.5000   -46.9960     9.3390     6.8690     6.5970     8.7610   120.5320     2.4900     0.0240
 2139.0000   -46.9350    10.5100     7.0140     6.7670     8.7590   120.4210     2.4860     0.0210
 2139.5000   -46.8740     9.7820     7.1600     6.9380     8.7640   119.6770     2.4810     0.0180
 2140.0000   -46.8120     8.2760     7.2760     7.1440     8.7690   115.6840     2.4920     0.0270
 2140.5000   -46.7510     8.2580     7.2760     7.1000     8.7750   110.9510     2.5030     0.0350
 2141.0000   -46.6910     8.2110     7.1520     6.9870     8.7810   106.5380     2.5020     0.0270
 2141.5000   -46.6270     8.1650     7.0260     6.8740     8.7860   102.6620     2.5040     0.0180
 2142.0000   -46.5980     8.1250     6.9000     6.7620     8.7920    98.9700     2.5100     0.0100
 2142.5000   -46.6000     7.9230     6.7600     6.6370     8.7970    97.2330     2.5130     0.0130
 2143.0000   -46.6010     7.5490     6.7600     6.6370     8.7940    97.9930     2.5080     0.0100
 2143.5000   -46.5990     7.7140     6.8840     6.7090     8.7860    99.7110     2.5030     0.0070
 2144.0000   -46.5970     8.3360     6.9970     6.8150     8.7790   101.2740     2.4980     0.0140
 2144.5000   -46.5480     9.0720     7.1110     6.9220     8.7710    99.8760     2.5020     0.0170
 2145.0000   -46.5010     8.8350     7.2250     7.0280     8.7640    98.0020     2.4980     0.0110
 2145.5000   -46.4510     8.5450     7.3390     7.1340     8.7600    98.0830     2.4930     0.0050
 2146.0000   -46.4020     8.2550     7.4110     7.2410     8.7630    98.6140     2.4920     0.0000
 2146.5000   -46.3530     8.1250     7.6090     7.3470     8.7670    99.4850     2.5010     0.0030
 2147.0000   -46.3030     7.9770     7.8310     7.4530     8.7700   101.6580     2.4970     0.0040
 2147.5000   -46.2560     8.1250     7.9770     7.5490     8.7730   103.7660     2.4890    -0.0020
 2148.0000   -46.2040     9.4780     7.7570     7.4110     8.7760   105.7290     2.4810    -0.0070
 2148.5000   -46.2080    10.3180     7.5570     7.2240     8.7800   107.4370     2.4760    -0.0030
 2149.0000   -46.2160     9.9460     7.3570     7.0100     8.7830   107.9390     2.4780     0.0020
 2149.5000   -46.2250     9.3510     7.1570     6.7960     8.7860   107.3020     2.4810     0.0060
