~VERSION INFORMATION
 VERS.                2.0:   CWLS LOG ASCII STANDARD - VERSION 2.0
 WRAP.                 NO:   ONE LINE PER DEPTH STEP
~WELL INFORMATION
#MNEM.UNIT      DATA TYPE    INFORMATION
#----------   ------------   ------------------------------
 STRT.F           40.0000:   START DEPTH
 STOP.F         1336.0000:   STOP DEPTH
 STEP.F            0.5000:   STEP LENGTH
 NULL.          -999.2500:   NO VALUE
 COMP. LAWRENCE - ALLISON WEST:   COMPANY
 WELL. LAWRENCE NPR 3 "AX" #54-23:   WELL
 FLD .              N P R:   FIELD
 LOC .      S23 T38N R78W:   LOCATION
 CNTY.            NATRONA:   COUNTY
 STAT.            WYOMING:   STATE
 CTRY. UNITED STATES OF AMERICA:   COUNTRY
 SRVC.       SCHLUMBERGER:   SERVICE COMPANY
 DATE.        13-MAY-1982:   LOGDATE
 API .     49025108880000:   API NUMBER
~CURVE INFORMATION
#MNEM.UNIT       API CODE    CURVE DESCRIPTION
#----------   ------------   ------------------------------
 DEPT.F                  :   
 NPOR.DEC    42 890 03 00:   ALPHA PROCESSED NEUTRON POROSITY
 TEND.LBS    45 635 01 00:   TENSION FROM DENSITY LOG
 CORR.G/C3   45 356 01 00:   DENSITY CORRECTION
 RHOB.G/C3   45 350 01 00:   BULK DENSITY
 GRD .GAPI   45 310 01 00:   GAMMA RAY FROM DENSITY LOG
 CALD.IN     45 280 60 00:   CALIPER FROM DENSITY LOG
 SPR .MV     07 010 01 00:   SPONTANEOUS POTENTIAL
 TENR.LBS    07 635 01 00:   TENSION
 ILD .OHMM   07 120 46 00:   DEEP INDUCTION RESISTIVITY
 ILM .OHMM   07 120 44 00:   INDUCTION LOG MEDIUM RESISTIVITY
 SFL .OHMM   07 220 01 00:   SHALLOW FOCUSED LOG RESISTIVITY
~PARAMETER INFORMATION
#MNEM.UNIT          VALUE    DESCRIPTION
#----------   ------------   ------------------------------
 EKB .F         5342.0000:   Kelly bushing
 EGL .F         5332.0000:   Ground level
 EDF .F            0.0000:   Drilling floor
 TD  .F         1325.0000:   Total depth
 DATE.        13-MAY-1982:   Date logged
 CLNT.            A2DTECH:   Client Code
 SL  . 2278' FSL & 2665' FWL:   Surface Location
 PD  .                 GL:   Permanent Datum
 DD  .F              1325:   Depth driller
 DL  .F              1314:   Depth logger
 BLI .F              1308:   Bottom log interval
 CS1 .IN             15.5:   Casing size
 CBD1.        15.5" @ 40':   Casing driller 1
 CBL1.F                54:   Casing logger 1
 BS1 .IN            12.25:   Bit size
 DFT .             LT/GEL:   Type fluid in hole
 DFD .                8.9:   Density
 DFV .                 33:   Viscosity
 DFPH.                8.8:   pH
 DFL .                 16:   Fluid loss
 MSS .                PIT:   Source of sample
 RMS .OHMM           2.47:   Rm
 MST .F                61:   Rm Meas. temp.
 RMF .OHMM           2.12:   Rmf
 MFST.F                62:   Rmf Meas. temp.
 MFSS.               MEAS:   Source Rmf.
 RMB .OHMM           1.73:   Rm. at BHT
 BHT .F                87:   BHT.
 TCS .HRS            2300:   Time Circ. stopped
 MRT .F                87:   Maximum recorded temp.
 LUN .               8043:   Logging unit number
 LUL .               CSPR:   Logging unit location
 ENGI.        WAGNER/CSPR:   Recorded By
 WITN.           JENNINGS:   Witnessed by
 ORIG.           5" PRINT:   Origin of data
 UWI .     49025108880000:   Unique Well ID
 DICO. A2D TECHNOLOGIES, INC.:   Digitizing Company
 BSD1.F              1325:   Depth drilled with bit1
 EPD .F              5332:   Elevation Permanent Datum
 LMF .                 KB:   Log Measured From
 DMF .                 KB:   Drilling Measured From
 TLI .F                54:   Top log interval
 DAPD.F                10:   Feet Above Permanent Datum
~OTHER INFORMATION
~A   DEPT     NPOR       TEND       CORR       RHOB        GRD       CALD        SPR       TENR        ILD        ILM        SFL   
# ...
 1290.5000     0.1770   265.9110     0.0150     2.4790   152.3970    12.3750   -18.8680   126.7350     8.1490     7.2800     7.8810
 1291.0000     0.1690   266.4420     0.0210     2.4940   152.9830    12.3740   -18.4540   127.0620     7.8270     7.1370     7.7990
 1291.5000     0.1620   266.9720     0.0230     2.5010   152.0840    12.3790   -18.2060   127.3890     7.5060     6.8380     7.3050
 1292.0000     0.1570   267.5020     0.0210     2.4880   149.9510    12.3830   -18.2450   127.7160     7.1850     6.4820     6.8670
 1292.5000     0.1520   268.0320     0.0180     2.4810   149.5930    12.3880   -17.8410   128.0430     6.8630     6.1050     6.4290
 1293.0000     0.1470   268.5620     0.0200     2.4770   148.7830    12.3920   -17.3360   128.3230     6.5420     5.4870     5.9910
 1293.5000     0.1410   269.0930     0.0220     2.4650   147.4180    12.3890   -17.1170   127.7600     5.8660     4.7900     4.8750
 1294.0000     0.1570   269.6230     0.0250     2.4420   146.7340    12.3850   -18.3710   127.2680     5.0700     4.0210     4.0500
 1294.5000     0.1630   270.1530     0.0120     2.4120   147.8150    12.3820   -19.6830   126.7760     4.2730     3.2180     3.6510
 1295.0000     0.1590   270.6830    -0.0020     2.3990  -999.2500    12.3790   -20.2520   126.2830     3.6030     3.2180     3.2530
 1295.5000     0.1450   271.2130    -0.0020     2.4190  -999.2500    12.3750   -20.0880   125.7910     4.8800     3.9350     3.0290
 1296.0000     0.1410   271.7430     0.0010     2.4620  -999.2500    12.3720   -19.8500   125.2990     6.4680     4.8770     2.8600
 1296.5000     0.1470   272.2740     0.0060     2.5030  -999.2500    12.3690   -19.6080   124.8070     7.4550     5.8190     4.3500
 1297.0000     0.1550   272.8040     0.0100     2.5130  -999.2500    12.3660   -19.3930   124.3140     7.7990     6.6070     5.9910
 1297.5000     0.1640   273.3340     0.0160     2.5170  -999.2500    12.3620   -19.2190   123.8220     7.8160     7.2800     6.8080
 1298.0000     0.1720   273.8640     0.0220     2.5190  -999.2500    12.3590   -19.0350   123.3300     7.8600     7.9530     7.5040
 1298.5000     0.1720   274.3940     0.0260     2.5230  -999.2500    12.3560   -19.0260   122.8380     7.9040     8.1830     7.8660
 1299.0000     0.1680   274.9250     0.0290     2.5270  -999.2500    12.3520   -19.0110   122.3450     7.9480     8.2900     8.1370
 1299.5000     0.1670   275.4550     0.0310     2.5330  -999.2500    12.3490   -19.0250   121.8530     7.9920     8.3970     8.4090
 1300.0000     0.1700   275.9850     0.0310     2.5400  -999.2500    12.3460   -19.0740   121.3610     8.0360     8.5050     8.4090
 1300.5000     0.1670   276.5150     0.0310     2.5390  -999.2500    12.3430   -19.7580   120.8690     8.0810     8.6080     8.4090
 1301.0000     0.1630   277.0450     0.0290     2.5320  -999.2500    12.3390   -20.1710   120.3760     8.1840     8.7070     8.4090
 1301.5000     0.1590   277.5760     0.0250     2.5320  -999.2500    12.3360   -20.1660   119.8840     8.3260     8.8060     8.6700
 1302.0000     0.1580   278.1060     0.0210     2.5320  -999.2500    12.3330   -19.7450   119.3920     8.4690     8.9040     8.9210
 1302.5000     0.1580   278.6360     0.0170     2.5230  -999.2500    12.3350   -19.3170   118.9000     8.6110     9.0030     9.1730
 1303.0000  -999.2500   279.1660     0.0120     2.5120  -999.2500    12.3460   -18.8490   118.4070     8.7540     9.1020     9.4240
 1303.5000  -999.2500   279.6960     0.0040     2.4990  -999.2500    12.3570   -18.5710   117.9150     8.8960     9.2000     9.6760
 1304.0000  -999.2500   280.2260    -0.0060     2.4850  -999.2500    12.3690   -18.5030   117.4230     9.0670     9.2970     9.8240
 1304.5000  -999.2500   280.7570    -0.0060     2.4810  -999.2500    12.3800   -18.4090   116.9310     9.1850     9.3920     9.9040
 1305.0000  -999.2500   281.2870     0.0050     2.4950  -999.2500    12.3910   -18.3180   116.4380     9.3330     9.4870     9.9840
 1305.5000  -999.2500   281.8170     0.0140     2.5130  -999.2500    12.4020   -18.2310   115.9460     9.4810     9.5820    10.0640
 1306.0000  -999.2500   282.3470     0.0220     2.5220  -999.2500    12.4120   -18.0850   115.4540     9.6290     9.6770    10.1430
 1306.5000  -999.2500   282.8770     0.0230     2.5230  -999.2500    12.4090   -17.9390   114.9620     9.7770     9.7720    10.2230
 1307.0000  -999.2500   283.4080     0.0170     2.5160  -999.2500    12.4060   -17.8850   114.4690     9.8190     9.8670    10.3030
 1307.5000  -999.2500   283.9380     0.0110     2.5100  -999.2500    12.4030   -18.0300   113.9770     9.8610     9.9630    10.3820
 1308.0000  -999.2500   284.4680     0.0070     2.5040  -999.2500    12.4000   -18.1570   113.4850     9.9030    10.0410    10.4620
 1308.5000  -999.2500   284.9980     0.0080     2.5000  -999.2500    12.3970   -18.4640   112.9930     9.9460    10.1200    10.5420
 1309.0000  -999.2500   285.5280     0.0110     2.5030  -999.2500    12.3940   -18.9870   112.5000  -999.2500  -999.2500  -999.2500
 1309.5000  -999.2500   286.0580     0.0190     2.5150  -999.2500    12.3900  -999.2500   112.0080  -999.2500  -999.2500  -999.2500
 1310.0000  -999.2500   286.5890     0.0260     2.5340  -999.2500    12.3870  -999.2500   111.5160  -999.2500  -999.2500  -999.2500
 1310.5000  -999.2500   287.1190     0.0260     2.5400  -999.2500    12.3840  -999.2500   111.0240  -999.2500  -999.2500  -999.2500
 1311.0000  -999.2500   287.6490     0.0210     2.5290  -999.2500    12.3810  -999.2500   110.5310  -999.2500  -999.2500  -999.2500
 1311.5000  -999.2500   288.1790     0.0140     2.5170  -999.2500    12.3780  -999.2500   110.0390  -999.2500  -999.2500  -999.2500
 1312.0000  -999.2500   288.7090     0.0140     2.5140  -999.2500    12.3750  -999.2500   109.5470  -999.2500  -999.2500  -999.2500
 1312.5000  -999.2500   289.2400     0.0150     2.5180  -999.2500    12.3720  -999.2500   109.0550  -999.2500  -999.2500  -999.2500
 1313.0000  -999.2500   289.7700     0.0170     2.5190  -999.2500    12.3780  -999.2500   108.5620  -999.2500  -999.2500  -999.2500
 1313.5000  -999.2500   290.3000     0.0200     2.5190  -999.2500    12.3830  -999.2500   108.0700  -999.2500  -999.2500  -999.2500
 1314.0000  -999.2500   290.8300     0.0220     2.5160  -999.2500    12.3880  -999.2500   107.8730  -999.2500  -999.2500  -999.2500
 1314.5000  -999.2500   291.3600     0.0230     2.5120  -999.2500    12.3880  -999.2500   128.3230  -999.2500  -999.2500  -999.2500
 1315.0000  -999.2500   291.8910     0.0210     2.5080  -999.2500    12.3690  -999.2500   145.3650  -999.2500  -999.2500  -999.2500
 1315.5000  -999.2500   292.4210     0.0190     2.5060  -999.2500    12.3120  -999.2500   162.4060  -999.2500  -999.2500  -999.2500
 1316.0000  -999.2500   292.9510     0.0260     2.5050  -999.2500    12.2220  -999.2500   169.2230  -999.2500  -999.2500  -999.2500
 1316.5000  -999.2500   293.4810     0.0370     2.5100  -999.2500    12.0920  -999.2500   148.7730  -999.2500  -999.2500  -999.2500
 1317.0000  -999.2500   294.0110     0.0530     2.5150  -999.2500    11.9600  -999.2500   118.0980  -999.2500  -999.2500  -999.2500
 1317.5000  -999.2500   294.5410     0.0690     2.5200  -999.2500    11.8210  -999.2500    66.9730  -999.2500  -999.2500  -999.2500
 1318.0000  -999.2500   296.4490  -999.2500  -999.2500  -999.2500    11.8170  -999.2500    26.0740  -999.2500  -999.2500  -999.2500
 1318.5000  -999.2500   299.7340  -999.2500  -999.2500  -999.2500    11.8170  -999.2500   -26.5120  -999.2500  -999.2500  -999.2500
 1319.0000  -999.2500   303.0190  -999.2500  -999.2500  -999.2500    11.8170  -999.2500   -70.3330  -999.2500  -999.2500  -999.2500
 1319.5000  -999.2500   306.3040  -999.2500  -999.2500  -999.2500    11.8170  -999.2500   -96.0240  -999.2500  -999.2500  -999.2500
 1320.0000  -999.2500   309.5890  -999.2500  -999.2500  -999.2500    11.8170  -999.2500   -94.5210  -999.2500  -999.2500  -999.2500
 1320.5000  -999.2500   312.8740  -999.2500  -999.2500  -999.2500  -999.2500  -999.2500   -93.0170  -999.2500  -999.2500  -999.2500
