~VERSION INFORMATION
 VERS.                2.0:   CWLS LOG ASCII STANDARD - VERSION 2.0
 WRAP.                 NO:   ONE LINE PER DEPTH STEP
~WELL INFORMATION
#MNEM.UNIT      DATA TYPE    INFORMATION
#----------   ------------   ------------------------------
 STRT.F          210.5000:   START DEPTH
 STOP.F         3234.0000:   STOP DEPTH
 STEP.F            0.5000:   STEP LENGTH
 NULL.          -999.2500:   NO VALUE
 COMP.    FENIX & SCISSON:   COMPANY
 WELL.   FENIX "A" #21-10:   WELL
 FLD .              NPR-3:   FIELD
 LOC .      S10 T38N R78W:   LOCATION
 CNTY.            NATRONA:   COUNTY
 STAT.            WYOMING:   STATE
 CTRY. UNITED STATES OF AMERICA:   COUNTRY
 SRVC.      DRESSER ATLAS:   SERVICE COMPANY
 DATE.        31-AUG-1977:   LOGDATE
 API .     49025104260000:   API NUMBER
~CURVE INFORMATION
#MNEM.UNIT       API CODE    CURVE DESCRIPTION
#----------   ------------   ------------------------------
 DEPT.F                  :   
 GRD .GAPI   45 310 01 00:   GAMMA RAY FROM DENSITY LOG
 CALD.IN     45 280 60 00:   CALIPER FROM DENSITY LOG
 RHOB.G/C3   45 350 01 00:   BULK DENSITY
 CORR.G/C3   45 356 01 00:   DENSITY CORRECTION
 SPR .MV     11 010 01 00:   SPONTANEOUS POTENTIAL
 LLS .OHMM   11 220 09 00:   LATEROLOG SHALLOW
 LLD .OHMM   11 220 10 00:   LATEROLOG DEEP
 TEND.LBS    45 635 01 00:   TENSION FROM DENSITY LOG
 TENR.LBS    07 635 01 00:   TENSION
~PARAMETER INFORMATION
#MNEM.UNIT          VALUE    DESCRIPTION
#----------   ------------   ------------------------------
 EKB .F         5258.0000:   Kelly bushing
 EGL .F         5248.0000:   Ground level
 EDF .F            0.0000:   Drilling floor
 TD  .F         3222.0000:   Total depth
 DATE.        31-AUG-1977:   Date logged
 CLNT.            A2DTECH:   Client Code
 SL  . 330' FNL & 990' FWL:   Surface Location
 PD  .                 GL:   Permanent Datum
 EPD .F              5248:   Elevation Permanent Datum
 LMF .                 KB:   Log Measured From
 DMF .                 KB:   Drilling Measured From
 DAPD.F                10:   Feet Above Permanent Datum
 DD  .F              3222:   Depth driller
 DL  .F              3219:   Depth logger
 BLI .F              3218:   Bottom log interval
 TLI .F               221:   Top log interval
 CS1 .IN             8.75:   Casing size
 CBD1.       8.75" @ 219':   Casing driller 1
 CBL1.F               221:   Casing logger 1
 BS1 .IN            7.875:   Bit size
 BSD1.F              3222:   Depth drilled with bit1
 DFT .                KCL:   Type fluid in hole
 DFD .                9.1:   Density
 DFV .                 36:   Viscosity
 DFPH.                 11:   pH
 DFL .                  8:   Fluid loss
 MSS .           FLOWLINE:   Source of sample
 RMS .OHMM           0.14:   Rm
 MST .F                72:   Rm Meas. temp.
 RMF .OHMM           0.08:   Rmf
 MFST.F                72:   Rmf Meas. temp.
 RMC .OHMM           0.20:   Rmc
 MCST.F                72:   Rmc Meas. temp.
 MFSS.               CALC:   Source Rmf.
 MCSS.               CALC:   Source Rmc.
 RMB .OHMM           0.08:   Rm. at BHT
 BHT .F               125:   BHT.
 TCS .HRS               3:   Time Circ. stopped
 MRT .F               125:   Maximum recorded temp.
 LUN .               6080:   Logging unit number
 LUL .              WLSTN:   Logging unit location
 ENGI.               RALL:   Recorded By
 WITN.         PETTINGILL:   Witnessed by
 ORIG.           5" PRINT:   Origin of data
 UWI .     49025104260000:   Unique Well ID
 DICO. A2D TECHNOLOGIES, INC.:   Digitizing Company
~OTHER INFORMATION
~A   DEPT      GRD       CALD       RHOB       CORR        SPR        LLS        LLD       TEND        TENR  
# ...
 1597.5000    90.2820    10.4060     2.4920     0.0180   -76.6820     7.6790     8.1610   321.7870   506.4550
 1598.0000    89.5800    10.4090     2.4960     0.0200   -76.8430     7.6950     8.3120   321.3070   506.4550
 1598.5000    88.8820    10.4120     2.5010     0.0230   -76.8430     7.7110     8.3520   320.8270   506.4550
 1599.0000    88.1570    10.4120     2.5050     0.0250   -76.6410     7.7250     8.3880   320.3470   506.4550
 1599.5000    87.9720    10.4100     2.5110     0.0280   -76.3570     7.7870     8.4250   319.8670   506.4550
 1600.0000    90.4030    10.4070     2.5160     0.0300   -76.0710     7.8560     8.4650   319.3870   506.4550
 1600.5000    92.7830    10.4040     2.5190     0.0330   -75.7860     7.9250     8.4650   318.9070   506.4550
 1601.0000    95.2480    10.4020     2.5220     0.0350   -75.5010     7.9940     8.4650   318.4270   506.4550
 1601.5000    94.1800    10.3990     2.5250     0.0360   -75.2150     8.0130     8.3880   317.9470   506.4550
 1602.0000    91.9670    10.3960     2.5280     0.0350   -74.9200     8.0010     8.3660   317.4660   506.4550
 1602.5000    89.7060    10.3930     2.5310     0.0340   -74.8570     7.9620     8.2970   316.9860   506.4550
 1603.0000    88.7240    10.3900     2.5300     0.0330   -75.1750     7.9240     8.2280   316.5060   506.4550
 1603.5000    88.8420    10.3880     2.5280     0.0320   -75.5260     7.8860     8.1590   316.0260   506.4550
 1604.0000    88.9620    10.3850     2.5270     0.0310   -75.8790     7.8680     8.0870   315.5460   506.4550
 1604.5000    89.0880    10.3820     2.5250     0.0300   -76.2300     7.9720     8.2950   315.0660   506.4550
 1605.0000    89.2170    10.3790     2.5240     0.0280   -76.2450     8.1620     8.4740   314.5860   506.4550
 1605.5000    89.3340    10.3770     2.5230     0.0270   -76.2140     8.3510     8.6530   314.1060   506.4550
 1606.0000    89.0760    10.3740     2.5210     0.0260   -76.0300     8.6220     8.8310   313.6260   506.4550
 1606.5000    86.8260    10.3830     2.5200     0.0250   -75.8510     8.5950     9.1920   313.1450   506.4550
 1607.0000    84.5750    10.4020     2.5180     0.0240   -75.8440     8.5240     9.1450   312.6650   506.4550
 1607.5000    82.3030    10.4200     2.5190     0.0290   -75.8450     8.4530     9.0240   312.1850   506.4550
 1608.0000    81.9150    10.4390     2.5190     0.0290   -75.8440     8.3810     8.9020   311.7050   506.4550
 1608.5000    83.1930    10.4570     2.5190     0.0300   -75.8480     8.3100     8.7810   311.2250   506.4550
 1609.0000    84.5420    10.4720     2.5200     0.0310   -75.9520     8.2390     8.5430   310.7450   506.4550
 1609.5000    85.8280    10.4680     2.5200     0.0310   -76.0590     8.1680     8.3880   310.2650   506.4550
 1610.0000    85.5100    10.4630     2.5200     0.0320   -76.1670     8.0970     8.2920   309.7850   506.4550
 1610.5000    85.0160    10.4580     2.5210     0.0330   -76.2730     8.0260     8.1610   309.3050   506.4550
 1611.0000    85.9740    10.4540     2.5210     0.0340   -76.3800     7.9400     8.1610   308.8240   506.4550
 1611.5000    87.0650    10.4490     2.5220     0.0350   -76.4410     7.8680     8.1610   308.3440   506.4550
 1612.0000    88.1660    10.4450     2.5220     0.0360   -76.4440     7.8680     8.1610   307.8640   506.4550
 1612.5000    89.2640    10.4400     2.5220     0.0360   -76.2520     7.8680     8.2360   307.3840   506.4550
 1613.0000    90.3600    10.4360     2.5180     0.0340   -75.9610     8.1110     8.4200   306.9310   506.4550
 1613.5000    91.4980    10.4310     2.5140     0.0320   -75.6700     8.3420     8.5430   306.9310   506.4550
 1614.0000    91.1860    10.4270     2.5100     0.0300   -75.3770     8.4650     8.5630   306.9310   506.4550
 1614.5000    89.8300    10.4220     2.5050     0.0280   -75.0870     8.4350     8.5930   306.9310   506.4550
 1615.0000    88.4640    10.4170     2.5030     0.0270   -75.0500     8.4060     8.6230   306.9310   506.4550
 1615.5000    87.0920    10.4130     2.5000     0.0250   -75.0460     8.3780     8.6530   306.9310   506.4550
 1616.0000    85.8760    10.4080     2.4980     0.0230   -75.2230     8.3490     8.6820   306.9310   506.4550
 1616.5000    86.7450    10.4040     2.4960     0.0210   -75.4710     8.3200     8.7120   306.9310   506.4550
 1617.0000    87.7520    10.3990     2.4930     0.0190   -75.7220     8.3120     8.7420   306.9310   506.4550
 1617.5000    88.7460    10.3950     2.4910     0.0170   -75.9740     8.2360     8.7810   306.9310   506.4550
 1618.0000    89.7440    10.3910     2.4880     0.0150   -76.2330     8.3120     8.6220   306.9310   506.4550
 1618.5000    89.0230    10.3870     2.4860     0.0140   -76.4380     8.4880     9.0340   306.9310   506.4550
 1619.0000    86.7320    10.3840     2.4840     0.0150   -76.4830     8.7990     9.2220   306.9310   506.4550
 1619.5000    84.4430    10.3810     2.4810     0.0150   -76.6230     9.1090     9.4100   306.9310   506.4550
 1620.0000    82.0940    10.3770     2.4790     0.0150   -76.1390     9.1920     9.5340   504.9500   506.4550
 1620.5000    80.4420    10.3740     2.4790     0.0150   -75.6110     8.8580     9.0980   359.2520   506.4550
 1621.0000    80.2910    10.3700     2.4800     0.0150   -75.4060     8.5660     8.7160   227.7230   506.4550
 1621.5000    80.5980    10.3670     2.4810     0.0150   -75.5680     8.2740     8.3880   499.1440   506.4550
 1622.0000    81.0980    10.3640     2.4820     0.0160   -75.6880     7.9400     8.1610   188.1190   506.4550
 1622.5000    83.0270    10.3600     2.4850     0.0160   -75.8090     7.9500     8.1970   544.5540   506.4550
 1623.0000    85.6480    10.3570     2.4900     0.0160   -75.9310     7.9680     8.2610   168.3170   506.4550
 1623.5000    88.3310    10.3540     2.4940     0.0160   -76.0540     7.9850     8.3240   351.1680   506.4550
 1624.0000    88.7580    10.3500     2.4940     0.0160   -76.1760     8.0030     8.3880    89.1090   506.4550
 1624.5000    87.8180    10.3470     2.4930     0.0180   -76.2990     8.0870     8.4790   544.5540   506.4550
 1625.0000    88.8990    10.3430     2.4960     0.0220   -76.4210     8.0870     8.5470   334.1580   506.4550
 1625.5000    90.6060    10.3400     2.5000     0.0250   -76.5350     8.1480     8.6160   207.9210   506.4550
 1626.0000    92.3220    10.3370     2.5020     0.0280   -76.6440     8.2250     8.6850   408.3170   506.4550
 1626.5000    93.1310    10.3350     2.5010     0.0280   -76.2060     8.3020     8.7540   489.6780   506.4550
 1627.0000    90.9830    10.3120     2.5010     0.0280   -76.1310     8.3790     8.8220   327.8220   506.4550
 1627.5000    88.9460    10.3020     2.5020     0.0280   -76.0100     8.4560     8.8910   267.3270   506.4550
 1628.0000    90.4710    10.2910     2.5030     0.0280   -75.8790     8.5330     8.9600   284.4220   506.4550
 1628.5000    91.8110    10.2810     2.5060     0.0280   -75.7500     8.6220     9.0290   301.0230   506.4550
 1629.0000    90.3230    10.2700     2.5090     0.0280   -75.6220     8.5460     9.1080   317.6240   506.4550
 1629.5000    89.0190    10.2590     2.5090     0.0280   -75.4780     8.4280     8.9250   334.2240   506.4550
 1630.0000    90.0060    10.2490     2.5090     0.0280   -75.9540     8.3100     8.7100   350.8250   506.4550
 1630.5000    92.4680    10.2380     2.5110     0.0280   -76.7140     8.1930     8.4940   367.4260   506.4550
 1631.0000    94.8670    10.2280     2.5130     0.0280   -77.4760     8.0750     8.3880   384.0260   506.4550
 1631.5000    96.6540    10.2170     2.5150     0.0280   -78.0430     8.0130     8.3200   400.6270   506.4550
 1632.0000    95.8430    10.2060     2.5150     0.0280   -77.5030     8.0710     8.3120   417.2280   506.4550
 1632.5000    94.9660    10.1960     2.5160     0.0280   -76.9080     8.2740     8.5260   433.8280   506.4550
 1633.0000    94.1030    10.1850     2.5160     0.0280   -76.7520     8.4770     8.6930   450.4290   506.4550
 1633.5000    92.0120    10.1750     2.5140     0.0280   -76.6550     8.6800     8.8600   467.0300   506.4550
