~VERSION INFORMATION
 VERS.                2.0:   CWLS LOG ASCII STANDARD - VERSION 2.0
 WRAP.                 NO:   ONE LINE PER DEPTH STEP
~WELL INFORMATION
#MNEM.UNIT      DATA TYPE    INFORMATION
#----------   ------------   ------------------------------
 STRT.F           16.0000:   START DEPTH
 STOP.F         4208.0000:   STOP DEPTH
 STEP.F            0.5000:   STEP LENGTH
 NULL.          -999.2500:   NO VALUE
 COMP.    FENIX & SCISSON:   COMPANY
 WELL. FENIX NPR 3 "MX" #41-10:   WELL
 FLD .                NPR:   FIELD
 LOC .      S10 T38N R78W:   LOCATION
 CNTY.            NATRONA:   COUNTY
 STAT.            WYOMING:   STATE
 CTRY. UNITED STATES OF AMERICA:   COUNTRY
 SRVC.       SCHLUMBERGER:   SERVICE COMPANY
 DATE.        04-NOV-1978:   LOGDATE
 API .     49025107260000:   API NUMBER
~CURVE INFORMATION
#MNEM.UNIT       API CODE    CURVE DESCRIPTION
#----------   ------------   ------------------------------
 DEPT.F                  :   
 TENR.LBS    07 635 01 00:   TENSION FROM RESISTIVITY
 SPR .MV     07 010 01 00:   SPONTANEOUS POTENTIAL
 SFL .OHMM   07 220 01 00:   SHALLOW FOCUSED LOG RESISTIVITY
 ILD .OHMM   07 120 46 00:   DEEP INDUCTION RESISTIVITY
 ILM .OHMM   07 120 44 00:   INDUCTION LOG MEDIUM RESISTIVITY
 CALD.IN     45 280 60 00:   CALIPER FROM DENSITY LOG
 GRD .GAPI   45 310 01 00:   GAMMA RAY FROM DENSITY LOG
 TEND.LBS    45 635 01 00:   TENSION FROM DENSITY LOG
 RHOB.G/C3   45 350 01 00:   BULK DENSITY
 CORR.G/C3   45 356 01 00:   DENSITY CORRECTION
 NPHI.DEC    42 890 03 00:   NEUTRON POROSITY SANDSTONE
~PARAMETER INFORMATION
#MNEM.UNIT          VALUE    DESCRIPTION
#----------   ------------   ------------------------------
 EKB .F         5237.0000:   Kelly bushing
 EGL .F         5227.0000:   Ground level
 EDF .F            0.0000:   Drilling floor
 TD  .F         4200.0000:   Total depth
 DATE.        04-NOV-1978:   Date logged
 CLNT.            A2DTECH:   Client Code
 SL  . 70' FNL & 2370' FWL:   Surface Location
 PD  .                 GL:   Permanent Datum
 EPD .F              5227:   Elevation Permanent Datum
 LMF .                 KB:   Log Measured From
 DMF .                 KB:   Drilling Measured From
 DAPD.F                10:   Feet Above Permanent Datum
 DD  .F              4200:   Depth driller
 DL  .F              4191:   Depth logger
 BLI .F              4185:   Bottom log interval
 TLI .F               506:   Top log interval
 CS1 .IN            9.625:   Casing size
 CBD1.      9.625" @ 500':   Casing driller 1
 CBL1.F               506:   Casing logger 1
 BS1 .IN             8.75:   Bit size
 BSD1.F              4200:   Depth drilled with bit1
 DFT .                FGM:   Type fluid in hole
 DFD .                9.3:   Density
 DFV .                 42:   Viscosity
 DFPH.               11.5:   pH
 DFL .                6.4:   Fluid loss
 MSS .               TANK:   Source of sample
 RMS .OHMM           1.08:   Rm
 MST .F                67:   Rm Meas. temp.
 RMF .OHMM           0.83:   Rmf
 MFST.F                67:   Rmf Meas. temp.
 MFSS.               MEAS:   Source Rmf.
 RMB .OHMM           0.58:   Rm. at BHT
 BHT .F               125:   BHT.
 TCS .HRS            0430:   Time Circ. stopped
 TLAB.HRS            0830:   Time logger at bottom
 MRT .F               125:   Maximum recorded temp.
 LUN .               8039:   Logging unit number
 LUL .               CSPR:   Logging unit location
 ENGI.          STADULLIS:   Recorded By
 WITN.              AMEND:   Witnessed by
 ORIG.           5" PRINT:   Origin of data
 UWI .     49025107260000:   Unique Well ID
 DICO. A2D TECHNOLOGIES, INC.:   Digitizing Company
~OTHER INFORMATION
~A   DEPT     TENR        SPR        SFL        ILD        ILM       CALD         GRD      TEND       RHOB       CORR       NPHI   
# ...
 1480.0000   662.6510   -19.7420     7.5330     7.5420     7.0340    12.5290   101.5430  1026.0430     2.5200     0.1640     0.3080
 1480.5000   662.6510   -19.7420     7.5430     7.5510     7.1220    12.4610   100.3390  1026.4370     2.5000     0.1210     0.3090
 1481.0000   662.6510   -19.7420     7.5530     7.5610     7.2010    12.3960    98.5170  1026.8311     2.5020     0.0910     0.3120
 1481.5000   662.6510   -19.7420     7.5630     7.5710     7.2800    12.3310    97.7740  1027.2250     2.5140     0.0860     0.3130
 1482.0000   662.6510   -19.7430     7.5740     7.6870     7.3590    12.2480    98.1200  1027.6190     2.5160     0.0770     0.3160
 1482.5000   662.6510   -19.7390     7.7390     7.8670     7.4380    12.2720    99.0700  1028.0129     2.5040     0.0630     0.3180
 1483.0000   662.6510   -19.7730     7.9320     8.0480     7.5170    12.4100    97.2150  1028.4070     2.5020     0.0470     0.3190
 1483.5000   662.6510   -19.8300     8.1250     8.2280     7.5960    12.5550    95.6370  1028.8010     2.5110     0.0370     0.3040
 1484.0000   662.6510   -19.8790     8.3180     8.4080     7.6740    12.4630    94.5560  1029.1949     2.5190     0.0330     0.2900
 1484.5000   662.6510   -19.9360     8.5110     8.6210     7.7530    12.0830    97.4960  1029.5890     2.5330     0.0340     0.2760
 1485.0000   662.6510   -19.9400     8.6210     8.5760     7.8600    11.8260   100.5600  1029.9830     2.5510     0.0400     0.2710
 1485.5000   662.6510   -19.9410     8.5080     8.4700     7.7910    11.7190   100.3350  1030.3760     2.5690     0.0470     0.2670
 1486.0000   662.6510   -19.9400     8.3990     8.3640     7.6860    11.6330    99.9520  1030.7700     2.5770     0.0470     0.2630
 1486.5000   662.6510   -19.9410     8.2900     8.2570     7.5800    11.8480    99.3030  1031.1639     2.5570     0.0320     0.2590
 1487.0000   662.6510   -19.9410     8.1800     8.1510     7.4750    12.1320   100.2200  1031.5580     2.5400     0.0190     0.2640
 1487.5000   662.6510   -19.9410     7.9080     8.0450     7.3700    12.3970   102.6580  1031.9520     2.5390     0.0160     0.2710
 1488.0000   662.6510   -19.9410     7.5890     7.9390     7.2640    12.6680   105.0120  1032.3459     2.5470     0.0350     0.2800
 1488.5000   662.6510   -19.9400     7.1660     7.8330     7.1660    12.7190   104.2480  1032.7400     2.5650     0.0570     0.2980
 1489.0000   662.6510   -19.9400     7.2160     7.7160     7.1660    12.6310   102.1500  1033.1340     2.5640     0.0790     0.3030
 1489.5000   662.6510   -19.9400     7.3920     7.8390     7.2150    12.5470    99.9070  1033.5280     2.5640     0.0990     0.3110
 1490.0000   662.6510   -19.9400     7.5680     7.9770     7.2710    12.4650    99.7960  1033.9220     2.5730     0.1270     0.3120
 1490.5000   662.6510   -19.9400     7.7450     8.1150     7.3260    12.3810   101.0370  1034.3160     2.5670     0.1550     0.3060
 1491.0000   662.6510   -19.9400     7.9210     8.2520     7.3820    12.3840   102.3030  1034.7100     2.5470     0.1890     0.2980
 1491.5000   662.6510   -19.9400     8.0970     8.3900     7.4370    12.5970   100.8760  1035.1040     2.5270     0.1710     0.2930
 1492.0000   662.6510   -19.9400     8.2730     8.5270     7.4930    12.7530    99.1670  1035.4980     2.5070     0.1300     0.2880
 1492.5000   662.6510   -19.9400     8.4630     8.6650     7.5480    12.6480    97.2110  1035.8920     2.4890     0.0780     0.2890
 1493.0000   662.6510   -19.9400     8.3800     8.7820     7.5960    12.6140    97.2170  1036.2860     2.4870     0.0240     0.2900
 1493.5000   662.6510   -19.9400     8.2240     8.6550     7.6380    12.6780    99.1170  1036.6801     2.5060     0.0350     0.2840
 1494.0000   662.6510   -19.9400     8.0690     8.5430     7.6790    12.8040    99.2230  1037.0730     2.5360     0.0470     0.2820
 1494.5000   662.6510   -19.9400     7.8600     8.4320     7.7200    12.9300    96.5030  1037.4670     2.5850     0.1060     0.2870
 1495.0000   662.6510   -19.9400     7.8950     8.3080     7.7620    13.0380    96.0180  1037.8610     2.5800     0.1690     0.2920
 1495.5000   662.6510   -19.9410     8.0250     8.3080     7.8030    13.1710    98.0870  1038.2550     2.5500     0.1940     0.2960
 1496.0000   662.6510   -19.9400     8.1540     8.4210     7.8440    12.9100    99.9800  1038.6490     2.5070     0.1690     0.3000
 1496.5000   662.6510   -19.9410     8.2840     8.5790     7.8850    12.5800   102.2510  1039.0430     2.4900     0.1350     0.3060
 1497.0000   662.6510   -19.9410     8.4140     8.7360     7.9270    12.2380   100.8450  1039.4370     2.4810     0.1310     0.3080
 1497.5000   662.6510   -19.9370     8.5140     8.8930     7.9680    12.0930    99.1950  1039.8311     2.4760     0.1370     0.3070
 1498.0000   662.6510   -19.9450     8.5950     9.0500     8.0060    12.0460    97.7370  1040.2250     2.4760     0.1450     0.2910
 1498.5000   662.6510   -19.9490     8.8660     9.2830     7.8970    11.9790   100.0120  1040.6190     2.5460     0.1540     0.2750
 1499.0000   662.6510   -20.1320     9.2250     9.0930     7.7960    11.8650   100.9030  1041.0129     2.5650     0.1840     0.2600
 1499.5000   662.6510   -20.1260     9.4560     8.7260     7.6940    11.7730   101.0110  1041.4070     2.5760     0.2400     0.2500
 1500.0000   662.6510   -20.1270     8.9400     8.3590     7.5920    11.7760   101.1320  1041.8010     2.5220     0.2430     0.2510
 1500.5000   662.6510   -20.1160     8.4070     7.9920     7.4900    12.4230   101.2730  1042.1949     2.4290     0.1820     0.2870
 1501.0000   662.6510   -20.1090     7.9590     7.5740     7.3880    12.9460   101.3980  1042.5890     2.4120     0.1040     0.2980
 1501.5000   662.6510   -20.1030     7.8600     7.5850     7.2860    13.6710   101.5210  1042.9830     2.4240     0.0320     0.3120
 1502.0000   662.6510   -20.0950     8.0060     7.5980     7.1840    13.5560   101.9350  1043.3770     2.4720     0.0520     0.3020
 1502.5000   662.6510   -20.0880     7.9270     7.6100     7.0820    13.2190   102.9460  1043.7710     2.5530     0.0830     0.2830
 1503.0000   662.6510   -20.0810     7.7750     7.6230     6.9800    12.9410   104.0260  1044.1639     2.5870     0.1140     0.2860
 1503.5000   662.6510   -20.0740     7.6240     7.6350     6.8780    12.7440   105.0450  1044.5580     2.5940     0.1440     0.2950
 1504.0000   662.6510   -20.0670     7.4730     7.6480     6.7790    13.1410   105.5240  1044.9520     2.5810     0.1580     0.3110
 1504.5000   662.6510   -20.0600     7.2990     7.6600     6.8550    13.4880   101.1870  1045.3459     2.5690     0.1780     0.3320
 1505.0000   663.4650   -20.0530     7.4180     7.6730     6.9760    13.9840    97.0180  1045.7400     2.5200     0.2310     0.3280
 1505.5000   664.4160   -20.0460     7.6720     7.6850     7.0960    13.8780    92.2060  1046.1340     2.4030     0.2490     0.3210
 1506.0000   665.3670   -20.0380     7.9260     7.6980     7.2170    13.4140    92.9770  1046.5280     2.3660     0.2500     0.3140
 1506.5000   666.3190   -20.0310     8.1800     7.7100     7.3370    12.9280    99.7220  1046.9220     2.3110     0.2370     0.3120
 1507.0000   667.2700   -20.0240     8.4340     7.8250     7.4360    12.8590   102.6880  1047.3160     2.3120     0.1870     0.3210
 1507.5000   668.2210   -20.0170     8.6880     8.0160     7.3920    12.7540   101.2100  1047.7100     2.3550     0.1090     0.3170
 1508.0000   669.1730   -20.0100     8.7820     8.3080     7.3560    12.6780    97.0880  1048.1040     2.4170     0.0450     0.3060
 1508.5000   670.1240   -20.0030     8.5550     8.2810     7.3190    12.5820    94.6910  1048.4980     2.4970     0.0870     0.2960
 1509.0000   671.0750   -19.9960     8.2890     8.2210     7.2830    12.4930    96.0820  1048.8920     2.5910     0.1270     0.2930
 1509.5000   672.0260   -19.9890     8.0230     8.1610     7.2460    12.4090   101.0540  1049.2860     2.6210     0.1920     0.2930
 1510.0000   672.9780   -19.9820     7.7570     8.1020     7.2100    12.3410   104.2190  1049.6801     2.6170     0.2490     0.2990
