~VERSION INFORMATION
 VERS.                2.0:   CWLS LOG ASCII STANDARD - VERSION 2.0
 WRAP.                 NO:   ONE LINE PER DEPTH STEP
~WELL INFORMATION
#MNEM.UNIT      DATA TYPE    INFORMATION
#----------   ------------   ------------------------------
 STRT.F          224.0000:   START DEPTH
 STOP.F         2912.0000:   STOP DEPTH
 STEP.F            0.5000:   STEP LENGTH
 NULL.          -999.2500:   NO VALUE
 COMP.    FENIX & SCISSON:   COMPANY
 WELL. FENIX & SCISSON NPR 34 "A" #3-21:   WELL
 FLD .             NPR #3:   FIELD
 LOC .      S21 T39N R78W:   LOCATION
 CNTY.            NATRONA:   COUNTY
 STAT.            WYOMING:   STATE
 CTRY. UNITED STATES OF AMERICA:   COUNTRY
 SRVC.              WELEX:   SERVICE COMPANY
 DATE.        15-JUL-1977:   LOGDATE
 API .     49025103970000:   API NUMBER
~CURVE INFORMATION
#MNEM.UNIT       API CODE    CURVE DESCRIPTION
#----------   ------------   ------------------------------
 DEPT.F                  :   
 CALD.IN     45 280 60 00:   CALIPER FROM DENSITY LOG
 CORR.G/C3   45 356 01 00:   DENSITY CORRECTION
 RHOB.G/C3   45 350 01 00:   BULK DENSITY
 GRD .GAPI   45 310 01 00:   GAMMA RAY FROM DENSITY LOG
 SPR .MV     07 010 01 00:   SPONTANEOUS POTENTIAL
 ILD .OHMM   07 120 46 00:   DEEP INDUCTION RESISTIVITY
 ILM .OHMM   07 120 44 00:   INDUCTION LOG MEDIUM RESISTIVITY
 SGRD.OHMM   07 220 05 00:   SHALLOW SHORT GUARD RESISTIVITY
~PARAMETER INFORMATION
#MNEM.UNIT          VALUE    DESCRIPTION
#----------   ------------   ------------------------------
 EKB .F         4921.0000:   Kelly bushing
 EGL .F         4911.0000:   Ground level
 TD  .F         2914.0000:   Total depth
 CLNT.            A2DTECH:   Client Code
 SL  . 2310' FNL & 1650' FWL:   Surface Location
 DATE.        15-JUL-1977:   Date Logged [DD-MMM-YYYY]
 DD  .F              2900:   Depth driller
 DL  .F              2914:   Depth logger
 BLI .F              2912:   Bottom log interval
 TLI .F               218:   Top log interval
 CS1 .              8.625:   Casing size
 CBD1.      8.625" @ 230':   Casing driller 1
 CBL1.IN              226:   Casing logger 1
 BS1 .IN            7.875:   Bit size
 BSD1.F              2900:   Depth drilled with bit1
 DFT .                KCL:   Type fluid in hole
 DFD .                8.9:   Density
 DFV .               1.42:   Viscosity
 DFPH.                7.5:   pH
 DFL .               19.6:   Fluid loss
 MSS .            MUD PIT:   Source of sample
 RMS .OHMM           3.75:   Rm
 MST .F                83:   Rm Meas. temp.
 RMF .OHMM           3.40:   Rmf
 MFST.F                83:   Rmf Meas. temp.
 MFSS.           MEASURED:   Source Rmf.
 RMC .OHMM            9.0:   Rmc
 MCST.F                83:   Rmc Meas. temp.
 MCSS.           MEASURED:   Source Rmc.
 RMB .OHMM           2.80:   Rm. at BHT
 BHT .F               111:   BHT.
 TCS .HRS               3:   Time Circ. stopped
 MRT .F               111:   Maximum recorded temp.
 LUN .               8766:   Logging unit number
 LUL .             CASPER:   Logging unit location
 ENGI.          T. JOYNER:   Recorded By
 WITN.     MR. PETTINGILL:   Witnessed by
 ORIG.           5" PRINT:   Origin of data
 UWI .     49025103970000:   Unique Well ID
 DICO. A2D TECHNOLOGIES, INC.:   Digitizing Company
 PD  .                 GL:   Permanent Datum
 EPD .F              4911:   Elevation Permanent Datum
 LMF .                 KB:   Log Measured From
 DMF .                 KB:   Drilling Measured From
 DAPD.F                10:   Feet Above Permanent Datum
~OTHER INFORMATION
~A   DEPT      CALD        CORR       RHOB       GRD       SPR        ILD        ILM       SGRD   
# ...
 2168.0000     8.4656     0.0601     2.4989   137.2371   -58.0858     3.3918     4.4331     5.4599
 2168.5000     8.4675     0.0557     2.5041   136.9539   -58.9666     3.5609     4.6541     5.4232
 2169.0000     8.4694     0.0513     2.4878   137.2665   -58.8042     3.7126     4.7529     5.2757
 2169.5000     8.4713     0.0484     2.4782   138.4699   -58.3438     3.7912     4.7871     5.0967
 2170.0000     8.4732     0.0515     2.4805   139.3762   -57.7343     3.8449     4.6579     4.9237
 2170.5000     8.4752     0.0561     2.4866   139.3909   -57.1248     3.8992     4.5322     4.7898
 2171.0000     8.4771     0.0607     2.4844   139.1049   -56.9624     3.9271     4.5019     4.7574
 2171.5000     8.4790     0.0608     2.4815   138.8260   -57.0983     3.9552     4.5035     4.8588
 2172.0000     8.4661     0.0594     2.4876   138.5435   -57.0847     3.9835     4.5674     5.2094
 2172.5000     8.4680     0.0565     2.4929   138.2610   -57.2205     4.0120     4.7292     5.3946
 2173.0000     8.4699     0.0520     2.4959   137.3842   -57.0579     4.0128     4.8296     5.4333
 2173.5000     8.4718     0.0521     2.4960   136.2139   -57.1936     4.0138     4.7974     5.3966
 2174.0000     8.4738     0.0522     2.4969   135.0399   -57.6274     4.0425     4.7328     5.3980
 2174.5000     8.4758     0.0523     2.4999   132.9744   -58.2101     4.0433     4.7673     5.3617
 2175.0000     8.4777     0.0509     2.5008   131.5032   -58.3457     4.0723     4.8685     5.3254
 2175.5000     8.4796     0.0480     2.5031   131.8151   -58.1834     4.0731     5.0410     5.2533
 2176.0000     8.4964     0.0406     2.4867   133.6129   -58.0168     4.0456     5.1122     5.1819
 2176.5000     8.4987     0.0347     2.4749   134.2219   -57.2564     4.0188     4.9745     5.1471
 2177.0000     8.5007     0.0273     2.4675   134.5338   -56.8018     3.9917     4.9413     5.1482
 2177.5000     8.5026     0.0154     2.4623   133.6570   -56.7884     3.9649     5.0815     5.4058
 2178.0000     8.5045     0.0050     2.4587   132.4830   -57.0848     3.9660     5.3348     5.7557
 2178.5000     8.5064     0.0036     2.4550   131.8997   -57.5070     3.9943     5.5621     6.0859
 2179.0000     8.5083     0.0112     2.4529   132.5124   -57.3442     4.0508     5.7196     6.3462
 2179.5000     8.5103     0.0173     2.4522   132.8243   -56.8838     4.1654     5.9223     6.4363
 2180.0000     8.4970     0.0234     2.4583   132.8390   -56.7213     4.2831     6.0480     6.4376
 2180.5000     8.4840     0.0294     2.4659   131.6650   -56.7079     4.4043     6.0916     6.3501
 2181.0000     8.4860     0.0355     2.4758   130.4910   -56.8675     4.5288     6.0096     6.2638
 2181.5000     8.4880     0.0371     2.4794   129.9109   -57.2778     4.6569     5.9699     6.1359
 2182.0000     8.4899     0.0372     2.4757   129.6285   -57.4134     4.7555     5.9304     6.0947
 2182.5000     8.4918     0.0373     2.4863   130.5352   -57.3967     4.8239     5.8908     6.1385
 2183.0000     8.4941     0.0374     2.4924   130.5499   -57.3834     4.9250     5.8928     6.1825
 2183.5000     8.4961     0.0405     2.4962   129.6690   -57.3700     4.9646     5.9765     6.2706
 2184.0000     8.4980     0.0435     2.5000   128.4991   -57.2076     5.0364     6.0613     6.3605
 2184.5000     8.4999     0.0466     2.5038   130.0551   -57.0452     5.0666     6.1050     6.4050
 2185.0000     8.5018     0.0467     2.5076   132.1748   -56.8828     5.0676     6.1137     6.3591
 2185.5000     8.4884     0.0453     2.5137   133.8924   -56.7204     5.0686     6.1083     6.3155
 2186.0000     8.4908     0.0439     2.5191   130.9390   -56.7070     5.0697     6.0679     6.1902
 2186.5000     8.4927     0.0425     2.5191   130.6529   -56.6937     5.0356     5.9864     6.1061
 2187.0000     8.4793     0.0411     2.5169   133.0487   -56.6803     5.0021     5.9058     5.9814
 2187.5000     8.4814     0.0427     2.5186   135.7380   -56.6669     4.9341     5.7863     5.8526
 2188.0000     8.4836     0.0472     2.5148   137.8329   -56.5045     4.8006     5.7084     5.7722
 2188.5000     8.4852     0.0473     2.5097   139.9279   -56.4912     4.7029     5.5928     5.7408
 2189.0000     8.4874     0.0474     2.5053   140.2397   -56.4778     4.6712     5.5559     5.7823
 2189.5000     8.4891     0.0460     2.4964   139.3629   -56.4644     4.5764     5.6738     6.0297
 2190.0000     8.4913     0.0386     2.4696   139.9720   -56.4510     4.5144     5.9156     6.1579
 2190.5000     8.4932     0.0296     2.4630   141.4726   -56.5867     4.4226     6.0830     6.1592
 2191.0000     8.4951     0.0268     2.4653   142.3788   -56.7224     4.3930     6.0401     5.8681
 2191.5000     8.4817     0.0299     2.4766   140.9077   -56.7090     4.3335     5.7572     5.6297
 2192.0000     8.4687     0.0283     2.4513   139.1356   -56.6956     4.3045     5.6011     5.5529
 2192.5000     8.4558     0.0210     2.4416   137.9653   -56.6823     4.3353     5.5666     5.6713
 2193.0000     8.4279     0.0117     2.4358   139.1687   -56.6689     4.3970     5.6495     6.2085
 2193.5000     8.4304     0.0033     2.4343   140.6693   -56.5065     4.4917     5.7303     6.7496
 2194.0000     8.4174     0.0049     2.4396   141.5756   -56.3441     4.5883     5.8933     7.2366
 2194.5000     8.4193     0.0115     2.4487   139.5101   -56.3307     4.7245     6.0609     7.5461
 2195.0000     8.4212     0.0209     2.4674   135.3643   -56.3174     4.9498     6.2836     7.3920
 2195.5000     8.4232     0.0324     2.4892   132.7044   -56.3040     5.0898     6.5077     7.2912
 2196.0000     8.4251     0.0412     2.5005   134.5022   -56.4430     5.2700     6.6754     7.0441
 2196.5000     8.4270     0.0443     2.5028   133.2809   -56.7244     5.4190     6.7235     6.9000
 2197.0000     8.4289     0.0444     2.5021   130.9377   -56.7110     5.5338     6.5874     6.8536
 2197.5000     8.4309     0.0475     2.5007   131.3975   -56.6976     5.6511     6.4983     6.9513
 2198.0000     8.4328     0.0460     2.5008   133.9667   -56.5352     5.7310     6.5910     7.0991
 2198.5000     8.4347     0.0446     2.5076   130.4153   -56.3728     5.8121     6.7309     7.3007
 2199.0000     8.4366     0.0403     2.5017   136.3772   -56.3595     5.8536     6.9694     7.4559
 2199.5000     8.4237     0.0359     2.4868   134.6088   -56.1971     5.8955     7.1667     7.5094
 2200.0000     8.4256     0.0315     2.4780   132.2461   -56.1837     5.9376     7.2184     7.3561
 2200.5000     8.4275     0.0315     2.4750   133.1524   -56.1703     5.9801     7.2704     7.1065
 2201.0000     8.4295     0.0316     2.4788   134.9501   -56.1570     5.9398     7.2724     6.9614
 2201.5000     8.4314     0.0302     2.4819   135.2584   -56.2960     5.8596     7.2238     6.9628
 2202.0000     8.4333     0.0288     2.4812   131.7482   -56.4316     5.8204     7.1267     6.9643
 2202.5000     8.4353     0.0274     2.4805   128.4971   -56.5673     5.7020     6.9348     6.9175
 2203.0000     8.4372     0.0275     2.4821   130.6070   -56.5506     5.6248     6.7939     6.9189
 2203.5000     8.4391     0.0277     2.4851   127.9502   -56.3882     5.5486     6.7025     6.9204
 2204.0000     8.4411     0.0263     2.4874   131.8432   -56.3748     5.4357     6.6582     6.9218
 2204.5000     8.4430     0.0264     2.4897   130.6782   -56.3614     5.4369     6.6605     6.9232
 2205.0000     8.4598     0.0295     2.4935   127.1358   -56.3481     5.4005     6.7085     7.0215
 2205.5000     8.4618     0.0341     2.4980   126.8564   -56.4837     5.4392     6.9462     7.1212
 2206.0000     8.4637     0.0357     2.4959   128.3720   -56.3213     5.5546     7.3939     7.3744
 2206.5000     8.4656     0.0373     2.4944   129.5844   -56.3102     5.5943     7.7090     7.5838
 2207.0000     8.4676     0.0389     2.4952   129.6082   -56.3567     5.6735     7.8185     7.7451
 2207.5000     8.4695     0.0390     2.4968   127.2545   -56.3979     5.7537     7.7133     7.8007
 2208.0000     8.4714     0.0391     2.4991   125.7923   -56.4194     5.8351     7.5051     7.6414
