~VERSION INFORMATION
 VERS.                2.0:   CWLS LOG ASCII STANDARD - VERSION 2.0
 WRAP.                 NO:   ONE LINE PER DEPTH STEP
~WELL INFORMATION
#MNEM.UNIT      DATA TYPE    INFORMATION
#----------   ------------   ------------------------------
 STRT.F            0.0000:   START DEPTH
 STOP.F         3358.0000:   STOP DEPTH
 STEP.F            0.5000:   STEP LENGTH
 NULL.          -999.2500:   NO VALUE
 COMP. LAWRENCE ALLISON & ASSOC.:   COMPANY
 WELL. LAWRENCE NPR 3 "X" #14-11:   WELL
 FLD .                NPR:   FIELD
 LOC .      S11 T38N R78W:   LOCATION
 CNTY.            NATRONA:   COUNTY
 STAT.            WYOMING:   STATE
 CTRY. UNITED STATES OF AMERICA:   COUNTRY
 SRVC.      DRESSER ATLAS:   SERVICE COMPANY
 DATE.        25-SEP-1985:   LOGDATE
 API .     49025110470000:   API NUMBER
~CURVE INFORMATION
#MNEM.UNIT       API CODE    CURVE DESCRIPTION
#----------   ------------   ------------------------------
 DEPT.F                  :   
 TENR.LBS    07 635 01 00:   TENSION
 SPR .MV     07 010 01 00:   SPONTANEOUS POTENTIAL
 SFL .OHMM   07 220 01 00:   SHALLOW FOCUSED LOG RESISTIVITY
 ILD .OHMM   07 120 46 00:   DEEP INDUCTION RESISTIVITY
 ILM .OHMM   07 120 44 00:   INDUCTION LOG MEDIUM RESISTIVITY
 TENS.LBS    60 635 01 00:   TENSION FROM SONIC LOG
 DT  .US/F   60 520 00 00:   DELTA TIME
 TEND.LBS    45 635 01 00:   TENSION FROM DENSITY LOG
 RHOB.G/C3   45 350 01 00:   BULK DENSITY
 CORR.G/C3   45 356 01 00:   DENSITY CORRECTION
 NPHI.DEC    42 890 01 00:   NEUTRON POROSITY LIMESTONE
 GRR .GAPI   07 310 01 00:   GAMMA RAY FROM RESISTIVITY
~PARAMETER INFORMATION
#MNEM.UNIT          VALUE    DESCRIPTION
#----------   ------------   ------------------------------
 EKB .F         5184.0000:   Kelly bushing
 EGL .F         5173.0000:   Ground level
 EDF .F            0.0000:   Drilling floor
 TD  .F         3353.0000:   Total depth
 DATE.        25-SEP-1985:   Date logged
 CLNT.            A2DTECH:   Client Code
 SL  . 473' FWL & 2360' FNL:   Surface Location
 PD  .                 GL:   Permanent Datum
 EPD .F              5173:   Elevation Permanent Datum
 LMF .                 KB:   Log Measured From
 DMF .                 KB:   Drilling Measured From
 DAPD.F                11:   Feet Above Permanent Datum
 DD  .F              3353:   Depth driller
 DL  .F              3346:   Depth logger
 BLI .F              3344:   Bottom log interval
 CS1 .IN            8.625:   Casing size
 CBD1.      8.625" @ 586':   Casing driller 1
 CBL1.F               585:   Casing logger 1
 BS1 .IN            7.875:   Bit size
 BSD1.F              3353:   Depth drilled with bit1
 DFT .     GEL/KCL/STAFLO:   Type fluid in hole
 DFD .                8.9:   Density
 DFV .                 39:   Viscosity
 DFPH.                  8:   pH
 DFL .                8.9:   Fluid loss
 MSS .           FLOWLINE:   Source of sample
 RMS .OHMM            .45:   Rm
 MST .F                80:   Rm Meas. temp.
 RMF .OHMM            .33:   Rmf
 MFST.F                80:   Rmf Meas. temp.
 RMC .OHMM            .56:   Rmc
 MCST.F                80:   Rmc Meas. temp.
 MFSS.               CALC:   Source Rmf.
 MCSS.               CALC:   Source Rmc.
 RMB .OHMM            .27:   Rm. at BHT
 BHT .F               130:   BHT.
 TCS .HRS               3:   Time Circ. stopped
 MRT .F               135:   Maximum recorded temp.
 LUN .               6274:   Logging unit number
 LUL .               GLTE:   Logging unit location
 ENGI.               MACK:   Recorded By
 WITN.             STRONG:   Witnessed by
 ORIG.           5" PRINT:   Origin of data
 UWI .     49025110470000:   Unique Well ID
 DICO. A2D TECHNOLOGIES, INC.:   Digitizing Company
~OTHER INFORMATION
~A    DEPT    TENR        SPR        SFL        ILD        ILM       TENS         DT       TEND       RHOB       CORR       NPHI         GRR  
# ...
 1512.0000  -100.8950   -57.1920     7.2110     6.8340     6.6320  -999.2500  -999.2500  -999.2500  -999.2500  -999.2500  -999.2500    41.1800
 1512.5000  -100.8950   -57.0290     7.1730     6.8820     6.6970  -999.2500  -999.2500  -999.2500  -999.2500  -999.2500  -999.2500    43.0390
 1513.0000  -100.8950   -56.8630     7.1730     6.9310     6.7630  -999.2500  -999.2500  -999.2500  -999.2500  -999.2500  -999.2500    43.8790
 1513.5000  -100.8950   -56.7010     7.2390     6.9790     6.8290  -999.2500  -999.2500  -999.2500  -999.2500  -999.2500  -999.2500    43.6440
 1514.0000  -100.8950   -56.5500     7.3340     7.0280     6.8940  -999.2500  -999.2500  -999.2500  -999.2500  -999.2500  -999.2500    43.5500
 1514.5000  -100.8950   -56.6450     7.4410     7.1730     7.0430  -999.2500  -999.2500  -999.2500  -999.2500  -999.2500  -999.2500    43.4160
 1515.0000  -100.8950   -56.9760     7.4410     7.1350     7.0060  -999.2500  -999.2500  -999.2500  -999.2500  -999.2500  -999.2500    43.8770
 1515.5000  -100.8950   -57.2980     7.4790     7.0920     6.9640  -999.2500  -999.2500  -999.2500  -999.2500  -999.2500  -999.2500    44.9600
 1516.0000  -100.8950   -57.6260     7.5360     7.0500     6.9220  -999.2500  -999.2500  -999.2500  -999.2500  -999.2500  -999.2500    45.1560
 1516.5000  -100.8470   -57.8030     7.5780     7.0070     6.8800  -999.2500  -999.2500  -999.2500  -999.2500  -999.2500  -999.2500    45.3050
 1517.0000  -100.6720   -57.9030     7.3470     6.9640     6.8380  -999.2500  -999.2500  -999.2500  -999.2500  -999.2500  -999.2500    45.3660
 1517.5000  -100.4960   -57.9950     7.0430     6.9150     6.7900  -999.2500  -999.2500  -999.2500  -999.2500  -999.2500  -999.2500    44.6190
 1518.0000  -100.3210   -58.1090     7.0430     6.9150     6.7900  -999.2500  -999.2500  -999.2500  -999.2500  -999.2500  -999.2500    44.0560
 1518.5000  -100.1450   -58.0400     7.1280     6.9020     6.7770  -999.2500  -999.2500  -999.2500  -999.2500  -999.2500  -999.2500    43.7160
 1519.0000   -99.9700   -57.8560     7.3060     7.0560     6.9280  -999.2500  -999.2500  -999.2500  -999.2500  -999.2500  -999.2500    43.3260
 1519.5000   -99.7940   -57.6980     7.3060     7.0360     6.9080  -999.2500  -999.2500  -999.2500  -999.2500  -999.2500  -999.2500    43.0130
 1520.0000   -99.6190   -57.5330     7.1730     7.0450     6.9170  -999.2500  -999.2500  -999.2500  -999.2500  -999.2500  -999.2500    41.9320
 1520.5000   -99.4430   -57.3690     7.2440     7.0400     6.9120  -999.2500  -999.2500  -999.2500  -999.2500  -999.2500  -999.2500    40.4250
 1521.0000   -99.2680   -57.2030     7.3550     7.0420     6.9140  -999.2500  -999.2500  -999.2500  -999.2500  -999.2500  -999.2500    40.9130
 1521.5000   -99.0920   -57.0440     7.4340     7.0420     6.9150  -999.2500  -999.2500  -999.2500  -999.2500  -999.2500  -999.2500    43.0070
 1522.0000   -98.9170   -56.8730     7.4030     7.0430     6.9150  -999.2500  -999.2500  -999.2500  -999.2500  -999.2500  -999.2500    43.6120
 1522.5000   -98.7410   -56.7140     7.3720     7.0430     6.9150  -999.2500  -999.2500  -999.2500  -999.2500  -999.2500  -999.2500    44.0180
 1523.0000   -98.5660   -56.5810     7.3420     7.0430     6.9150  -999.2500  -999.2500  -999.2500  -999.2500  -999.2500  -999.2500    44.9870
 1523.5000   -98.3910   -56.8870     7.3060     7.0430     6.9150  -999.2500  -999.2500  -999.2500  -999.2500  -999.2500  -999.2500    47.2120
 1524.0000   -98.2150   -57.2070     7.1730     7.0430     6.9160  -999.2500  -999.2500  -999.2500  -999.2500  -999.2500  -999.2500    46.7740
 1524.5000   -98.0400   -57.5440     7.2410     7.0430     6.9170  -999.2500  -999.2500  -999.2500  -999.2500  -999.2500  -999.2500    45.9380
 1525.0000   -97.8640   -57.8700     7.3530     7.0430     6.9130  -999.2500  -999.2500  -999.2500  -999.2500  -999.2500  -999.2500    45.4780
 1525.5000   -97.6890   -58.1320     7.4650     7.0420     6.8730  -999.2500  -999.2500  -999.2500  -999.2500  -999.2500  -999.2500    46.5270
 1526.0000   -97.5130   -58.0620     7.5780     7.0450     6.8330  -999.2500  -999.2500  -999.2500  -999.2500  -999.2500  -999.2500    46.5910
 1526.5000   -97.3380   -57.8820     7.4130     7.0430     6.7910  -999.2500  -999.2500  -999.2500  -999.2500  -999.2500  -999.2500    44.9170
 1527.0000   -97.1620   -57.7030     7.2460     7.0430     6.7500  -999.2500  -999.2500  -999.2500  -999.2500  -999.2500  -999.2500    44.7290
 1527.5000   -96.9870   -57.5240     7.0800     6.9190     6.7100  -999.2500  -999.2500  -999.2500  -999.2500  -999.2500  -999.2500    45.7560
 1528.0000   -96.8110   -57.3460     7.0430     6.7900     6.6690  -999.2500  -999.2500  -999.2500  -999.2500  -999.2500  -999.2500    45.4360
 1528.5000   -96.6360   -57.1660     7.1230     6.9230     6.7030  -999.2500  -999.2500  -999.2500  -999.2500  -999.2500  -999.2500    44.0490
 1529.0000   -96.4600   -56.9900     7.2040     7.0590     6.7380  -999.2500  -999.2500  -999.2500  -999.2500  -999.2500  -999.2500    43.9440
 1529.5000   -96.2850   -56.8080     7.2860     7.1730     6.7740  -999.2500  -999.2500  -999.2500  -999.2500  -999.2500  -999.2500    45.4940
 1530.0000   -96.1090   -56.6250     7.3910     7.1350     6.8110  -999.2500  -999.2500  -999.2500  -999.2500  -999.2500  -999.2500    46.0860
 1530.5000   -95.9340   -56.5730     7.4410     7.1030     6.8470  -999.2500  -999.2500  -999.2500  -999.2500  -999.2500  -999.2500    44.4060
 1531.0000   -95.7580   -56.9380     7.4040     7.0700     6.8830  -999.2500  -999.2500  -999.2500  -999.2500  -999.2500  -999.2500    43.4720
 1531.5000   -95.5830   -57.2540     7.3560     7.0430     6.9140  -999.2500  -999.2500  -999.2500  -999.2500  -999.2500  -999.2500    44.3990
 1532.0000   -95.4070   -57.5800     7.3060     7.0210     6.8930  -999.2500  -999.2500  -999.2500  -999.2500  -999.2500  -999.2500    45.5610
 1532.5000   -95.2320   -57.9470     7.3060     7.0030     6.8750  -999.2500  -999.2500  -999.2500  -999.2500  -999.2500  -999.2500    46.0600
 1533.0000   -95.0560   -58.0500     7.2820     6.9840     6.8570  -999.2500  -999.2500  -999.2500  -999.2500  -999.2500  -999.2500    47.0810
 1533.5000   -94.8810   -57.7170     7.2490     6.9650     6.8390  -999.2500  -999.2500  -999.2500  -999.2500  -999.2500  -999.2500    48.2820
 1534.0000   -94.7050   -57.4240     7.2160     6.9460     6.8200  -999.2500  -999.2500  -999.2500  -999.2500  -999.2500  -999.2500    48.2090
 1534.5000   -94.5300   -57.1200     7.1830     6.9270     6.8010  -999.2500  -999.2500  -999.2500  -999.2500  -999.2500  -999.2500    47.0090
 1535.0000   -94.3540   -56.8240     7.1500     6.9130     6.7880  -999.2500  -999.2500  -999.2500  -999.2500  -999.2500  -999.2500    45.6140
 1535.5000   -94.1790   -56.4800     7.1170     6.9270     6.8010  -999.2500  -999.2500  -999.2500  -999.2500  -999.2500  -999.2500    45.0620
 1536.0000   -94.0030   -56.1160     7.0830     6.9520     6.8260  -999.2500  -999.2500  -999.2500  -999.2500  -999.2500  -999.2500    45.3090
 1536.5000   -93.8280   -56.1750     7.0430     6.9770     6.8500  -999.2500  -999.2500  -999.2500  -999.2500  -999.2500  -999.2500    45.4540
 1537.0000   -93.6520   -56.1640     7.1090     7.0020     6.8750  -999.2500  -999.2500  -999.2500  -999.2500  -999.2500  -999.2500    45.6120
 1537.5000   -93.4770   -56.5130     7.2020     7.0270     6.8990  -999.2500  -999.2500  -999.2500  -999.2500  -999.2500  -999.2500    45.8060
 1538.0000   -93.3010   -56.9020     7.3060     7.0440     6.9160  -999.2500  -999.2500  -999.2500  -999.2500  -999.2500  -999.2500    45.8230
 1538.5000   -93.1260   -57.3010     7.3060     7.0190     6.8920  -999.2500  -999.2500  -999.2500  -999.2500  -999.2500  -999.2500    45.7730
 1539.0000   -92.9500   -57.6950     7.2650     6.9920     6.8650  -999.2500  -999.2500  -999.2500  -999.2500  -999.2500  -999.2500    44.3890
 1539.5000   -92.7750   -58.0740     7.1270     6.9660     6.8400  -999.2500  -999.2500  -999.2500  -999.2500  -999.2500  -999.2500    43.8330
