~VERSION INFORMATION
 VERS.                2.0:   CWLS LOG ASCII STANDARD - VERSION 2.0
 WRAP.                 NO:   ONE LINE PER DEPTH STEP
~WELL INFORMATION
#MNEM.UNIT      DATA TYPE    INFORMATION
#----------   ------------   ------------------------------
 STRT.F          208.0000:   START DEPTH
 STOP.F         2980.0000:   STOP DEPTH
 STEP.F            0.5000:   STEP LENGTH
 NULL.          -999.2500:   NO VALUE
 COMP. FENIX & SCISSON INC:   COMPANY
 WELL. FENIX  32AX #28-28:   WELL
 FLD .        TEAPOT DOME:   FIELD
 LOC .      S28 T39N R78W:   LOCATION
 CNTY.            NATRONA:   COUNTY
 STAT.            WYOMING:   STATE
 CTRY. UNITED STATES OF AMERICA:   COUNTRY
 SRVC.           BIRDWELL:   SERVICE COMPANY
 DATE.        09-OCT-1977:   LOGDATE
 API .     49025104430000:   API NUMBER
~CURVE INFORMATION
#MNEM.UNIT       API CODE    CURVE DESCRIPTION
#----------   ------------   ------------------------------
 DEPT.F                  :   
 SPR .MV     05 010 01 00:   SPONTANEOUS POTENTIAL
 ILD .OHMM   05 120 46 00:   DEEP INDUCTION RESISTIVITY
 SN  .OHMM   05 040 16 00:   SHORT NORMAL
 GRD .GAPI   45 310 01 00:   GAMMA RAY FROM DENSITY LOG
 CALD.IN     45 280 60 00:   CALIPER FROM DENSITY LOG
 CORR.G/C3   45 356 01 00:   DENSITY CORRECTION
 DEN .G/C3   45 350 01 00:   BULK DENSITY
~PARAMETER INFORMATION
#MNEM.UNIT          VALUE    DESCRIPTION
#----------   ------------   ------------------------------
 EKB .F         5005.0000:   Kelly bushing
 EGL .F         4995.0000:   Ground level
 EDF .F            0.0000:   Drilling floor
 EPD .F         4995.0000:   Permanent datum
 TD  .F         2980.0000:   Total depth
 DATE.        09-OCT-1977:   Date logged
 CLNT.            A2DTECH:   Client Code
 SL  . 990' FNL & 1650' FWL:   Surface Location
 PD  .                 GL:   Permanent Datum
 DAPD.F                10:   Feet Above Permanent Datum
 DD  .F              2980:   Depth driller
 DL  .F              2979:   Depth logger
 BLI .F              2974:   Bottom log interval
 TLI .F               221:   Top log interval
 CS1 .IN            8.625:   Casing size
 CBD1.      8.625" @ 211':   Casing driller 1
 CBL1.F               221:   Casing logger 1
 BS1 .IN            7.875:   Bit size
 BSD1.F              2980:   Depth drilled with bit1
 DFT .            KCL GEL:   Type fluid in hole
 DFD .                8.8:   Density
 DFV .                 33:   Viscosity
 DFPH.                 11:   pH
 DFL .                6.4:   Fluid loss
 MSS .           FLOWLINE:   Source of sample
 RMS .OHMM            .52:   Rm
 MST .F                59:   Rm Meas. temp.
 RMF .OHMM            .67:   Rmf
 MFST.F                54:   Rmf Meas. temp.
 RMC .OHMM            .45:   Rmc
 MCST.F                56:   Rmc Meas. temp.
 MFSS.               MEAS:   Source Rmf.
 MCSS.               MEAS:   Source Rmc.
 RMB .OHMM            .35:   Rm. at BHT
 BHT .F                91:   BHT.
 TCS .HRS               3:   Time Circ. stopped
 MRT .F                91:   Maximum recorded temp.
 LUN .               2958:   Logging unit number
 LUL .             CASPER:   Logging unit location
 ENGI.                LAW:   Recorded By
 WITN.       W. PENINGELL:   Witnessed by
 ORIG.           5" PRINT:   Origin of data
 UWI .     49025104430000:   Unique Well ID
 DICO. A2D TECHNOLOGIES, INC.:   Digitizing Company
~OTHER INFORMATION
~A   DEPT      SPR        ILD         SN         GRD      CALD       CORR        DEN   
# ...
 2210.0000   -49.4160     4.1600     5.1380   148.0020     8.0650     0.0180     2.5360
 2210.5000   -49.0400     4.1220     5.1320   145.1360     8.0650     0.0220     2.5370
 2211.0000   -49.4610     4.1980     5.1270   145.4540     8.0650     0.0190     2.5260
 2211.5000   -49.2880     4.1110     5.1210   147.9870     8.0650     0.0160     2.5120
 2212.0000   -49.4230     4.0310     5.1160   146.2330     8.0650     0.0120     2.4980
 2212.5000   -49.9450     4.0100     5.1100   144.5610     8.0650     0.0110     2.4970
 2213.0000   -49.9640     4.0880     5.1040   145.2630     8.0650     0.0170     2.5010
 2213.5000   -49.9810     4.1220     5.0990   146.5560     8.0650     0.0200     2.5050
 2214.0000   -50.3500     4.0100     5.0930   150.9850     8.0650     0.0250     2.5050
 2214.5000   -50.3170     4.0980     5.0910   156.4340     8.0650     0.0250     2.5020
 2215.0000   -50.2820     4.1710     5.2390   158.9610     8.0650     0.0240     2.5050
 2215.5000   -50.2440     4.2440     5.3300   153.1040     8.0650     0.0250     2.5160
 2216.0000   -50.2010     4.3180     5.2650   154.6100     8.0650     0.0200     2.5120
 2216.5000   -50.1470     4.3840     5.2330   151.9280     8.0650     0.0080     2.5030
 2217.0000   -50.2620     4.4360     5.3300   149.7580     8.0650     0.0060     2.4940
 2217.5000   -50.1000     4.3890     5.2280   150.6870     8.0650     0.0050     2.4960
 2218.0000   -49.9440     4.3550     5.0330   146.8240     8.0650     0.0120     2.4980
 2218.5000   -49.7860     4.2850     4.8840   148.5150     8.0650     0.0160     2.4970
 2219.0000   -49.7680     4.2110     4.8200   147.2180     8.0650     0.0120     2.4920
 2219.5000   -49.7680     4.1360     4.7560   151.3310     8.0650     0.0160     2.4910
 2220.0000   -49.7680     3.9880     4.5890   154.0580     8.0650     0.0220     2.4970
 2220.5000   -49.7510     3.7560     4.3490   152.6110     8.0650     0.0190     2.5020
 2221.0000   -49.6470     3.5240     4.1100   154.0210     8.0650     0.0150     2.5030
 2221.5000   -49.5960     3.2910     3.8700   157.6830     8.0650     0.0110     2.4980
 2222.0000   -50.0100     3.0590     3.6310   159.7080     8.0650     0.0180     2.4940
 2222.5000   -50.3330     2.9260     3.4990   164.5080     8.0650     0.0270     2.4880
 2223.0000   -50.6530     2.8360     3.4620   161.8470     8.0650     0.0290     2.4960
 2223.5000   -50.7900     2.7770     3.4360   163.9110     8.0650     0.0270     2.5070
 2224.0000   -50.8590     2.7860     3.3990   165.2400     8.0650     0.0260     2.5190
 2224.5000   -50.9260     2.7920     3.5090   161.9450     8.0650     0.0320     2.5280
 2225.0000   -50.9940     2.7990     3.6250   163.0670     8.0650     0.0320     2.5350
 2225.5000   -51.0600     2.8200     3.5940   159.6790     8.0650     0.0310     2.5330
 2226.0000   -51.1280     2.9020     3.5590   155.2430     8.0650     0.0320     2.5300
 2226.5000   -51.1220     2.9840     3.6920   154.0050     8.0650     0.0330     2.5280
 2227.0000   -51.0550     3.0440     3.6830   158.0820     8.0650     0.0350     2.5320
 2227.5000   -50.9880     3.0350     3.6580   160.6580     8.0650     0.0210     2.5170
 2228.0000   -50.9310     3.0260     3.7350   163.6150     8.0650     0.0230     2.5160
 2228.5000   -50.8810     3.0160     3.9010   160.9940     8.0650     0.0250     2.5180
 2229.0000   -50.8280     3.0160     3.9010   162.5480     8.0650     0.0280     2.5220
 2229.5000   -50.7750     3.1130     3.9010   157.6160     8.0660     0.0250     2.5200
 2230.0000   -50.3150     3.1560     3.9010   155.0770     8.0690     0.0260     2.5200
 2230.5000   -49.7730     3.1290     3.8910   159.0420     8.0720     0.0200     2.5170
 2231.0000   -49.7610     3.1330     3.8780   156.5250     8.0750     0.0230     2.5150
 2231.5000   -49.5640     3.1430     3.8650   156.7640     8.0780     0.0240     2.5150
 2232.0000   -49.7140     3.1530     3.8520   152.7420     8.0810     0.0190     2.5100
 2232.5000   -49.9190     3.1830     3.8390   154.6010     8.0840     0.0220     2.5060
 2233.0000   -49.9540     3.2770     3.8300   153.1200     8.0870     0.0260     2.5120
 2233.5000   -49.8800     3.3990     3.9720   154.0680     8.0900     0.0230     2.5170
 2234.0000   -49.8010     3.3430     4.0840   149.7950     8.0930     0.0140     2.5140
 2234.5000   -50.0060     3.2760     4.0100   155.0930     8.0960     0.0200     2.5250
 2235.0000   -50.3930     3.2100     4.0330   153.0230     8.0990     0.0250     2.5220
 2235.5000   -50.7400     3.1070     3.9180   150.4000     8.1020     0.0250     2.5310
 2236.0000   -50.4170     3.0390     3.7350   148.8140     8.1050     0.0230     2.5080
 2236.5000   -50.7410     3.0140     3.4510   151.1010     8.1010     0.0210     2.4980
 2237.0000   -51.1810     2.9890     3.3370   155.8430     8.0960     0.0190     2.5010
 2237.5000   -51.6370     2.8610     3.3070   155.7040     8.0920     0.0160     2.5030
 2238.0000   -51.6670     2.7080     3.3070   159.9880     8.0870     0.0140     2.4950
 2238.5000   -51.5550     2.6040     3.3070   159.2330     8.0820     0.0160     2.4910
 2239.0000   -51.5560     2.5920     3.3070   162.2780     8.0780     0.0190     2.4900
 2239.5000   -51.5490     2.5800     3.3070   164.2400     8.0730     0.0140     2.4840
 2240.0000   -51.5830     2.6700     3.3070   160.9440     8.0680     0.0070     2.4860
 2240.5000   -51.3750     2.7520     3.3990   155.1040     8.0660     0.0150     2.5060
 2241.0000   -51.5420     2.8030     3.5240   151.6750     8.0680     0.0250     2.5250
 2241.5000   -50.5890     2.8030     3.6250   151.3510     8.0700     0.0220     2.5230
 2242.0000   -50.0270     2.9520     3.7130   148.2030     8.0720     0.0240     2.5220
 2242.5000   -49.7630     3.1400     3.9220   147.9210     8.0730     0.0230     2.5310
 2243.0000   -49.8430     3.3270     4.0190   148.4020     8.0750     0.0270     2.5390
 2243.5000   -49.9350     3.5150     4.5040   144.9410     8.0770     0.0290     2.5490
 2244.0000   -49.4660     3.7020     4.8790   140.6510     8.0790     0.0220     2.5440
 2244.5000   -48.9040     3.8230     4.9360   146.3220     8.0810     0.0180     2.5330
 2245.0000   -49.3680     3.9150     4.9980   142.1630     8.0830     0.0140     2.5310
 2245.5000   -49.1780     4.0070     4.9580   136.3360     8.0850     0.0110     2.5320
 2246.0000   -49.4670     4.0840     4.8810   139.3530     8.0860     0.0080     2.5190
 2246.5000   -49.7800     3.9730     4.8630   144.5980     8.0880     0.0120     2.5120
 2247.0000   -50.0430     4.1220     4.8280   136.4990     8.0900     0.0160     2.5210
 2247.5000   -50.3750     3.9970     4.7740   143.7290     8.0920     0.0210     2.5370
 2248.0000   -50.4330     3.9730     4.9080   149.1440     8.0940     0.0200     2.5510
 2248.5000   -50.5000     3.9340     5.1870   148.1880     8.0960     0.0170     2.5510
 2249.0000   -50.5620     3.9010     5.3010   150.1490     8.0980     0.0130     2.5420
 2249.5000   -50.5360     4.1250     5.3420   143.5580     8.0990     0.0110     2.5350
 2250.0000   -50.4800     4.3030     5.3790   137.0310     8.1010     0.0120     2.5360
 2250.5000   -50.4240     4.3550     5.1850   133.3780     8.1030     0.0140     2.5400
 2251.0000   -50.3670     4.3550     5.3030   135.3760     8.1050     0.0140     2.5420
 2251.5000   -50.3610     4.3550     5.3300   138.0750     8.1050     0.0100     2.5320
 2252.0000   -50.3580     4.0920     4.9530   141.1150     8.1050     0.0060     2.5270
 2252.5000   -49.7610     3.9650     5.0910   141.5130     8.1050     0.0040     2.5230
 2253.0000   -49.5690     3.9410     4.9460   140.4260     8.1050     0.0070     2.5180
 2253.5000   -49.5690     3.9370     4.8180   138.5750     8.1050     0.0140     2.5280
 2254.0000   -49.5690     4.0820     4.9220   132.4050     8.1050     0.0260     2.5470
 2254.5000   -49.5680     4.2020     5.0450   136.8690     8.1050     0.0280     2.5650
 2255.0000   -49.5770     4.3150     5.3840   140.8160     8.1050     0.0280     2.5700
