~VERSION INFORMATION
 VERS.                2.0:   CWLS LOG ASCII STANDARD - VERSION 2.0
 WRAP.                 NO:   ONE LINE PER DEPTH STEP
~WELL INFORMATION
#MNEM.UNIT      DATA TYPE    INFORMATION
#----------   ------------   ------------------------------
 STRT.F            0.5000:   START DEPTH
 STOP.F         1380.0000:   STOP DEPTH
 STEP.F            0.5000:   STEP LENGTH
 NULL.          -999.2500:   NO VALUE
 COMP.       FLUOR DANIEL:   COMPANY
 WELL. FLUOR 84 "X" #1-14:   WELL
 FLD .          N.P.R. #3:   FIELD
 LOC .      S14 T38N R78W:   LOCATION
 CNTY.            NATRONA:   COUNTY
 STAT.            WYOMING:   STATE
 CTRY. UNITED STATES OF AMERICA:   COUNTRY
 SRVC.     ATLAS WIRELINE:   SERVICE COMPANY
 DATE.        24-AUG-1994:   LOGDATE
 API .     49025226370000:   API NUMBER
~CURVE INFORMATION
#MNEM.UNIT       API CODE    CURVE DESCRIPTION
#----------   ------------   ------------------------------
 DEPT.F                  :   
 GRR .GAPI   07 310 01 00:   GAMMA RAY FROM RESISTIVITY
 RILD.OHMM   07 120 46 00:   INDUCTION LOG DEEP RESISTIVITY
 RILM.OHMM   07 120 44 00:   INDUCTION LOG MEDIUM RESISTIVITY
 TENR.LBS    07 635 01 00:   TENSION FROM RESISTIVITY
~PARAMETER INFORMATION
#MNEM.UNIT          VALUE    DESCRIPTION
#----------   ------------   ------------------------------
 EKB .F         5326.0000:   Kelly bushing
 EGL .F         5316.0000:   Ground level
 EDF .F         5325.0000:   Drilling floor
 TD  .F         1368.0000:   Total depth
 CLNT.            A2DTECH:   Client Code
 PD  .                 GL:   Permanent Datum
 EPD .F              5316:   Elevation Permanent Datum
 LMF .                 KB:   Log Measured From
 DMF .                 KB:   Drilling Measured From
 DAPD.F                10:   Feet Above Permanent Datum
 DATE.        24-AUG-1994:   Date Logged [DD-MMM-YYYY]
 DD  .F              1368:   Depth driller
 DL  .F              1364:   Depth logger
 BLI .F              1356:   Bottom log interval
 TLI .F                 0:   Top log interval
 CS1 .IN            9.625:   Casing size
 CBD1.       9.625" @ 56':   Casing driller 1
 CBL1.F                56:   Casing logger 1
 BS1 .IN             8.75:   Bit size
 BSD1.F              1368:   Depth drilled with bit1
 DFT .                AIR:   Type fluid in hole
 LUN .            HL 6530:   Logging unit number
 LUL .             CASPER:   Logging unit location
 WITN.        GARY STRONG:   Witnessed by
 ORIG.         2.5" PRINT:   Origin of data
 UWI .     49025226370000:   Unique Well ID
 DICO. A2D TECHNOLOGIES, INC.:   Digitizing Company
 SL  . 2551' FNL & 575' FEL:   Surface Location
~OTHER INFORMATION
~A    DEPT      GRR      RILD       RILM       TENR   
# ...
  219.5000   124.0837     5.7534     5.5223   -12.9822
  220.0000   119.2814     5.7506     5.5204   -12.6113
  220.5000   125.2974     5.7478     5.5952   -12.2404
  221.0000   130.1158     5.8252     5.6707   -11.8694
  221.5000   133.6171     5.8492     5.8270   -11.4985
  222.0000   130.4112     6.0118     6.0706   -11.1276
  222.5000   123.8124     6.1789     6.2380   -10.7567
  223.0000   122.8030     6.2637     6.4099   -10.3858
  223.5000   125.1863     6.3119     6.4078   -10.0148
  224.0000   125.0140     6.3965     6.4944    -9.6439
  224.5000   123.9641     6.3934     6.4922    -9.2232
  225.0000   125.1507     6.3903     6.4899    -8.8562
  225.5000   125.0279     6.3872     6.3990    -8.4893
  226.0000   123.4491     6.2967     6.2231   -22.9591
  226.5000   117.6686     6.1590     6.1308   -37.4290
  227.0000   114.7824     5.9867     5.9606   -37.0620
  227.5000   115.9581     5.7879     5.8836   -51.5579
  228.0000   120.9261     5.7851     5.8011   -51.1649
  228.5000   126.0040     5.7823     5.7991   -35.9612
  229.0000   124.5149     5.7796     5.7971   -35.5943
  229.5000   121.0699     5.7768     5.7951   -35.2273
  230.0000   120.2415     5.6170     5.7139   -49.6971
  230.5000   121.4272     5.5375     5.6948   -49.3302
  231.0000   124.2475     5.4590     5.6134   -33.9763
  231.5000   126.6507     5.3080     5.5333   -18.9169
  232.0000   127.3796     5.1612     5.4003   -18.5460
  232.5000   124.9701     5.1587     5.3763   -33.0256
  233.0000   125.5569     5.1563     5.3228   -32.6410
  233.5000   124.6767     5.1538     5.2963   -32.2700
  234.0000   123.1776     5.2229     5.2464   -29.8222
  234.5000   121.0599     5.2204     5.2446   -17.1152
  235.0000   118.0240     5.2903     5.3159   -17.4819
  235.5000   120.4571     5.2878     5.3137   -17.8485
  236.0000   126.1237     5.4330     5.3855   -18.2152
  236.5000   125.4132     5.5058     5.4180   -18.5819
  237.0000   120.7704     5.5842     5.5320   -18.9485
  237.5000   116.0180     5.7329     5.6845   -19.3152
  238.0000   114.0575     5.8097     5.8028   -19.6819
  238.5000   114.0456     5.8876     5.8829   -20.0485
  239.0000   114.6347     5.9665     6.0467   -20.4152
  239.5000   113.4231     6.0464     6.1301   -20.7818
  240.0000   112.8124     6.0432     6.1634   -21.1485
  240.5000   113.3993     6.0590     6.1609   -21.5152
  241.0000   115.1838     6.1216     6.1588   -21.8818
  241.5000   118.1660     6.0957     6.1567   -22.2485
  242.0000   119.9505     6.0316     6.1546   -22.6152
  242.5000   119.3398     6.0287     6.1525   -22.9818
  243.0000   119.3280     5.9432     6.0663   -23.3485
  243.5000   119.3161     5.9404     5.9813   -23.7152
  244.0000   119.9030     5.9375     5.9793   -24.0818
  244.5000   121.0887     5.9684     5.9772   -24.4485
  245.0000   121.6757     6.0141     6.0580   -24.8151
  245.5000   122.2626     6.1333     6.1399   -25.1818
  246.0000   122.2507     6.2175     6.2229   -25.5485
  246.5000   123.4364     6.3460     6.3072   -25.9151
  247.0000   125.8198     6.4310     6.4809   -26.2818
  247.5000   127.6043     6.4279     6.4787   -26.6485
  248.0000   127.6327     6.4759     6.6082   -27.0151
  248.5000   126.9817     6.6006     6.7473   -27.3818
  249.0000   124.5747     6.7819     6.9333   -27.7485
  249.5000   120.9700     6.9682     7.0270   -28.1151
  250.0000   124.5509     7.1596     7.2207   -28.4818
  250.5000   125.7366     7.2561     7.3203   -28.8484
  251.0000   124.4670     7.2521     7.4172   -29.2151
  251.5000   120.9225     7.2486     7.4146   -29.5818
  252.0000   127.0579     7.2451     7.3107   -29.9484
  252.5000   131.6771     7.2417     7.2083   -30.3151
  253.0000   130.2275     7.0414     7.0956   -30.6818
  253.5000   125.3153     6.9416     6.8986   -31.0484
  254.0000   120.8631     6.8433     6.8150   -31.4151
  254.5000   124.6227     6.9350     6.8297   -31.5282
  255.0000   125.7285     6.9317     6.9050   -31.1573
  255.5000   126.2167     6.8335     6.9024   -30.7863
  256.0000   124.2874     6.6445     6.8773   -30.4154
  256.5000   122.9381     6.5504     6.8033   -30.0445
  257.0000   121.9894     6.4576     6.8010   -29.6736
  257.5000   126.9162     6.2789     6.6140   -29.3027
  258.0000   129.4690     6.1866     6.4321   -28.9318
  258.5000   127.4311     6.0970     6.3125   -28.5608
  259.0000   125.3533     5.9334     6.1373   -28.1899
  259.5000   124.9240     5.9306     6.0812   -27.8190
  260.0000   125.5110     5.8465     6.0791   -27.4481
  260.5000   125.4970     5.8564     6.0770   -27.0772
  261.0000   125.0459     6.1028     6.0749   -26.7062
  261.5000   120.9621     6.2903     6.1116   -26.3353
  262.0000   114.5629     6.6481     6.4571   -25.9644
  262.5000   112.0259     6.9058     6.7289   -25.5400
  263.0000   110.5469     7.0713     6.9163   -40.0593
  263.5000   108.9880     7.0675     7.0117   -39.6429
  264.0000   110.9620     7.0641     6.9996   -68.9495
  264.5000   113.4052     7.0606     7.0107   -68.5826
  265.0000   116.4072     7.0218     7.0488   -83.0861
  265.5000   118.8104     6.8253     7.0459   -82.6855
  266.0000   119.9361     6.5435     6.8522   -67.4817
  266.5000   117.5090     6.3227     6.7562   -52.2780
  267.0000   112.0080     6.0978     6.4807   -50.4936
  267.5000   107.4152     5.9272     6.3025   -36.7073
  268.0000   105.5569     5.7613     6.1292   -36.3403
  268.5000   110.3330     5.6001     5.9607   -35.9734
  269.0000   114.5128     5.5190     5.7969   -20.7697
  269.5000   117.4949     5.4072     5.6375    -5.5659
  270.0000   118.8822     5.3301     5.4825   -20.5240
  270.5000   112.6808     5.2546     5.4057   -34.5056
  271.0000   106.0821     5.2526     5.3300   -35.2617
  271.5000   106.6690     5.3225     5.2553   -48.6086
  272.0000   109.6511     5.3200     5.2536   -48.2196
  272.5000   110.8383     5.3174     5.2518   -47.8487
  273.0000   110.8250     5.3149     5.2500   -47.4778
  273.5000   110.8131     5.3124     5.2482   -47.1068
  274.0000   110.8012     5.3838     5.2464   -46.7359
  274.5000   110.7893     5.4557     5.3173   -46.3650
  275.0000   114.3703     5.5290     5.3892   -45.9941
  275.5000   117.9512     5.6807     5.4620   -45.6231
  276.0000   120.3345     5.7568     5.5389   -45.2522
  276.5000   120.9221     5.8340     5.6885   -44.8813
  277.0000   116.7180     5.9121     5.7717   -44.5104
  277.5000   115.5085     5.9913     5.9324   -44.1395
  278.0000   113.1014     6.0716     6.0142   -43.7685
  278.5000   112.4611     6.0687     6.1699   -43.3976
  279.0000   113.6764     6.0658     6.1676   -49.3071
  279.5000   113.0658     5.9798     6.1655   -57.4926
  280.0000   111.8563     5.9769     6.1634   -57.1217
  280.5000   111.2456     5.8850     6.1244   -71.5875
  281.0000   113.0699     5.7116     5.8905   -71.2166
  281.5000   114.3053     5.4841     5.6689   -70.8457
  282.0000   117.9162     5.3424     5.5130   -70.4748
  282.5000   121.3777     5.3398     5.5111   -55.2671
  283.0000   117.5929     5.3372     5.6104   -54.8222
  283.5000   115.3653     5.3179     5.6614   -54.4552
  284.0000   116.0319     5.2591     5.5054   -54.0883
  284.5000   118.7845     5.3299     5.4749   -53.7213
  285.0000   123.6128     5.3491     5.5020   -53.3544
  285.5000   128.7105     5.5227     5.7196   -67.8242
  286.0000   130.2766     5.7569     6.0446   -67.4573
  286.5000   121.9601     6.0010     6.2606   -67.0903
  287.0000   117.2574     6.2212     6.4781   -66.7234
  287.5000   114.5210     6.4456     6.7526   -66.3564
  288.0000   114.0615     6.5718     6.8925   -65.9895
  288.5000   114.8164     6.6194     6.9357   -65.6225
  289.0000   116.0120     6.7081     6.9333   -65.2556
  289.5000   118.7844     6.7049     6.8362   -64.8887
  290.0000   121.3972     6.7016     6.7399   -64.5217
  290.5000   122.3853     6.6067     6.6455   -64.1548
  291.0000   121.9321     6.4613     6.4628   -63.7878
  291.5000   120.1038     6.3322     6.2851   -63.4209
  292.0000   118.7569     6.3292     6.1971   -63.0539
