~VERSION INFORMATION
 VERS.                2.0:   CWLS LOG ASCII STANDARD - VERSION 2.0
 WRAP.                 NO:   ONE LINE PER DEPTH STEP
~WELL INFORMATION
#MNEM.UNIT      DATA TYPE    INFORMATION
#----------   ------------   ------------------------------
 STRT.F          712.0000:   START DEPTH
 STOP.F         3352.0000:   STOP DEPTH
 STEP.F            0.5000:   STEP LENGTH
 NULL.          -999.2500:   NO VALUE
 COMP.    FENIX & SCISSON:   COMPANY
 WELL. FENIX & SCISSON "AX" #24-14:   WELL
 FLD .              NPR 3:   FIELD
 LOC .      S14 T38N R78W:   LOCATION
 CNTY.            NATRONA:   COUNTY
 STAT.            WYOMING:   STATE
 CTRY. UNITED STATES OF AMERICA:   COUNTRY
 SRVC.       SCHLUMBERGER:   SERVICE COMPANY
 DATE.        19-JUN-1981:   LOGDATE
 API .     49025108750000:   API NUMBER
~CURVE INFORMATION
#MNEM.UNIT       API CODE    CURVE DESCRIPTION
#----------   ------------   ------------------------------
 DEPT.F                  :   
 TENR.LBS    07 635 01 00:   TENSION
 ILD .OHMM   07 120 46 00:   DEEP INDUCTION RESISTIVITY
 SFL .OHMM   07 220 01 00:   SHALLOW FOCUSED LOG RESISTIVITY
 ILM .OHMM   07 120 44 00:   INDUCTION LOG MEDIUM RESISTIVITY
 SPR .MV     07 010 01 00:   SPONTANEOUS POTENTIAL
 TEND.LBS    45 635 01 00:   TENSION FROM DENSITY LOG
 DRHO.G/C3   45 356 01 00:   DENSITY CORRECTION
 CALD.IN     45 280 60 00:   CALIPER FROM DENSITY LOG
 GRD .GAPI   45 310 01 00:   GAMMA RAY FROM DENSITY LOG
 RHOB.G/C3   45 350 01 00:   BULK DENSITY
~PARAMETER INFORMATION
#MNEM.UNIT          VALUE    DESCRIPTION
#----------   ------------   ------------------------------
 EKB .F         5216.0000:   Kelly bushing
 EGL .F         5206.0000:   Ground level
 EDF .F         5215.0000:   Drilling floor
 EPD .F            0.0000:   Permanent datum
 TD  .F         3360.0000:   Total depth
 DATE.        19-JUN-1981:   Date logged
 CLNT.            A2DTECH:   Client Code
 SL  . 2413' FNL & 827' FWL:   Surface Location
 PD  .                 GL:   Permanent Datum
 DAPD.F                10:   Feet Above Permanent Datum
 DD  .F              3360:   Depth driller
 DL  .F              3348:   Depth logger
 BLI .F              3342:   Bottom log interval
 TLI .F               728:   Top log interval
 CS1 .IN            8.625:   Casing size
 CBD1.      8.625" @ 728':   Casing driller 1
 CBL1.F               728:   Casing logger 1
 BS1 .IN            7.875:   Bit size
 BSD1.F              3360:   Depth drilled with bit1
 DFT .                FGM:   Type fluid in hole
 DFD .                  9:   Density
 DFV .                 45:   Viscosity
 DFPH.                9.5:   pH
 DFL .                 10:   Fluid loss
 MSS .               TANK:   Source of sample
 RMS .OHMM           5.71:   Rm
 MST .F                68:   Rm Meas. temp.
 RMF .OHMM           1.27:   Rmf
 MFST.F                68:   Rmf Meas. temp.
 MFSS.               MEAS:   Source Rmf.
 RMB .OHMM           3.29:   Rm. at BHT
 BHT .F               118:   BHT.
 TCS .HRS            0800:   Time Circ. stopped
 TLAB.HRS            1130:   Time logger at bottom
 MRT .F               118:   Maximum recorded temp.
 LUN .               8039:   Logging unit number
 LUL .               CSPR:   Logging unit location
 ENGI.           G. PFARR:   Recorded By
 WITN.           R. SCOTT:   Witnessed by
 ORIG.           5" PRINT:   Origin of data
 UWI .     49025108750000:   Unique Well ID
 DICO. A2D TECHNOLOGIES, INC.:   Digitizing Company
~OTHER INFORMATION
~A   DEPT     TENR        ILD        SFL        ILM        SPR       TEND       DRHO       CALD         GRD      RHOB   
# ...
 3291.5000  1579.6840     2.8890     3.4020     2.8360   -24.5120  1597.2220     0.0210     8.2100   135.6710     2.4830
 3292.0000  1579.2030     2.8140     3.3100     2.7580   -24.2380  1597.2220     0.0220     8.2160   134.4530     2.4740
 3292.5000  1578.7230     2.7670     3.2040     2.6800   -23.9290  1597.2220     0.0140     8.2220   132.6450     2.4570
 3293.0000  1578.2430     2.7200     3.0460     2.6280   -23.7460  1597.2220     0.0050     8.2240   132.1070     2.4470
 3293.5000  1577.7629     2.6790     3.0580     2.6090   -23.4370  1597.2220     0.0000     8.2190   134.3790     2.4430
 3294.0000  1577.2820     2.6610     3.1050     2.5910   -23.1520  1597.2220     0.0030     8.2150   135.0690     2.4440
 3294.5000  1576.8020     2.6430     3.1530     2.5720   -22.9290  1597.2220     0.0060     8.2110   132.1730     2.4530
 3295.0000  1576.3220     2.6260     3.2160     2.5530   -22.7930  1597.2220     0.0100     8.2060   129.7570     2.4630
 3295.5000  1575.8420     2.6080     3.1450     2.5350   -22.6750  1597.2220     0.0190     8.2020   127.5660     2.4720
 3296.0000  1575.3610     2.5900     3.0970     2.5160   -22.3050  1597.2220     0.0290     8.1980   126.4980     2.4740
 3296.5000  1574.8810     2.5720     3.0460     2.4960   -22.2790  1597.2220     0.0330     8.1930   126.3830     2.4550
 3297.0000  1574.4010     2.5540     3.0460     2.4760   -22.3010  1597.2220     0.0240     8.1890   126.2900     2.4420
 3297.5000  1573.9210     2.5330     3.0460     2.4530   -22.3070  1597.2220     0.0170     8.1810   126.3680     2.4380
 3298.0000  1573.4399     2.5070     3.0460     2.4310   -22.8250  1597.2220     0.0100     8.1640   128.4340     2.4340
 3298.5000  1572.9600     2.4810     3.0140     2.4090   -22.7810  1597.2220     0.0080     8.1470   131.7670     2.4320
 3299.0000  1572.4800     2.4550     2.9240     2.3860   -23.4150  1597.2220     0.0120     8.1290   136.2180     2.4350
 3299.5000  1572.0000     2.4290     2.8330     2.3640   -23.4450  1597.2220     0.0160     8.1120   137.5830     2.4450
 3300.0000  1571.5190     2.4080     2.9170     2.3410   -23.4480  1597.2220     0.0140     8.0950   136.9370     2.4420
 3300.5000  1571.0389     2.3900     3.0020     2.3190   -23.4450  1597.2220     0.0120     8.0780   137.7820     2.4370
 3301.0000  1570.5590     2.3760     3.1020     2.2970   -23.5310  1597.2220     0.0130     8.0640   140.6630     2.4380
 3301.5000  1570.0790     2.3610     2.9800     2.2740   -23.8680  1597.2220     0.0150     8.0570   140.5280     2.4380
 3302.0000  1569.5980     2.3470     2.8330     2.2390   -23.8230  1597.2220     0.0180     8.0500   138.5380     2.4390
 3302.5000  1569.1180     2.3250     2.6360     2.2500   -23.9140  1597.2220     0.0170     8.0440   134.5370     2.4340
 3303.0000  1568.6379     2.3400     2.6520     2.2730   -24.2630  1597.2220     0.0120     8.0370   134.2810     2.4290
 3303.5000  1568.1580     2.4050     2.7150     2.2960   -24.0710  1597.2220     0.0080     8.0310   139.6970     2.4230
 3304.0000  1567.6770     2.5030     2.7780     2.3220   -23.9420  1597.2220     0.0090     8.0240   140.5950     2.4250
 3304.5000  1567.1970     2.6790     2.8330     2.5310   -23.7790  1595.1060     0.0200     8.0170   142.7240     2.4490
 3305.0000  1566.7170     2.8540     3.1480     2.7640   -23.6240  1591.5830     0.0300     8.0110   138.5010     2.4800
 3305.5000  1566.2371     3.1410     3.3950     2.9970   -23.4760  1588.0601     0.0410     8.0040   133.8470     2.5140
 3306.0000  1565.7560     3.4460     5.5650     3.2300   -23.3000  1584.5380     0.0450     7.9970   124.6960     2.5340
 3306.5000  1565.2760     3.5950     7.7080     3.3930   -23.1900  1581.0150     0.0420     7.9910   106.4660     2.5250
 3307.0000  1564.7960     3.7430     7.2450     3.4980   -22.7390  1577.4919     0.0460     7.9840   103.4210     2.5160
 3307.5000  1564.3160     3.8920     6.3200     3.5850   -22.6770  1573.9700     0.0670     7.9770   101.5640     2.5200
 3308.0000  1563.8361     3.9910     5.3950     3.6960   -22.6640  1570.4470     0.0970     7.9700   101.6220     2.5260
 3308.5000  1563.3550     4.0770     3.9240     3.7910   -22.6800  1566.9240     0.0880     7.9550   101.6250     2.5090
 3309.0000  1562.8750     4.1620     3.9620     3.8850   -22.6720  1563.4020     0.0670     7.9140   101.6230     2.4870
 3309.5000  1562.3950     4.2480     4.6140     3.9960   -22.6760  1559.8790     0.0510     7.8730   101.6230     2.4730
 3310.0000  1561.9150     4.3760     5.6110     4.1810   -22.6680  1560.4310     0.0470     7.8330   101.6230     2.5090
 3310.5000  1561.4340     4.5600     6.7530     4.4040   -22.6830  1569.0360     0.0580     7.7950   101.6230     2.5150
 3311.0000  1560.9540     4.7440     6.5360     4.6270   -22.6700  1577.6420     0.0580     7.7590   101.6230     2.5130
 3311.5000  1560.4740     4.9280     6.5890     4.8500   -22.6520  1586.2469     0.0620     7.7250   101.6230     2.5140
 3312.0000  1559.9940     5.1120     6.8670     5.0160   -22.7990  1594.8530     0.0730     7.6900   101.6230     2.5360
 3312.5000  1559.5129     5.2830     7.1450     5.1200   -22.7980  1603.4580     0.0840     7.6550   101.6230     2.5590
 3313.0000  1559.0330     5.4230     7.3930     5.2250   -23.0400  1612.0630     0.0960     7.6220   101.6230     2.5720
 3313.5000  1558.5530     5.5620     7.3930     5.3380   -23.0690  1616.6740     0.1080     7.5660   101.6230     2.5730
 3314.0000  1558.0730     5.7280     7.3930     5.2940   -23.6740  1615.7440     0.1180     7.4940   101.6230     2.5580
 3314.5000  1557.5920     5.7070     7.3930     5.2460   -23.8450  1614.8149     0.1260     7.3370   101.6230     2.5180
 3315.0000  1557.1121     5.6640     7.2150     5.1990   -23.8400  1613.8850     0.1370     7.1990  -999.2500     2.4680
 3315.5000  1556.6320     5.6210     6.8930     5.1510   -23.7650  1612.9561     0.1550     6.9070  -999.2500     2.4180
 3316.0000  1556.1520     5.5780     6.5710     5.1030   -23.4100  1612.0260     0.1840     6.6220  -999.2500     2.3770
 3316.5000  1555.6710     5.5340     6.2490     5.0560   -23.4560  1611.0959     0.2190     6.3770  -999.2500     2.3590
 3317.0000  1555.1910     5.6090     5.7380     5.3360   -23.5760  1610.1670     0.2260     6.1320  -999.2500     2.3430
 3317.5000  1554.7111     5.6840     5.7930     5.6180   -23.8830  1609.2371     0.2300  -999.2500  -999.2500     2.3290
 3318.0000  1554.2310     5.7590     7.5560     6.0590   -23.8020  1608.3080     0.2350  -999.2500  -999.2500     2.3240
 3318.5000  1553.7500     5.8340    10.2990     5.9800   -23.8190  1607.3781     0.2410  -999.2500  -999.2500     2.3280
 3319.0000  1553.2700     5.9500    13.4320     5.8020   -23.1230  1606.4480     0.2460  -999.2500  -999.2500     2.3340
 3319.5000  1552.7900     5.8670    12.9550     5.6350   -22.9620  1605.5190     0.2390  -999.2500  -999.2500     2.3290
 3320.0000  1552.3101     5.6880    10.3840     5.7380   -22.9350  1604.5890     0.2310  -999.2500  -999.2500     2.3220
 3320.5000  1552.0630     5.5090     7.9750     5.4000   -23.0840  1603.6600     0.2270  -999.2500  -999.2500     2.3150
 3321.0000  1552.0630     5.3300     5.3380     5.1980   -23.0660  1602.7300     0.2250  -999.2500  -999.2500     2.3110
 3321.5000  1552.0630     5.1510     5.4350     4.9950   -23.0520  1601.8000     0.2200  -999.2500  -999.2500     2.3090
 3322.0000  1552.0630     4.9730     5.5430     4.7930   -23.0670  1600.8710     0.2100  -999.2500  -999.2500     2.2930
 3322.5000  1552.0630     4.7940     5.6350     4.6180   -23.0590  1599.9410     0.1230  -999.2500  -999.2500     2.2670
 3323.0000  1552.0630     4.6150     5.3230     4.4770   -23.0660  1599.0120     0.0560  -999.2500  -999.2500     2.2470
 3323.5000  1552.0630     4.4760     4.8760     4.3520   -23.0530  1598.0820     0.0320  -999.2500  -999.2500  -999.2500
 3324.0000  1552.0630     4.3690     4.8970     4.2280   -23.0720  1597.1520     0.0250  -999.2500  -999.2500  -999.2500
 3324.5000  1552.0630     4.2630     4.9530     4.1030   -23.0900  1596.2230     0.0230  -999.2500  -999.2500  -999.2500
