~VERSION INFORMATION
 VERS.                2.0:   CWLS LOG ASCII STANDARD - VERSION 2.0
 WRAP.                 NO:   ONE LINE PER DEPTH STEP
~WELL INFORMATION
#MNEM.UNIT      DATA TYPE    INFORMATION
#----------   ------------   ------------------------------
 STRT.F          742.0000:   START DEPTH
 STOP.F         3406.0000:   STOP DEPTH
 STEP.F            0.5000:   STEP LENGTH
 NULL.          -999.2500:   NO VALUE
 COMP. FENIX & SCISSON - US NAVY:   COMPANY
 WELL.   FENIX "AX" #85-4:   WELL
 FLD .      NPR - WILDCAT:   FIELD
 LOC .       S4 T38N R78W:   LOCATION
 CNTY.            NATRONA:   COUNTY
 STAT.            WYOMING:   STATE
 CTRY. UNITED STATES OF AMERICA:   COUNTRY
 SRVC.              WELEX:   SERVICE COMPANY
 DATE.        03-MAY-1977:   LOGDATE
 API .     49025103520000:   API NUMBER
~CURVE INFORMATION
#MNEM.UNIT       API CODE    CURVE DESCRIPTION
#----------   ------------   ------------------------------
 DEPT.F                  :   
 SNP .DEC    41 890 00 00:   SIDEWALL NEUTRON POROSITY
 GR  .GAPI   30 310 01 00:   GAMMA RAY
 SPR .MV     07 010 01 00:   SPONTANEOUS POTENTIAL
 RXO .OHMM   11 220 01 00:   FLUSHED ZONE RESISTIVITY
 GURD.OHMM   07 220 05 00:   GUARD LOG RESISTIVITY
 CALD.IN     45 280 60 00:   CALIPER FROM DENSITY LOG
 RHOB.G/C3   45 350 01 00:   BULK DENSITY
 GRD .GAPI   45 310 01 00:   GAMMA RAY FROM DENSITY LOG
 CORR.G/C3   45 356 01 00:   DENSITY CORRECTION
~PARAMETER INFORMATION
#MNEM.UNIT          VALUE    DESCRIPTION
#----------   ------------   ------------------------------
 EKB .F         5254.0000:   Kelly bushing
 EGL .F         5240.0000:   Ground level
 EDF .F            0.0000:   Drilling floor
 TD  .F         3467.0000:   Total depth
 DATE.        03-MAY-1977:   Date logged
 CLNT.            A2DTECH:   Client Code
 SL  . 2200' FSL & 100' FEL:   Surface Location
 PD  .                 GL:   Permanent Datum
 EPD .F              5240:   Elevation Permanent Datum
 LMF .                 KB:   Log Measured From
 DMF .                 KB:   Drilling Measured From
 DAPD.F                14:   Feet Above Permanent Datum
 DD  .F              3647:   Depth driller
 DL  .F              3404:   Depth logger
 BLI .F              3402:   Bottom log interval
 TLI .F               720:   Top log interval
 CS1 .IN            8.625:   Casing size
 CBD1.      8.625" @ 720':   Casing driller 1
 CBL1.F               760:   Casing logger 1
 BS1 .IN            7.875:   Bit size
 BSD1.F              3467:   Depth drilled with bit1
 DFT .            KCL/MUD:   Type fluid in hole
 DFD .                9.1:   Density
 DFV .                 36:   Viscosity
 DFPH.                  8:   pH
 DFL .                  5:   Fluid loss
 MSS .           FLOWLINE:   Source of sample
 RMS .OHMM            .30:   Rm
 MST .F                66:   Rm Meas. temp.
 RMF .OHMM            .21:   Rmf
 MFST.F                66:   Rmf Meas. temp.
 RMC .OHMM            .49:   Rmc
 MCST.F                66:   Rmc Meas. temp.
 MFSS.               FANN:   Source Rmf.
 MCSS.                KIT:   Source Rmc.
 RMB .OHMM            .18:   Rm. at BHT
 BHT .F               107:   BHT.
 TCS .HRS             2.5:   Time Circ. stopped
 MRT .F               107:   Maximum recorded temp.
 LUN .               8611:   Logging unit number
 LUL .             CASPER:   Logging unit location
 ENGI.            C. DOAK:   Recorded By
 WITN.      B. HARRINGTON:   Witnessed by
 ORIG.     2.5", 5" PRINT:   Origin of data
 UWI .     49025103520000:   Unique Well ID
 DICO. A2D TECHNOLOGIES, INC.:   Digitizing Company
~OTHER INFORMATION
~A   DEPT        SNP       GR        SPR        RXO       GURD         CALD       RHOB       GRD       CORR  
# ...
 2311.5000     0.1880    96.4880   -45.0690     4.0430     3.6260     8.4800     2.4990    94.5320     0.0040
 2312.0000     0.1850    98.2910   -44.9700     4.5930     4.3230     8.4740     2.5170    93.4760     0.0070
 2312.5000     0.1780    98.0970   -44.8700     5.5080     5.0210     8.4680     2.5350    92.3130     0.0100
 2313.0000     0.1720    97.2310   -44.7700     6.4240     5.7180     8.4620     2.5380    91.1860     0.0130
 2313.5000     0.1660    97.1840   -44.6710     8.5010     6.4150     8.4520     2.5360    90.1340     0.0170
 2314.0000     0.1660    99.5730   -44.5710    10.0280     6.9730     8.4420     2.5300    92.1580     0.0170
 2314.5000     0.1690   102.3590   -44.4710     8.0900     5.8920     8.4300     2.5240    94.2580     0.0170
 2315.0000     0.1720   105.2210   -44.3720     5.5060     4.2700     8.4180     2.5200    96.1940     0.0170
 2315.5000     0.1740   108.0690   -44.2720     5.6070     4.7540     8.3750     2.5140    94.6640     0.0170
 2316.0000     0.1770   110.5000   -44.1730     6.6030     5.4070     8.3360     2.5040    91.7370     0.0170
 2316.5000     0.1960   110.1290   -44.0730     6.2530     5.2640     8.2950     2.4980    92.5660     0.0170
 2317.0000     0.1910   108.9740   -43.9730     6.1410     5.1210     8.2550     2.5010    94.5890     0.0170
 2317.5000     0.1830   107.1370   -43.8740     6.4850     5.2140     8.2250     2.5060    96.5800     0.0170
 2318.0000     0.1730   105.4010   -43.7720     7.4010     6.7440     8.2320     2.5060    96.6880     0.0170
 2318.5000     0.1710   105.6700   -43.6770     8.7300     8.2730     8.2390     2.5060    94.5190     0.0180
 2319.0000     0.1690   106.3960   -43.5640    10.0590     9.4960     8.2470     2.5050    92.4920     0.0190
 2319.5000     0.1690   106.8150   -43.5560    11.3880     9.4960     8.2550     2.5140    90.5330     0.0200
 2320.0000     0.1760   106.4560   -43.5550    11.8100     9.3250     8.2630     2.5310    88.5170     0.0220
 2320.5000     0.1730   105.2140   -43.5740     8.7850     7.3480     8.2720     2.5480    88.6690     0.0230
 2321.0000     0.1670   103.5070   -43.5860     7.7060     6.0300     8.2800     2.5600    88.8770     0.0240
 2321.5000     0.1620   100.6360   -43.6010     7.4460     6.0670     8.2880     2.5590    89.1610     0.0250
 2322.0000     0.1600   100.6650   -43.6160     7.3150     6.1140     8.2960     2.5570    89.5030     0.0230
 2322.5000     0.1510   100.0330   -43.6300     7.1830     6.1600     8.3040     2.5550    88.8450     0.0210
 2323.0000     0.1530    98.2450   -43.6450     6.9730     6.2070     8.3120     2.5580    87.0970     0.0200
 2323.5000     0.1560    96.5180   -43.6600     7.2310     6.2530     8.3200     2.5620    85.5140     0.0180
 2324.0000     0.1590    95.8000   -43.6740     9.3300     6.6770     8.3280     2.5630    83.8310     0.0170
 2324.5000     0.1530    96.2860   -43.6890    10.5900     7.1010     8.3360     2.5550    82.2050     0.0170
 2325.0000     0.1480    97.9960   -43.7030     9.3440     6.8190     8.3430     2.5430    81.0950     0.0160
 2325.5000     0.1500    99.7420   -43.7180     8.0980     6.5620     8.3520     2.5400    82.9030     0.0120
 2326.0000     0.1550   100.2670   -43.7330     7.1010     6.2530     8.3600     2.5390    84.3980     0.0120
 2326.5000     0.1510   101.3170   -43.7470    10.5900     6.2530     8.3680     2.5320    86.0630     0.0110
 2327.0000     0.1540   104.4520   -43.7620     8.5220     6.3680     8.3760     2.5260    87.6420     0.0100
 2327.5000     0.1560   107.7690   -43.7760     7.6360     7.2230     8.3840     2.5170    89.2450     0.0090
 2328.0000     0.1590   111.0810   -43.7910     8.7440     8.3620     8.3920     2.5080    90.8550     0.0080
 2328.5000     0.1600   114.3820   -43.8050    10.5900     8.2120     8.3990     2.4990    92.4430     0.0070
 2329.0000     0.1630   117.6860   -43.8200    10.4010     7.4930     8.4070     2.5000    94.0620     0.0060
 2329.5000     0.1650   119.5410   -43.8350     8.9560     6.7740     8.4150     2.4950    95.6540     0.0050
 2330.0000     0.1660   118.2100   -43.8490     7.3850     6.0550     8.4230     2.4910    97.2320     0.0040
 2330.5000     0.1720   117.7850   -43.8640     5.8150     5.3370     8.4310     2.4860    98.9800     0.0030
 2331.0000     0.1760   120.7960   -43.8780     5.8150     4.7620     8.4390     2.4810    99.5920     0.0020
 2331.5000     0.1830   123.8390   -43.8930     5.8150     4.6760     8.4470     2.4840    98.7060     0.0010
 2332.0000     0.1810   126.8770   -43.9070     5.9210     5.2770     8.4550     2.4910    98.0300     0.0070
 2332.5000     0.1780   128.1860   -43.9220     6.7240     5.9910     8.4630     2.4980    97.2310     0.0120
 2333.0000     0.1800   128.1640   -43.9370    10.3990     6.8480     8.4710     2.5030    96.5300     0.0130
 2333.5000     0.1780   128.4910   -43.9460     9.8070     6.8480     8.4790     2.5040    96.0430     0.0100
 2334.0000     0.1760   129.2170   -43.9450     8.3260     6.1670     8.4860     2.4990    98.1050     0.0080
 2334.5000     0.1880   129.7670   -43.9460     6.2530     5.2140     8.4940     2.4930    99.9940     0.0050
 2335.0000     0.1990   127.9380   -43.9460     6.3100     5.2620     8.5010     2.4850   101.3620     0.0030
 2335.5000     0.1960   125.8290   -43.9780     6.6710     5.3100     8.4880     2.4850   101.4420     0.0000
 2336.0000     0.1870   124.5170   -44.0200     7.2310     5.3100     8.4590     2.4920   100.4380    -0.0030
 2336.5000     0.1780   124.6630   -44.0620     7.2310     6.8480     8.4320     2.4980    98.6820    -0.0030
 2337.0000     0.1670   124.6830   -44.1030     7.0400     5.9210     8.4040     2.5040    97.0710    -0.0010
 2337.5000     0.1660   123.3710   -44.1450     6.8480     6.0300     8.3770     2.5110    95.4980     0.0010
 2338.0000     0.1720   122.5080   -44.1860     8.8900     7.4880     8.3490     2.5170    93.8790     0.0040
 2338.5000     0.1790   125.0250   -44.2280    13.6570     8.3620     8.3420     2.5230    93.4980     0.0060
 2339.0000     0.1860   128.7570   -44.2690    12.1870     7.7780     8.3420     2.5300    93.7220     0.0080
 2339.5000     0.1930   132.4830   -44.3110     9.7360     7.0540     8.3410     2.5370    93.9290     0.0100
 2340.0000     0.1870   134.7830   -44.3530     7.7760     6.3310     8.3400     2.5450    94.1440     0.0120
 2340.5000     0.1800   133.5340   -44.3940     7.2200     5.6070     8.3400     2.5540    94.6720     0.0140
 2341.0000     0.1840   132.7900   -44.4360     6.7560     5.0280     8.3390     2.5620    95.7690     0.0170
 2341.5000     0.1830   133.7620   -44.4770     6.0610     5.0280     8.3390     2.5660    97.7950     0.0190
 2342.0000     0.1800   132.7240   -44.5190     6.5760     5.2140     8.3380     2.5680   101.8840     0.0210
 2342.5000     0.1780   134.3210   -44.5600     7.2310     6.1410     8.3380     2.5640   105.9390     0.0200
 2343.0000     0.1770   136.8110   -44.6020     7.1660     5.8820     8.3370     2.5600   110.0410     0.0170
 2343.5000     0.1820   139.3640   -44.6440     6.7080     5.4510     8.3370     2.5560   114.0230     0.0210
 2344.0000     0.1860   142.6420   -44.6850     5.9760     4.7620     8.3360     2.5500   118.3840     0.0300
 2344.5000     0.1900   145.2890   -44.7240     7.4990     4.8510     8.3360     2.5430   118.8790     0.0360
 2345.0000     0.1930   145.4430   -44.7260     5.3100     5.1210     8.3350     2.5330   116.3750     0.0290
 2345.5000     0.1820   144.7680   -44.7270     6.2770     5.1210     8.3350     2.5240   114.3000     0.0230
 2346.0000     0.1910   142.6650   -44.7270     8.2120     5.2140     8.3340     2.5140   112.1790     0.0160
 2346.5000     0.2070   141.9810   -44.7290     5.5060     4.1930     8.3340     2.5090   109.7830     0.0130
 2347.0000     0.2250   142.6040   -44.7710     5.5060     5.1670     8.3330     2.5050   108.3670     0.0130
 2347.5000     0.2210   140.4930   -44.8150     9.3250     6.1410     8.3320     2.5040   108.4380     0.0140
