~VERSION INFORMATION
 VERS.                2.0:   CWLS LOG ASCII STANDARD - VERSION 2.0
 WRAP.                 NO:   ONE LINE PER DEPTH STEP
~WELL INFORMATION
#MNEM.UNIT      DATA TYPE    INFORMATION
#----------   ------------   ------------------------------
 STRT.F           13.0000:   START DEPTH
 STOP.F         2858.0000:   STOP DEPTH
 STEP.F            0.5000:   STEP LENGTH
 NULL.          -999.2500:   NO VALUE
 COMP.    FENIX & SCISSON:   COMPANY
 WELL. FENIX & SCISSON "AX" #16-21:   WELL
 FLD .  TEAPOT DOME NRP-3:   FIELD
 LOC .      S21 T39N R78W:   LOCATION
 CNTY.            NATRONA:   COUNTY
 STAT.            WYOMING:   STATE
 CTRY. UNITED STATES OF AMERICA:   COUNTRY
 SRVC.           BIRDWELL:   SERVICE COMPANY
 DATE.        17-JUL-1978:   LOGDATE
 API .     49025106590000:   API NUMBER
~CURVE INFORMATION
#MNEM.UNIT       API CODE    CURVE DESCRIPTION
#----------   ------------   ------------------------------
 DEPT.F                  :   
 GRD .GAPI   45 310 01 00:   GAMMA RAY FROM DENSITY LOG
 CALD.IN     45 280 60 00:   CALIPER FROM DENSITY LOG
 CORR.G/C3   45 356 01 00:   DENSITY CORRECTION
 RHOB.G/C3   45 350 01 00:   BULK DENSITY
 SPR .MV     05 010 01 00:   SPONTANEOUS POTENTIAL FROM RES.
 ILD .OHMM   05 120 46 00:   INDUCTION LOG DEEP
 SN  .OHMM   05 041 16 00:   SHORT NORMAL 16"
~PARAMETER INFORMATION
#MNEM.UNIT          VALUE    DESCRIPTION
#----------   ------------   ------------------------------
 EKB .F         5003.0000:   Kelly bushing
 EGL .F         4993.0000:   Ground level
 EDF .F            0.0000:   Drilling floor
 EPD .F         4993.0000:   Permanent datum
 TD  .F         2858.0000:   Total depth
 CLNT.            A2DTECH:   Client Code
 SL  . 1420' FSL & 200' FWL:   Surface Location
 DATE.        17-JUL-1978:   Date Logged [DD-MMM-YYYY]
 DD  .F              2855:   Depth driller
 DL  .F              2858:   Depth logger
 BLI .F              2858:   Bottom log interval
 TLI .F                20:   Top log interval
 CS1 .              8.625:   Casing size
 CBD1.      8.625" @ 200':   Casing driller 1
 CBL1.IN              228:   Casing logger 1
 BS1 .IN            7.875:   Bit size
 BSD1.F              2855:   Depth drilled with bit1
 DFT .            MUD GEL:   Type fluid in hole
 DFD .                9.9:   Density
 DFV .                 32:   Viscosity
 DFPH.               10.5:   pH
 DFL .                7.2:   Fluid loss
 MSS .           FLOWLINE:   Source of sample
 RMS .OHMM            1.3:   Rm
 MST .F                80:   Rm Meas. temp.
 RMF .OHMM           0.77:   Rmf
 MFST.F                74:   Rmf Meas. temp.
 MFSS.               MEAS:   Source Rmf.
 RMC .OHMM            1.5:   Rmc
 MCST.F                73:   Rmc Meas. temp.
 MCSS.               MEAS:   Source Rmc.
 TCS .HRS               1:   Time Circ. stopped
 MRT .F               118:   Maximum recorded temp.
 LUN .               2958:   Logging unit number
 LUL .               CASP:   Logging unit location
 ENGI.              HONEA:   Recorded By
 WITN.           MCGINLEY:   Witnessed by
 ORIG.        2" 5" PRINT:   Origin of data
 UWI .     49025106590000:   Unique Well ID
 DICO. A2D TECHNOLOGIES, INC.:   Digitizing Company
 PD  .                 GL:   Permanent Datum
 DAPD.                 10:   Feet Above Permanent Datum
~OTHER INFORMATION
~A   DEPT       GRD      CALD       CORR       RHOB        SPR        ILD         SN   
# ...
 2470.0000    72.3821     8.2451     0.0224     2.5297   -27.7477     8.6685    10.1978
 2470.5000    71.8000     8.2471     0.0224     2.5312   -27.5721     8.7340    10.2716
 2471.0000    73.6076     8.2784     0.0225     2.5291   -27.7041     8.7399    10.2750
 2471.5000    77.7918     8.2800     0.0211     2.5269   -27.6768     8.7459    10.2785
 2472.0000    80.6369     8.2816     0.0211     2.5276   -27.6550     8.7531    10.2819
 2472.5000    80.3397     8.2832     0.0123     2.5269   -27.6332     8.7590    10.2855
 2473.0000    78.5928     8.2848     0.0035     2.5240   -27.6112     8.7648    10.2890
 2473.5000    78.7591     8.2712     0.0183     2.5077   -27.5890     8.7707    10.1527
 2474.0000    80.1160     8.2434     0.0228     2.5040   -27.5668     8.7766    10.0857
 2474.5000    80.7287     8.2005     0.0199     2.5107   -27.5404     8.7825    10.0199
 2475.0000    80.2998     8.1278     0.0185     2.5175   -27.5186     8.7269    10.0242
 2475.5000    79.4245     8.1145     0.0171     2.5220   -27.4968     8.4981     9.9589
 2476.0000    76.9079     8.2097     0.0216     2.5220   -27.4750     7.9950     9.6257
 2476.5000    76.1857     8.3262     0.0246     2.5213   -27.4532     7.9458     9.4324
 2477.0000    70.2465     8.3723     0.0276     2.5189   -27.4313     7.8970     9.2429
 2477.5000    77.8577     8.3591     0.0262     2.5162   -27.4095     7.6226     8.9954
 2478.0000    79.5121     8.3458     0.0218     2.5251   -27.3877     7.0241     8.8755
 2478.5000    83.8506     8.3326     0.0219     2.5311   -27.5143     6.8523     8.5198
 2479.0000    83.8800     8.3189     0.0234     2.5304   -27.4924     6.8101     8.2068
 2479.5000    85.0750     8.3507     0.0235     2.5267   -27.4703     6.7681     7.6383
 2480.0000    85.6834     8.3523     0.0221     2.5223   -27.4481     6.6359     7.4331
 2480.5000    84.8124     8.3683     0.0221     2.5164   -27.4215     6.5939     7.2838
 2481.0000    84.3791     8.3406     0.0178     2.5194   -27.3997     6.5086     7.2363
 2481.5000    85.2939     8.3125     0.0074     2.5313   -27.3779     6.4253     7.2394
 2482.0000    88.4364     8.2840     0.0016     2.5273   -27.3561     6.3421     7.2418
 2482.5000    90.0908     8.2563     0.0090     2.5314   -27.3343     6.0492     7.0964
 2483.0000    89.8107     8.2580     0.0135     2.5299   -27.3124     5.7697     7.0019
 2483.5000    89.0842     8.2599     0.0180     2.5263   -27.4444     5.5400     6.8613
 2484.0000    88.9524     8.2615     0.0255     2.5270   -27.4172     5.3948     6.4964
 2484.5000    88.3752     8.2478     0.0330     2.5345   -27.2470     5.3249     6.1898
 2485.0000    88.3929     8.2643     0.0345     2.5405   -27.2252     5.2921     6.0274
 2485.5000    89.0723     8.2510     0.0331     2.5487   -27.2032     5.2966     6.2407
 2486.0000    95.4262     8.2531     0.0287     2.5525   -27.1671     5.3001     6.3729
 2486.5000    96.0346     8.2547     0.0272     2.5525   -27.0104     5.3037     6.4190
 2487.0000    93.3779     8.2414     0.0214     2.5466   -26.8357     5.3437     6.3335
 2487.5000    90.8656     8.2430     0.0230     2.5570   -26.9677     5.3841     6.3357
 2488.0000    89.9859     8.2298     0.0215     2.5440   -26.9404     5.4621     6.4255
 2488.5000    91.3471     8.2165     0.0172     2.5348   -26.9186     5.4658     6.5166
 2489.0000    94.4896     8.1876     0.0069     2.5363   -26.8968     5.5070     6.6547
 2489.5000    95.0980     8.1269    -0.0020     2.5349   -26.8750     5.5107     6.7028
 2490.0000    93.1854     8.0876    -0.0034     2.5290   -26.8531     5.5525     6.7051
 2490.5000    92.0125     8.0599    -0.0004     2.5127   -26.8313     5.5562     6.8042
 2491.0000    90.9883     8.0615     0.0041     2.5045   -26.8095     5.6763     6.8967
 2491.5000    90.8570     8.0478     0.0042     2.5387   -26.7877     5.8379     6.8995
 2492.0000    91.0238     8.0647     0.0057     2.5254   -26.7656     6.0042     6.9494
 2492.5000    91.1897     8.0663     0.0117     2.5217   -26.8924     6.1330     7.4464
 2493.0000    90.9140     8.0526     0.0118     2.5203   -26.8651     6.3511     7.9243
 2493.5000    90.4807     8.0398     0.0148     2.5285   -26.8433     6.6677     8.5495
 2494.0000    89.7585     7.9820     0.0163     2.5373   -26.8215     7.2440     9.4163
 2494.5000    89.6229     7.9389     0.0149     2.5471   -26.7997     7.8165     9.8837
 2495.0000    91.8769     7.9703     0.0119     2.5524   -26.7779     8.0944    10.3744
 2495.5000    92.7873     8.0017     0.0106     2.5442   -26.7561     8.1555    10.7407
 2496.0000    93.8465     8.0627     0.0124     2.5361   -26.8881     8.1052    10.8930
 2496.5000    96.5426     8.1112     0.0196     2.5308   -26.8608     7.8264    10.4565
 2497.0000    98.6434     8.1852     0.0256     2.5354   -26.8390     7.2745     9.8892
 2497.5000    99.4050     8.2313     0.0286     2.5585   -26.8171     6.7973     9.1204
 2498.0000   100.1666     8.2627     0.0301     2.5585   -26.7952     6.2221     8.4011
 2498.5000   100.1841     8.3088     0.0302     2.5541   -26.7730     5.6956     7.5288
 2499.0000   100.0269     8.3402     0.0273     2.5504   -26.9001     5.3953     6.9350
 2499.5000    99.6239     8.3715     0.0244     2.5572   -27.0266     5.0069     6.3881
 2500.0000    99.6458     8.4177     0.0185     2.5594   -27.1477     4.6784     5.8839
 2500.5000   100.4073     8.4193     0.0141     2.5556   -27.1259     4.5550     5.8060
 2501.0000   101.9130     8.4357     0.0127     2.5528   -27.1041     4.5268     5.8079
 2501.5000   103.2698     8.4373     0.0113     2.5432   -27.0822     4.5300     5.7700
 2502.0000   103.7337     8.4389     0.0113     2.5306   -26.9121     4.5330     5.7720
 2502.5000   103.9001     8.4703     0.0099     2.5344   -26.7419     4.5678     5.8138
 2503.0000   103.1735     8.4719     0.0100     2.5397   -26.7201     4.5432     5.8159
 2503.5000   100.5125     8.4586     0.0115     2.5330   -26.6982     4.5149     5.8182
 2504.0000   100.3779     8.4454     0.0116     2.5270   -26.6933     4.5195     5.8202
 2504.5000   100.3998     8.4177     0.0131     2.5257   -26.7056     4.5232     5.8222
 2505.0000   100.4173     8.3891     0.0176     2.5324   -26.7180     4.5580     5.8643
 2505.5000   100.7323     8.3911     0.0192     2.5243   -26.7303     4.6583     5.9067
 2506.0000   101.7917     8.4076     0.0222     2.5303   -26.7427     4.8653     6.2427
 2506.5000   101.1394     8.3497     0.0237     2.5362   -26.7550     5.2936     6.5526
 2507.0000    97.5153     8.3364     0.0253     2.5296   -26.7674     5.6951     6.8779
 2507.5000    94.7054     8.3382     0.0253     2.5274   -26.7797     6.1460     7.7864
 2508.0000    93.9789     8.3561     0.0254     2.5356   -26.7932     6.7704     9.3773
 2508.5000    92.3594     8.3565     0.0255     2.5416   -26.7713     7.3566     9.9791
 2509.0000    88.5079     8.3428     0.0255     2.5483   -26.7494     7.7243    10.2607
 2509.5000    88.5254     8.3296     0.0256     2.5383   -26.7274     7.8912    10.2643
 2510.0000    89.2869     8.3018     0.0256     2.5328   -26.8546     7.8976    10.2685
 2510.5000    89.8996     8.3034     0.0322     2.5314   -26.8319     7.8484    10.2016
 2511.0000    89.3218     8.2898     0.0293     2.5307   -26.8100     7.8563    10.1343
 2511.5000    88.1488     8.2765     0.0265     2.5397   -26.7878     7.8627    10.0683
 2512.0000    88.3273     8.2636     0.0221     2.5442   -26.7656     7.8151    10.0725
 2512.5000    89.5978     8.2653     0.0206     2.5427   -26.7433     7.7682    10.0759
 2513.0000    90.4334     8.2669     0.0193     2.5398   -26.8707     7.7745    10.0103
 2513.5000    90.3021     8.2685     0.0180     2.5376   -26.8433     7.4122    10.0136
 2514.0000    90.4727     8.2705     0.0166     2.5369   -26.8213     6.9684     9.7454
 2514.5000    90.6390     8.2721     0.0167     2.5372   -26.9533     6.6953     9.2271
 2515.0000    90.9541     8.2885     0.0168     2.5422   -26.9259     6.4835     8.5580
