~VERSION INFORMATION
 VERS.                2.0:   CWLS LOG ASCII STANDARD - VERSION 2.0
 WRAP.                 NO:   ONE LINE PER DEPTH STEP
~WELL INFORMATION
#MNEM.UNIT      DATA TYPE    INFORMATION
#----------   ------------   ------------------------------
 STRT.F           60.0000:   START DEPTH
 STOP.F         3178.0000:   STOP DEPTH
 STEP.F            0.5000:   STEP LENGTH
 NULL.          -999.2500:   NO VALUE
 COMP. LAWRENCE-ALLISON & ASSOSCIATES:   COMPANY
 WELL. LAWRENCE "AX" #46-21:   WELL
 FLD .             NPR #3:   FIELD
 LOC .      S21 T39N R78W:   LOCATION
 CNTY.            NATRONA:   COUNTY
 STAT.            WYOMING:   STATE
 CTRY. UNITED STATES OF AMERICA:   COUNTRY
 SRVC.       SCHLUMBERGER:   SERVICE COMPANY
 DATE.        03-JUN-1982:   LOGDATE
 API .     49025108890000:   API NUMBER
~CURVE INFORMATION
#MNEM.UNIT       API CODE    CURVE DESCRIPTION
#----------   ------------   ------------------------------
 DEPT.F                  :   
 TEND.LBS    45 635 01 00:   TENSION FORM DENSITY LOG
 CALD.IN     45 280 60 00:   CALIPER FROM DENSITY LOG
 CORR.G/C3   45 356 01 00:   DENSITY CORRECTION
 RHOB.G/C3   45 350 01 00:   BULK DENSITY
 NPHI.DEC    42 890 03 00:   NEUTRON POROSITY SANDSTONE
 GRR .GAPI   07 310 01 00:   GAMMA RAY FROM RESISTIVITY
 SPR .MV     07 010 01 00:   SPONTANEOUS POTENTIAL
 SFL .OHMM   07 220 01 00:   SHALLOW FOCUSED LOG RESISTIVITY
 ILD .OHMM   07 120 46 00:   DEEP INDUCTION RESISTIVITY
 ILM .OHMM   07 120 44 00:   INDUCTION LOG MEDIUM RESISTIVITY
 TENR.LBS    07 635 01 00:   TENSION FROM RESISTIVITY
~PARAMETER INFORMATION
#MNEM.UNIT          VALUE    DESCRIPTION
#----------   ------------   ------------------------------
 EKB .F         5008.0000:   Kelly bushing
 EGL .F         4998.0000:   Ground level
 EDF .F         5007.0000:   Drilling floor
 TD  .F         3230.0000:   Total depth
 CLNT.            A2DTECH:   Client Code
 SL  . 1864' FSL & 2484' FWL:   Surface Location
 PD  .                 GL:   Permanent Datum
 EPD .F              4998:   Elevation Permanent Datum
 LMF .                 KB:   Log Measured From
 DMF .                 KB:   Drilling Measured From
 DAPD.F                10:   Feet Above Permanent Datum
 DATE.        03-JUN-1982:   Date Logged [DD-MMM-YYYY]
 DD  .F              3230:   Depth driller
 DL  .F              3200:   Depth logger
 BLI .F              3190:   Bottom log interval
 TLI .F               475:   Top log interval
 CS1 .IN            9.625:   Casing size
 CBD1.      9.625" @ 465':   Casing driller 1
 CBL1.F               475:   Casing logger 1
 BS1 .IN             8.75:   Bit size
 BSD1.F              3230:   Depth drilled with bit1
 DFT .   FORM WATER / AIR:   Type fluid in hole
 TCS .HRS            1530:   Time Circ. stopped
 TLAB.HRS            1900:   Time logger at bottom
 MRT .F               135:   Maximum recorded temp.
 LUN .               8035:   Logging unit number
 LUL .               CSPR:   Logging unit location
 ENGI.              PENNY:   Recorded By
 WITN.           JENNINGS:   Witnessed by
 ORIG.      2.5" 5" PRINT:   Origin of data
 UWI .     49025108890000:   Unique Well ID
 DICO. A2D TECHNOLOGIES, INC.:   Digitizing Company
~OTHER INFORMATION
~A   DEPT     TEND       CALD       CORR       RHOB       NPHI        GRR        SPR        SFL        ILD        ILM       TENR   
# ...
 2256.0000  1959.1431    12.6060     0.2481     1.8541  -999.2500   213.7576  -999.2500  -999.2500     3.0411     3.0954  1912.7465
 2256.5000  1959.7505    12.6966     0.2339     1.5574  -999.2500   214.6654  -999.2500  -999.2500     3.0409     3.0954  1913.0350
 2257.0000  1960.3579    12.5123     0.0608     1.3326  -999.2500   218.7650  -999.2500  -999.2500     3.0407     3.0954  1913.3333
 2257.5000  1960.9653    12.0499    -0.0114     1.2645  -999.2500   223.7737  -999.2500  -999.2500     3.0833     3.0954  1913.6362
 2258.0000  1961.5728    11.3269     0.0361     1.4205  -999.2500   223.8907  -999.2500  -999.2500     3.0831     3.0954  1944.2424
 2258.5000  1962.1801    10.8697     0.1296     1.6874  -999.2500   221.5183  -999.2500  -999.2500     3.1264     3.0954  1944.5454
 2259.0000  1962.7875    11.7004     0.2275     1.8240  -999.2500   218.2785  -999.2500  -999.2500     3.1354     3.0954  1944.8485
 2259.5000  1963.3949    12.5750     0.2487     1.8665  -999.2500   217.8993  -999.2500  -999.2500     3.1700     3.1389  1975.4546
 2260.0000  1964.0023    12.7948     0.2488     1.9036  -999.2500   218.9393  -999.2500  -999.2500     3.2145     3.1389  1975.8057
 2260.5000  1964.6097    13.8512     0.2489     1.6676  -999.2500   219.2802  -999.2500  -999.2500     3.2142     3.1831  1976.0942
 2261.0000  1965.2172    14.0154     0.2490     1.4173  -999.2500   217.0545  -999.2500  -999.2500     3.2140     3.1831  1976.3828
 2261.5000  1965.8246    13.7218     0.1550     1.3432  -999.2500   213.9953  -999.2500  -999.2500     3.2138     3.2279  1976.6715
 2262.0000  1966.4320    13.8870     0.0775     1.1858  -999.2500   209.7651  -999.2500  -999.2500     3.2588     3.2279  1976.9697
 2262.5000  1967.0029    14.0584     0.1228     1.2594  -999.2500   208.7501  -999.2500  -999.2500     3.2586     3.2733  1977.2727
 2263.0000  1966.3665    14.2308     0.1740     1.3849  -999.2500   214.7825  -999.2500  -999.2500     3.2584     3.2733  1977.5757
 2263.5000  1965.7106    14.3806     0.2088     1.4095  -999.2500   218.4275  -999.2500  -999.2500     3.2582     3.2733  1977.8788
 2264.0000  1965.1652    14.6931     0.1524     1.2319  -999.2500   217.0183  -999.2500  -999.2500     3.2580     3.2733  1978.1819
 2264.5000  1964.5646    14.0588     0.0606     1.1638  -999.2500   215.2630  -999.2500  -999.2500     3.2577     3.2733  1978.4849
 2265.0000  1963.9639    13.1731     0.1450     1.3648  -999.2500   215.8333  -999.2500  -999.2500     3.2736     3.2749  1948.5330
 2265.5000  1963.3634    12.2546     0.1775     1.6466  -999.2500   217.2500  -999.2500  -999.2500     3.3032     3.3252  1948.8215
 2266.0000  1962.6958    11.3282     0.1859     1.7007  -999.2500   217.9212  -999.2500  -999.2500     3.3495     3.4237  1949.1102
 2266.5000  1977.1772    11.2413     0.2123     1.9775  -999.2500   217.0972  -999.2500  -999.2500     3.3492     3.5252  1949.3988
 2267.0000  1976.5144    11.1983     0.2433     2.0848  -999.2500   214.8562  -999.2500  -999.2500     3.3962     3.6298  1949.6970
 2267.5000  1975.9758    11.5260     0.2486     2.2258  -999.2500   213.0467  -999.2500  -999.2500     3.3960     3.6606  1919.6730
 2268.0000  1975.3179    12.1492     0.2487     2.0715  -999.2500   204.4190  -999.2500  -999.2500     3.3958     3.5034  1920.0000
 2268.5000  1974.7747    13.2179     0.2488     1.8508  -999.2500   203.4772  -999.2500  -999.2500     3.3476     3.3194  1920.3030
 2269.0000  1974.1742    14.2009     0.2489     1.6058  -999.2500   207.6410  -999.2500  -999.2500     3.2965     3.2279  1920.6061
 2269.5000  1973.5471    14.5221     0.1481     1.3176  -999.2500   214.2729  -999.2500  -999.2500     3.1921     3.0954  1920.9091
 2270.0000  1987.9880    14.4647     0.1361     1.3777  -999.2500   218.8179  -999.2500  -999.2500     3.0525     2.9683  1921.2122
 2270.5000  1987.3657    13.8749     0.1724     1.4490  -999.2500   220.8273  -999.2500  -999.2500     2.9190     2.8855  1921.5488
 2271.0000  1986.6958    13.2258     0.1732     1.4213  -999.2500   218.9368  -999.2500  -999.2500     2.8500     2.8419  1891.5151
 2271.5000  2001.2802    13.7602     0.1227     1.3165  -999.2500   216.7634  -999.2500  -999.2500     2.7901     2.8069  1891.8230
 2272.0000  1985.5856    14.3179     0.0002     1.1169  -999.2500   217.2200  -999.2500  -999.2500     2.7899     2.7679  1922.4243
 2272.5000  1984.9730    13.6313    -0.0471     1.0320  -999.2500   218.1377  -999.2500  -999.2500     2.8290     2.8069  1922.7272
 2273.0000  1984.3843    12.2287    -0.0162     1.6788  -999.2500   201.5810  -999.2500  -999.2500     2.8687     2.8256  1923.0302
 2273.5000  1983.6808    10.5727     0.1082     2.0237  -999.2500   155.1895  -999.2500  -999.2500     2.9499     2.9093  1923.3333
 2274.0000  1983.1067    10.2195     0.1700     2.2082  -999.2500     0.0000  -999.2500  -999.2500     3.0815     3.0954  1923.6364
 2274.5000  1982.5323    10.1035     0.2350     2.2735  -999.2500     0.0000  -999.2500  -999.2500     3.2603     3.3194  1923.9393
 2275.0000  1981.9580     9.9574     0.2425     2.3013  -999.2500     0.4553  -999.2500  -999.2500     3.4288     3.6098  1924.2905
 2275.5000  1981.3813     9.8113     0.1628     2.3284  -999.2500   112.2348  -999.2500  -999.2500     3.6919     3.8710  1954.8822
 2276.0000  1965.7656     9.6948     0.0778     2.3653  -999.2500   172.1504  -999.2500  -999.2500     3.9504     4.0944  1955.1708
 2276.5000  1965.1652     9.6079     0.0364     2.4148  -999.2500   187.6754  -999.2500  -999.2500     4.1304     4.2751  1955.4546
 2277.0000  1964.5500     9.6985     0.0824     2.4554  -999.2500   191.0423  -999.2500  -999.2500     4.2428     4.3408  1955.7577
 2277.5000  1963.9640     9.8514     0.1405     2.4600  -999.2500   196.8652  -999.2500  -999.2500     4.3023     4.4517  1956.0607
 2278.0000  1963.3536    10.0577     0.2253     2.4218  -999.2500   199.1465  -999.2500  -999.2500     4.3020     4.4517  1956.3636
 2278.5000  1951.9598    10.2223     0.2491     2.3494  -999.2500   199.2257  -999.2500  -999.2500     4.3624     4.4517  1956.6667
 2279.0000  1947.1471    10.2981     0.2485     2.2144  -999.2500   195.5275  -999.2500  -999.2500     4.4236     4.4517  1956.9697
 2279.5000  1946.5464    10.2704     0.1454     2.1642  -999.2500   185.7564  -999.2500  -999.2500     4.4298     4.4517  1957.2727
 2280.0000  1960.9611    10.0356     0.0024     2.2700  -999.2500   172.1529  -999.2500  -999.2500     4.4853     4.4517  1957.6239
 2280.5000  1960.3389     9.7706     0.0507     2.4028  -999.2500   165.3452  -999.2500  -999.2500     4.4850     4.4517  1957.9125
 2281.0000  1959.7599     9.7138     0.1103     2.4239  -999.2500   164.6531  -999.2500  -999.2500     4.5479     4.5144  1958.2012
 2281.5000  1959.1591     9.8784     0.1232     2.3908  -999.2500   169.7023  -999.2500  -999.2500     4.6117     4.5779  1958.4849
 2282.0000  1958.4722     9.7767     0.0239     2.3588  -999.2500   180.8726  -999.2500  -999.2500     4.6763     4.6484  1958.7880
 2282.5000  1957.9580     9.7194    -0.0137     2.4122  -999.2500   184.2289  -999.2500  -999.2500     4.7419     4.7198  1959.0909
 2283.0000  1957.3572     9.7217     0.0346     2.4760  -999.2500   186.0558  -999.2500  -999.2500     4.7570     4.7739  1959.3939
 2283.5000  1956.6539     9.7235     0.1175     2.5488  -999.2500   191.9736  -999.2500  -999.2500     4.6103     4.6189  1959.6970
 2284.0000  1956.1561     9.7106     0.2110     2.5541  -999.2500   194.7095  -999.2500  -999.2500     4.5460     4.5779  1960.0000
 2284.5000  1955.5554     9.9052     0.2472     2.4820  -999.2500   195.6273  -999.2500  -999.2500     4.5456     4.5779  1960.3030
 2285.0000  1954.8832    10.1586     0.2395     2.2874  -999.2500   195.0906  -999.2500  -999.2500     4.5453     4.5779  1960.6542
 2285.5000  1969.4675    10.2931     0.0335     2.2051  -999.2500   192.1063  -999.2500  -999.2500     4.6250     4.6423  1960.9429
 2286.0000  1968.7495     9.8516    -0.0085     2.2858  -999.2500   187.8477  -999.2500  -999.2500     4.6961     4.7077  1961.2313
