~VERSION INFORMATION
 VERS.                2.0:   CWLS LOG ASCII STANDARD - VERSION 2.0
 WRAP.                 NO:   ONE LINE PER DEPTH STEP
~WELL INFORMATION
#MNEM.UNIT      DATA TYPE    INFORMATION
#----------   ------------   ------------------------------
 STRT.F          540.0000:   START DEPTH
 STOP.F         4100.0000:   STOP DEPTH
 STEP.F            0.5000:   STEP LENGTH
 NULL.          -999.2500:   NO VALUE
 COMP. LAWRENCE ALISON & ASSOC.,WEST:   COMPANY
 WELL. LAWRENCE "X" #15-11:   WELL
 FLD .              N P R:   FIELD
 LOC .      S11 T38N R78W:   LOCATION
 CNTY.            NATRONA:   COUNTY
 STAT.            WYOMING:   STATE
 CTRY. UNITED STATES OF AMERICA:   COUNTRY
 SRVC.      DRESSER ATLAS:   SERVICE COMPANY
 DATE.        18-MAY-1985:   LOGDATE
 API .     49025110220000:   API NUMBER
~CURVE INFORMATION
#MNEM.UNIT       API CODE    CURVE DESCRIPTION
#----------   ------------   ------------------------------
 DEPT.F                  :   
 NPHI.DEC    42 890 03 00:   NEUTRON POROSITY SANDSTONE
 RHOB.G/C3   45 350 01 00:   BULK DENSITY
 CORR.G/C3   45 356 01 00:   DENSITY CORRECTION
 TEND.LBS    45 635 01 00:   TENSION FROM DENSITY LOG
 GRD .GAPI   45 310 01 00:   GAMMA RAY FROM DENSITY LOG
 CALD.IN     45 280 60 00:   CALIPER FROM DENSITY LOG
 SPR .MV     07 010 01 00:   SPONTANEOUS POTENTIAL
 RILD.OHMM   07 120 46 00:   DEEP INDUCTION RESISTIVITY
 RILM.OHMM   07 120 44 00:   INDUCTION LOG MEDIUM RESISTIVITY
 RFOC.OHMM   07 220 04 00:   RESISTIVITY FOCUSED LOG RES.
 TENR.LBS    07 635 01 00:   TENSION FROM RESISTIVITY
~PARAMETER INFORMATION
#MNEM.UNIT          VALUE    DESCRIPTION
#----------   ------------   ------------------------------
 EKB .F         5201.0000:   Kelly bushing
 EGL .F         5189.0000:   Ground level
 EDF .F         5200.0000:   Drilling floor
 TD  .F         4095.0000:   Total depth
 DATE.        18-MAY-1985:   Date logged
 CLNT.            A2DTECH:   Client Code
 SL  . 2203' FSL & 377' FWL:   Surface Location
 PD  .                 GL:   Permanent Datum
 EPD .F              5189:   Elevation Permanent Datum
 LMF .                 KB:   Log Measured From
 DMF .                 KB:   Drilling Measured From
 DAPD.F                12:   Feet Above Permanent Datum
 DD  .F              4095:   Depth driller
 DL  .F              4093:   Depth logger
 BLI .F              4091:   Bottom log interval
 TLI .F                 0:   Top log interval
 CS1 .IN            8.625:   Casing size
 CBD1.      8.625" @ 565':   Casing driller 1
 CBL1.F               565:   Casing logger 1
 BS1 .IN            7.875:   Bit size
 BSD1.F              4095:   Depth drilled with bit1
 DFT .            GEL KCL:   Type fluid in hole
 DFD .                9.2:   Density
 DFV .                 40:   Viscosity
 DFPH.                8.0:   pH
 DFL .                9.0:   Fluid loss
 MSS .            MUDTANK:   Source of sample
 RMS .OHMM            .57:   Rm
 MST .F                69:   Rm Meas. temp.
 RMF .OHMM            .49:   Rmf
 MFST.F                69:   Rmf Meas. temp.
 RMC .OHMM            .71:   Rmc
 MCST.F                69:   Rmc Meas. temp.
 MFSS.               MEAS:   Source Rmf.
 MCSS.               CALC:   Source Rmc.
 RMB .OHMM            .30:   Rm. at BHT
 BHT .F               139:   BHT.
 TCS .HRS               4:   Time Circ. stopped
 MRT .F               139:   Maximum recorded temp.
 LUN .            HL 6302:   Logging unit number
 LUL .               CODY:   Logging unit location
 ENGI.              GETTY:   Recorded By
 WITN.              FIVAS:   Witnessed by
 ORIG.           5" PRINT:   Origin of data
 UWI .     49025110220000:   Unique Well ID
 DICO. A2D TECHNOLOGIES, INC.:   Digitizing Company
~OTHER INFORMATION
~A   DEPT     NPHI       RHOB       CORR        TEND        GRD      CALD        SPR       RILD       RILM       RFOC       TENR   
# ...
 2644.5000     0.2140     2.4060    -0.0120   -16.1690    66.4060     9.8850    -7.2940    31.0910    23.7880    19.3480   -27.0070
 2645.0000     0.2220     2.4100    -0.0040   -16.1690    64.8580     9.8810    -7.3900    31.3210    23.7880    19.6380   -27.0070
 2645.5000     0.2290     2.4130     0.0070   -16.1690    62.2260     9.8760    -7.4860    31.5510    23.6590    19.6200   -27.0070
 2646.0000     0.2290     2.4120     0.0070   -17.4140    60.2200     9.8720    -7.5860    31.7810    23.1690    19.5930   -27.0070
 2646.5000     0.2210     2.4100     0.0040   -18.7980    60.9300     9.8670    -7.7530    31.8570    22.6800    19.5660   -27.0070
 2647.0000     0.2180     2.4070     0.0020   -20.1820    61.4750     9.8630    -8.1540    31.8150    22.5200    19.5390   -27.0070
 2647.5000     0.2090     2.4040     0.0190   -21.5650    60.9120     9.8590    -8.5470    31.7670    22.6570    19.5120   -27.0070
 2648.0000     0.1990     2.4060     0.0340   -22.9490    59.9080     9.8540    -8.9400    31.7180    23.1480    19.4850   -27.0070
 2648.5000     0.1920     2.4090     0.0450   -24.3320    60.5330     9.8500    -9.3330    31.6700    23.6390    19.4600   -27.0070
 2649.0000     0.2010     2.4220     0.0270   -25.7160    61.4580     9.8450    -9.7260    31.6210    24.1300    20.2800   -27.0070
 2649.5000     0.2010     2.4350     0.0100   -27.1000    61.8760     9.8410   -10.1310    31.5730    24.6720    21.2040   -27.0070
 2650.0000     0.1960     2.4470     0.0010   -28.4830    62.8890     9.8360   -10.2590    31.0890    24.1570    22.1270   -27.0070
 2650.5000     0.1960     2.4600     0.0150   -29.8670    64.6820     9.8320   -10.2960    30.5540    23.1810    23.0510   -27.0070
 2651.0000     0.2150     2.4630     0.0320   -31.2500    66.9040     9.8270   -10.3280    30.0200    22.2050    21.6880   -27.0070
 2651.5000     0.2320     2.4510     0.0500   -32.6340    70.5870     9.8230   -10.3610    29.4850    21.2300    20.0650   -27.0070
 2652.0000     0.2290     2.4410     0.0440   -34.0180    73.3960     9.8190   -10.3940    28.9500    21.0310    18.5920   -27.0070
 2652.5000     0.2210     2.4320     0.0360   -35.4010    74.0430     9.8140   -10.4330    28.4160    20.9340    18.3870   -27.0070
 2653.0000     0.2130     2.4220     0.0280   -36.7850    72.3770     9.8100   -10.2450    28.0360    21.4100    18.3340   -27.0070
 2653.5000     0.2090     2.4150     0.0210   -38.1680    71.5750     9.8050    -9.9790    28.0360    21.9910    18.2550   -27.0070
 2654.0000     0.2010     2.4240     0.0280   -39.5520    71.5470     9.8010    -9.7110    28.9210    22.5720    18.4230   -27.0070
 2654.5000     0.1870     2.4500     0.0330   -40.9360    71.5320     9.7960    -9.4420    29.7360    23.1530    19.1080   -28.7540
 2655.0000     0.1740     2.4750     0.0440   -42.3190    68.3550     9.7920    -9.1730    30.1600    23.5720    21.4240   -34.9360
 2655.5000     0.1600     2.4980     0.0400   -43.7030    62.5580     9.7880    -8.8030    30.1600    23.3790    24.8990   -64.9160
 2656.0000     0.1590     2.4980     0.0300   -45.0860    58.9700     9.7830    -8.3430    30.6890    22.6890    23.7470   -86.4720
 2656.5000     0.1790     2.4650     0.0200   -43.1990    61.1760     9.7790    -7.8820    31.2930    21.9990    22.0470   -86.4720
 2657.0000     0.1950     2.4380     0.0090   -34.5300    63.2960     9.7750    -7.4210    31.8960    21.7120    20.3480   -56.9600
 2657.5000     0.2070     2.4380     0.0090   -25.8600    64.4320     9.7780    -6.9590    32.4990    22.7290    19.1080   -36.9180
 2658.0000     0.2040     2.4390     0.0370   -17.1900    62.2540     9.7800    -6.4980    33.1030    24.2430    18.9340   -25.1570
 2658.5000     0.1970     2.4380     0.0540    -8.5200    59.0700     9.7820    -6.0370    33.7060    25.7570    20.1000   -17.3520
 2659.0000     0.1900     2.4310     0.0630   -11.4500    57.3290     9.7850    -5.5710    34.2710    27.2710    21.4430   -18.3120
 2659.5000     0.1820     2.4280     0.0670   -18.5710    55.6290     9.7870    -5.0640    34.2710    27.7810    22.7870   -19.2730
 2660.0000     0.1850     2.4470     0.0630   -25.6930    55.5860     9.7900    -4.3800    34.0200    26.1540    24.1310   -20.2330
 2660.5000     0.1900     2.4710     0.0570   -32.8140    58.5180     9.7920    -3.7150    33.0590    24.2670    25.3570   -21.1930
 2661.0000     0.1910     2.4870     0.0510   -39.9360    61.4390     9.7940    -3.0520    32.0980    22.3800    22.9400   -22.1540
 2661.5000     0.1840     2.4730     0.0450   -46.0200    61.7120     9.7950    -2.3880    31.1370    20.4920    20.5730   -23.1140
 2662.0000     0.1790     2.4540     0.0390   -46.0200    61.4770     9.7950    -1.7220    30.2310    19.4600    19.1530   -24.0740
 2662.5000     0.1860     2.4390     0.0330   -46.0200    63.5720     9.7950    -1.0640    29.0590    19.4600    18.0890   -25.0340
 2663.0000     0.1920     2.4300     0.0210   -46.0200    65.7860     9.7950    -0.4650    27.8880    19.4600    17.8330   -25.9950
 2663.5000     0.1940     2.4210     0.0080   -46.0200    65.3070     9.7950    -0.4090    26.3000    19.4600    17.6010   -26.9550
 2664.0000     0.1930     2.4120     0.0010   -46.0200    62.4200     9.7950    -0.3340    26.3950    19.4600    17.8130   -27.9150
 2664.5000     0.1910     2.4030    -0.0010   -46.0200    60.1510     9.7950    -0.3890    26.6070    19.4600    18.0640   -28.8760
 2665.0000     0.1930     2.3940    -0.0020   -46.0200    61.6490     9.7950    -0.5470    26.8190    19.4950    18.2550   -29.8360
 2665.5000     0.1960     2.3990     0.0020   -46.0200    65.1810     9.7950    -0.7050    27.0310    19.5360    18.1220   -30.7960
 2666.0000     0.1990     2.4050     0.0240   -46.0200    68.5100     9.7950    -0.8670    27.2430    19.6070    17.9130   -31.7560
 2666.5000     0.2010     2.4100     0.0230   -46.0200    67.7860     9.7950    -1.0280    27.2780    19.6330    17.7040   -32.7170
 2667.0000     0.2010     2.4070     0.0140   -46.0200    66.4970     9.7950    -1.4960    26.7980    19.3450    17.4950   -33.6770
 2667.5000     0.1940     2.4020     0.0070   -46.0200    65.3480     9.7950    -2.1880    26.4100    19.0800    17.2860   -34.6370
 2668.0000     0.1890     2.4030     0.0190   -46.0200    66.4210     9.7950    -2.8810    26.0210    18.8150    17.1250   -35.5980
 2668.5000     0.1840     2.4060     0.0280   -46.0200    68.8120     9.7950    -3.5820    25.6320    18.5500    17.6200   -36.5580
 2669.0000     0.1810     2.4160     0.0370   -46.0200    71.1380     9.7950    -3.7900    25.2430    18.2850    18.0230   -36.9180
 2669.5000     0.1790     2.4250     0.0380   -46.0200    72.4380     9.7950    -3.6510    24.8540    18.0200    18.2550   -36.9180
 2670.0000     0.1790     2.4200     0.0350   -46.0200    68.8320     9.7950    -3.5110    24.4660    17.7550    17.6690   -36.9180
 2670.5000     0.1910     2.4140     0.0350   -46.0200    65.8780     9.7950    -3.3670    24.0770    17.4900    16.9920   -36.9180
 2671.0000     0.2030     2.4090     0.0390   -46.0200    65.1470     9.7950    -3.1460    23.7920    17.2820    16.3150   -36.9180
 2671.5000     0.2080     2.4130     0.0200   -46.0200    66.9970     9.7950    -2.7880    23.2800    16.9990    15.8910   -36.9180
 2672.0000     0.2100     2.4210    -0.0010   -46.0200    68.0300     9.7950    -2.4320    22.7680    16.5400    15.7610   -36.9180
 2672.5000     0.2130     2.4290     0.0000   -46.0200    68.6560     9.7950    -2.0770    22.2550    16.0800    15.6310   -39.5240
 2673.0000     0.2190     2.4350     0.0130   -46.0200    68.8640     9.7950    -1.7210    21.7430    15.6200    15.2520   -42.1000
 2673.5000     0.2280     2.4330     0.0260   -46.0200    70.0260     9.7950    -1.3660    21.2310    14.9340    14.7870   -44.6760
 2674.0000     0.2330     2.4310     0.0320   -46.0200    72.4940     9.7950    -1.0090    20.7180    15.0530    14.3220   -47.2520
 2674.5000     0.2180     2.4320     0.0410   -46.0200    75.2100     9.7950    -0.6480    20.2060    15.3480    14.1380   -49.8280
