~VERSION INFORMATION
 VERS.                2.0:   CWLS LOG ASCII STANDARD - VERSION 2.0
 WRAP.                 NO:   ONE LINE PER DEPTH STEP
~WELL INFORMATION
#MNEM.UNIT      DATA TYPE    INFORMATION
#----------   ------------   ------------------------------
 STRT.F           22.0000:   START DEPTH
 STOP.F         4228.5000:   STOP DEPTH
 STEP.F            0.5000:   STEP LENGTH
 NULL.          -999.2500:   NO VALUE
 COMP. LAWRENCE ALLISON & ASSOCIATES:   COMPANY
 WELL. LAWRENCE NPR 3 "X" #25-2:   WELL
 FLD .                NPR:   FIELD
 LOC .       S2 T38N R78W:   LOCATION
 CNTY.            NATRONA:   COUNTY
 STAT.            WYOMING:   STATE
 CTRY. UNITED STATES OF AMERICA:   COUNTRY
 SRVC.      DRESSER ATLAS:   SERVICE COMPANY
 DATE.        22-DEC-1985:   LOGDATE
 API .     49025110700000:   API NUMBER
~CURVE INFORMATION
#MNEM.UNIT       API CODE    CURVE DESCRIPTION
#----------   ------------   ------------------------------
 DEPT.F                  :   
 TENS.LBS    60 635 01 00:   TENSION FROM SONIC
 DT  .US/F   60 520 00 00:   DELTA TIME
 SPHI.DEC    60 890 00 00:   SONIC POROSITY
 TENR.LBS    07 635 01 00:   TENSION FROM RESISTIVITY
 CALR.IN     07 280 01 00:   CALIPER FROM RESISTIVITY
 SPR .MV     07 010 01 00:   SPONTANEOUS POTENTIAL
 GRR .GAPI   07 310 01 00:   GAMMA RAY FROM RESISTIVITY
 SFL .OHMM   07 220 01 00:   SHALLOW FOCUSED LOG RESISTIVITY
 ILD .OHMM   07 120 46 00:   DEEP INDUCTION RESISTIVITY
 ILM .OHMM   07 120 44 00:   INDUCTION LOG MEDIUM RESISTIVITY
~PARAMETER INFORMATION
#MNEM.UNIT          VALUE    DESCRIPTION
#----------   ------------   ------------------------------
 EKB .F         5148.0000:   Kelly bushing
 EGL .F         5136.0000:   Ground level
 EDF .F            0.0000:   Drilling floor
 TD  .F         4228.0000:   Total depth
 DATE.        22-DEC-1985:   Date logged
 CLNT.            A2DTECH:   Client Code
 SL  . 1350' FWL & 1968' FSL:   Surface Location
 PD  .                 GL:   Permanent Datum
 DD  .F              4224:   Depth driller
 DL  .F              4228:   Depth logger
 BLI .F              4225:   Bottom log interval
 CS1 .IN            8.625:   Casing size
 CBD1.      8.625" @ 677':   Casing driller 1
 CBL1.F               677:   Casing logger 1
 BS1 .IN            7.875:   Bit size
 DFT .            KCL/GEL:   Type fluid in hole
 DFD .                9.2:   Density
 DFV .                 45:   Viscosity
 DFPH.                8.5:   pH
 DFL .               11.5:   Fluid loss
 MSS .               TANK:   Source of sample
 RMS .OHMM           .256:   Rm
 MST .F                63:   Rm Meas. temp.
 RMF .OHMM           .192:   Rmf
 MFST.F                64:   Rmf Meas. temp.
 RMC .OHMM           .320:   Rmc
 MCST.F                64:   Rmc Meas. temp.
 MFSS.               MEAS:   Source Rmf.
 RMB .OHMM           .119:   Rm. at BHT
 BHT .F               143:   BHT.
 TCS .HRS             4.5:   Time Circ. stopped
 MRT .F               143:   Maximum recorded temp.
 LUN .               6427:   Logging unit number
 LUL .          WILLISTON:   Logging unit location
 ENGI.             MCHUCH:   Recorded By
 WITN.             STRONG:   Witnessed by
 ORIG.           5" PRINT:   Origin of data
 UWI .     49025110700000:   Unique Well ID
 DICO. A2D TECHNOLOGIES, INC.:   Digitizing Company
 DAPD.                 12:   Feet Above Permanent Datum
 BSD1.               4224:   Depth drilled with bit1
 MCSS.               CALC:   Source Rmc.
 EPD .F              5136:   Elevation Permanent Datum
 LMF .                 KB:   Log Measured From
 DMF .                 KB:   Drilling Measured From
~OTHER INFORMATION
~A   DEPT     TENS         DT       SPHI       TENR       CALR        SPR         GRR       SFL        ILD        ILM   
# ...
 3472.5000   -92.4910    77.7920     0.1940   -92.9090     8.3390   -48.6560   103.1970     8.3590     7.1500     7.5200
 3473.0000   -88.8380    78.1870     0.1960   -94.3740     8.3490   -49.0450   101.6650     8.5220     6.7400     7.2170
 3473.5000   -77.4490    77.8440     0.1940   -87.8330     8.3580   -49.4340   100.1080     8.9610     6.2010     6.6210
 3474.0000   -65.1850    77.4030     0.1920   -81.2930     8.3680   -49.7230   102.5210     9.1630     5.5840     6.0020
 3474.5000   -75.6050    77.5430     0.1900   -75.5230     8.3780   -49.8780   108.8270     8.2040     4.8680     5.3830
 3475.0000   -79.4010    79.5100     0.2030   -75.5230     8.3880   -50.0350   116.4340     7.1150     4.5360     4.8320
 3475.5000   -83.1980    82.6150     0.2260   -75.5230     8.3970   -50.1900   124.0790     6.0260     4.2040     4.4380
 3476.0000   -83.9760    86.0700     0.2500   -71.6350     8.4070   -50.3770   130.7640     5.0650     3.8710     4.0430
 3476.5000   -81.5080    89.0630     0.2730   -66.6950     8.4170   -50.5820   131.6230     4.6440     3.6250     3.7920
 3477.0000   -79.0410    89.7260     0.2810   -71.1550     8.4220   -50.7780   130.1040     4.7000     3.4800     3.7080
 3477.5000   -76.5730    89.7240     0.2820   -75.5230     8.4270   -51.0460   128.1300     4.7660     3.3370     3.6250
 3478.0000   -74.1060    89.6340     0.2820   -58.8400     8.4330   -51.0430   128.2000     4.8180     3.2250     3.5590
 3478.5000   -71.6380    89.7230     0.2820   -63.4400     8.4380   -51.0420   130.4900     4.7940     3.1670     3.5910
 3479.0000   -69.1710    89.8000     0.2810   -73.2500     8.4430   -50.9430   132.9600     4.7740     3.2390     3.6190
 3479.5000   -66.7030    89.7020     0.2810   -69.2420     8.4480   -50.5410   132.2510     4.8570     3.2890     3.6460
 3480.0000   -70.4570    89.4560     0.2800   -68.9180     8.4530   -50.1500   128.6860     4.9420     3.3720     3.7240
 3480.5000   -84.1660    88.9940     0.2770   -75.0500     8.4550   -49.7580   124.9170     4.9980     3.4620     3.9130
 3481.0000   -97.8740    88.4990     0.2730   -81.1810     8.4480   -49.3300   124.7150     4.9980     3.7440     4.1030
 3481.5000  -111.5830    87.7650     0.2670   -87.3130     8.4410   -48.7780   124.5400     4.9980     4.0510     4.4970
 3482.0000  -105.1630    86.4040     0.2530   -93.4450     8.4330   -48.3100   123.1850     5.6520     4.3570     5.0950
 3482.5000   -91.7040    84.0260     0.2370   -91.6420     8.4260   -47.8850   120.0760     6.3870     4.6440     5.6920
 3483.0000   -87.1720    81.5840     0.2170   -83.4660     8.4190   -47.7440   115.1750     7.1210     5.3170     6.2900
 3483.5000   -93.6090    78.5250     0.1930   -75.5230     8.4110   -47.6140   111.8430     7.8560     5.9510     6.8880
 3484.0000  -100.0460    76.3900     0.1800   -87.0890     8.4040   -47.4820   111.0670     8.7250     6.5850     7.4860
 3484.5000  -106.4830    75.0340     0.1730  -101.1040     8.3970   -47.4110   110.6360     9.0790     7.4710     8.0830
 3485.0000  -112.9200    74.5840     0.1700  -115.4040     8.3940   -47.3420   111.3350     9.0790     8.4360     8.5670
 3485.5000  -108.1990    74.2390     0.1680  -112.8650     8.3810   -47.2910   110.3220     9.0790     8.7970     9.0200
 3486.0000   -97.6240    73.0570     0.1620  -109.5950     8.3690   -47.3830   107.8390    10.1880     9.1640     9.4740
 3486.5000   -87.0490    71.6940     0.1520  -106.3240     8.3590   -47.4780   105.3490    11.6460     9.3840     9.7010
 3487.0000   -86.8550    70.8440     0.1430  -103.3340     8.3710   -47.5720   105.6500    12.6370     9.5060     9.7340
 3487.5000   -88.9110    71.0520     0.1440  -100.4490     8.3830   -47.6660   107.5740    11.8760     9.3820     9.7720
 3488.0000   -90.9670    72.2680     0.1520   -97.5630     8.3960   -47.7600   113.3040    10.8070     9.2070     9.5400
 3488.5000   -93.0240    73.5840     0.1610   -94.6780     8.4080   -47.8540   118.2450     9.7370     9.0790     9.2820
 3489.0000   -95.1550    74.5970     0.1700   -91.7920     8.4180   -47.9480   118.7030     9.3330     8.7300     8.9850
 3489.5000   -84.5880    74.8150     0.1730   -88.9070     8.4190   -48.0420   116.5370     9.3010     8.4030     8.6810
 3490.0000   -77.5060    74.8150     0.1730   -86.0210     8.4210   -48.1380   114.6090     9.2620     8.0760     8.3780
 3490.5000   -93.9560    74.8330     0.1720   -88.4620     8.4230   -48.2320   113.3450     9.0360     7.7490     8.0740
 3491.0000  -103.8300    74.9670     0.1730   -92.0960     8.4250   -48.5500   113.4250     8.6920     7.4190     7.7670
 3491.5000   -99.7170    75.1150     0.1750   -95.7290     8.4260   -49.0350   116.0900     8.3480     6.8910     7.2040
 3492.0000   -95.6040    75.9500     0.1810   -99.3630     8.4280   -49.5190   121.4600     8.0580     6.3560     6.6980
 3492.5000   -91.4920    76.8150     0.1860  -102.9970     8.4300   -49.8630   124.3930     7.3740     5.7900     6.2410
 3493.0000   -87.3790    77.5280     0.1910  -103.0410     8.4310   -49.8560   125.0060     6.8160     5.3330     5.7830
 3493.5000   -83.2670    78.4670     0.1960   -95.7740     8.4330   -49.8560   128.4070     6.5810     4.9060     5.3260
 3494.0000   -79.1540    79.6700     0.2060   -88.5070     8.4350   -49.8570   132.8940     6.1020     4.6110     4.8680
 3494.5000   -75.1750    80.8730     0.2180   -81.2400     8.4370   -49.8570   137.1420     5.3770     4.3170     4.5520
 3495.0000   -80.1050    81.9910     0.2200   -73.9730     8.4350   -49.8570   138.8460     5.0240     4.0070     4.2540
 3495.5000   -84.8810    82.8070     0.2310   -66.7050     8.4330   -49.8570   137.0960     4.8630     3.6590     3.9550
 3496.0000   -89.6570    83.1800     0.2330   -72.0710     8.4300   -49.8570   135.1480     4.8440     3.2530     3.6390
 3496.5000   -94.4330    83.4890     0.2350   -79.8160     8.4270   -49.8580   136.4520     4.8250     2.8950     3.2630
 3497.0000   -99.2090    83.7060     0.2370   -87.5610     8.4250   -49.8530   142.6130     4.6760     2.6060     2.8870
 3497.5000  -103.9850    84.1060     0.2400   -95.4640     8.4220   -49.6750   156.5710     4.4360     2.3710     2.5370
 3498.0000  -103.1780    86.0100     0.2570  -100.3220     8.4190   -48.5860   170.9670     4.0340     2.2080     2.2900
 3498.5000  -100.5810    89.1450     0.2830   -91.4030     8.4140   -47.5020   192.1660     3.2760     2.2350     2.3240
 3499.0000   -97.9840    93.0930     0.3090   -85.4940     8.3880   -46.4100   188.7070     2.3110     2.2610     2.4200
 3499.5000   -95.1550    95.4950     0.3210   -91.4420     8.3620   -45.6950   174.1180     2.3960     2.2840     2.9150
 3500.0000  -102.6380    93.9450     0.3120   -98.5570     8.3370   -45.6200   152.3270     3.4090     2.4920     3.3490
 3500.5000  -110.8530    88.8430     0.2600  -104.6460     8.3180   -45.8370   133.8440     4.7690     2.7750     3.7250
 3501.0000  -113.5630    83.7410     0.2290  -103.9980     8.3260   -46.0620   133.8600     6.1740     3.0580     4.1010
 3501.5000  -110.2800    80.4370     0.2140  -101.8400     8.3330   -46.3020   133.5200     6.0870     3.4740     4.7580
 3502.0000  -106.9960    79.8490     0.2100   -99.6820     8.3410   -46.9090   130.7550     5.9510     4.3400     5.2580
 3502.5000  -103.5540    79.3670     0.2030   -97.5240     8.3480   -47.5360   127.6670     7.2590     5.2330     5.6870
 3503.0000   -99.9060    78.4960     0.1980   -95.3660     8.3550   -47.6730   128.4430     7.9110     5.6550     6.1160
 3503.5000   -96.2570    78.2670     0.1990   -93.2080     8.3620   -47.7180   130.4650     6.9570     6.0900     6.5400
 3504.0000   -92.6090    79.4990     0.2080   -91.0500     8.3700   -47.8970   130.6520     7.1920     6.5260     6.9540
 3504.5000   -88.9610    80.3100     0.2110   -88.8920     8.3770   -48.4670   127.1170     7.6260     6.9610     7.3680
 3505.0000   -85.1650    79.2610     0.2080   -86.7340     8.3840   -48.8190   124.5450     8.2830     7.3110     7.7810
 3505.5000   -91.9150    77.5900     0.1930   -89.6210     8.3920   -49.0610   123.3770     9.7070     7.6480     8.1950
