~VERSION INFORMATION
 VERS.                2.0:   CWLS LOG ASCII STANDARD - VERSION 2.0
 WRAP.                 NO:   ONE LINE PER DEPTH STEP
~WELL INFORMATION
#MNEM.UNIT      DATA TYPE    INFORMATION
#----------   ------------   ------------------------------
 STRT.F          520.0000:   START DEPTH
 STOP.F         3092.0000:   STOP DEPTH
 STEP.F            0.5000:   STEP LENGTH
 NULL.          -999.2500:   NO VALUE
 COMP.    FENIX & SCISSON:   COMPANY
 WELL. FENIX 87 "AX" #3-3:   WELL
 FLD .              N P R:   FIELD
 LOC .       S3 T38N R78W:   LOCATION
 CNTY.            NATRONA:   COUNTY
 STAT.            WYOMING:   STATE
 CTRY. UNITED STATES OF AMERICA:   COUNTRY
 SRVC.              WELEX:   SERVICE COMPANY
 DATE.        30-OCT-1980:   LOGDATE
 API .     49025108510000:   API NUMBER
~CURVE INFORMATION
#MNEM.UNIT       API CODE    CURVE DESCRIPTION
#----------   ------------   ------------------------------
 DEPT.F                  :   
 CALD.IN     45 280 60 00:   CALIPER FROM DENSITY LOG
 GRD .GAPI   45 310 01 00:   GAMMA RAY FROM DENSITY LOG
 RHOB.G/C3   45 350 01 00:   BULK DENSITY
 CORR.G/C3   45 356 01 00:   DENSITY CORRECTION
 SPR .MV     07 010 01 00:   SPONTANEOUS POTENTIAL
 ILD .OHMM   07 120 46 00:   DEEP INDUCTION RESISTIVITY
 ILM .OHMM   07 120 44 00:   INDUCTION LOG MEDIUM RESISTIVITY
 SGRD.OHMM   07 220 05 00:   SHALLOW SHORT GUARD RESISTIVITY
~PARAMETER INFORMATION
#MNEM.UNIT          VALUE    DESCRIPTION
#----------   ------------   ------------------------------
 EKB .F         5131.0000:   Kelly bushing
 EGL .F         5121.0000:   Ground level
 TD  .F         3095.0000:   Total depth
 DATE.        30-OCT-1980:   Date logged
 CLNT.            A2DTECH:   Client Code
 SL  . 910' FWL & 95' FEL:   Surface Location
 PD  .                 GL:   Permanent Datum
 EPD .F              5121:   Elevation Permanent Datum
 LMF .                 KB:   Log Measured From
 DMF .                 KB:   Drilling Measured From
 DD  .F              3095:   Depth driller
 DL  .F              3094:   Depth logger
 BLI .F              3092:   Bottom log interval
 TLI .F               525:   Top log interval
 CS1 .IN            9.625:   Casing size
 CBD1.      9.625" @ 525':   Casing driller 1
 CBL1.F               525:   Casing logger 1
 BS1 .IN            7.875:   Bit size
 DFT .          DISPERSED:   Type fluid in hole
 DFD .                  9:   Density
 DFV .                 40:   Viscosity
 DFPH.                 10:   pH
 DFL .                  8:   Fluid loss
 MSS .             MUDPIT:   Source of sample
 RMS .OHMM           2.40:   Rm
 MST .F                68:   Rm Meas. temp.
 MFST.F                68:   Rmf Meas. temp.
 RMC .OHMM            2.8:   Rmc
 MCST.F                68:   Rmc Meas. temp.
 MFSS.F              MEAS:   Source Rmf.
 RMB .OHMM           1.36:   Rm. at BHT
 BHT .F               120:   BHT.
 TCS .HRS             5.5:   Time Circ. stopped
 MRT .F               120:   Maximum recorded temp.
 LUN .               1891:   Logging unit number
 LUL .             CASPER:   Logging unit location
 ENGI.          PFERIMMER:   Recorded By
 WITN.              FIVAS:   Witnessed by
 ORIG.           5" PRINT:   Origin of data
 UWI .     49025108510000:   Unique Well ID
 DICO. A2D TECHNOLOGIES, INC.:   Digitizing Company
 DAPD.F                10:   Feet Above Permanent Datum
 BSD1.F              3095:   Depth drilled with bit1
 RMF .OHMM           1.92:   Rmf
 MCSS.               MEAS:   Source Rmc.
~OTHER INFORMATION
~A   DEPT     CALD        GRD       RHOB       CORR        SPR          ILD        ILM      SGRD  
# ...
 1046.5000     9.2200    81.6180     2.5030     0.0230   -28.0350     8.5810     9.7490    10.9410
 1047.0000     9.2140    81.6210     2.5060     0.0250   -28.0600     8.5000     9.8580    10.9860
 1047.5000     9.2080    81.8170     2.5010     0.0270   -28.0860     8.4360     9.8040    11.0320
 1048.0000     9.2020    81.9130     2.4960     0.0290   -28.1120     8.3710     9.7440    11.0780
 1048.5000     9.1960    81.8370     2.4910     0.0310   -28.1380     8.3070     9.6840    11.1240
 1049.0000     9.1900    81.7020     2.4920     0.0330   -28.1660     8.2700     9.6250    11.1690
 1049.5000     9.1840    81.5670     2.4910     0.0350   -28.0840     8.2700     9.5650    11.2210
 1050.0000     9.1780    81.4320     2.4830     0.0370   -27.9830     8.2570     9.5050    11.1200
 1050.5000     9.1720    81.2970     2.4880     0.0390   -27.8820     8.2450     9.4460    11.0050
 1051.0000     9.1660    81.1610     2.4960     0.0340   -27.7810     8.2330     9.3860    10.8900
 1051.5000     9.1600    81.0330     2.5050     0.0300   -27.8270     8.2220     9.3260    10.7750
 1052.0000     9.1540    81.0290     2.5140     0.0250   -27.8940     8.2100     9.2660    10.6600
 1052.5000     9.1470    81.0290     2.5190     0.0200   -27.9610     8.1980     9.2070    10.6150
 1053.0000     9.1470    81.0290     2.5200     0.0160   -28.0090     8.1180     9.1470    10.9450
 1053.5000     9.1730    81.0300     2.5090     0.0150   -28.0540     8.0440     9.0870    11.1770
 1054.0000     9.2020    81.0350     2.4990     0.0220   -28.0980     8.0240     9.0270    11.4300
 1054.5000     9.2270    81.0270     2.4890     0.0290   -28.1420     8.0050     8.9680    11.1910
 1055.0000     9.2250    80.6240     2.4780     0.0360   -28.1870     7.9870     8.9080    10.8570
 1055.5000     9.2100    78.9020     2.4750     0.0310   -28.2310     7.9680     8.8480    10.7140
 1056.0000     9.1950    77.2010     2.4800     0.0250   -28.2760     7.9500     8.7890    10.8260
 1056.5000     9.1800    77.6930     2.4860     0.0190   -28.3200     7.9310     8.7290    11.1180
 1057.0000     9.1660    78.6840     2.4840     0.0130   -28.3600     7.9130     8.6690    11.1180
 1057.5000     9.1510    79.6930     2.4780     0.0140   -28.2820     7.8940     8.6610    10.9750
 1058.0000     9.1370    80.6890     2.4770     0.0160   -28.0990     7.8760     8.6610    10.8410
 1058.5000     9.1270    80.4740     2.4860     0.0170   -27.9180     7.8570     8.7280    10.7070
 1059.0000     9.1340    80.1810     2.4940     0.0190   -27.7360     7.8390     8.8210    10.5730
 1059.5000     9.1440    79.9020     2.5020     0.0210   -27.5810     7.8200     8.9130    10.4390
 1060.0000     9.1550    79.4570     2.5100     0.0310   -27.6880     7.8020     9.0060    10.3050
 1060.5000     9.1650    78.9980     2.5070     0.0370   -27.7760     7.7830     9.0980    10.2300
 1061.0000     9.1760    78.5380     2.5010     0.0370   -27.6390     7.7650     9.1910    10.3060
 1061.5000     9.1860    78.0790     2.4960     0.0360   -27.6990     7.7510     9.2830    10.4700
 1062.0000     9.1970    77.6200     2.5000     0.0320   -27.9660     7.8020     9.3760    10.6150
 1062.5000     9.2070    77.1560     2.5090     0.0300   -28.2340     7.9020     9.4680    10.7120
 1063.0000     9.2180    76.6990     2.5180     0.0270   -28.3510     8.0020     9.5600    10.8160
 1063.5000     9.2280    76.5720     2.5270     0.0240   -28.0030     8.1010     9.6530    10.9200
 1064.0000     9.2390    78.2290     2.5360     0.0210   -27.7660     8.2010     9.7450    11.0240
 1064.5000     9.2490    79.8630     2.5360     0.0260   -27.8900     8.3000     9.8380    11.1280
 1065.0000     9.2600    81.1660     2.5320     0.0310   -28.0050     8.4000     9.9300    11.2320
 1065.5000     9.2620    80.4610     2.5280     0.0340   -28.1200     8.5000    10.0230    11.3250
 1066.0000     9.2570    79.8090     2.5250     0.0290   -28.2360     8.5990    10.1150    11.2850
 1066.5000     9.2510    79.1670     2.5260     0.0240   -28.3500     8.6990    10.2080    11.2280
 1067.0000     9.2460    78.5250     2.5310     0.0200   -28.3520     8.8230    10.2300    11.1710
 1067.5000     9.2410    77.8780     2.5360     0.0150   -28.3400     8.9050    10.1920    11.1140
 1068.0000     9.2360    77.2320     2.5400     0.0130   -28.3270     8.8530    10.1440    11.0580
 1068.5000     9.2300    77.2050     2.5310     0.0140   -28.3150     8.8110    10.0970    11.0150
 1069.0000     9.2250    77.4820     2.5320     0.0160   -28.3030     8.7680    10.0490    11.1000
 1069.5000     9.2200    78.1850     2.5350     0.0170   -28.2910     8.7250    10.0010    11.1790
 1070.0000     9.2140    78.8810     2.5330     0.0180   -28.2790     8.6820     9.9540    11.2580
 1070.5000     9.2090    79.5790     2.5280     0.0190   -28.2660     8.6400     9.9060    11.3690
 1071.0000     9.2060    80.2760     2.5220     0.0200   -28.2540     8.5970     9.8580    11.4300
 1071.5000     9.2060    80.9740     2.5010     0.0210   -28.2420     8.5540     9.8110    11.4300
 1072.0000     9.2060    81.6710     2.4820     0.0260   -28.2300     8.5110     9.7630    11.3340
 1072.5000     9.2060    82.3680     2.4630     0.0320   -28.2180     8.4690     9.7150    11.2390
 1073.0000     9.2060    83.0650     2.4570     0.0370   -28.2060     8.4260     9.6680    11.1450
 1073.5000     9.2060    83.7630     2.4560     0.0380   -28.1930     8.3830     9.6200    11.0500
 1074.0000     9.2060    84.4600     2.4580     0.0370   -28.1810     8.3470     9.5720    10.9560
 1074.5000     9.2060    85.1600     2.4680     0.0350   -28.1680     8.3780     9.5230    10.9140
 1075.0000     9.2060    85.8570     2.4770     0.0280   -28.1970     8.4120     9.4740    11.0330
 1075.5000     9.2050    86.6560     2.4870     0.0200   -28.2300     8.4450     9.4240    11.1180
 1076.0000     9.1960    86.7060     2.4900     0.0240   -28.2630     8.4780     9.3750    11.3250
 1076.5000     9.1880    86.7770     2.4830     0.0300   -28.2970     8.5030     9.3260    11.3250
 1077.0000     9.1790    86.8520     2.4780     0.0310   -28.3310     8.5020     9.2770    11.2090
 1077.5000     9.1710    86.9260     2.4850     0.0270   -28.3590     8.4950     9.2280    11.0410
 1078.0000     9.1660    87.0010     2.4930     0.0230   -28.2850     8.4810     9.1790    10.8720
 1078.5000     9.1620    87.0740     2.5000     0.0200   -28.2080     8.4660     9.1290    10.7030
 1079.0000     9.1580    87.1440     2.5030     0.0160   -28.1310     8.4520     9.0800    10.5340
 1079.5000     9.1540    87.2400     2.4910     0.0130   -28.0530     8.4380     9.0710    10.3660
 1080.0000     9.1500    88.0080     2.4710     0.0120   -27.9740     8.4240     9.1320    10.1970
 1080.5000     9.1520    88.7820     2.4540     0.0160   -28.0470     8.3510     9.2660    10.0420
 1081.0000     9.1700    89.5500     2.4570     0.0200   -28.1470     8.1950     9.4130    10.1410
 1081.5000     9.1760    90.5490     2.4620     0.0240   -28.2480     8.0400     9.5000    10.2530
 1082.0000     9.1810    90.6500     2.4670     0.0280   -28.3480     7.9520     9.4680    10.4210
 1082.5000     9.1870    90.2560     2.4730     0.0260   -28.3170     7.8450     9.4250    10.3880
 1083.0000     9.1920    89.8690     2.4750     0.0230   -28.0990     7.7370     9.3820    10.3310
 1083.5000     9.1980    89.8430     2.4720     0.0200   -27.8890     7.6290     9.3380    10.2740
 1084.0000     9.2030    90.1540     2.4700     0.0220   -27.6780     7.5210     9.2950    10.2170
 1084.5000     9.1980    90.4500     2.4680     0.0280   -27.6020     7.4140     9.2520    10.1600
 1085.0000     9.1790    90.4390     2.4710     0.0350   -27.6530     7.3060     9.2090    10.1030
 1085.5000     9.1610    89.8390     2.4750     0.0420   -27.7060     7.1980     9.1650    10.0460
 1086.0000     9.1420    89.1690     2.4790     0.0490   -27.7590     7.0910     9.1220     9.9900
 1086.5000     9.1230    88.4980     2.4820     0.0500   -27.8110     6.9830     9.0790     9.9330
