~VERSION INFORMATION
 VERS.                2.0:   CWLS LOG ASCII STANDARD - VERSION 2.0
 WRAP.                 NO:   ONE LINE PER DEPTH STEP
~WELL INFORMATION
#MNEM.UNIT      DATA TYPE    INFORMATION
#----------   ------------   ------------------------------
 STRT.F          200.0000:   START DEPTH
 STOP.F         3060.0000:   STOP DEPTH
 STEP.F            0.5000:   STEP LENGTH
 NULL.          -999.2500:   NO VALUE
 COMP.    FENIX & SCISSON:   COMPANY
 WELL. FENIX & SCISSON NPR "AX" #81-10:   WELL
 FLD .                NPR:   FIELD
 LOC .      S10 T38N R78W:   LOCATION
 CNTY.            NATRONA:   COUNTY
 STAT.            WYOMING:   STATE
 CTRY. UNITED STATES OF AMERICA:   COUNTRY
 SRVC.              WELEX:   SERVICE COMPANY
 DATE.        28-NOV-1977:   LOGDATE
 API .     49025104400000:   API NUMBER
~CURVE INFORMATION
#MNEM.UNIT       API CODE    CURVE DESCRIPTION
#----------   ------------   ------------------------------
 DEPT.F                  :   
 CALD.IN     45 280 60 00:   CALIPER FROM DENSITY LOG
 GRD .GAPI   45 310 01 00:   GAMMA RAY FROM DENSITY LOG
 RHOB.G/C3   45 350 01 00:   BULK DENSITY
 CORR.G/C3   45 356 01 00:   DENSITY CORRECTION
 TEND.LBS    45 635 01 00:   TENSION FROM DENSITY LOG
 NPHI.DEC    42 890 03 00:   NEUTRON POROSITY SANDSTONE
 SPR .MV     07 010 01 00:   SPONTANEOUS POTENTIAL
 IL  .OHMM   07 120 00 00:   INDUCTION LOG RES.
 ASGR.OHMM   07 221 05 00:   AMPLIFIED SHALLOW GUARD
 SNP .DEC    41 890 00 00:   SIDEWALL NEUTRON POROSITY
~PARAMETER INFORMATION
#MNEM.UNIT          VALUE    DESCRIPTION
#----------   ------------   ------------------------------
 EKB .F         5147.0000:   Kelly bushing
 EGL .F         5137.0000:   Ground level
 EDF .F            0.0000:   Drilling floor
 TD  .F         3058.0000:   Total depth
 DATE.        28-NOV-1977:   Date logged
 CLNT.            A2DTECH:   Client Code
 PD  .                 GL:   Permanent Datum
 EPD .F              5137:   Elevation Permanent Datum
 LMF .                 KB:   Log Measured From
 DMF .                 KB:   Drilling Measured From
 DD  .F              3055:   Depth driller
 DL  .F              3058:   Depth logger
 BLI .F              3055:   Bottom log interval
 TLI .F               200:   Top log interval
 CS1 .IN            8.625:   Casing size
 CBD1.      8.625" @ 205':   Casing driller 1
 CBL1.F               215:   Casing logger 1
 BSD1.F              3055:   Depth drilled with bit1
 DFT .            KCL/MUD:   Type fluid in hole
 ENGI.            BENTSEN:   Recorded By
 WITN.         HARRINGTON:   Witnessed by
 ORIG.           5" PRINT:   Origin of data
 UWI .     49025104400000:   Unique Well ID
 DICO. A2D TECHNOLOGIES, INC.:   Digitizing Company
 DAPD.                 10:   Feet Above Permanent Datum
 BS1 .IN            7.875:   Bit size
 DFD .                8.9:   Density
 DFV .                 35:   Viscosity
 MSS .           FLOWLINE:   Source of sample
 RMS .OHMM            .17:   Rm
 MST .F                75:   Rm Meas. temp.
 RMF .OHMM            .12:   Rmf
 MFST.F                75:   Rmf Meas. temp.
 MFSS.               FANN:   Source Rmf.
 RMC .OHMM            .50:   Rmc
 MCST.F                75:   Rmc Meas. temp.
 MCSS.                KIT:   Source Rmc.
 RMB .OHMM           .113:   Rm. at BHT
 BHT .F               113:   BHT.
 TCS .HRS             2.5:   Time Circ. stopped
 MRT .F               113:   Maximum recorded temp.
 LUN .               9685:   Logging unit number
 LUL .             CASPER:   Logging unit location
 SL  . 601' FNL & 200' FEL:   Surface Location
~OTHER INFORMATION
~A   DEPT       CALD      GRD       RHOB       CORR        TEND        NPHI       SPR        IL       ASGR        SNP   
# ...
 2076.0000     8.7470   117.6240     2.5000    -0.0050  1046.9771     0.1370   -78.9820     6.4820     9.8490  -999.2500
 2076.5000     8.7470   115.4730     2.4960    -0.0090  1047.1750     0.1320   -78.9870     6.4830    10.1470  -999.2500
 2077.0000     8.7480   114.1200     2.4930    -0.0130  1047.3730     0.1290   -78.9920     6.5270    10.7320  -999.2500
 2077.5000     8.7490   113.3210     2.4920    -0.0120  1047.5699     0.1300   -78.9980     6.5770    11.6860  -999.2500
 2078.0000     8.7490   113.1080     2.4920    -0.0090  1047.7679     0.1330   -79.0030     6.6270    10.8100  -999.2500
 2078.5000     8.7500   114.0090     2.4920    -0.0060  1047.9659     0.1320   -79.0090     6.6770    11.3930  -999.2500
 2079.0000     8.7510   114.5900     2.4970    -0.0040  1048.1639     0.1320   -79.0140     6.7280    11.1900  -999.2500
 2079.5000     8.7510   114.3430     2.5050    -0.0010  1048.3621     0.1330   -79.0200     6.7760    10.7620  -999.2500
 2080.0000     8.7520   112.7290     2.5120     0.0000  1048.5601     0.1330   -79.0250     6.6030    10.7000  -999.2500
 2080.5000     8.7530   111.1190     2.5190     0.0000  1048.7581     0.1310   -78.9800     6.3960     9.6170  -999.2500
 2081.0000     8.7530   110.0060     2.5260     0.0000  1048.9561     0.1300   -78.9260     6.1860    10.4490  -999.2500
 2081.5000     8.7540   110.5390     2.5310     0.0010  1049.1530     0.1300   -78.8730     5.9780     9.1120  -999.2500
 2082.0000     8.7540   111.2440     2.5300     0.0010  1049.3510     0.1290   -78.8190     5.7860     8.7870  -999.2500
 2082.5000     8.7550   110.8350     2.5290     0.0010  1049.5490     0.1270   -78.7660     5.6960     8.4100  -999.2500
 2083.0000     8.7560   110.4210     2.5280     0.0010  1049.7469     0.1260   -78.7120     5.6010     8.6020  -999.2500
 2083.5000     8.7560   110.2350     2.5270     0.0010  1049.9449     0.1230   -78.6590     5.5040     9.0390  -999.2500
 2084.0000     8.7570   110.5530     2.5250     0.0010  1050.1429     0.1200   -78.6050     5.4070     9.1640  -999.2500
 2084.5000     8.7580   110.8590     2.5240     0.0010  1050.3409     0.1220   -78.5520     5.3100     9.1380  -999.2500
 2085.0000     8.7580   111.2060     2.5230     0.0000  1050.5380     0.1270   -78.4980     5.2120     9.2410  -999.2500
 2085.5000     8.7590   111.0540     2.5220     0.0000  1050.7360     0.1280   -78.4450     5.2190     9.1370  -999.2500
 2086.0000     8.7600   110.3550     2.5250     0.0010  1050.9340     0.1270   -78.3910     5.2860     9.1250  -999.2500
 2086.5000     8.7600   109.9240     2.5310     0.0050  1050.9460     0.1250   -78.3370     5.3530     9.0130  -999.2500
 2087.0000     8.7610   110.4470     2.5370     0.0090  1050.6910     0.1230   -78.2830     5.4210     8.4920  -999.2500
 2087.5000     8.7620   110.9780     2.5430     0.0130  1050.4360     0.1250   -78.2380     5.4880     7.9000  -999.2500
 2088.0000     8.7620   109.8630     2.5490     0.0170  1050.1801     0.1250   -78.4200     5.5560     7.6710  -999.2500
 2088.5000     8.7630   108.9560     2.5510     0.0220  1049.9250     0.1250   -78.6110     5.6250     9.4930  -999.2500
 2089.0000     8.7640   109.6740     2.5520     0.0250  1049.6689     0.1230   -78.8020     5.7570    10.6540  -999.2500
 2089.5000     8.7640   110.3630     2.5530     0.0220  1049.4139     0.1210   -78.9920     6.1800    10.5970  -999.2500
 2090.0000     8.7650   110.4040     2.5530     0.0180  1049.1580     0.1200   -79.1850     6.6070    10.8240  -999.2500
 2090.5000     8.7660   109.9090     2.5520     0.0140  1048.9030     0.1220   -79.2330     6.7810    11.0510  -999.2500
 2091.0000     8.7660   109.4310     2.5510     0.0110  1048.6470     0.1230   -79.2460     6.7830    11.2780  -999.2500
 2091.5000     8.7670   109.3010     2.5490     0.0070  1048.3920     0.1250   -79.2570     6.7460    11.4890  -999.2500
 2092.0000     8.7680   110.8070     2.5410     0.0040  1048.1360     0.1280   -79.2690     6.6810    11.0630  -999.2500
 2092.5000     8.7680   112.2930     2.5330     0.0000  1047.8810     0.1310   -79.2810     6.6160    10.6010  -999.2500
 2093.0000     8.7690   113.7690     2.5250    -0.0010  1047.6260     0.1350   -79.2930     6.5510    10.2410  -999.2500
 2093.5000     8.7700   114.8400     2.5160    -0.0010  1047.3700     0.1380   -79.3050     6.4840    10.0870  -999.2500
 2094.0000     8.7700   115.9050     2.5120    -0.0010  1047.1150     0.1380   -79.3160     6.4350     9.9910  -999.2500
 2094.5000     8.7710   116.0240     2.5180    -0.0010  1046.8590     0.1380   -79.3280     6.3850    10.0330  -999.2500
 2095.0000     8.7720   115.0800     2.5230     0.0000  1046.6040     0.1380   -79.3400     6.3350    10.0160  -999.2500
 2095.5000     8.7720   114.1430     2.5270     0.0000  1046.3480     0.1370   -79.3520     6.2810    11.3340  -999.2500
 2096.0000     8.7730   113.2070     2.5230     0.0000  1046.0930     0.1340   -79.3630     6.1210    11.4200  -999.2500
 2096.5000     8.7730   112.4040     2.5190     0.0000  1045.8370     0.1300   -79.3750     6.0820    10.9270  -999.2500
 2097.0000     8.7740   112.5290     2.5150     0.0010  1045.5820     0.1300   -79.3870     6.0800    10.2620  -999.2500
 2097.5000     8.7750   113.4580     2.5110     0.0010  1045.3270     0.1310   -79.3990     6.0800     9.6020  -999.2500
 2098.0000     8.7750   114.3920     2.5060     0.0000  1045.0710     0.1300   -79.4110     6.0410     8.2690  -999.2500
 2098.5000     8.7760   115.3180     2.5000     0.0000  1044.8160     0.1290   -79.4230     5.7230     8.4230  -999.2500
 2099.0000     8.7770   115.9780     2.4940     0.0000  1044.5601     0.1310   -79.4630     5.3890     8.8240  -999.2500
 2099.5000     8.7770   115.8940     2.4870    -0.0020  1044.3051     0.1310   -79.5060     5.5350     8.8260  -999.2500
 2100.0000     8.7780   115.8250     2.4810    -0.0070  1044.0490     0.1290   -79.5500     5.7670     9.0450  -999.2500
 2100.5000     8.7790   115.7770     2.4740    -0.0120  1043.7939     0.1290   -79.5930     5.7660     9.2810  -999.2500
 2101.0000     8.7790   116.1360     2.4680    -0.0160  1043.5380     0.1290   -79.6360     5.7490     9.2410  -999.2500
 2101.5000     8.7800   116.8840     2.4670    -0.0210  1043.2830     0.1280   -79.6800     5.7320     9.1430  -999.2500
 2102.0000     8.7810   117.6280     2.4670    -0.0260  1043.0280     0.1260   -79.7230     5.7170     8.8990  -999.2500
 2102.5000     8.7810   118.3650     2.4690    -0.0300  1042.7720     0.1260   -79.7660     5.7010     9.0420  -999.2500
 2103.0000     8.7820   118.9090     2.4710    -0.0280  1042.5170     0.1270   -79.8100     5.6850     8.7710  -999.2500
 2103.5000     8.7830   118.6580     2.4730    -0.0240  1042.2610     0.1290   -79.8530     5.6690     8.5230  -999.2500
 2104.0000     8.7830   117.1790     2.4740    -0.0200  1042.0060     0.1270   -79.8970     5.6530     8.5220  -999.2500
 2104.5000     8.7840   115.0330     2.4730    -0.0160  1041.7500     0.1240   -79.9400     5.6370     9.0180  -999.2500
 2105.0000     8.7850   115.3150     2.4720    -0.0130  1041.4950     0.1210   -79.9830     5.6210     9.3810  -999.2500
 2105.5000     8.7850   115.7680     2.4750    -0.0090  1041.2390     0.1240   -80.0270     5.6050     9.0010  -999.2500
 2106.0000     8.7860   115.0700     2.4790    -0.0050  1040.9840     0.1290   -80.0700     5.5890     8.7290  -999.2500
 2106.5000     8.7870   113.5160     2.4840    -0.0010  1040.7280     0.1340   -80.1130     5.5710     8.7220  -999.2500
 2107.0000     8.7870   111.9530     2.4890     0.0030  1040.4730     0.1370   -80.1570     5.5490     8.6590  -999.2500
 2107.5000     8.7880   110.6680     2.4930     0.0040  1040.2180     0.1380   -80.2000     5.5280     8.4910  -999.2500
 2108.0000     8.7890   110.5140     2.4980     0.0050  1039.9620     0.1380   -80.2430     5.5060     8.2440  -999.2500
 2108.5000     8.7890   110.6220     2.5030     0.0050  1039.7070     0.1380   -80.2870     5.4850     8.3900  -999.2500
 2109.0000     8.7900   110.7410     2.5050     0.0050  1039.4510     0.1380   -80.3300     5.4630     8.1960  -999.2500
