~VERSION INFORMATION
 VERS.                2.0:   CWLS LOG ASCII STANDARD - VERSION 2.0
 WRAP.                 NO:   ONE LINE PER DEPTH STEP
~WELL INFORMATION
#MNEM.UNIT      DATA TYPE    INFORMATION
#----------   ------------   ------------------------------
 STRT.F            0.0000:   START DEPTH
 STOP.F         4000.0000:   STOP DEPTH
 STEP.F            0.5000:   STEP LENGTH
 NULL.          -999.2500:   NO VALUE
 COMP. LAWRENCE &  ALLISON ASSOC.:   COMPANY
 WELL. LAWRENCE NPR 3 "TX" #14-28:   WELL
 FLD .              N P R:   FIELD
 LOC .      S28 T39N R78W:   LOCATION
 CNTY.            NATRONA:   COUNTY
 STAT.            WYOMING:   STATE
 CTRY. UNITED STATES OF AMERICA:   COUNTRY
 SRVC.      DRESSER ATLAS:   SERVICE COMPANY
 DATE.        11-APR-1984:   LOGDATE
 API .     49025109710000:   API NUMBER
~CURVE INFORMATION
#MNEM.UNIT       API CODE    CURVE DESCRIPTION
#----------   ------------   ------------------------------
 DEPT.F                  :   
 RHOB.G/C3   45 350 01 00:   BULK DENSITY
 CORR.G/C3   45 356 01 00:   DENSITY CORRECTION
 TEND.LBS    45 635 01 00:   TENSION FROM DENSITY LOG
 CNC .DEC    42 890 03 00:   NEUTRON PORISITY SANDSTONE
 DT  .US/F   60 520 00 00:   DELTA TIME
 TENS.LBS    60 635 01 00:   TENSION FROM SONIC LOG
 GRR .GAPI   07 310 01 00:   GAMMA RAY FROM RESISTIVITY
 SPR .MV     07 010 01 00:   SPONTANEOUS POTENTIAL
 CALR.IN     07 280 01 00:   CALIPER FROM RESISTIVITY
 TENR.LBS    07 635 01 00:   TENSION
 RILD.OHMM   07 120 46 00:   INDUCTION LOG DEEP RESISTIVITY
 RILM.OHMM   07 120 44 00:   INDUCTION LOG MEDIUM RESISTIVITY
 RFOC.OHMM   07 220 01 00:   RESISTIVITY FOCUSED LOG RES.
~PARAMETER INFORMATION
#MNEM.UNIT          VALUE    DESCRIPTION
#----------   ------------   ------------------------------
 EKB .F         5024.0000:   Kelly bushing
 EGL .F         5014.0000:   Ground level
 TD  .F         3996.0000:   Total depth
 DATE.        11-APR-1984:   Date logged
 CLNT.            A2DTECH:   Client Code
 SL  . 250' FWL & 2100' FNL:   Surface Location
 PD  .                 GL:   Permanent Datum
 EPD .F              5014:   Elevation Permanent Datum
 LMF .                 KB:   Log Measured From
 DMF .                 KB:   Drilling Measured From
 DD  .F              3996:   Depth driller
 DL  .F              3994:   Depth logger
 BLI .F              3992:   Bottom log interval
 CS1 .IN            8.625:   Casing size
 CBD1.      8.625" @ 404':   Casing driller 1
 CBL1.F               404:   Casing logger 1
 BS1 .IN            7.875:   Bit size
 DFT .            GEL/KCL:   Type fluid in hole
 DFD .                9.1:   Density
 DFV .                 38:   Viscosity
 DFPH.                  8:   pH
 DFL .                 14:   Fluid loss
 MSS .           FLOWLINE:   Source of sample
 RMS .OHMM           .417:   Rm
 MST .F                90:   Rm Meas. temp.
 RMF .OHMM           .313:   Rmf
 MFST.F                90:   Rmf Meas. temp.
 RMC .OHMM           .521:   Rmc
 MCST.F                90:   Rmc Meas. temp.
 MFSS.               CALC:   Source Rmf.
 RMB .OHMM            .25:   Rm. at BHT
 BHT .F               150:   BHT.
 TCS .HRS               3:   Time Circ. stopped
 MRT .F               150:   Maximum recorded temp.
 LUN .               6307:   Logging unit number
 LUL .               GLTE:   Logging unit location
 ENGI.           FAHLSING:   Recorded By
 WITN.             STRONG:   Witnessed by
 ORIG.           5" PRINT:   Origin of data
 UWI .     49025109710000:   Unique Well ID
 DICO. A2D TECHNOLOGIES, INC.:   Digitizing Company
 DAPD.F                10:   Feet Above Permanent Datum
 BSD1.F              3996:   Depth drilled with bit1
 MCSS.               CALC:   Source Rmc.
~OTHER INFORMATION
~A    DEPT    RHOB       CORR       TEND        CNC         DT       TENS         GRR       SPR       CALR       TENR       RILD       RILM       RFOC   
# ...
 2080.0000     2.4800    -0.0050    38.7230     0.2620    98.5640    42.0790   126.5410   -32.7220     8.6750   -32.5610     6.5780     6.1940     5.5680
 2080.5000     2.4860    -0.0240    38.9660     0.2610    98.5640    42.0790   127.3360   -32.6270     8.6690   -33.0250     6.2340     5.8540     5.2400
 2081.0000     2.4910    -0.0030    39.2100     0.2620    97.5770    42.0790   126.3120   -32.5310     8.6630   -33.4900     6.0410     5.5140     5.1210
 2081.5000     2.4940     0.0370    39.4540     0.2670    96.1820    42.0790   123.2580   -32.4360     8.6570   -33.9550     6.0410     5.3340     5.0580
 2082.0000     2.4940     0.0590    39.6980     0.2740    94.6040    42.0790   120.7750   -32.3400     8.6510   -34.4200     6.2930     5.1840     4.9970
 2082.5000     2.4790     0.0620    39.9420     0.2750    94.7030    42.0790   120.7090   -32.2450     8.6460   -34.8840     6.4420     5.0750     4.9350
 2083.0000     2.4650     0.0490    40.1860     0.2740    95.3760    41.8310   121.6470   -32.1490     8.6400   -35.3490     6.2900     5.0750     4.8920
 2083.5000     2.4510     0.0300    40.4300     0.2690    96.0890    41.4680   125.1520   -32.0560     8.6340   -35.8140     6.1180     5.0820     4.9470
 2084.0000     2.4540     0.0120    40.6740     0.2670    97.1660    41.1050   128.5480   -32.1020     8.6280   -36.2780     5.9310     5.1050     4.9680
 2084.5000     2.4690     0.0000    40.9180     0.2690    97.9700    40.7420   131.4640   -32.4910     8.6220   -36.7430     5.9310     5.1210     5.0860
 2085.0000     2.4750    -0.0040    41.1620     0.2730    97.6580    40.3790   131.1170   -32.8740     8.6170   -37.2080     6.0970     5.0750     5.4050
 2085.5000     2.4690    -0.0060    41.4050     0.2790    96.8200    40.0160   128.4000   -33.2580     8.6110   -37.6730     6.1830     4.8590     5.9860
 2086.0000     2.4590     0.0000    41.6490     0.2850    95.1980    39.6530   126.5750   -33.6400     8.6070   -38.1370     6.2750     4.7590     6.9960
 2086.5000     2.4560     0.0090    41.8930     0.2910    95.2970    39.2900   126.1770   -34.0020     8.6050   -38.6020     6.3670     4.8790     6.4400
 2087.0000     2.4570     0.0140    42.0790     0.2900    95.9820    38.9270   126.2690   -34.2270     8.6040   -39.0670     6.4750     5.0020     5.7140
 2087.5000     2.4520     0.0050    42.0790     0.2800    96.6830    38.5640   128.6050   -34.4560     8.6020   -39.5310     6.6520     5.1590     5.4610
 2088.0000     2.4480    -0.0040    42.0790     0.2640    96.5840    38.2010   126.3700   -34.6860     8.6000   -39.9960     6.8290     5.3240     5.5620
 2088.5000     2.4470    -0.0160    42.0790     0.2540    95.8220    37.8370   125.3500   -34.9160     8.5980   -40.4610     7.0070     5.4890     6.4440
 2089.0000     2.4570    -0.0170    42.0790     0.2550    95.0080    37.4740   127.2680   -35.1460     8.5960   -40.9260     7.1840     5.6540     7.1260
 2089.5000     2.4660     0.0160    42.0790     0.2620    94.1940    37.1110   129.0000   -35.3760     8.5950   -41.3900     7.3620     5.8200     7.3920
 2090.0000     2.4630     0.0230    42.0790     0.2630    93.8120    36.7480   129.1630   -35.6020     8.5930   -41.8550     7.5390     6.0050     7.3920
 2090.5000     2.4590     0.0100    42.0790     0.2610    93.8120    36.3850   123.8220   -35.5700     8.5910   -42.3200     7.7390     6.2020     7.2350
 2091.0000     2.4590    -0.0080    42.0790     0.2780    94.3460    36.0220   122.2950   -35.2240     8.5890   -42.7840     7.6940     6.3830     6.9960
 2091.5000     2.4650     0.0010    42.0790     0.2840    94.8020    35.6590   121.6660   -34.8820     8.5800   -43.2490     7.6440     6.4420     7.0280
 2092.0000     2.4630     0.0320    42.0790     0.2850    94.4900    35.2960   118.8460   -34.5380     8.5670   -43.7140     7.4600     6.2200     7.0740
 2092.5000     2.4450     0.0500    42.0790     0.2820    94.1140    34.9330   114.2900   -34.1940     8.5540   -44.1790     7.3240     5.8770     7.1200
 2093.0000     2.4400     0.0450    42.0790     0.2740    94.1090    34.5700   115.1590   -33.8390     8.5420   -44.6430     7.3240     5.7700     7.1660
 2093.5000     2.4530     0.0320    42.0790     0.2650    95.0860    34.2070   120.7660   -33.7450     8.5290   -45.1080     7.4200     5.7170     7.2120
 2094.0000     2.4610     0.0190    42.0790     0.2610    96.3860    33.8440   121.7230   -33.7240     8.5160   -45.5730     7.5220     5.7170     7.2590
 2094.5000     2.4500     0.0070    42.0790     0.2560    96.4850    33.4810   117.6860   -33.7040     8.5040   -35.4290     7.6250     5.8790     7.3050
 2095.0000     2.4390     0.0010    42.0790     0.2530    95.4980    33.1180   117.4240   -33.6840     8.4910   -35.0660     7.7270     6.0970     7.3240
 2095.5000     2.4350    -0.0050    42.0790     0.2560    94.1090    32.7550   120.8290   -33.6640     8.4780   -34.6900     7.8100     6.3250     7.3240
 2096.0000     2.4480    -0.0130    42.0790     0.2620    94.0100    32.3920   123.7000   -33.6430     8.4640   -34.3150     7.9550     6.3830     7.1100
 2096.5000     2.4600    -0.0270    42.0790     0.2660    94.7010    32.0290   120.5650   -33.6230     8.4480   -33.9400     7.6580     6.2090     6.8410
 2097.0000     2.4550    -0.0320    42.0790     0.2720    95.1980    31.6660   115.6330   -33.6030     8.4330   -33.5640     7.4110     5.9230     6.5720
 2097.5000     2.4430    -0.0210    42.0790     0.2820    95.2610    31.3030   112.1260   -33.5830     8.4170   -33.1890     7.1650     5.6380     6.3020
 2098.0000     2.4240    -0.0020    42.0790     0.2920    95.3620    30.9400   111.8290   -33.5710     8.4130   -32.8140     6.7290     5.3520     6.0330
 2098.5000     2.4050     0.0200    42.0790     0.2950    95.8890    30.5770   116.3680   -33.2940     8.4140   -32.4390     6.2590     5.0660     5.7640
 2099.0000     2.3890     0.0490    42.0790     0.2830    96.9390    30.2140   120.9450   -32.9800     8.4160   -32.0630     5.8230     4.7800     5.4940
 2099.5000     2.3910     0.0360    42.0790     0.2660    98.3260    29.8500   124.2920   -32.6640     8.4170   -31.6880     5.6140     4.4950     5.3620
 2100.0000     2.4260     0.0120    42.0790     0.2470    99.8510    29.4870   123.8060   -32.3480     8.4190   -31.3130     5.6140     4.3820     5.3130
 2100.5000     2.4660     0.0140    42.0790     0.2470    99.5540    29.1240   120.1560   -32.0330     8.4200   -30.9370     5.6650     4.3820     5.3130
 2101.0000     2.4850     0.0230    42.0790     0.2490    98.2580    28.7610   116.4910   -31.7180     8.4220   -30.5620     6.0470     4.9040     5.4700
 2101.5000     2.5020     0.0350    42.0790     0.2530    95.2760    28.3980   112.8070   -31.4020     8.4240   -30.1870     6.9590     5.4610     5.7170
 2102.0000     2.5010     0.0440    42.0790     0.2560    92.1320    28.0350   109.0180   -31.0880     8.4250   -29.8110     7.9550     5.2150     5.4950
 2102.5000     2.4900     0.0370    42.0790     0.2660    89.1580    27.6720   107.6310   -30.7970     8.4270   -29.4360     8.0280     4.8950     5.1790
 2103.0000     2.4720     0.0240    42.0790     0.2670    89.1580    27.3090   108.6010   -30.5820     8.4290   -29.0610     7.9550     4.5750     4.8640
 2103.5000     2.4540     0.0120    42.0790     0.2670    90.5110    26.9460   112.1870   -30.3370     8.4300   -28.6860     6.6350     4.2560     4.5490
 2104.0000     2.4350     0.0220    42.0790     0.2670    92.2690    26.5830   117.4470   -30.0900     8.4320   -28.3100     4.8470     3.9360     4.2340
 2104.5000     2.4310     0.0730    42.0790     0.2730    94.1700    26.2200   117.2200   -29.8430     8.4330   -27.9350     4.3810     3.6170     3.9180
 2105.0000     2.4430     0.0980    42.0790     0.2820    96.2040    25.8570   116.2700   -29.5960     8.4350   -27.5600     3.8720     3.2970     3.6030
 2105.5000     2.4770     0.0530    42.0790     0.2770    97.2770    25.4940   114.5330   -29.3500     8.4370   -27.1840     3.3630     3.1490     3.2970
