~VERSION INFORMATION
 VERS.                2.0:   CWLS LOG ASCII STANDARD - VERSION 2.0
 WRAP.                 NO:   ONE LINE PER DEPTH STEP
~WELL INFORMATION
#MNEM.UNIT      DATA TYPE    INFORMATION
#----------   ------------   ------------------------------
 STRT.F          494.0000:   START DEPTH
 STOP.F         4999.5000:   STOP DEPTH
 STEP.F            0.5000:   STEP LENGTH
 NULL.          -999.2500:   NO VALUE
 COMP.    FENIX & SCISSON:   COMPANY
 WELL.  FENIX "LX" #26-23:   WELL
 FLD . MPR #3 (TEAPOT DOME):   FIELD
 LOC .      S23 T38N R78W:   LOCATION
 CNTY.            NATRONA:   COUNTY
 STAT.            WYOMING:   STATE
 CTRY. UNITED STATES OF AMERICA:   COUNTRY
 SRVC.       SCHLUMBERGER:   SERVICE COMPANY
 DATE.        11-AUG-1978:   LOGDATE
 API .     49025107340000:   API NUMBER
~CURVE INFORMATION
#MNEM.UNIT       API CODE    CURVE DESCRIPTION
#----------   ------------   ------------------------------
 DEPT.F                  :   
 NPHI.DEC    42 890 03 00:   NEUTRON POROSITY SANDSTONE
 TEND.LBS    45 635 01 00:   TENSION FORM DENSITY LOG
 GRD .GAPI   45 310 01 00:   GAMMA RAY FROM DENSITY LOG
 CALD.IN     45 280 60 00:   CALIPER FROM DENSITY LOG
 DRHO.G/C3   45 356 01 00:   DENSITY CORRECTION
 RHOB.G/C3   45 350 01 00:   BULK DENSITY
 SPR .MV     07 010 01 00:   SPONTANEOUS POTENTIAL
 TENR.LBS    07 635 01 00:   TENSION FROM RESISTIVITY LOG
 ILD .OHMM   07 120 46 00:   INDUCTION LOG DEEP RESISTIVITY
 ILM .OHMM   07 120 44 00:   INDUCTION LOG MEDIUM RESISTIVITY
 SFL .OHMM   07 220 01 00:   SPHERICALLY FOCUSED LOG RESISITIVITY
~PARAMETER INFORMATION
#MNEM.UNIT          VALUE    DESCRIPTION
#----------   ------------   ------------------------------
 EKB .F         5335.0000:   Kelly bushing
 EGL .F         5325.0000:   Ground level
 EDF .F            0.0000:   Drilling floor
 EPD .F         5325.0000:   Permanent datum
 TD  .F         5000.0000:   Total depth
 CLNT.            A2DTECH:   Client Code
 SL  . 1600' FSL & 903' FWL:   Surface Location
 PD  .                 GL:   Permanent Datum
 LMF .                 KB:   Log Measured From
 DMF .                 KB:   Drilling Measured From
 DAPD.F                10:   Feet Above Permanent Datum
 DATE.        11-AUG-1978:   Date Logged [DD-MMM-YYYY]
 DD  .F              5000:   Depth driller
 DL  .F              4998:   Depth logger
 BLI .F              4992:   Bottom log interval
 TLI .F               525:   Top log interval
 CS1 .IN            9.625:   Casing size
 CBD1.      9.625" @ 521':   Casing driller 1
 CBL1.F               521:   Casing logger 1
 BS1 .IN             8.75:   Bit size
 BSD1.F              5000:   Depth drilled with bit1
 DFD .                9.1:   Density
 MSS .            MUD PIT:   Source of sample
 RMS .OHMM          0.897:   Rm
 MST .F                64:   Rm Meas. temp.
 RMF .OHMM          0.821:   Rmf
 MFST.F                64:   Rmf Meas. temp.
 MFSS.               MEAS:   Source Rmf.
 BHT .F               135:   BHT.
 TCS .HRS              03:   00:   Time Circ. stopped
 TLAB.HRS              09:   00:   Time logger at bottom
 MRT .F               135:   Maximum recorded temp.
 LUL .               CSPR:   Logging unit location
 ENGI.              CRAIG:   Recorded By
 ORIG.           5" PRINT:   Origin of data
 UWI .     49025107340000:   Unique Well ID
 DICO. A2D TECHNOLOGIES, INC.:   Digitizing Company
 DFV .                 40:   Viscosity
 DFPH.                 12:   pH
 DFL .                  4:   Fluid loss
~OTHER INFORMATION
~A  DEPTH     NPHI       TEND        GRD       CALD       DRHO       RHOB        SPR       TENR        ILD        ILM        SFL
# ...
 2598.5000     0.3157  1646.7065   122.6619    11.9706     0.1923     2.3696   -26.4753  1252.8613     6.6419     6.4602     7.0320
 2599.0000     0.3102  1661.6766   117.6960    11.8188     0.1900     2.4164   -26.4685  1252.9767     6.6410     6.4145     7.1785
 2599.5000     0.3009  1661.6766   114.2828    11.5381     0.1938     2.4691   -26.6124  1253.1210     6.5941     6.4137     7.1272
 2600.0000     0.2865  1661.6766   112.7329    11.4242     0.2143     2.5414   -26.7564  1253.2365     6.5932     6.4128     7.0289
 2600.5000     0.2970  1669.0663   114.6000    11.4088     0.2500     2.5648   -26.9003  1271.6575     6.5924     6.4565     6.9795
 2601.0000     0.3259  1676.9663   117.0874    11.4539     0.2492     2.5655   -27.3997  1271.9487     6.6834     6.5914     7.0179
 2601.5000     0.3355  1662.1027   119.2643    11.4991     0.2492     2.5121   -27.8394  1272.2482     6.8230     6.6364     7.1921
 2602.0000     0.3362  1647.3054   121.4411    11.4557     0.2492     2.4797   -28.4233  1272.6038     6.8990     6.7751     7.3664
 2602.5000     0.3248  1647.4551   122.0652    11.4257     0.2492     2.4488   -29.4543  1288.3987     6.9460     6.8771     7.5800
 2603.0000     0.3075  1647.6296   120.8259    11.3806     0.1710     2.4368   -30.0406  1288.6899     7.0418     6.8759     7.8541
 2603.5000     0.2846  1651.6241   123.9352    11.3355     0.1269     2.4685   -30.4779  1273.4773     6.9440     6.8745     7.9650
 2604.0000     0.2771  1662.8838   122.6959    11.2903     0.1512     2.5215   -30.6171  1273.8412     6.8952     6.8254     7.9047
 2604.5000     0.2786  1663.0258   121.1461    11.2679     0.2090     2.6171   -30.3068  1274.1323     6.8942     6.6837     7.7338
 2605.0000     0.2858  1678.1733   119.2448    11.2454     0.2265     2.5914   -30.1480  1274.4236     6.9893     6.6824     7.5666
 2605.5000     0.2955  1678.3153   118.6675    11.2306     0.2310     2.5635   -29.8401  1274.7874     7.0373     6.6350     7.4030
 2606.0000     0.3126  1678.4431   120.8451    11.2158     0.2318     2.5340   -29.8303  1275.0786     6.9393     6.6334     7.1906
 2606.5000     0.3141  1672.4722   120.5375    11.2312     0.2006     2.5243   -30.1186  1275.3698     6.8904     6.5863     7.1368
 2607.0000     0.3059  1663.7712   119.2982    11.2467     0.1786     2.5325   -30.5559  1275.6610     6.7422     6.4945     7.0834
 2607.5000     0.2997  1663.9221   117.0650    11.2772     0.1906     2.5844   -30.6951  1291.5286     6.6538     6.4039     7.0304
 2608.0000     0.2933  1664.0719   117.7521    11.3533     0.2477     2.6130   -30.6826  1291.8198     6.6070     6.3582     7.0275
 2608.5000     0.3000  1649.2627   121.4817    11.5506     0.2500     2.5925   -30.5215  1307.6147     6.5605     6.4459     7.0763
 2609.0000     0.3078  1649.4011   125.2114    11.7479     0.2500     2.5180   -30.0646  1307.9069     6.6512     6.4892     7.0733
 2609.5000     0.3114  1648.2341   127.3883    11.8997     0.2394     2.4336   -29.4587  1308.2699     6.7899     6.6237     7.0709
 2610.0000     0.3123  1634.7188   125.2178    11.9454     0.0920     2.3967   -28.6638  1308.5612     6.8837     6.7199     7.1701
 2610.5000     0.2924  1619.8906   123.3574    11.3700     0.0251     2.4305   -27.6483  1293.3483     7.0763     6.8247     7.2719
 2611.0000     0.2879  1605.0626   122.7391    11.2643    -0.0015     2.4907   -27.0424  1278.1357     7.2238     6.9976     7.4804
 2611.5000     0.2870  1605.2401   123.4707    11.2191    -0.0030     2.5622   -26.4364  1262.9230     7.3746     7.2417     7.9189
 2612.0000     0.2876  1605.4176   126.4726    11.2042    -0.0038     2.5757   -25.8280  1263.2869     7.5285     7.4437     8.3838
 2612.5000     0.2879  1620.5297   125.8544    11.2045    -0.0038     2.5659   -25.8182  1263.5780     7.7927     7.6513     8.7496
 2613.0000     0.2870  1635.6418   120.5779    11.2048    -0.0038     2.5636   -25.9575  1263.8760     7.9554     7.8646     9.2657
 2613.5000     0.2840  1635.7838   114.0591    11.2052    -0.0038     2.5794   -26.2457  1279.7369     8.1217     8.0840     9.7361
 2614.0000     0.2776  1650.8982   109.6033    11.2055    -0.0038     2.5891   -26.5315  1295.5320     8.3487     8.1386    10.0162
 2614.5000     0.2704  1666.0435   105.9912    11.2058    -0.0038     2.5898   -27.2669  1295.8231     8.5227     8.1932     9.7997
 2615.0000     0.2641  1666.1854   104.1308    11.2060    -0.0006     2.5882   -28.3003  1296.1240     8.5811     8.0785     9.3702
 2615.5000     0.2620  1681.2975   104.1337    11.2214     0.0122     2.5920   -29.3337  1296.4781     8.4032     8.0212     8.9204
 2616.0000     0.2644  1681.4396   107.8634    11.2218     0.0289     2.5980   -29.7710  1296.7694     8.1671     7.8547     8.5417
 2616.5000     0.2689  1681.5869   111.0677    11.2221     0.0342     2.5888   -29.9102  1281.5568     7.9476     7.6907     8.2974
 2617.0000     0.2695  1666.7534   114.3918    11.2224     0.0228     2.5617   -29.8980  1266.3440     7.7874     7.6368     8.1173
 2617.5000     0.2692  1666.9310   118.1214    11.2227     0.0182     2.5474   -29.4411  1266.7079     7.5170     7.5826     7.9990
 2618.0000     0.2701  1652.0674   121.2300    11.2230     0.0304     2.5466   -29.2798  1266.9767     7.2383     7.2726     7.8824
 2618.5000     0.2824  1652.2455   121.8540    11.2234     0.0752     2.5706   -29.1210  1267.2867     6.8674     7.0237     7.8798
 2619.0000     0.2860  1652.3951   121.2366    11.2388     0.1132     2.5887   -29.2602  1267.5968     6.8193     6.8776     7.8201
 2619.5000     0.2851  1652.5645   119.6868    11.2542     0.1299     2.5848   -29.2504  1267.9070     6.8656     6.9244     7.7616
 2620.0000     0.2866  1652.7064   117.8264    11.2848     0.1633     2.5712   -29.5387  1268.2170     6.8645     6.9227     7.7036
 2620.5000     0.2936  1667.8185   114.7237    11.3155     0.2204     2.5546   -29.3395  1268.5271     6.8162     6.8258     7.6459
 2621.0000     0.2990  1667.9641   114.1056    11.3309     0.2112     2.5199   -29.0695  1268.8372     6.7215     6.7306     7.6427
 2621.5000     0.3056  1668.1381   115.3515    11.3312     0.1847     2.4930   -28.6070  1269.1472     6.6742     6.6368     7.4775
 2622.0000     0.3050  1664.2745   117.8389    11.3315     0.1565     2.4792   -27.8552  1269.4574     6.6271     6.6355     7.3159
 2622.5000     0.3044  1653.4165   121.5686    11.3469     0.1520     2.5243   -27.3983  1269.7675     6.5804     6.6339     7.0552
 2623.0000     0.3041  1653.5940   122.8138    11.3549     0.2378     2.5627   -27.3885  1270.0775     6.5796     6.6790     6.9523
 2623.5000     0.3089  1653.7715   121.2493    11.3627     0.2500     2.5754   -27.3785  1270.3876     6.6705     6.7705     7.0006
 2624.0000     0.3101  1653.9135   120.6458    11.3933     0.2500     2.5699   -27.5179  1270.6976     6.8569     6.8162     7.2014
 2624.5000     0.3038  1654.0554   123.4445    11.4239     0.2500     2.5068   -27.9552  1271.0077     6.9037     6.8146     7.4085
 2625.0000     0.2989  1654.1975   124.6897    11.5151     0.1907     2.4262   -28.3901  1271.3179     6.9510     6.8132     7.6758
 2625.5000     0.2830  1654.3413   123.1398    11.5988     0.0851     2.4134   -28.5293  1271.6279     6.8542     6.8119     7.7291
 2626.0000     0.2818  1654.5170   120.2981    11.3491     0.0486     2.4299   -28.8151  1271.9380     6.6658     6.6242     7.6706
 2626.5000     0.2821  1669.6290   118.1775    11.2130     0.0236     2.4708   -29.2524  1272.2480     6.3054     6.3975     7.6126
 2627.0000     0.2818  1669.7711   120.9755    11.1679     0.0099     2.5104   -29.3920  1272.5581     5.7614     6.1360     7.0327
 2627.5000     0.2785  1669.9131   124.0841    11.1682     0.0008     2.5284   -29.0835  1272.8683     5.1559     5.6809     6.4044
 2628.0000     0.2764  1670.0599   124.7081    11.1761    -0.0038     2.5404   -28.4754  1273.1783     4.6462     5.0873     5.7246
 2628.5000     0.2764  1670.2327   123.6726    11.1991     0.0160     2.5524   -27.8694  1273.4884     4.3951     4.7133     4.8033
