~VERSION INFORMATION
 VERS.                2.0:   CWLS LOG ASCII STANDARD - VERSION 2.0
 WRAP.                 NO:   ONE LINE PER DEPTH STEP
~WELL INFORMATION
#MNEM.UNIT      DATA TYPE    INFORMATION
#----------   ------------   ------------------------------
 STRT.F         2933.0000:   START DEPTH
 STOP.F         5494.0000:   STOP DEPTH
 STEP.F            0.5000:   STEP LENGTH
 NULL.          -999.2500:   NO VALUE
 COMP.    FENIX & SCISSON:   COMPANY
 WELL. FENIX "TPX" #56-10:   WELL
 FLD .        TEAPOT DOME:   FIELD
 LOC .      S10 T38N R78W:   LOCATION
 CNTY.            NATRONA:   COUNTY
 STAT.            WYOMING:   STATE
 CTRY. UNITED STATES OF AMERICA:   COUNTRY
 SRVC.       SCHLUMBERGER:   SERVICE COMPANY
 DATE.        22-MAY-1978:   LOGDATE
 API .     49025106100000:   API NUMBER
~CURVE INFORMATION
#MNEM.UNIT       API CODE    CURVE DESCRIPTION
#----------   ------------   ------------------------------
 DEPT.F                  :   
 NPHI.DEC    42 890 03 00:   NEUTRON POROSITY SANDSTONE
 GRD .GAPI   45 310 01 00:   GAMMA RAY FROM DENSITY LOG
 CALD.IN     45 280 60 00:   CALIPER FROM DENSITY LOG
 CORR.G/C3   45 356 01 00:   DENSITY CORRECTION
 RHOB.G/C3   45 350 01 00:   BULK DENSITY
 SPR .MV     07 010 01 00:   SPONTANEOUS POTENTIAL
 ILD .OHMM   07 120 46 00:   INDUCTION LOG DEEP RESISTIVITY
 ILM .OHMM   07 120 44 00:   INDUCTION LOG MEDIUM RESISTIVITY
 SFL .OHMM   07 220 01 00:   SHALLOW FOCUSED LOG RESISITIVITY
 DT  .US/F   60 520 00 00:   DELTA TIME
~PARAMETER INFORMATION
#MNEM.UNIT          VALUE    DESCRIPTION
#----------   ------------   ------------------------------
 EKB .F         5212.0000:   Kelly bushing
 EGL .F         5202.0000:   Ground level
 TD  .F         5500.0000:   Total depth
 CLNT.            A2DTECH:   Client Code
 SL  . 1270' FSL & 2130' FEL:   Surface Location
 PD  .                 GL:   Permanent Datum
 EPD .F              5202:   Elevation Permanent Datum
 LMF .                 KB:   Log Measured From
 DMF .                 KB:   Drilling Measured From
 DAPD.F                10:   Feet Above Permanent Datum
 DATE.        22-MAY-1978:   Date Logged [DD-MMM-YYYY]
 DD  .F              5500:   Depth driller
 DL  .F              5499:   Depth logger
 BLI .F              5497:   Bottom log interval
 TLI .F              2971:   Top log interval
 CS1 .IN            8.625:   Casing size
 CBD1.     8.625" @ 2972':   Casing driller 1
 CBL1.F              2971:   Casing logger 1
 BS1 .IN            7.875:   Bit size
 BSD1.F              5500:   Depth drilled with bit1
 DFT .                FGM:   Type fluid in hole
 DFD .                9.3:   Density
 DFV .                 57:   Viscosity
 DFPH.               10.5:   pH
 DFL .                  6:   Fluid loss
 MSS .           MUD TANK:   Source of sample
 RMS .OHMM           0.93:   Rm
 MST .F                58:   Rm Meas. temp.
 RMF .OHMM           0.71:   Rmf
 MFST.F                61:   Rmf Meas. temp.
 MFSS.               MEAS:   Source Rmf.
 RMB .OHMM           0.27:   Rm. at BHT
 BHT .F               198:   BHT.
 TCS .HRS            1500:   Time Circ. stopped
 TLAB.HRS            0100:   Time logger at bottom
 MRT .F               198:   Maximum recorded temp.
 LUN .               8039:   Logging unit number
 LUL .               CSPR:   Logging unit location
 ENGI.          CHALUPSKY:   Recorded By
 WITN.            RHOADES:   Witnessed by
 ORIG.      2.5" 5" PRINT:   Origin of data
 UWI .     49025106100000:   Unique Well ID
 DICO. A2D TECHNOLOGIES, INC.:   Digitizing Company
~OTHER INFORMATION
~A  DEPTH     NPHI        GRD       CALD       CORR       RHOB        SPR        ILD        ILM        SFL         DT
# ...
 3971.5000     0.2265    86.2535    10.3791     0.1446     2.5647   -58.7235    10.9494    10.6483    16.1245    76.9188
 3972.0000     0.2342    90.9883    10.5021     0.1014     2.5025   -58.1286     9.5530     8.9477    10.2294    77.3751
 3972.5000     0.2384    93.9461    10.6166     0.0851     2.5038   -57.6781     8.0801     7.6768     7.9619    78.4329
 3973.0000     0.2396    94.8545    10.6783     0.0791     2.5112   -57.2376     7.2794     7.0595     7.4236    79.1135
 3973.5000     0.2300    92.0309    10.6988     0.0685     2.4790   -57.0911     6.8846     6.6743     7.5233    77.3141
 3974.0000     0.2115    91.2518    10.6991     0.0333     2.4528   -57.0947     6.5565     6.4877     7.6244    78.3732
 3974.5000     0.2046    92.7352    10.7432     0.0504     2.4528   -57.0977     6.2441     6.3945     8.1779    79.8070
 3975.0000     0.2423    94.8807    10.8949     0.0870     2.4801   -57.1006     5.8646     6.2157     8.7612    81.6918
 3975.5000     0.3038    97.6859    11.1420     0.2448     2.4933   -56.6552     5.5082     5.7956     8.3302    87.8624
 3976.0000     0.3542   100.3144    11.6097     0.2500     2.4978   -56.3591     5.0668     5.1123     6.6202    89.4911
 3976.5000     0.3634   102.1275    12.0520     0.2474     2.3971   -56.2119     4.7259     4.6958     5.0115    89.9028
 3977.0000     0.3560   100.9286    12.3526     0.2336     2.3883   -56.2156     4.5007     4.3766     4.4509    86.9770
 3977.5000     0.3559    98.5248    12.7733     0.2183     2.3956   -56.6669     4.3161     4.1915     4.2967    85.1763
 3978.0000     0.3720    96.5276    13.0138     0.1971     2.4030   -57.5667     4.1679     4.0279     4.3243    88.5662
 3978.5000     0.3869    94.2540    13.1943     0.1944     2.3971   -58.0181     4.0779     3.9425     4.3526    88.8721
 3979.0000     0.3851    91.9803    13.1045     0.1974     2.3364   -58.0211     3.9908     3.9129     4.3800    89.5540
 3979.5000     0.3750    89.7066    12.8045     0.1988     2.2994   -58.0240     3.9672     3.9105     4.4082    88.8073
 3980.0000     0.3830    87.3092    12.7448     0.1982     2.3074   -58.0270     3.9390     3.9081     4.4673    86.4064
 3980.5000     0.3887    84.2429    12.7150     0.1960     2.3231   -58.0299     3.9655     3.9608     4.5274    85.1334
 3981.0000     0.3775    82.0404    12.6853     0.1840     2.3014   -58.3478     4.0477     4.0691     4.4883    83.3341
 3981.5000     0.3544    81.1024    12.6555     0.1423     2.2694   -58.9327     4.1607     4.1810     4.3373    81.7603
 3982.0000     0.3232    83.2775    12.5798     0.0930     2.2653   -59.2347     4.3066     4.2960     4.3349    80.4121
 3982.5000     0.2926    82.1179    11.9939     0.1174     2.3792   -59.2382     4.5199     4.4758     4.5169    81.7833
 3983.0000     0.2907    75.6999    11.8456     0.1765     2.4835   -59.0910     4.7438     4.7943     4.7724    81.4223
 3983.5000     0.2763    72.0913    11.9360     0.1759     2.4574   -58.6462     5.0484     5.0664     5.0424    77.4965
 3984.0000     0.2202    70.8923    11.1387     0.0412     2.3991   -58.2007     5.3353     5.3981     5.3276    72.9152
 3984.5000     0.1871    72.1030    10.8777     0.0197     2.4265   -57.4563     5.6393     6.0159     5.9506    69.9881
 3985.0000     0.1680    75.1210    10.6156     0.0177     2.4960   -57.0108     5.8837     7.1004     6.6928    71.9481
 3985.5000     0.1882    77.5365    10.7853     0.1010     2.5788   -56.5653     6.1748     7.4501     8.4123    75.5623
 3986.0000     0.2149    79.3496    11.0310     0.2475     2.6262   -56.5683     6.2964     7.3419     9.2664    77.4472
 3986.5000     0.2582    79.3555    11.2768     0.2489     2.6310   -56.2723     6.1648     6.6124     8.5555    81.2122
 3987.0000     0.2962    79.3615    11.5225     0.2489     2.6069   -56.1250     6.0363     6.1656     6.9629    82.2687
 3987.5000     0.3115    79.3675    11.6857     0.2489     2.4797   -55.8297     5.9105     5.9518     6.0133    80.7714
 3988.0000     0.3137    79.3735    11.8187     0.2252     2.3460   -55.6832     5.7473     5.7854     5.6068    79.8743
 3988.5000     0.3032    79.3795    11.8190     0.1261     2.3406   -55.8356     5.5500     5.7022     5.3750    79.5787
 3989.0000     0.2541    79.3855    11.5190     0.0906     2.3919   -55.9901     5.3223     5.6987     5.2987    79.3583
 3989.5000     0.2434    80.7670    11.2190     0.0861     2.4533   -56.5999     5.1396     5.6952     6.0842    80.3409
 3990.0000     0.2553    81.8072    11.2793     0.1519     2.5141   -57.0404     4.9976     5.5360     6.7019    81.3987
 3990.5000     0.2880    81.8133    11.5799     0.1795     2.5315   -57.1934     4.8596     5.2338     6.7929    81.8550
 3991.0000     0.3081    81.0360    11.9105     0.1839     2.5279   -57.1964     4.7255     5.0150     6.1592    82.7624
 3991.5000     0.3159    74.9871    11.9409     0.1869     2.4947   -57.1993     4.6592     4.9454     5.4703    82.5999
 3992.0000     0.3183    67.5333    11.9111     0.1808     2.4475   -57.2023     5.0816     5.1874     4.9263    80.8182
 3992.5000     0.2530    59.1454    11.7889     0.1204     2.3925   -57.8031     5.6165     5.4800     4.7887    75.1100
 3993.0000     0.2156    54.1336    11.4393     0.0612     2.3937   -58.1050     5.9358     5.8294     5.0713    70.0024
 3993.5000     0.1533    57.1515    10.9417     0.0141     2.4169   -58.4069     6.2732     6.2442     5.7295    66.5490
 3994.0000     0.1379    60.1695    10.8612     0.0002     2.4765   -58.4099     6.6759     7.0702     7.7196    67.7571
 3994.5000     0.1367    60.7777    10.8616     0.0016     2.6089   -58.2626     7.6788     8.2305    11.1491    69.2660
 3995.0000     0.1391    60.7836    10.8619     0.0016     2.6184   -58.1161     8.4565     8.9394    12.8929    68.5193
 3995.5000     0.1391    60.7895    10.8622    -0.0007     2.6149   -57.6713     9.1848     9.5755    13.1590    67.0959
 3996.0000     0.1379    62.0002    10.8721    -0.0043     2.6199   -57.0763     9.9758    10.4001    12.9687    67.1763
 3996.5000     0.1433    65.0181    10.8927    -0.0073     2.6170   -56.9297    10.6857    11.1402    12.8719    68.4596
 3997.0000     0.1541    67.4747    10.8630    -0.0014     2.6140   -56.7833    10.8299    11.0564    13.1358    69.4423
 3997.5000     0.1619    69.2976    10.8633     0.0193     2.6125   -56.6367    10.6725    10.9394    12.9475    70.1993
 3998.0000     0.1680    69.8554    10.8636     0.0311     2.6317   -56.6398    10.3742    10.7373    12.4122    70.3549
 3998.5000     0.1724    69.1487    10.8639     0.0311     2.6450   -56.4702    10.0841    10.5836    11.4222    70.0432
 3999.0000     0.1636    68.6620    10.8642     0.0222     2.6554   -56.0477     9.8022    10.4321    11.1002    69.6750
 3999.5000     0.1555    72.9657    10.8645     0.0192     2.6494   -55.7524     9.4623    10.5720    11.5631    70.3716
 4000.0000     0.1522    77.4775    10.8647     0.0192     2.6361   -55.7554     8.8842    10.3889    12.9117    72.1813
 4000.5000     0.1780    80.5368    10.8663     0.0176     2.6193   -56.0572     8.2193    10.1703    13.6384    74.5173
 4001.0000     0.1963    83.6943    10.9249     0.0156     2.6043   -56.5086     7.8181     9.2897    12.8361    76.7781
 4001.5000     0.2175    87.1800    10.9249     0.0097     2.5864   -56.9600     7.1512     8.1397    10.3828    79.4900
 4002.0000     0.2282    88.3123    10.9249     0.0014     2.5630   -56.9629     6.7144     7.2316     8.6003    80.3223
 4002.5000     0.2373    88.3183    10.9622     0.0131     2.5532   -57.1154     6.3481     6.3804     6.8806    80.1771
 4003.0000     0.2472    86.8225    11.1399     0.0590     2.5839   -57.2000     5.9191     5.9093     6.1519    80.1822
 4003.5000     0.2531    84.5513    11.2252     0.1137     2.6152   -57.3715     5.6351     5.5493     5.8146    80.1120
 4004.0000     0.2565    83.5305    11.1419     0.0959     2.6566   -57.8090     5.4397     5.3950     5.8923    80.1174
 4004.5000     0.2574    83.5375    11.0790     0.0308     2.6121   -58.1148     5.2876     5.3925     5.9285    79.6921
