~VERSION INFORMATION
 VERS.                2.0:   CWLS LOG ASCII STANDARD - VERSION 2.0
 WRAP.                 NO:   ONE LINE PER DEPTH STEP
~WELL INFORMATION
#MNEM.UNIT      DATA TYPE    INFORMATION
#----------   ------------   ------------------------------
 STRT.F          450.0000:   START DEPTH
 STOP.F         3098.0000:   STOP DEPTH
 STEP.F            0.5000:   STEP LENGTH
 NULL.          -999.2500:   NO VALUE
 COMP. FENIX & SCISSON - U.S NAVY:   COMPANY
 WELL. FENIX NPR 3 "AX" #11-33:   WELL
 FLD .              N P R:   FIELD
 LOC .      S33 T39N R78W:   LOCATION
 CNTY.            NATRONA:   COUNTY
 STAT.            WYOMING:   STATE
 CTRY. UNITED STATES OF AMERICA:   COUNTRY
 SRVC.              WELEX:   SERVICE COMPANY
 DATE.        12-MAR-1977:   LOGDATE
 API .     49025103210000:   API NUMBER
~CURVE INFORMATION
#MNEM.UNIT       API CODE    CURVE DESCRIPTION
#----------   ------------   ------------------------------
 DEPT.F                  :   
 CALD.IN     45 280 60 00:   CALIPER FROM DENSITY LOG
 GRD .GAPI   45 310 01 00:   GAMMA RAY FROM DENSITY LOG
 RHOB.G/C3   45 350 01 00:   BULK DENSITY
 CORR.G/C3   45 356 01 00:   DENSITY CORRECTION
 SPR .MV     07 010 01 00:   SPONTANEOUS POTENTIAL
 SGRD.MV     07 010 01 00:   SHALLOW GUARD RESISTIVITY
 ILD .OHMM   07 120 46 00:   DEEP INDUCTION RESISTIVITY
 ILM .OHMM   07 120 44 00:   INDUCTION LOG MEDIUM RESISTIVITY
~PARAMETER INFORMATION
#MNEM.UNIT          VALUE    DESCRIPTION
#----------   ------------   ------------------------------
 EKB .F         5133.0000:   Kelly bushing
 EGL .F         5122.0000:   Ground level
 TD  .F         3130.0000:   Total depth
 DATE.        12-MAR-1977:   Date logged
 CLNT.            A2DTECH:   Client Code
 SL  . 331' FNL & 430' FWL:   Surface Location
 PD  .                 GL:   Permanent Datum
 DD  .F              3130:   Depth driller
 DL  .F              3102:   Depth logger
 BLI .F              3100:   Bottom log interval
 CS1 .IN            8.625:   Casing size
 CBD1.      8.625" @ 459':   Casing driller 1
 CBL1.F               455:   Casing logger 1
 BS1 .IN            7.875:   Bit size
 DFT .                KCL:   Type fluid in hole
 DFD .                9.3:   Density
 DFV .                 36:   Viscosity
 DFL .               16.2:   Fluid loss
 MSS .           FLOWLINE:   Source of sample
 RMS .OHMM           0.37:   Rm
 MST .F                50:   Rm Meas. temp.
 RMF .OHMM           0.32:   Rmf
 MFST.F                55:   Rmf Meas. temp.
 RMC .OHMM           0.58:   Rmc
 MCST.F                55:   Rmc Meas. temp.
 MFSS.               MEAS:   Source Rmf.
 RMB .OHMM           .168:   Rm. at BHT
 BHT .F               110:   BHT.
 TCS .HRS               4:   Time Circ. stopped
 MRT .F               110:   Maximum recorded temp.
 LUN .               0716:   Logging unit number
 LUL .             VERNAT:   Logging unit location
 ENGI.        E. CALLAHAN:   Recorded By
 WITN.            K. JAPP:   Witnessed by
 ORIG.           5" PRINT:   Origin of data
 UWI .     49025103210000:   Unique Well ID
 DICO. A2D TECHNOLOGIES, INC.:   Digitizing Company
 DAPD.F                11:   Feet Above Permanent Datum
 BSD1.               3950:   Depth drilled with bit1
 MCSS.               CALC:   Source Rmc.
 EPD .F              5122:   Elevation Permanent Datum
 LMF .                 KB:   Log Measured From
 DMF .                 KB:   Drilling Measured From
 TLI .F               455:   Top log interval
~OTHER INFORMATION
~A   DEPT       CALD       GRD        RHOB      CORR       SPR       SGRD        ILD        ILM   
# ...
 1503.0000     9.9205   113.7122     2.4950     0.0395   -55.1418     9.7903     7.0900     9.0904
 1503.5000     9.9137   111.7313     2.5040     0.0455   -54.9451     9.8806     7.0898     9.0901
 1504.0000     9.9070   111.5331     2.5090     0.0654   -54.7485     9.8802     7.2883     9.0901
 1504.5000     9.9002   111.5329     2.5150     0.0554   -54.9471     9.8799     7.3556     9.1406
 1505.0000     9.8935   109.9481     2.5310     0.0554   -55.1458     9.8794     7.4235     9.1915
 1505.5000     9.8867   107.3729     2.5227     0.0515   -55.3444     9.8790     7.4919     9.2426
 1506.0000     9.8800   108.9571     2.5145     0.0475   -55.3454     9.8786     7.4917     9.2941
 1506.5000     9.8732   109.5508     2.5080     0.0475   -55.3464     9.8782     7.4914     9.3429
 1507.0000     9.8665   110.7384     2.5175     0.0495   -55.3474     9.8778     7.4912     9.5164
 1507.5000     9.8605   110.3421     2.5260     0.0614   -55.1507     9.9689     7.5602     9.5160
 1508.0000     9.8604   108.7573     2.5340     0.0654   -54.9541    10.0609     7.7006     9.6927
 1508.5000     9.8672   108.5589     2.5290     0.0634   -54.7575    10.9308     7.7717     9.6924
 1509.0000     9.8740   108.7565     2.5300     0.0674   -54.5608    12.2090     7.7714     9.6920
 1509.5000     9.8808   110.9347     2.5340     0.0694   -54.5618    10.6274     7.7711     9.2587
 1510.0000     9.8876   114.3014     2.5310     0.0774   -54.9581    10.2424     7.7709     9.3440
 1510.5000     9.8944   114.3012     2.5170     0.0574   -55.3543    10.3410     7.7706     9.3438
 1511.0000     9.9012   112.3200     2.5090     0.0475   -55.3553    10.5330     7.7703     9.6016
 1511.5000     9.9080   111.3293     2.5070     0.0415   -55.1587    10.3400     7.7701     9.6013
 1512.0000     9.9148   112.5173     2.4960     0.0355   -55.1597    10.2449     7.7697     9.6010
 1512.5000     9.9193   112.9131     2.4980     0.0335   -55.1607    10.0574     7.7694     9.6005
 1513.0000     9.9193   113.9031     2.5030     0.0355   -55.1616    10.0571     7.5572     9.5122
 1513.5000     9.9259   114.4970     2.5070     0.0375   -54.9650    10.0567     7.3508     9.4246
 1514.0000     9.9326   115.0908     2.5180     0.0495   -54.7682    10.0563     7.3506     9.4275
 1514.5000     9.9392   116.0809     2.5220     0.0574   -54.7692    10.0558     7.1498     9.4274
 1515.0000     9.9458   116.4767     2.5200     0.0654   -54.9678     9.9631     6.8907     9.4270
 1515.5000     9.9525   118.6552     2.5180     0.0654   -54.9688     9.8713     6.5197     9.3402
 1516.0000     9.9591   120.0414     2.5090     0.0534   -54.9698     9.6906     6.2259     9.3399
 1516.5000     9.9657   119.0508     2.5070     0.0435   -54.9708     9.6014     5.9452     9.2537
 1517.0000     9.9724   117.6639     2.5020     0.0395   -54.7741     9.4257     5.8344     9.2535
 1517.5000     9.9790   116.6731     2.5060     0.0495   -54.7751     9.4253     5.9429     9.1681
 1518.0000     9.9857   116.0785     2.5070     0.0475   -54.5785     9.4250     6.3973     9.1678
 1518.5000     9.9923   116.0781     2.5100     0.0455   -54.3819     9.4246     6.7632     9.0834
 1519.0000     9.9979   114.6911     2.5250     0.0594   -54.3829     9.6884     8.5121     8.9996
 1519.5000    10.0177   114.2946     2.5170     0.0515   -54.3839     9.8682     8.2829     8.9993
 1520.0000    10.0176   113.3037     2.5120     0.0534   -54.5825    10.0515     7.7651     8.9989
 1520.5000    10.0374   113.3034     2.5300     0.0554   -54.7811    10.0511     7.4152     8.9988
 1521.0000    10.0571   114.4916     2.5360     0.0594   -54.9797    10.0507     7.2795     8.9983
 1521.5000    10.0571   115.0856     2.5460     0.0554   -55.1783     9.8668     7.2792     8.9980
 1522.0000    10.0966   116.0758     2.5240     0.0574   -55.3770     9.7758     7.2790     9.0809
 1522.5000    10.0966   116.0756     2.5360     0.0594   -55.1803     9.7756     7.5520     9.0807
 1523.0000    10.0965   115.0845     2.5430     0.0674   -55.1813     9.7750     7.6922     9.0804
 1523.5000    10.1163   115.0842     2.5460     0.0694   -55.1823     9.7746     7.6919     9.0800
 1524.0000    10.0766   114.4894     2.5529     0.0594   -55.1833     9.7743     7.8348     9.3339
 1524.5000    10.0567   114.4892     2.5300     0.0574   -55.1843    10.1409     7.8345     9.3336
 1525.0000    10.0170   114.4888     2.5340     0.0674   -55.7782    10.8162     7.8342    10.1365
 1525.5000    10.0170   114.4885     2.5330     0.0674   -55.7792    11.8600     7.8340     9.3329
 1526.0000     9.9773   115.2806     2.5210     0.0594   -55.5825    12.9985     7.8336     9.3326
 1526.5000     9.9772   116.0728     2.5400     0.0774   -55.1883     9.8628     7.6902     9.3322
 1527.0000     9.9574   114.4875     2.5350     0.0774   -55.3869     9.7720     7.6900     9.3318
 1527.5000     9.9375   115.2795     2.5290     0.0534   -55.5855     9.7716     7.6898     9.3316
 1528.0000     9.9770   115.6755     2.5030     0.0455   -55.1913     9.6817     7.6894     9.2457
 1528.5000     9.9968   113.0994     2.5110     0.0475   -55.1922     9.6813     7.6892     9.2453
 1529.0000    10.0166   112.9010     2.5210     0.0515   -55.1932     9.6810     7.6889     9.2450
 1529.5000    10.0363   113.2968     2.5330     0.0574   -55.1942     9.6806     7.6886     9.1597
 1530.0000    10.0363   110.1263     2.5360     0.0754   -55.1952     9.5915     7.6883     9.1594
 1530.5000    10.0560   108.5409     2.5290     0.0634   -55.1962     9.9511     7.6880     9.1592
 1531.0000    10.0559   109.7292     2.5182     0.0554   -55.1972    10.3243     7.6877     9.5867
 1531.5000    10.0559   110.3232     2.5050     0.0574   -55.3958    10.7116     7.6876     9.7647
 1532.0000    10.0162   111.1154     2.5180     0.0594   -55.3968    10.7111     7.6873     9.8547
 1532.5000     9.9963   112.7003     2.5500     0.0814   -55.3978    10.3230     7.6869     9.1575
 1533.0000     9.9366   113.0962     2.5400     0.0874   -55.3986    10.1342     7.6867     9.1573
 1533.5000     9.9366   113.0958     2.5270     0.0734   -55.2020     9.8575     7.6864     9.1570
 1534.0000     9.9167   113.0955     2.5160     0.0634   -54.8077     9.8571     7.6860     9.1565
 1534.5000     9.9167   110.3209     2.5260     0.0674   -54.8087     9.7663     7.6153     9.1563
 1535.0000     9.9166   110.3206     2.5370     0.0794   -55.0073     9.7659     7.5452     9.1559
 1535.5000     9.9165   109.1310     2.5280     0.0814   -55.2060     9.7656     7.4757     9.1556
 1536.0000     9.9165   109.1308     2.5480     0.0774   -55.4046     9.7651     7.4069     9.1552
 1536.5000     9.9209   109.7247     2.5559     0.0794   -55.0103     9.7648     7.3387     9.1549
 1537.0000     9.9253   109.7243     2.5559     0.0814   -54.8137     9.8548     7.2711     9.0705
 1537.5000     9.9297   110.1203     2.5529     0.1014   -54.8147     9.8545     7.2041     9.0702
 1538.0000     9.9341   110.7144     2.5320     0.0834   -54.8157     9.9453     7.1378     9.0698
 1538.5000     9.9385   111.1103     2.5410     0.0774   -54.8167    10.0369     7.1376     9.0695
 1539.0000     9.9429   113.2899     2.5320     0.0674   -54.8177    10.0365     7.1373     9.0692
 1539.5000     9.9473   114.4786     2.5250     0.0694   -54.8187     9.8528     7.1371     9.0687
 1540.0000     9.9518   115.6673     2.5400     0.0754   -54.8196     9.7621     7.1368     9.0684
 1540.5000     9.9556   114.2797     2.5330     0.0614   -55.0183     9.7617     7.1366     9.0682
 1541.0000     9.9357   116.4593     2.5260     0.0594   -54.8216     9.9429     7.2023     9.3180
 1541.5000     9.9311   114.2790     2.5400     0.0684   -54.6250    10.2211     7.3361     9.4040
 1542.0000     9.9264   116.4585     2.5480     0.0604   -54.8236    10.4108     7.4721     9.4907
 1542.5000     9.9218   115.6656     2.5330     0.0534   -54.6270    10.4103     7.4719     9.1506
 1543.0000     9.9171   114.4761     2.5250     0.0455   -54.6280    10.4100     7.5408     9.1502
