~VERSION INFORMATION
 VERS.                2.0:   CWLS LOG ASCII STANDARD - VERSION 2.0
 WRAP.                 NO:   ONE LINE PER DEPTH STEP
~WELL INFORMATION
#MNEM.UNIT      DATA TYPE    INFORMATION
#----------   ------------   ------------------------------
 STRT.F           76.0000:   START DEPTH
 STOP.F         4972.0000:   STOP DEPTH
 STEP.F            0.5000:   STEP LENGTH
 NULL.          -999.2500:   NO VALUE
 COMP.    PENIX & SCISSON:   COMPANY
 WELL. FENIX NPR 3 "LX" #85-9:   WELL
 FLD .                NPR:   FIELD
 LOC .       S9 T38N R78W:   LOCATION
 CNTY.            NATRONA:   COUNTY
 STAT.            WYOMING:   STATE
 CTRY. UNITED STATES OF AMERICA:   COUNTRY
 SRVC.       SCHLUMBERGER:   SERVICE COMPANY
 DATE.        10-OCT-1978:   LOGDATE
 API .     49025107250000:   API NUMBER
~CURVE INFORMATION
#MNEM.UNIT       API CODE    CURVE DESCRIPTION
#----------   ------------   ------------------------------
 DEPT.F                  :   
 TENR.LBS    07 635 01 00:   TENSION FROM RESISTIVITY
 SPR .MV     07 010 01 00:   SPONTANEOUS POTENTIAL
 SFL .OHMM   07 220 01 00:   SHALLOW FOCUSED LOG RESISTIVITY
 ILD .OHMM   07 120 46 00:   DEEP INDUCTION RESISTIVITY
 ILM .OHMM   07 120 44 00:   INDUCTION LOG MEDIUM RESISTIVITY
 CALD.IN     45 280 60 00:   CALIPER FROM DENSITY LOG
 GRD .GAPI   45 310 01 00:   GAMMA RAY FROM DENSITY LOG
 CORR.G/C3   45 356 01 00:   DENSITY CORRECTION
 TEND.LBS    45 635 01 00:   TENSION FROM DENSITY LOG
 RHOB.G/C3   45 350 01 00:   BULK DENSITY
 NPHI.DEC    42 890 03 00:   NEUTRON POROSITY SANDSTONE
~PARAMETER INFORMATION
#MNEM.UNIT          VALUE    DESCRIPTION
#----------   ------------   ------------------------------
 EKB .F         5288.0000:   Kelly bushing
 EGL .F         5278.0000:   Ground level
 EDF .F            0.0000:   Drilling floor
 TD  .F         4950.0000:   Total depth
 DATE.        10-OCT-1978:   Date logged
 CLNT.            A2DTECH:   Client Code
 SL  . 2310' FSL & 230' FEL:   Surface Location
 PD  .                 GL:   Permanent Datum
 EPD .F              5278:   Elevation Permanent Datum
 LMF .                 KB:   Log Measured From
 DMF .                 KB:   Drilling Measured From
 DAPD.F                10:   Feet Above Permanent Datum
 DD  .F              4950:   Depth driller
 DL  .F              4950:   Depth logger
 BLI .F              4947:   Bottom log interval
 TLI .F               499:   Top log interval
 CS1 .IN            8.625:   Casing size
 CBD1.      8.625" @ 489':   Casing driller 1
 CBL1.F               499:   Casing logger 1
 BS1 .IN            7.875:   Bit size
 BSD1.F              4950:   Depth drilled with bit1
 DFT .            GEL/MUD:   Type fluid in hole
 DFD .                9.3:   Density
 DFV .                175:   Viscosity
 DFPH.                 12:   pH
 DFL .                  4:   Fluid loss
 MSS .               TANK:   Source of sample
 RMS .OHMM           .600:   Rm
 MST .F                71:   Rm Meas. temp.
 RMF .OHMM           .804:   Rmf
 MFST.F                71:   Rmf Meas. temp.
 MFSS.               MEAS:   Source Rmf.
 RMB .OHMM           .308:   Rm. at BHT
 BHT .F               138:   BHT.
 TCS .HRS            1200:   Time Circ. stopped
 TLAB.HRS            0330:   Time logger at bottom
 MRT .F               138:   Maximum recorded temp.
 LUN .               8035:   Logging unit number
 LUL .               CSPR:   Logging unit location
 ENGI.        CRAIG/DFARR:   Recorded By
 WITN.              AMEND:   Witnessed by
 ORIG.           5" PRINT:   Origin of data
 UWI .     49025107250000:   Unique Well ID
 DICO. A2D TECHNOLOGIES, INC.:   Digitizing Company
~OTHER INFORMATION
~A   DEPT     TENR        SPR        SFL        ILD        ILM       CALD         GRD      CORR       TEND       RHOB         NPHI 
# ...
 4620.5000  2179.1130   -19.5370     4.1150     2.8500     3.3090     9.2130   116.4160     0.1630  2275.9021     2.7290     0.3270
 4621.0000  2179.3521   -19.6390     4.3760     2.8230     3.1490     9.3950   121.9590     0.2470  2271.8049     2.6930     0.3430
 4621.5000  2179.5920   -19.6450     4.0700     2.7940     2.9770     9.5590   124.5680     0.2490  2267.7070     2.6400     0.3720
 4622.0000  2179.8311   -19.6420     3.8410     2.7650     2.8060     9.7460   125.1900     0.2500  2263.6101     2.5560     0.3930
 4622.5000  2180.0701   -19.6310     3.4140     2.7180     2.6870     9.7060   126.6710     0.2500  2259.5120     2.4690     0.4060
 4623.0000  2180.3091   -19.3830     2.9710     2.6390     2.6640     9.4880   128.6510     0.2190  2256.0979     2.3970     0.3970
 4623.5000  2180.5481   -19.1180     2.9950     2.5610     2.6420     9.2910   130.9930     0.2130  2257.0540     2.4240     0.3870
 4624.0000  2180.7881   -18.8450     3.0430     2.4820     2.6190     9.2480   133.2840     0.2140  2257.8730     2.4460     0.3780
 4624.5000  2181.0271   -18.5770     3.0900     2.4040     2.5970     9.2440   130.5270     0.2140  2258.6931     2.4570     0.3680
 4625.0000  2181.2661   -18.3070     3.1290     2.3260     2.5390     9.2700   127.6650     0.2130  2259.5120     2.4530     0.3810
 4625.5000  2181.5049   -18.0390     3.0530     2.2370     2.4800     9.3670   124.5680     0.1980  2260.3320     2.4490     0.3890
 4626.0000  2181.7439   -17.7670     2.9900     2.2370     2.4220     9.5230   121.4340     0.1850  2261.1509     2.4500     0.3890
 4626.5000  2181.9839   -17.4980     2.9270     2.2670     2.3650     9.6990   116.4650     0.1720  2261.9709     2.4610     0.3890
 4627.0000  2182.2229   -17.2370     2.9040     2.3400     2.4180     9.5230   111.8600     0.1590  2262.7900     2.4830     0.3890
 4627.5000  2182.4619   -16.9400     2.9040     2.4100     2.5010     9.2360   112.7590     0.1930  2263.6101     2.5270     0.3890
 4628.0000  2182.7009   -17.0210     3.0420     2.4000     2.5840     9.3020   117.3970     0.2430  2264.4290     2.6130     0.3710
 4628.5000  2182.9399   -17.3390     3.2560     2.3840     2.6950     9.4090   123.8110     0.2470  2265.2490     2.6910     0.3430
 4629.0000  2183.1799   -17.6180     3.4990     2.3650     2.6380     9.5320   128.4130     0.2490  2266.0681     2.6150     0.3620
 4629.5000  2183.4189   -17.9070     3.4210     2.3650     2.5520     9.4410   129.7570     0.2490  2266.8879     2.5440     0.3800
 4630.0000  2183.6580   -18.1930     3.2540     2.4390     2.4550     9.2960   130.1750     0.2350  2267.7070     2.5030     0.3980
 4630.5000  2183.8970   -18.4220     3.0880     2.5070     2.5350     9.1340   124.7330     0.1830  2268.5271     2.4830     0.4150
 4631.0000  2184.1360   -18.2310     2.8500     2.5760     2.6990     9.0650   119.7130     0.1270  2269.3459     2.4710     0.4100
 4631.5000  2184.3760   -18.0870     2.8730     2.6440     2.8640     8.9740   113.7570     0.0640  2270.1660     2.4650     0.3950
 4632.0000  2184.6150   -18.3350     3.1210     2.7130     3.0280     9.0120   112.8000     0.0470  2270.9851     2.5560     0.3220
 4632.5000  2184.8540   -18.5850     3.8210     2.8070     3.1930     9.0590   116.9000     0.0650  2271.8049     2.6180     0.2830
 4633.0000  2185.0930   -18.8230     4.5210     2.9250     3.3570     9.1110   124.5960     0.0790  2272.6240     2.6540     0.2700
 4633.5000  2185.3320   -19.0950     5.2200     3.0430     3.5650     9.1650   126.5280     0.0850  2273.4441     2.6300     0.2650
 4634.0000  2185.5720   -19.3560     5.7890     3.1610     3.5180     9.2200   127.2080     0.0950  2274.2629     2.6080     0.2580
 4634.5000  2185.8110   -19.4670     5.3230     3.3090     3.3820     9.2830   127.8070     0.1930  2275.0830     2.6180     0.2900
 4635.0000  2186.0500   -18.9580     4.8310     3.2560     3.2460     9.3440   129.2280     0.2500  2275.9021     2.6070     0.3110
 4635.5000  2186.2891   -18.5580     4.3380     3.1070     3.1090     9.4040   131.9450     0.2490  2276.7219     2.5670     0.3420
 4636.0000  2186.5281   -18.1190     3.8460     2.9580     2.9730     9.4710   132.1890     0.2230  2277.5410     2.5270     0.3870
 4636.5000  2186.7681   -17.6960     3.3530     2.8100     2.8370     9.4520   129.9500     0.1900  2278.3611     2.4840     0.3800
 4637.0000  2187.0071   -17.2910     3.1310     2.6610     2.7010     9.3820   128.1650     0.1710  2279.1799     2.4760     0.3670
 4637.5000  2187.2461   -17.3480     3.0710     2.5130     2.6450     9.3840   127.5770     0.1820  2280.0000     2.4880     0.3520
 4638.0000  2187.4851   -17.4210     3.0710     2.3650     2.6160     9.4150   128.3160     0.1970  2280.8201     2.5130     0.3480
 4638.5000  2187.7241   -17.5120     3.0710     2.4300     2.6030     9.4420   128.3390     0.2050  2281.6389     2.5410     0.3790
 4639.0000  2187.9641   -17.5890     3.0710     2.5360     2.6340     9.3850   124.2150     0.1760  2282.4590     2.5320     0.4130
 4639.5000  2188.2029   -17.7440     3.0710     2.6410     2.7800     9.3200   118.6760     0.1260  2283.2781     2.5200     0.4070
 4640.0000  2188.4419   -18.0990     3.0710     2.7470     2.9950     9.2510   114.9510     0.0760  2284.0979     2.5200     0.3810
 4640.5000  2188.6809   -18.4560     3.9590     2.8520     3.2100     9.1860   116.3770     0.0480  2284.9170     2.5830     0.2820
 4641.0000  2188.9199   -18.8160     4.8130     2.9580     3.4990     9.1290   119.3900     0.0740  2285.7371     2.6080     0.2830
 4641.5000  2189.1599   -19.1560     6.1220     3.0630     3.4810     9.1210   123.6690     0.1020  2286.5559     2.5900     0.2880
 4642.0000  2189.3989   -19.5610     5.8180     3.1690     3.4540     9.1140   127.7060     0.1130  2287.3760     2.5630     0.3020
 4642.5000  2189.6379   -19.3530     5.1690     3.2750     3.4340     9.1090   129.9200     0.0940  2288.1951     2.5330     0.3200
 4643.0000  2189.8770   -18.7860     4.5200     3.3710     3.5410     9.1030   131.1870     0.0590  2289.0149     2.5030     0.3190
 4643.5000  2190.1160   -18.5100     4.0620     3.4210     3.6630     9.0970   130.5780     0.0340  2289.8340     2.4860     0.3180
 4644.0000  2190.3560   -18.7220     4.0620     3.4930     3.7840     9.0920   128.8820     0.0310  2290.6541     2.4780     0.3170
 4644.5000  2190.5950   -18.9040     4.5520     3.5640     3.9060     9.0800   127.1120     0.0270  2291.4729     2.4810     0.3040
 4645.0000  2190.8340   -19.1360     4.9960     3.6360     4.0270     9.0610   126.2000     0.0220  2292.2930     2.4870     0.2920
 4645.5000  2191.0730   -19.1420     5.4410     3.7080     4.1480     9.0410   125.8970     0.0180  2293.1121     2.5010     0.2780
 4646.0000  2191.3120   -18.7500     5.8850     3.7800     4.2700     9.0190   125.8120     0.0170  2293.9319     2.5150     0.2770
 4646.5000  2191.5520   -18.3910     6.3540     3.8520     4.3910     9.0070   125.9160     0.0150  2294.7510     2.5130     0.2870
 4647.0000  2191.7910   -18.0220     6.4740     3.9130     4.5430     9.0080   128.3720     0.0140  2295.5710     2.5120     0.2930
 4647.5000  2192.0300   -17.6520     6.0970     4.0620     4.5110     9.0080   130.9330     0.0120  2296.3899     2.5100     0.2970
 4648.0000  2192.2690   -17.2800     5.7700     4.0620     4.4220     9.0080   133.6120     0.0140  2297.3679     2.5090     0.3000
 4648.5000  2192.5081   -16.9210     5.4430     4.0620     4.3330     9.0080   136.2420     0.0170  2298.4700     2.5010     0.3120
 4649.0000  2192.7480   -16.5530     5.1760     4.0620     4.0620     9.0080   138.3330     0.0190  2299.5710     2.4940     0.3200
 4649.5000  2192.9871   -16.6410     5.1130     4.0620     4.1830     9.0080   138.8280     0.0150  2300.6721     2.4880     0.3030
 4650.0000  2193.2261   -16.8740     5.0800     4.1600     4.3380     9.0080   139.2280     0.0070  2301.7729     2.5000     0.2620
 4650.5000  2193.4651   -17.1090     5.8200     4.2600     4.4920     9.0080   139.6890     0.0130  2302.8740     2.5340     0.2350
