~VERSION INFORMATION
 VERS.                2.0:   CWLS LOG ASCII STANDARD - VERSION 2.0
 WRAP.                 NO:   ONE LINE PER DEPTH STEP
~WELL INFORMATION
#MNEM.UNIT      DATA TYPE    INFORMATION
#----------   ------------   ------------------------------
 STRT.F         2200.0000:   START DEPTH
 STOP.F         2735.0000:   STOP DEPTH
 STEP.F            0.5000:   STEP LENGTH
 NULL.          -999.2500:   NO VALUE
 COMP.          U.S. NAVY:   COMPANY
 WELL.       U.S. #403-20:   WELL
 FLD .        TEAPOT DOME:   FIELD
 LOC .      S20 T39N R78W:   LOCATION
 CNTY.            NATRONA:   COUNTY
 STAT.            WYOMING:   STATE
 CTRY. UNITED STATES OF AMERICA:   COUNTRY
 SRVC.         MCCULLOUGH:   SERVICE COMPANY
 DATE.        28-SEP-1965:   LOGDATE
 API .     49025095330000:   API NUMBER
~CURVE INFORMATION
#MNEM.UNIT       API CODE    CURVE DESCRIPTION
#----------   ------------   ------------------------------
 DEPT.F                  :   
 GR  .GAPI   30 310 01 00:   GAMMA RAY
 CALI.IN     70 280 01 00:   CALIPER
~PARAMETER INFORMATION
#MNEM.UNIT          VALUE    DESCRIPTION
#----------   ------------   ------------------------------
 EKB .F            0.0000:   Kelly bushing
 EGL .F            0.0000:   Ground level
 EDF .F            0.0000:   Drilling floor
 TD  .F         2749.0000:   Total depth
 DATE.        28-SEP-1965:   Date logged
 CLNT.            A2DTECH:   Client Code
 PD  .                 GL:   Permanent Datum
 EPD .F                 0:   Elevation Permanent Datum
 LMF .                 GL:   Log Measured From
 DMF .                 GL:   Drilling Measured From
 DD  .F              2749:   Depth driller
 DL  .F              2731:   Depth logger
 BLI .F              2729:   Bottom log interval
 TLI .F              2200:   Top log interval
 CS1 .IN           5.3125:   Casing size
 CBD1.    5.3125" @ 2720':   Casing driller 1
 BS1 .IN                5:   Bit size
 BSD1.F              2749:   Depth drilled with bit1
 DFT .              WATER:   Type fluid in hole
 TCS .HRS               1:   Time Circ. stopped
 LUN .               2146:   Logging unit number
 ENGI.        FITZSIMMOMS:   Recorded By
 ORIG.           5" PRINT:   Origin of data
 UWI .     49025095330000:   Unique Well ID
 DICO. A2D TECHNOLOGIES, INC.:   Digitizing Company
~OTHER INFORMATION
~A  DEPT         GR      CALI   
# ...
 2321.5000    46.7360     6.6480
 2322.0000    35.5740     6.6470
 2322.5000    39.0620     6.6470
 2323.0000    45.6650     6.6470
 2323.5000    43.4400     6.6490
 2324.0000    41.4830     6.6510
 2324.5000    39.7120     6.6530
 2325.0000    39.0680     6.6550
 2325.5000    38.5280     6.6570
 2326.0000    39.1410     6.6570
 2326.5000    38.8980     6.6570
 2327.0000    38.3620     6.6570
 2327.5000    39.8540     6.6570
 2328.0000    41.5110     6.6570
 2328.5000    41.2600     6.6460
 2329.0000    39.5740     6.6460
 2329.5000    37.7470     6.6450
 2330.0000    37.5810     6.6430
 2330.5000    40.9150     6.6410
 2331.0000    41.1140     6.6400
 2331.5000    41.3170     6.6380
 2332.0000    41.0730     6.6360
 2332.5000    36.9180     6.6340
 2333.0000    39.3220     6.6330
 2333.5000    43.8260     6.6310
 2334.0000    48.0520     6.6300
 2334.5000    48.8320     6.6290
 2335.0000    46.0920     6.6190
 2335.5000    43.7260     6.6250
 2336.0000    44.5460     6.6410
 2336.5000    47.8830     6.6780
 2337.0000    49.3680     6.6620
 2337.5000    50.3750     6.6370
 2338.0000    54.1530     6.6370
 2338.5000    58.2240     6.6370
 2339.0000    56.7150     6.6370
 2339.5000    55.2940     6.6490
 2340.0000    60.6860     6.6380
 2340.5000    58.8000     6.6400
 2341.0000    58.6810     6.6410
 2341.5000    55.1090     6.6430
 2342.0000    56.5430     6.6440
 2342.5000    59.0360     6.6460
 2343.0000    59.6030     6.6470
 2343.5000    60.3770     6.6450
 2344.0000    62.1820     6.6440
 2344.5000    56.8340     6.6420
 2345.0000    59.2850     6.6410
 2345.5000    57.4260     6.6400
 2346.0000    54.5040     6.6380
 2346.5000    56.4790     6.6370
 2347.0000    60.1840     6.6380
 2347.5000    63.5750     6.6380
 2348.0000    63.0580     6.6270
 2348.5000    63.1210     6.6290
 2349.0000    64.4670     6.6300
 2349.5000    60.1700     6.6320
 2350.0000    61.6840     6.6330
 2350.5000    63.6160     6.6340
 2351.0000    62.6990     6.6360
 2351.5000    61.7430     6.6370
 2352.0000    56.8350     6.6370
 2352.5000    58.0960     6.6350
 2353.0000    55.6290     6.6330
 2353.5000    54.6980     6.6320
 2354.0000    56.3820     6.6300
 2354.5000    58.6540     6.6280
 2355.0000    57.1560     6.6270
 2355.5000    58.3650     6.6310
 2356.0000    58.9690     6.6350
 2356.5000    54.2970     6.6480
 2357.0000    51.7880     6.6590
 2357.5000    54.9830     6.6670
 2358.0000    54.7500     6.6770
 2358.5000    52.2240     6.6170
 2359.0000    50.3080     6.6170
 2359.5000    51.6270     6.6180
 2360.0000    52.9450     6.6170
 2360.5000    53.4740     6.6150
 2361.0000    55.2420     6.6140
 2361.5000    57.5110     6.6130
 2362.0000    63.6480     6.6110
 2362.5000    61.5020     6.6100
 2363.0000    58.8260     6.6080
 2363.5000    58.6840     6.6080
 2364.0000    56.2840     6.6080
 2364.5000    57.6870     6.6080
 2365.0000    57.4900     6.6080
 2365.5000    56.7540     6.6080
 2366.0000    57.0870     6.6080
 2366.5000    56.7770     6.6080
 2367.0000    54.6090     6.6080
 2367.5000    52.6640     6.6080
 2368.0000    53.0170     6.6080
 2368.5000    54.3000     6.6080
 2369.0000    56.8470     6.6080
 2369.5000    62.2000     6.6080
 2370.0000    61.8270     6.6080
 2370.5000    60.7060     6.6080
 2371.0000    58.6950     6.6080
 2371.5000    57.8300     6.6080
 2372.0000    56.0910     6.6080
 2372.5000    52.8770     6.6080
 2373.0000    52.4240     6.6080
 2373.5000    52.9890     6.6080
 2374.0000    54.0280     6.6070
 2374.5000    53.7380     6.6000
 2375.0000    55.4310     6.5990
 2375.5000    55.6490     6.6030
 2376.0000    53.8090     6.6070
 2376.5000    53.1750     6.6080
 2377.0000    53.9480     6.6080
 2377.5000    55.6810     6.6080
 2378.0000    58.1690     6.6070
 2378.5000    58.3990     6.6070
 2379.0000    58.1160     6.6190
 2379.5000    56.2090     6.6330
 2380.0000    54.6310     6.6370
 2380.5000    57.0790     6.6320
 2381.0000    58.4550     6.6280
 2381.5000    61.8440     6.6230
 2382.0000    58.1580     6.6190
 2382.5000    53.2630     6.6140
 2383.0000    51.1940     6.6090
 2383.5000    49.9980     6.6080
 2384.0000    51.0960     6.6090
 2384.5000    54.2320     6.6090
 2385.0000    49.4150     6.6100
 2385.5000    50.4590     6.6110
 2386.0000    53.4570     6.6110
 2386.5000    56.7480     6.6120
 2387.0000    52.3850     6.6130
 2387.5000    49.6910     6.6130
 2388.0000    47.8580     6.6140
 2388.5000    50.4860     6.6140
 2389.0000    51.2890     6.6150
 2389.5000    50.2780     6.6160
 2390.0000    49.6580     6.6160
 2390.5000    55.5060     6.6170
 2391.0000    56.9120     6.6180
 2391.5000    54.9730     6.6180
 2392.0000    51.7320     6.6180
 2392.5000    51.4820     6.6180
 2393.0000    48.0990     6.6180
 2393.5000    48.6480     6.6180
 2394.0000    49.1620     6.6180
 2394.5000    47.8010     6.6180
 2395.0000    48.0630     6.6180
 2395.5000    48.4100     6.6180
 2396.0000    50.0280     6.6180
 2396.5000    50.8710     6.6180
 2397.0000    48.0970     6.6180
 2397.5000    45.3550     6.6180
 2398.0000    46.6410     6.6200
 2398.5000    47.0020     6.6290
 2399.0000    46.4440     6.6370
 2399.5000    47.0550     6.6370
 2400.0000    46.7090     6.6370
 2400.5000    46.9820     6.6370
 2401.0000    47.2530     6.6370
 2401.5000    47.5130     6.6280
 2402.0000    47.3160     6.6270
 2402.5000    46.5560     6.6270
 2403.0000    48.3140     6.6270
 2403.5000    48.3450     6.6270
 2404.0000    48.5710     6.6270
 2404.5000    51.6600     6.6270
 2405.0000    49.6130     6.6270
 2405.5000    51.2990     6.6270
 2406.0000    54.2120     6.6270
 2406.5000    53.0560     6.6260
 2407.0000    56.5710     6.6260
 2407.5000    54.1570     6.6260
 2408.0000    52.9990     6.6250
 2408.5000    53.6280     6.6250
 2409.0000    53.0090     6.6250
 2409.5000    55.9600     6.6240
 2410.0000    59.3370     6.6240
 2410.5000    61.4530     6.6240
 2411.0000    62.9540     6.6230
 2411.5000    64.1810     6.6230
 2412.0000    57.6780     6.6230
 2412.5000    51.3460     6.6220
 2413.0000    51.3730     6.6220
 2413.5000    51.0010     6.6220
 2414.0000    48.6480     6.6210
 2414.5000    46.1390     6.6210
 2415.0000    49.7930     6.6200
 2415.5000    54.7000     6.6200
 2416.0000    56.5210     6.6200
 2416.5000    55.7310     6.6190
 2417.0000    61.4560     6.6190
 2417.5000    62.0280     6.6190
 2418.0000    60.8430     6.6180
 2418.5000    59.3870     6.6180
 2419.0000    60.3920     6.6180
 2419.5000    58.7550     6.6270
 2420.0000    59.5610     6.6390
 2420.5000    54.5430     6.6420
 2421.0000    54.3820     6.6440
 2421.5000    55.0010     6.6470
 2422.0000    53.8230     6.6430
 2422.5000    52.1200     6.6280
 2423.0000    51.4930     6.6170
 2423.5000    55.0670     6.6180
 2424.0000    57.5290     6.6180
 2424.5000    59.4140     6.6180
 2425.0000    58.0910     6.6180
 2425.5000    62.3380     6.6180
 2426.0000    61.1910     6.6180
 2426.5000    60.0450     6.6180
 2427.0000    62.8810     6.6180
 2427.5000    62.4720     6.6180
 2428.0000    60.8820     6.6180
 2428.5000    60.1750     6.6180
 2429.0000    60.9380     6.6180
 2429.5000    53.2220     6.6180
 2430.0000    55.6160     6.6180
 2430.5000    53.5010     6.6180
 2431.0000    55.1440     6.6180
 2431.5000    56.3190     6.6180
 2432.0000    58.8500     6.6180
 2432.5000    56.9760     6.6180
 2433.0000    58.1180     6.6180
 2433.5000    56.6200     6.6180
 2434.0000    61.1890     6.6180
 2434.5000    63.0100     6.6180
 2435.0000    62.1250     6.6180
 2435.5000    58.7110     6.6180
 2436.0000    55.1830     6.6180
 2436.5000    56.1520     6.6180
 2437.0000    60.1430     6.6180
 2437.5000    58.6300     6.6180
 2438.0000    56.3840     6.6180
 2438.5000    65.2890     6.6170
 2439.0000    63.6180     6.6210
 2439.5000    63.9970     6.6250
 2440.0000    60.0080     6.6290
 2440.5000    61.2020     6.6340
 2441.0000    61.2540     6.6380
 2441.5000    60.7390     6.6420
 2442.0000    59.6930     6.6470
 2442.5000    55.4610     6.6580
