~VERSION INFORMATION
 VERS.                2.0:   CWLS LOG ASCII STANDARD - VERSION 2.0
 WRAP.                 NO:   ONE LINE PER DEPTH STEP
~WELL INFORMATION
#MNEM.UNIT      DATA TYPE    INFORMATION
#----------   ------------   ------------------------------
 STRT.F          190.0000:   START DEPTH
 STOP.F         2998.5000:   STOP DEPTH
 STEP.F            0.5000:   STEP LENGTH
 NULL.          -999.2500:   NO VALUE
 COMP.    FENIX & SCISSON:   COMPANY
 WELL.   FENIX "A" #52-28:   WELL
 FLD .        TEAPOT DOME:   FIELD
 LOC .      S28 T39N R78W:   LOCATION
 CNTY.            NATRONA:   COUNTY
 STAT.            WYOMING:   STATE
 CTRY. UNITED STATES OF AMERICA:   COUNTRY
 SRVC.           BIRDWELL:   SERVICE COMPANY
 DATE.        14-AUG-1977:   LOGDATE
 API .     49025104130000:   API NUMBER
~CURVE INFORMATION
#MNEM.UNIT       API CODE    CURVE DESCRIPTION
#----------   ------------   ------------------------------
 DEPT.F                  :   
 SPR .MV     05 010 01 00:   SPONTANEOUS POTENTIAL FROM RES.
 SN  .OHMM   05 040 16 00:   SHORT NORMAL 16"
 ILD .OHMM   05 120 46 00:   INDUCTION LOG DEEP
 GRD .GAPI   45 310 01 00:   GAMMA RAY FROM DENSITY LOG
 CALD.IN     45 280 60 00:   CALIPER FROM DENSITY LOG
 RHOB.G/C3   45 350 01 00:   BULK DENSITY
 CORR.G/C3   45 356 01 00:   DENSITY CORRECTION
~PARAMETER INFORMATION
#MNEM.UNIT          VALUE    DESCRIPTION
#----------   ------------   ------------------------------
 EKB .F         5026.0000:   Kelly bushing
 EGL .F         5016.0000:   Ground level
 EDF .F            0.0000:   Drilling floor
 TD  .F         3000.0000:   Total depth
 DATE.        14-AUG-1977:   Date logged
 CLNT.            A2DTECH:   Client Code
 SL  . 990' FNL & 2310' FEL:   Surface Location
 PD  .                 GL:   Permanent Datum
 EPD .F              5016:   Elevation Permanent Datum
 LMF .                 KB:   Log Measured From
 DMF .                 KB:   Drilling Measured From
 DAPD.F                10:   Feet Above Permanent Datum
 DD  .F              3000:   Depth driller
 DL  .F              3000:   Depth logger
 BLI .F              2994:   Bottom log interval
 TLI .F               214:   Top log interval
 CS1 .IN            8.625:   Casing size
 CBD1.      8.625" @ 214':   Casing driller 1
 CBL1.F               212:   Casing logger 1
 BS1 .IN            7.875:   Bit size
 BSD1.F              3000:   Depth drilled with bit1
 DFT .                KCL:   Type fluid in hole
 DFD .                8.8:   Density
 DFV .                 30:   Viscosity
 DFPH.               10.5:   pH
 DFL .               10.4:   Fluid loss
 MSS .           FLOWLINE:   Source of sample
 RMS .OHMM           0.13:   Rm
 MST .F                82:   Rm Meas. temp.
 RMF .OHMM           0.12:   Rmf
 MFST.F                72:   Rmf Meas. temp.
 RMC .OHMM           0.16:   Rmc
 MCST.F                72:   Rmc Meas. temp.
 MFSS.               MEAS:   Source Rmf.
 MCSS.               MEAS:   Source Rmc.
 TCS .HRS               4:   Time Circ. stopped
 LUN .               2958:   Logging unit number
 LUL .             CASPER:   Logging unit location
 ENGI.                LAW:   Recorded By
 WITN.         PETTINGILL:   Witnessed by
 ORIG.           5" PRINT:   Origin of data
 UWI .     49025104130000:   Unique Well ID
 DICO. A2D TECHNOLOGIES, INC.:   Digitizing Company
~OTHER INFORMATION
~A   DEPT      SPR         SN        ILD         GRD      CALD       RHOB       CORR   
# ...
 2601.5000   -70.7590     6.0570    13.1100   104.9050    10.4220     2.4610     0.0480
 2602.0000   -70.7170     6.0570    13.1100   102.9490    10.4250     2.4680     0.0500
 2602.5000   -70.6760     6.0580    13.4710    98.0910    10.4270     2.4750     0.0490
 2603.0000   -70.6360     6.0580    13.9680    94.7500    10.4300     2.4820     0.0480
 2603.5000   -70.5970     6.0580    14.0980    94.6550    10.4330     2.4840     0.0480
 2604.0000   -70.5700     6.0160    13.9600    96.4210    10.4350     2.4830     0.0510
 2604.5000   -70.5700     5.9580    13.7070   102.7590    10.4380     2.4840     0.0540
 2605.0000   -70.5710     5.9020    13.1590   103.2800    10.4600     2.4860     0.0520
 2605.5000   -70.6720     5.8450    12.3760   102.2270    10.4940     2.4810     0.0490
 2606.0000   -71.2960     5.7880    11.5940   100.7370    10.5280     2.4740     0.0460
 2606.5000   -72.0000     5.7310    10.8110    97.9400    10.5620     2.4690     0.0430
 2607.0000   -72.7620     5.6740    10.3920    96.2890    10.5960     2.4670     0.0420
 2607.5000   -73.5010     5.6180    10.0740    98.3930    10.6310     2.4630     0.0430
 2608.0000   -73.5070     5.5610    10.0070   100.3920    10.6660     2.4580     0.0480
 2608.5000   -74.2350     5.4830     9.9210   102.0840    10.6820     2.4530     0.0520
 2609.0000   -75.0710     5.4890     9.8110    99.6400    10.6960     2.4500     0.0520
 2609.5000   -75.2180     5.5010     9.8490    93.4300    10.7100     2.4430     0.0510
 2610.0000   -75.7720     5.5130     9.9240    89.9920    10.7230     2.4380     0.0510
 2610.5000   -76.4960     5.5250    10.1880    88.8620    10.7370     2.4390     0.0530
 2611.0000   -76.6150     5.5370    11.1030    88.0150    10.7500     2.4460     0.0540
 2611.5000   -76.7360     5.5490    12.0170    88.4480    10.7530     2.4730     0.0520
 2612.0000   -76.8430     5.5610    12.5280    93.6030    10.7380     2.4830     0.0400
 2612.5000   -77.1320     5.5730    11.9110    97.7840    10.7190     2.4830     0.0410
 2613.0000   -77.4390     5.5820    11.1820    99.0630    10.6990     2.4840     0.0430
 2613.5000   -77.7610     5.5450    10.4520    96.4500    10.6790     2.4860     0.0450
 2614.0000   -77.9090     5.5150     9.8940    93.1470    10.6750     2.5010     0.0460
 2614.5000   -77.9880     5.4850     9.3620    93.8980    10.6750     2.5160     0.0480
 2615.0000   -77.8660     5.4560     8.8310    97.5130    10.6760     2.5330     0.0490
 2615.5000   -77.0980     5.4260     8.2990   106.7230    10.6770     2.5470     0.0490
 2616.0000   -76.3640     5.3960     7.9770   112.4900    10.6440     2.5490     0.0510
 2616.5000   -76.4230     5.3670     7.8830   116.7750    10.3710     2.5440     0.0530
 2617.0000   -76.8200     5.3340     7.8460   116.6560    10.2420     2.5470     0.0520
 2617.5000   -77.2680     5.3020     7.8120   116.5180    10.2110     2.5490     0.0460
 2618.0000   -77.9860     5.2650     7.7790   116.3880    10.3080     2.5440     0.0460
 2618.5000   -78.7840     5.2290     7.7450   115.3500    10.3370     2.5400     0.0440
 2619.0000   -79.5940     5.1910     7.7110   113.5720    10.3360     2.5390     0.0420
 2619.5000   -79.5660     5.2160     7.6780   111.8910    10.3330     2.5370     0.0390
 2620.0000   -79.0670     5.2420     7.6440   113.5510    10.3300     2.5320     0.0360
 2620.5000   -78.5680     5.2690     7.6100   115.5260    10.3270     2.5240     0.0320
 2621.0000   -78.0780     5.2960     7.5870   117.2340    10.3240     2.5200     0.0280
 2621.5000   -77.6390     5.3220     7.5670   115.5110    10.3230     2.5120     0.0260
 2622.0000   -77.5000     5.3340     7.5480   113.4920    10.2850     2.5050     0.0270
 2622.5000   -77.3340     5.3340     7.5280   114.8550    10.2450     2.5050     0.0280
 2623.0000   -77.2640     5.3340     7.5080   116.9060    10.2220     2.5040     0.0290
 2623.5000   -77.2640     5.3340     7.4890   117.4990    10.2200     2.5030     0.0300
 2624.0000   -77.3500     5.3340     7.4650   117.1350    10.2190     2.5060     0.0310
 2624.5000   -77.8680     5.3340     7.4710   115.2270    10.2170     2.5110     0.0320
 2625.0000   -78.8310     5.3340     7.4790   113.6260    10.2160     2.5150     0.0320
 2625.5000   -79.6520     5.3340     7.4870   112.9070    10.2140     2.5190     0.0290
 2626.0000   -79.6300     5.3340     7.4950   111.9830    10.2130     2.5140     0.0250
 2626.5000   -79.6090     5.3340     7.5030   108.8290    10.2120     2.5090     0.0280
 2627.0000   -79.0770     5.3340     7.5110   106.0970    10.2100     2.5100     0.0310
 2627.5000   -78.5230     5.3340     7.5190   106.4740    10.2090     2.5130     0.0330
 2628.0000   -78.4990     5.3340     7.5270   108.9880    10.2070     2.5170     0.0340
 2628.5000   -79.5460     5.3340     7.5340   111.5190    10.2060     2.5240     0.0360
 2629.0000   -80.4930     5.3340     7.5660   112.9590    10.2040     2.5250     0.0370
 2629.5000   -83.4870     5.3340     7.5970   114.5410    10.2020     2.5270     0.0440
 2630.0000   -85.7240     5.3340     7.6290   116.9250    10.1730     2.5390     0.0450
 2630.5000   -86.8890     5.3340     7.6610   120.2970    10.1450     2.5420     0.0420
 2631.0000   -87.5440     5.3340     7.7270   122.2630    10.0870     2.5390     0.0400
 2631.5000   -87.8920     5.3340     7.8100   119.6530    10.0070     2.5360     0.0310
 2632.0000   -87.8900     5.3340     7.8930   116.8950    10.0170     2.5240     0.0270
 2632.5000   -87.8270     5.3340     7.9760   118.0610    10.0330     2.5190     0.0230
 2633.0000   -87.5560     5.3340     8.1010   116.6930    10.0500     2.5210     0.0250
 2633.5000   -87.2810     5.3340     8.0790   114.3670    10.0670     2.5270     0.0400
 2634.0000   -86.7230     5.3340     8.0360   114.3240    10.0840     2.5300     0.0410
 2634.5000   -85.2930     5.3340     7.9930   116.4570    10.1220     2.5290     0.0380
 2635.0000   -84.0300     5.3340     7.9390   117.9090    10.1630     2.5260     0.0340
 2635.5000   -82.9610     5.3340     7.8030   115.1560    10.2040     2.5260     0.0330
 2636.0000   -81.8950     5.3000     7.6670   112.6550    10.2260     2.5260     0.0320
 2636.5000   -80.7790     5.2350     7.5310   114.7120    10.2330     2.5240     0.0320
 2637.0000   -79.3670     5.1710     7.3950   117.1730    10.2400     2.5250     0.0330
 2637.5000   -77.9930     5.1060     7.2590   119.7450    10.2470     2.5360     0.0380
 2638.0000   -76.7280     5.0400     7.0640   116.9040    10.2540     2.5470     0.0370
 2638.5000   -75.4950     4.9660     6.8210   112.7990    10.2610     2.5480     0.0360
 2639.0000   -74.6950     4.8930     6.5780   115.4600    10.2500     2.5480     0.0330
 2639.5000   -74.7080     4.8190     6.3360   121.9290    10.2620     2.5430     0.0270
 2640.0000   -74.9330     4.7460     6.0930   122.5750    10.3490     2.5320     0.0220
 2640.5000   -75.3170     4.6720     5.8950   121.2710    10.3600     2.5300     0.0200
 2641.0000   -75.7040     4.5930     5.7020   125.7340    10.3480     2.5260     0.0160
 2641.5000   -76.0910     4.4920     5.5060   127.3870    10.3230     2.5180     0.0140
 2642.0000   -76.4600     4.3910     5.3100   120.8580    10.2780     2.5150     0.0170
 2642.5000   -76.3820     4.2900     5.1140   122.3460    10.2610     2.5180     0.0210
 2643.0000   -74.3840     4.2300     4.9560   117.9470    10.2590     2.5210     0.0250
 2643.5000   -72.1680     4.1960     4.9340   120.6060    10.2570     2.5280     0.0270
 2644.0000   -71.0120     4.1620     4.9130   122.3800    10.2560     2.5300     0.0270
 2644.5000   -69.1130     4.1360     4.8920   121.0700    10.2540     2.5300     0.0300
 2645.0000   -67.1610     4.1450     4.8710   123.0580    10.2530     2.5350     0.0360
 2645.5000   -65.6040     4.1530     4.8640   127.5790    10.2510     2.5610     0.0430
 2646.0000   -65.5350     4.1600     4.8560   130.1080    10.2490     2.5630     0.0400
 2646.5000   -65.4260     4.1670     4.8490   128.0920    10.2480     2.5590     0.0350
