~VERSION INFORMATION
 VERS.                2.0:   CWLS LOG ASCII STANDARD - VERSION 2.0
 WRAP.                 NO:   ONE LINE PER DEPTH STEP
~WELL INFORMATION
#MNEM.UNIT      DATA TYPE    INFORMATION
#----------   ------------   ------------------------------
 STRT.F           40.0000:   START DEPTH
 STOP.F         3032.5000:   STOP DEPTH
 STEP.F            0.5000:   STEP LENGTH
 NULL.          -999.2500:   NO VALUE
 COMP.   TESORO PETROLEUM:   COMPANY
 WELL. TESORO NPR 3 "AX" #51-15:   WELL
 FLD .        TEAPOT DOME:   FIELD
 LOC .      S15 T38N R78W:   LOCATION
 CNTY.            NATRONA:   COUNTY
 STAT.            WYOMING:   STATE
 CTRY. UNITED STATES OF AMERICA:   COUNTRY
 SRVC.       SCHLUMBERGER:   SERVICE COMPANY
 DATE.        21-JUL-1969:   LOGDATE
 API .     49025100240000:   API NUMBER
~CURVE INFORMATION
#MNEM.UNIT       API CODE    CURVE DESCRIPTION
#----------   ------------   ------------------------------
 DEPT.F                  :   
 CALD.IN     45 280 60 00:   CALIPER FROM DENSITY LOG
 GRD .GAPI   45 310 01 00:   GAMMA RAY FROM DENSITY LOG
 RHOB.G/C3   45 350 01 00:   BULK DENSITY
 CORR.G/C3   45 356 01 00:   DENSITY CORRECTION
 GR  .GAPI   35 310 01 00:   GAMMA RAY FROM GAMMA RAY LOG
 SPR .MV     05 010 01 00:   SPONTANEOUS POTENTIAL
 ASN .OHMM   05 041 16 00:   AMPLIFIED SHORT NORMAL 16"
 ILD .OHMM   05 120 46 00:   DEEP INDUCTION RESISTIVITY
~PARAMETER INFORMATION
#MNEM.UNIT          VALUE    DESCRIPTION
#----------   ------------   ------------------------------
 EKB .F         5235.0000:   Kelly bushing
 EGL .F         5222.0000:   Ground level
 EDF .F            0.0000:   Drilling floor
 TD  .F         3027.0000:   Total depth
 DATE.        21-JUL-1969:   Date logged
 CLNT.            A2DTECH:   Client Code
 SL  . 2000' FEL & 660' FNL:   Surface Location
 PD  .                 GL:   Permanent Datum
 EPD .F              5222:   Elevation Permanent Datum
 LMF .                 KB:   Log Measured From
 DMF .                 KB:   Drilling Measured From
 DAPD.F                13:   Feet Above Permanent Datum
 DD  .F              3027:   Depth driller
 DL  .F              3025:   Depth logger
 BLI .F              3024:   Bottom log interval
 TLI .F              2604:   Top log interval
 CS1 .IN            10.75:   Casing size
 CBD1.      10.75" @ 622':   Casing driller 1
 BS1 .IN                9:   Bit size
 BSD1.F              3027:   Depth drilled with bit1
 DFT .          FRESH/GEL:   Type fluid in hole
 DFD .                9.7:   Density
 DFV .                 65:   Viscosity
 DFPH.                9.5:   pH
 DFL .                  7:   Fluid loss
 MSS .           FLOWLINE:   Source of sample
 RMS .OHMM           2.48:   Rm
 MST .F                80:   Rm Meas. temp.
 RMF .OHMM           2.80:   Rmf
 MFST.F                80:   Rmf Meas. temp.
 MFSS.               MEAS:   Source Rmf.
 RMB .OHMM           2.20:   Rm. at BHT
 BHT .F               106:   BHT.
 TCS .HRS               1:   Time Circ. stopped
 MRT .F               106:   Maximum recorded temp.
 LUN .               4507:   Logging unit number
 LUL .               CSPR:   Logging unit location
 ENGI.           CHAMPLIN:   Recorded By
 WITN.                MAY:   Witnessed by
 ORIG.           5" PRINT:   Origin of data
 UWI .     49025100240000:   Unique Well ID
 DICO. A2D TECHNOLOGIES, INC.:   Digitizing Company
~OTHER INFORMATION
~A   DEPT     CALD        GRD       RHOB       CORR         GR        SPR        ASN          ILD 
# ...
  323.5000  -999.2500  -999.2500  -999.2500  -999.2500    59.0440   -23.2280     8.6670     7.9500
  324.0000  -999.2500  -999.2500  -999.2500  -999.2500    60.5490   -23.2530     8.7200     7.9740
  324.5000  -999.2500  -999.2500  -999.2500  -999.2500    60.1630   -23.2790     8.7700     7.9980
  325.0000  -999.2500  -999.2500  -999.2500  -999.2500    60.9950   -23.3040     8.8190     8.0220
  325.5000  -999.2500  -999.2500  -999.2500  -999.2500    62.3340   -23.3300     8.8690     8.0450
  326.0000  -999.2500  -999.2500  -999.2500  -999.2500    62.2510   -23.3550     8.9180     8.0690
  326.5000  -999.2500  -999.2500  -999.2500  -999.2500    62.2110   -23.3810     8.9680     8.0920
  327.0000  -999.2500  -999.2500  -999.2500  -999.2500    62.4100   -23.4050     9.0180     8.1160
  327.5000  -999.2500  -999.2500  -999.2500  -999.2500    62.2500   -23.4510     9.0660     8.1400
  328.0000  -999.2500  -999.2500  -999.2500  -999.2500    61.9050   -23.5600     9.1030     8.1630
  328.5000  -999.2500  -999.2500  -999.2500  -999.2500    62.9640   -23.6670     9.1380     8.1870
  329.0000  -999.2500  -999.2500  -999.2500  -999.2500    61.9280   -23.7800     9.1730     8.2100
  329.5000  -999.2500  -999.2500  -999.2500  -999.2500    60.3600   -23.8850     9.2080     8.2300
  330.0000  -999.2500  -999.2500  -999.2500  -999.2500    61.1300   -23.9990     9.2460     8.2030
  330.5000  -999.2500  -999.2500  -999.2500  -999.2500    62.9520   -24.1050     9.2680     8.1720
  331.0000  -999.2500  -999.2500  -999.2500  -999.2500    63.3740   -24.1870     9.2640     8.1410
  331.5000  -999.2500  -999.2500  -999.2500  -999.2500    63.2390   -23.9590     9.2610     8.1100
  332.0000  -999.2500  -999.2500  -999.2500  -999.2500    64.2750   -23.7280     9.1940     8.0790
  332.5000  -999.2500  -999.2500  -999.2500  -999.2500    64.9660   -23.4860     9.1240     8.0480
  333.0000  -999.2500  -999.2500  -999.2500  -999.2500    63.0950   -23.2530     9.0520     8.0170
  333.5000  -999.2500  -999.2500  -999.2500  -999.2500    61.6110   -23.0150     8.9810     7.9850
  334.0000  -999.2500  -999.2500  -999.2500  -999.2500    62.4820   -22.7780     8.9110     7.9550
  334.5000  -999.2500  -999.2500  -999.2500  -999.2500    64.0320   -22.5430     8.8110     7.9210
  335.0000  -999.2500  -999.2500  -999.2500  -999.2500    63.1500   -22.3040     8.6700     7.8940
  335.5000  -999.2500  -999.2500  -999.2500  -999.2500    62.5260   -22.0670     8.5330     7.8600
  336.0000  -999.2500  -999.2500  -999.2500  -999.2500    63.0720   -21.8630     8.3850     7.8130
  336.5000  -999.2500  -999.2500  -999.2500  -999.2500    64.5290   -21.8530     8.2630     7.5760
  337.0000  -999.2500  -999.2500  -999.2500  -999.2500    63.8060   -21.8500     8.0130     7.3670
  337.5000  -999.2500  -999.2500  -999.2500  -999.2500    64.0490   -21.8530     7.6660     7.1020
  338.0000  -999.2500  -999.2500  -999.2500  -999.2500    64.0530   -21.8500     7.3440     6.7760
  338.5000  -999.2500  -999.2500  -999.2500  -999.2500    61.8110   -21.8510     7.0190     6.4470
  339.0000  -999.2500  -999.2500  -999.2500  -999.2500    60.0910   -21.8510     6.6870     6.0720
  339.5000  -999.2500  -999.2500  -999.2500  -999.2500    60.9950   -21.8500     6.3680     5.5550
  340.0000  -999.2500  -999.2500  -999.2500  -999.2500    62.5060   -21.8500     5.9990     4.9100
  340.5000  -999.2500  -999.2500  -999.2500  -999.2500    60.6950   -21.8500     5.6540     4.2930
  341.0000  -999.2500  -999.2500  -999.2500  -999.2500    57.7560   -21.8500     5.2380     3.6300
  341.5000  -999.2500  -999.2500  -999.2500  -999.2500    58.4410   -21.8490     4.8450     3.0850
  342.0000  -999.2500  -999.2500  -999.2500  -999.2500    59.2380   -21.8510     4.4120     2.7090
  342.5000  -999.2500  -999.2500  -999.2500  -999.2500    58.9710   -21.8480     4.0980     2.3150
  343.0000  -999.2500  -999.2500  -999.2500  -999.2500    59.8560   -21.8510     3.9400     2.3280
  343.5000  -999.2500  -999.2500  -999.2500  -999.2500    61.1950   -21.7300     3.7430     2.3710
  344.0000  -999.2500  -999.2500  -999.2500  -999.2500    62.0930   -21.5680     3.6680     2.4090
  344.5000  -999.2500  -999.2500  -999.2500  -999.2500    61.4410   -21.3960     3.6790     2.4500
  345.0000  -999.2500  -999.2500  -999.2500  -999.2500    62.0900   -21.2400     3.6770     2.5370
  345.5000  -999.2500  -999.2500  -999.2500  -999.2500    61.8480   -21.1050     3.8150     3.0890
  346.0000  -999.2500  -999.2500  -999.2500  -999.2500    60.1380   -21.5410     4.0250     3.5640
  346.5000  -999.2500  -999.2500  -999.2500  -999.2500    58.7000   -22.0270     4.4700     4.0730
  347.0000  -999.2500  -999.2500  -999.2500  -999.2500    59.2440   -22.5370     5.0580     4.5600
  347.5000  -999.2500  -999.2500  -999.2500  -999.2500    59.7830   -23.0050     5.5950     5.0490
  348.0000  -999.2500  -999.2500  -999.2500  -999.2500    58.8380   -23.5480     6.1250     5.4090
  348.5000  -999.2500  -999.2500  -999.2500  -999.2500    56.4080   -23.8510     6.2740     5.7720
  349.0000  -999.2500  -999.2500  -999.2500  -999.2500    54.2480   -23.7220     6.4360     6.0340
  349.5000  -999.2500  -999.2500  -999.2500  -999.2500    55.1140   -23.0350     6.4420     6.0560
  350.0000  -999.2500  -999.2500  -999.2500  -999.2500    56.9750   -22.3410     6.4270     5.9390
  350.5000  -999.2500  -999.2500  -999.2500  -999.2500    57.7420   -22.5350     6.1840     5.7130
  351.0000  -999.2500  -999.2500  -999.2500  -999.2500    57.5440   -23.0060     5.9870     5.5130
  351.5000  -999.2500  -999.2500  -999.2500  -999.2500    59.9570   -22.8580     5.7630     5.3080
  352.0000  -999.2500  -999.2500  -999.2500  -999.2500    58.9040   -22.4280     5.7060     5.0950
  352.5000  -999.2500  -999.2500  -999.2500  -999.2500    59.5280   -21.9720     5.7290     4.8990
  353.0000  -999.2500  -999.2500  -999.2500  -999.2500    60.6370   -21.9760     5.6670     4.6800
  353.5000  -999.2500  -999.2500  -999.2500  -999.2500    61.3980   -22.1510     5.6450     4.6680
  354.0000  -999.2500  -999.2500  -999.2500  -999.2500    59.1740   -22.5420     5.7910     4.6830
  354.5000  -999.2500  -999.2500  -999.2500  -999.2500    56.9640   -22.3480     6.0460     5.0170
  355.0000  -999.2500  -999.2500  -999.2500  -999.2500    57.5960   -22.0190     6.2700     5.3920
  355.5000  -999.2500  -999.2500  -999.2500  -999.2500    59.3220   -21.6440     6.5140     5.7710
  356.0000  -999.2500  -999.2500  -999.2500  -999.2500    60.0260   -21.4530     6.7710     6.1530
  356.5000  -999.2500  -999.2500  -999.2500  -999.2500    57.6670   -21.5050     7.0250     6.4610
  357.0000  -999.2500  -999.2500  -999.2500  -999.2500    56.0670   -21.5280     7.2770     6.6690
  357.5000  -999.2500  -999.2500  -999.2500  -999.2500    56.7080   -21.5620     7.5360     6.8510
  358.0000  -999.2500  -999.2500  -999.2500  -999.2500    57.7120   -21.5930     7.7850     7.0340
  358.5000  -999.2500  -999.2500  -999.2500  -999.2500    57.9980   -21.6230     8.0540     7.2380
  359.0000  -999.2500  -999.2500  -999.2500  -999.2500    60.3260   -21.6550     8.1740     7.5250
  359.5000  -999.2500  -999.2500  -999.2500  -999.2500    59.7160   -21.6850     8.2920     7.8870
  360.0000  -999.2500  -999.2500  -999.2500  -999.2500    58.7640   -21.7160     8.3820     8.0160
  360.5000  -999.2500  -999.2500  -999.2500  -999.2500    59.3640   -21.7470     8.3520     7.9250
  361.0000  -999.2500  -999.2500  -999.2500  -999.2500    60.8780   -21.7790     8.3210     7.8660
  361.5000  -999.2500  -999.2500  -999.2500  -999.2500    61.9410   -21.8090     8.2520     7.7990
  362.0000  -999.2500  -999.2500  -999.2500  -999.2500    62.4390   -21.8410     8.1760     7.7240
  362.5000  -999.2500  -999.2500  -999.2500  -999.2500    59.7470   -21.8510     8.0950     7.6780
  363.0000  -999.2500  -999.2500  -999.2500  -999.2500    57.4130   -21.8500     8.0220     7.4710
  363.5000  -999.2500  -999.2500  -999.2500  -999.2500    56.9810   -21.8500     7.8740     7.1470
