~VERSION INFORMATION
 VERS.                2.0:   CWLS LOG ASCII STANDARD - VERSION 2.0
 WRAP.                 NO:   ONE LINE PER DEPTH STEP
~WELL INFORMATION
#MNEM.UNIT      DATA TYPE    INFORMATION
#----------   ------------   ------------------------------
 STRT.F          404.0000:   START DEPTH
 STOP.F         2919.0000:   STOP DEPTH
 STEP.F            0.5000:   STEP LENGTH
 NULL.          -999.2500:   NO VALUE
 COMP.    FENIX & SCISSON:   COMPANY
 WELL. FENIX & SCISSON "AX" #27-21:   WELL
 FLD .             NPR #3:   FIELD
 LOC .      S21 T39N R78W:   LOCATION
 CNTY.            NATRONA:   COUNTY
 STAT.            WYOMING:   STATE
 CTRY. UNITED STATES OF AMERICA:   COUNTRY
 SRVC.       SCHLUMBERGER:   SERVICE COMPANY
 DATE.        21-APR-1977:   LOGDATE
 API .     49025103730000:   API NUMBER
~CURVE INFORMATION
#MNEM.UNIT       API CODE    CURVE DESCRIPTION
#----------   ------------   ------------------------------
 DEPT.F                  :   
 SPR .MV     07 010 01 00:   SPONTANEOUS POTENTIAL
 ILM .OHMM   07 120 44 00:   INDUCTION LOG MEDIUM RESISTIVITY
 ILD .OHMM   07 120 46 00:   DEEP INDUCTION RESISTIVITY
 LL8 .OHMM   07 220 08 00:   LATEROLOG-8 RES.
 GRN .GAPI   35 310 01 00:   GAMMA RAY
 CALD.IN     45 280 60 00:   CALIPER FROM DENSITY LOG
 GRD .GAPI   45 310 01 00:   GAMMA RAY FROM DENSITY LOG
 CORR.G/C3   45 356 01 00:   DENSITY CORRECTION
 RHOB.G/C3   45 350 01 00:   BULK DENSITY
~PARAMETER INFORMATION
#MNEM.UNIT          VALUE    DESCRIPTION
#----------   ------------   ------------------------------
 EKB .F         5004.0000:   Kelly bushing
 EGL .F         4994.0000:   Ground level
 TD  .F         2920.0000:   Total depth
 CLNT.            A2DTECH:   Client Code
 SL  . 991' FWL & 1090' FSL:   Surface Location
 DATE.        21-APR-1977:   Date Logged [DD-MMM-YYYY]
 DD  .F              2920:   Depth driller
 DL  .F              2920:   Depth logger
 BLI .F              2914:   Bottom log interval
 TLI .F               419:   Top log interval
 CS1 .              8.625:   Casing size
 CBD1.      8.625" @ 425':   Casing driller 1
 CBL1.IN              419:   Casing logger 1
 BS1 .IN            7.875:   Bit size
 BSD1.F              2920:   Depth drilled with bit1
 DFT .                FGM:   Type fluid in hole
 DFD .                9.0:   Density
 DFV .                 34:   Viscosity
 DFPH.                8.0:   pH
 DFL .                8.0:   Fluid loss
 MSS .                PIT:   Source of sample
 RMS .OHMM          0.158:   Rm
 MST .F                72:   Rm Meas. temp.
 RMF .OHMM          0.158:   Rmf
 MFST.F                72:   Rmf Meas. temp.
 MFSS.               MEAS:   Source Rmf.
 RMB .OHMM          0.102:   Rm. at BHT
 BHT .F               112:   BHT.
 TCS .HRS            0500:   Time Circ. stopped
 TLAB.HRS            0700:   Time logger at bottom
 MRT .F               112:   Maximum recorded temp.
 LUN .               5642:   Logging unit number
 LUL .               CSPR:   Logging unit location
 ENGI.             TAYLOR:   Recorded By
 WITN.          PETTINGIL:   Witnessed by
 ORIG.      2.5" 5" PRINT:   Origin of data
 UWI .     49025103730000:   Unique Well ID
 DICO. A2D TECHNOLOGIES, INC.:   Digitizing Company
 PD  .                 GL:   Permanent Datum
 EPD .F              4994:   Elevation Permanent Datum
 LMF .                 KB:   Log Measured From
 DMF .                 KB:   Drilling Measured From
 DAPD.F                10:   Feet Above Permanent Datum
~OTHER INFORMATION
~A   DEPT      SPR        ILM        ILD        LL8        GRN       CALD         GRD      CORR       RHOB   
# ...
  915.0000   -71.2947    10.2789     8.9061    10.4526   127.3400     8.9303    81.7268     0.0059     2.5107
  915.5000   -70.9926    10.2796     8.9067    10.4638   121.9760     8.9310    82.6256     0.0105     2.5064
  916.0000   -70.9881    10.2803     8.9073    10.4750   122.6699     8.9318    83.8220     0.0165     2.5088
  916.5000   -70.9836    10.2810     8.9079    10.4853   125.6093     8.9325    81.4469     0.0195     2.5704
  917.0000   -70.9792    10.1412     8.8420    10.4860   127.2014     8.9333    80.2624     0.0105     2.5786
  917.5000   -70.6771    10.1419     8.7875    10.4868   127.6707     8.9340    79.6731     0.0103     2.5846
  918.0000   -70.5278    10.0039     8.7882    10.4875   124.7718     8.9347    79.9766     0.0166     2.5959
  918.5000   -70.3705     9.8678     8.7888    10.4882   120.3010     8.9355    83.5539     0.0256     2.6050
  919.0000   -70.2242     9.7334     8.6693    10.3452   117.1724     8.9362    85.9407     0.0331     2.6125
  919.5000   -70.0640     9.6011     8.5515    10.3460   121.0151     8.9370    88.0300     0.0091     2.5916
  920.0000   -70.0595     9.5229     8.4976    10.3279   123.0563     8.9377    85.9526     0.0152     2.5194
  920.5000   -69.7574     9.3415     8.4359    10.0482   121.9537     8.9385    84.1728     0.0197     2.5189
  921.0000   -69.7530     9.2681     8.3213     9.9121   118.3811     8.9392    82.3929     0.0227     2.5266
  921.5000   -70.0461     9.2151     8.0491     9.6438   118.1718     8.9400    84.1846     0.0197     2.5279
  922.0000   -70.1746     9.2157     7.7890     9.3973   122.2390     8.9110    86.2738     0.0077     2.5175
  922.5000   -70.7638     9.0903     7.5182     9.2693   126.0765     8.9118    85.9821     0.0093     2.5307
  923.0000   -70.9256     9.0910     7.1554     9.2699   126.7654     8.9125    86.3062     0.0168     2.5250
  923.5000   -71.0496     9.0916     7.3306     9.3993   124.9942     8.9429    87.8026     0.0093     2.5108
  924.0000   -71.2143     8.9041     7.7819     9.3999   125.9127     8.9437    88.3808     0.0214     2.5101
  924.5000   -71.2098     8.7250     8.2178     9.4006   127.5048     8.9444    87.1147     0.0439     2.5219
  925.0000   -71.2054     8.7255     8.7165     9.4012   130.6687     8.9748    84.7718     0.0334     2.5221
  925.5000   -71.2009     8.6677     8.3685     9.4019   133.3835     8.9755    83.6076     0.0229     2.5115
  926.0000   -71.1964     8.6073     7.8916     9.4025   136.0984     8.9763    83.3116     0.0199     2.5087
  926.5000   -71.1920     8.6079     7.5334     9.4032   135.6644     8.9770    83.0532     0.0184     2.5134
  927.0000   -70.8899     8.6085     7.3590     9.4038   136.8125     8.9777    84.6755     0.0139     2.5123
  927.5000   -70.8854     8.5562     7.2590     9.2757   138.8537     8.9488    86.0887     0.0235     2.5215
  928.0000   -70.8810     8.4920     7.2596     9.2763   139.7721     8.9495    86.9921     0.0336     2.5264
  928.5000   -70.5789     8.4427     7.2601     9.1499   135.9749     8.9503    87.2440     0.0288     2.5207
  929.0000   -70.2768     8.3771     7.2606     9.0253   132.6269     8.9510    87.2500     0.0246     2.5193
  929.5000   -70.3829     8.3776     7.2611     8.9023   133.0963     8.9517    86.8283     0.0311     2.5283
  930.0000   -70.5663     8.3324     7.2616     8.9029   137.1584     8.9525    84.9701     0.0366     2.5403
  930.5000   -70.6687     8.2641     7.2621     8.9070   139.4241     8.9532    83.2511     0.0252     2.5306
  931.0000   -70.8550     8.4235     7.2626     9.1561   133.6060     8.9540    82.4336     0.0132     2.5089
  931.5000   -70.9543     8.6581     7.2630     9.4097   131.8298     8.9548    81.5423     0.0034     2.5029
  932.0000   -71.2460     8.8992     7.2635     9.5410   134.7692     8.9555    81.3325     0.0043     2.4999
  932.5000   -71.8353     9.1470     7.2775     9.6752   136.3613     8.9265    84.4767     0.0124     2.5060
  933.0000   -72.0275     9.2296     7.3774     9.8096   142.4444     8.9273    86.8950     0.0246     2.5239
  933.5000   -72.0223     9.3582     7.5935     9.9460   144.9347     8.9281    88.4931     0.0345     2.5270
  934.0000   -72.0178     9.5307     7.9004    10.0847   140.9130     8.9215    85.5060     0.0099     2.5090
  934.5000   -72.0134     9.6208     8.0089    10.0854   135.5440     8.8998    84.9335     0.0038     2.5016
  935.0000   -72.0089     9.6215     8.2311    10.2262   135.5643     8.9006    85.2381     0.0050     2.5031
  935.5000   -71.7068     9.6222     8.3379    10.2269   138.2791     8.9013    84.9453     0.0182     2.5136
  936.0000   -71.3135     9.6228     8.3340    10.0875   140.0957     8.9021    84.5318     0.0402     2.5271
  936.5000   -71.1027     9.4568     8.1101    10.0882   139.6618     8.9028    83.9379     0.0583     2.5391
  937.0000   -70.8006     9.3295     8.0027     9.9508   140.5853     8.9035    83.7738     0.0477     2.5451
  937.5000   -70.7093     9.2353     7.8940     9.9515   141.9528     8.9043    84.1644     0.0195     2.5481
  938.0000   -70.4941     9.1097     7.7868     9.8159   137.9311     8.9051    87.6073     0.0115     2.5212
  938.5000   -70.1920     9.0818     7.6810     9.5495   131.6639     8.9058    89.3011     0.0190     2.5257
  939.0000   -70.1875     8.9863     7.5767     9.4194   131.0054     8.9065    88.5595     0.0143     2.5287
  939.5000   -70.5616     8.9871     7.5772     9.2911   136.6445     8.9073    87.6617     0.0085     2.5227
  940.0000   -70.7744     8.9877     7.4743     9.1645   141.1557     8.9080    86.6072     0.0158     2.5033
  940.5000   -70.8472     8.9883     7.4748     9.4214   142.0691     8.9087    84.9773     0.0197     2.5034
  941.0000   -71.4365     8.9889     7.4753     9.4220   136.7052     8.9095    83.4860     0.0148     2.5155
  941.5000   -71.7282     8.9895     7.4758     9.4227   135.3730     8.9102    82.4648     0.0109     2.5230
  942.0000   -71.9470     8.9901     7.4763     9.4233   137.6438     8.9110    81.3967     0.0108     2.5276
  942.5000   -71.9420     8.9907     7.4768     9.4240   139.0114     8.9117    82.3523     0.0154     2.5349
  943.0000   -71.9375     8.9913     7.4774     9.4246   139.2561     8.9125    83.8463     0.0169     2.5412
  943.5000   -71.9331     8.9919     7.4779     9.4253   136.8063     8.9132    82.3641     0.0140     2.5454
  944.0000   -71.9286     8.9926     7.4784     9.4259   134.1319     8.9438    80.5843     0.0094     2.4975
  944.5000   -71.9241     8.9932     7.4789     9.4266   134.8258     8.9445    81.1855     0.0073     2.5129
  945.0000   -71.8551     8.9815     7.4794     9.2982   136.6424     8.9749    83.5724     0.0136     2.5107
  945.5000   -71.5545     8.8714     7.4800     9.2988   135.5399     8.9756    83.8759     0.0254     2.5199
  946.0000   -71.2539     8.8721     7.3783     9.1721   129.0481     8.9764    83.5833     0.0196     2.5338
  946.5000   -71.0134     8.8642     7.3789     9.0471   129.7420     9.0068    83.8877     0.0101     2.5322
  947.0000   -70.9504     8.7520     7.2785     9.0478   130.2063     9.0075    85.6793     0.0035     2.5183
  947.5000   -70.7069     8.7526     7.2791     8.9245   125.9601     9.0083    87.4709     0.0014     2.5096
  948.0000   -70.7024     8.7532     7.2796     8.9251   126.6590     9.0090    89.5602     0.0089     2.5292
  948.5000   -70.6979     8.7538     7.1806     8.8035   126.0056     9.0097    87.4828     0.0165     2.5394
  949.0000   -70.6934     8.6347     7.1812     8.8041   124.9030     9.0401    85.4053     0.0195     2.5510
  949.5000   -70.7401     8.6353     7.0837     8.5652   123.5760     9.0409    83.6255     0.0195     2.5551
  950.0000   -71.0316     8.5178     7.0842     8.4485   122.9205     9.0416    82.1433     0.0190     2.5561
  950.5000   -71.6211     8.4019     6.9878     8.3334   120.2632     9.0423    82.7445     0.0286     2.5562
  951.0000   -71.8664     8.2876     6.8929     8.2199   117.8083     9.0431    83.9409     0.0436     2.5536
