~VERSION INFORMATION
 VERS.                2.0:   CWLS LOG ASCII STANDARD - VERSION 2.0
 WRAP.                 NO:   ONE LINE PER DEPTH STEP
~WELL INFORMATION
#MNEM.UNIT      DATA TYPE    INFORMATION
#----------   ------------   ------------------------------
 STRT.F          164.0000:   START DEPTH
 STOP.F         3223.5000:   STOP DEPTH
 STEP.F            0.5000:   STEP LENGTH
 NULL.          -999.2500:   NO VALUE
 COMP.    FENIX & SCISSON:   COMPANY
 WELL. FENIX & SCISSON "AX" #64-34:   WELL
 FLD . NAVAL PETROLEUM RESERVE #3:   FIELD
 LOC .      S34 T39N R78W:   LOCATION
 CNTY.            NATRONA:   COUNTY
 STAT.            WYOMING:   STATE
 CTRY. UNITED STATES OF AMERICA:   COUNTRY
 SRVC.       SCHLUMBERGER:   SERVICE COMPANY
 DATE.        30-DEC-1980:   LOGDATE
 API .     49025108660000:   API NUMBER
~CURVE INFORMATION
#MNEM.UNIT       API CODE    CURVE DESCRIPTION
#----------   ------------   ------------------------------
 DEPT.F                  :   
 GRD .GAPI   45 310 01 00:   GAMMA RAY FROM DENSITY LOG
 RHOB.G/C3   45 350 01 00:   BULK DENSITY
 CALD.IN     45 280 60 00:   CALIPER FROM DENSITY LOG
 CORR.G/C3   45 356 01 00:   DENSITY CORRECTION
 SPR .MV     07 010 01 00:   SPONTANEOUS POTENTIAL
 TENR.LBS    06 635 01 00:   TENSION FROM RESISTIVITY
 ILD .OHMM   07 120 46 00:   DEEP INDUCTION RESISTIVITY
 ILM .OHMM   07 120 44 00:   INDUCTION LOG MEDIUM RESISTIVITY
 SFL .OHMM   07 220 01 00:   SHALLOW FOCUSED LOG RESISTIVITY
~PARAMETER INFORMATION
#MNEM.UNIT          VALUE    DESCRIPTION
#----------   ------------   ------------------------------
 EKB .F         5088.0000:   Kelly bushing
 EGL .F         5078.0000:   Ground level
 TD  .F         3225.0000:   Total depth
 CLNT.            A2DTECH:   Client Code
 SL  . 3107' FSL & 3680' FWL:   Surface Location
 PD  .                 GL:   Permanent Datum
 EPD .F              5078:   Elevation Permanent Datum
 LMF .                 KB:   Log Measured From
 DMF .                 KB:   Drilling Measured From
 DAPD.F                10:   Feet Above Permanent Datum
 DATE.        30-DEC-1980:   Date Logged [DD-MMM-YYYY]
 DD  .F              3225:   Depth driller
 DL  .F              3225:   Depth logger
 BLI .F              3219:   Bottom log interval
 TLI .F               190:   Top log interval
 CS1 .IN            8.625:   Casing size
 CBD1.      8.625" @ 205':   Casing driller 1
 CBL1.F               190:   Casing logger 1
 BS1 .IN            7.875:   Bit size
 BSD1.F              3225:   Depth drilled with bit1
 DFT .              FRESH:   Type fluid in hole
 DFD .                  9:   Density
 DFV .                 46:   Viscosity
 MSS .           MUD TANK:   Source of sample
 RMS .OHMM           2.47:   Rm
 MST .F                57:   Rm Meas. temp.
 RMF .OHMM           1.45:   Rmf
 MFST.F                57:   Rmf Meas. temp.
 MFSS.               MEAS:   Source Rmf.
 RMB .OHMM            1.2:   Rm. at BHT
 BHT .F               124:   BHT.
 TCS .HRS            0400:   Time Circ. stopped
 MRT .F               124:   Maximum recorded temp.
 LUN .               8034:   Logging unit number
 LUL .               CSPR:   Logging unit location
 ENGI.             LARSON:   Recorded By
 WITN.              FIVAS:   Witnessed by
 ORIG.        2" 5" PRINT:   Origin of data
 UWI .     49025108660000:   Unique Well ID
 DICO. A2D TECHNOLOGIES, INC:   Digitizing Company
 TLAB.HRS            2030:   Time logger at bottom
~OTHER INFORMATION
~A   DEPT       GRD      RHOB       CALD       CORR        SPR       TENR        ILD        ILM        SFL   
# ...
 1770.0000    96.9345     2.5623     8.5876     0.0280   -48.5992  1226.4150     6.6885     6.6645     7.5586
 1770.5000    97.9751     2.5504     8.6014     0.0237   -48.7212  1226.4150     6.5415     6.4250     7.4454
 1771.0000    99.3236     2.5406     8.6142     0.0171   -48.8431  1226.4150     6.3510     6.3279     7.3869
 1771.5000   101.1273     2.5452     8.6119     0.0179   -48.9646  1226.4150     6.2563     6.2773     7.4353
 1772.0000   102.6275     2.5583     8.6100     0.0255   -49.0869  1226.4150     6.2525     6.2721     7.6462
 1772.5000   102.2759     2.5753     8.6083     0.0350   -49.2409  1226.4150     6.2487     6.2657     7.4776
 1773.0000    98.3398     2.5652     8.6063     0.0295   -49.5342  1226.4150     6.1991     6.3529     7.0032
 1773.5000    97.1086     2.5513     8.6195     0.0200   -49.8233  1226.4150     6.1953     6.4852     6.7996
 1774.0000   100.4297     2.5528     8.6176     0.0170   -50.1145  1226.4150     6.1915     6.4794     7.1453
 1774.5000   102.5369     2.5682     8.6240     0.0170   -50.3950  1226.4150     6.1878     6.4268     7.4025
 1775.0000   105.5503     2.5822     8.6288     0.0162   -50.2329  1226.4150     6.1830     6.4216     7.2916
 1775.5000   107.0505     2.5713     8.6268     0.0162   -50.0448  1226.4150     6.2249     6.6520     7.0796
 1776.0000   105.6675     2.5557     8.6094     0.0162   -49.8587  1226.4150     6.3113     6.9405     7.0238
 1776.5000   102.7671     2.5526     8.6075     0.0165   -49.6732  1226.4150     6.4442     7.1378     7.0180
 1777.0000   100.6068     2.5675     8.6058     0.0170   -49.4877  1226.4150     6.6350     7.2341     7.1665
 1777.5000   101.5144     2.5743     8.6038     0.0185   -49.3022  1226.4150     6.7205     7.2282     7.4244
 1778.0000   104.9872     2.5758     8.6015     0.0196   -49.1167  1226.4150     6.7639     7.0169     7.9286
 1778.5000   104.5148     2.5758     8.6152     0.0209   -48.9312  1226.4150     6.8088     6.9594     8.2000
 1779.0000   103.4353     2.5749     8.6130     0.0231   -48.7455  1226.4150     6.8592     6.9537     8.0772
 1779.5000    98.5579     2.5780     8.6110     0.0255   -48.5581  1226.4150     6.9478     7.0505     7.8423
 1780.0000    97.3310     2.5772     8.6087     0.0278   -48.3734  1226.4150     7.0443     7.1457     7.8369
 1780.5000    99.2821     2.5710     8.6069     0.0161   -48.4726  1226.4150     7.0919     7.2435     7.8303
 1781.0000   102.9068     2.5663     8.6050     0.0190   -48.5917  1226.4150     7.1893     7.2900     7.9960
 1781.5000   104.2656     2.5756     8.6031     0.0238   -48.7096  1226.4150     7.2892     7.2826     8.5261
 1782.0000   104.9924     2.5957     8.6012     0.0293   -48.8271  1226.4150     7.3374     7.2766     8.8346
 1782.5000   105.5836     2.6057     8.5990     0.0359   -48.9447  1226.4150     7.3318     7.2705     8.8254
 1783.0000   106.6504     2.6026     8.5973     0.0391   -49.0628  1226.4150     7.3272     7.3173     8.5072
 1783.5000   108.2762     2.5995     8.5953     0.0402   -49.1786  1226.4150     7.3217     7.3099     8.3196
 1784.0000   108.1072     2.6018     8.5932     0.0402   -49.2034  1226.4150     7.3172     7.3039     8.3140
 1784.5000   106.7242     2.5971     8.5914     0.0402   -49.2240  1226.4150     7.3128     7.2978     8.3069
 1785.0000   103.3686     2.5846     8.5894     0.0402   -49.2450  1226.4150     7.3083     7.2381     8.3013
 1785.5000   100.6156     2.5660     8.5874     0.0397   -49.2661  1226.4150     7.3027     7.2322     8.2956
 1786.0000    99.6879     2.5683     8.5853     0.0394   -49.2873  1226.4150     7.2982     7.2263     8.2304
 1786.5000    99.5189     2.5691     8.6034     0.0386   -49.3084  1226.4150     7.2938     7.2203     8.2235
 1787.0000    99.6540     2.5706     8.6119     0.0378   -49.3297  1226.4150     7.2893     7.2653     8.1589
 1787.5000   100.2555     2.5752     8.6097     0.0378   -49.3514  1226.4150     7.2838     7.3119     8.1533
 1788.0000   100.8329     2.5807     8.6079     0.0370   -49.3710  1226.4150     7.2793     7.3603     8.1478
 1788.5000   100.6596     2.5844     8.6055     0.0378   -49.3056  1226.4150     7.2749     7.4097     8.2011
 1789.0000    99.8836     2.5844     8.6037     0.0378   -49.0260  1226.4150     7.2704     7.5060     8.3131
 1789.5000    98.6524     2.5844     8.6020     0.0377   -48.7501  1226.4150     7.3262     7.4999     8.5504
 1790.0000    97.1134     2.5828     8.6000     0.0362   -48.4730  1226.4150     7.4726     7.6042     8.9222
 1790.5000    95.4270     2.5789     8.5980     0.0343   -48.1946  1226.4150     7.5220     7.5964     9.1110
 1791.0000    94.9545     2.5719     8.5958     0.0328   -48.2256  1226.4150     7.5174     7.6452     8.9086
 1791.5000    96.4547     2.5687     8.5788     0.0299   -48.3042  1226.4150     7.5117     7.5825     8.7121
 1792.0000   101.1033     2.5734     8.5770     0.0279   -48.3834  1226.4150     7.4532     7.5763     8.5816
 1792.5000   104.7618     2.5873     8.5750     0.0247   -48.4617  1226.4150     7.4487     7.4608     8.5757
 1793.0000   105.3559     2.5849     8.5727     0.0189   -48.5406  1226.4150     7.3907     7.3474     8.6319
 1793.5000   105.1826     2.5779     8.5860     0.0162   -48.5764  1226.4150     7.3851     7.2363     8.5627
 1794.0000   104.7101     2.5656     8.5842     0.0158   -48.5894  1226.4150     7.3276     7.1784     8.3738
 1794.5000   103.9298     2.5704     8.5823     0.0204   -48.6021  1226.4150     7.2184     7.1725     8.2467
 1795.0000   102.6986     2.5833     8.5800     0.0313   -48.6148  1226.4150     7.1623     7.1652     8.1822
 1795.5000   100.4052     2.5956     8.5781     0.0470   -48.6275  1226.4150     7.0554     7.1594     8.1766
 1796.0000   100.5397     2.5964     8.5767     0.0376   -48.6402  1226.4150     7.0501     7.1535     8.2316
 1796.5000   102.4212     2.5845     8.5895     0.0388   -48.6530  1227.4689     7.0458     7.1995     8.2841
 1797.0000   104.1471     2.5738     8.5872     0.0401   -48.6657  1228.7563     7.0926     7.1921     8.3383
 1797.5000   103.5185     2.5808     8.5854     0.0415   -48.6784  1230.0438     7.1909     7.2397     8.1530
 1798.0000    99.1007     2.5885     8.5836     0.0430   -48.6911  1231.3312     7.2897     7.2847     8.0309
 1798.5000    94.9863     2.6063     8.5968     0.0440   -48.7039  1232.6187     7.3390     7.2788     8.0254
 1799.0000    96.7857     2.6109     8.5945     0.0461   -48.7166  1233.9060     7.3334     7.3255     9.1293
 1799.5000   101.3208     2.6093     8.6078     0.0492   -48.7293  1235.1935     7.3241     7.3180     9.3241
 1800.0000   104.4945     2.6054     8.6362     0.0541   -48.7424  1236.4810     7.2170     7.2595     8.8578
 1800.5000   103.8660     2.6000     8.6647     0.0593   -48.7546  1237.7683     7.1826     7.2548     8.1948
 1801.0000   101.7894     2.6040     8.6627     0.0614   -48.7699  1239.0558     7.1576     7.1982     7.6579
 1801.5000   100.4931     2.6115     8.6453     0.0602   -48.4855  1240.3431     6.9002     7.0398     7.4890
 1802.0000   100.9311     2.6029     8.6435     0.0554   -47.9853  1241.6306     6.6514     6.7331     7.5913
 1802.5000   100.4611     2.5889     8.6264     0.0481   -47.4807  1242.9180     6.6473     6.5882     7.8080
 1803.0000   100.2934     2.5850     8.6549     0.0459   -46.9727  1244.2054     6.6432     6.5368     7.9173
 1803.5000   100.1257     2.5873     8.6525     0.0459   -46.5511  1245.4929     6.6391     6.4858     7.9048
 1804.0000   100.7650     2.6028     8.6506     0.0463   -47.0615  1246.7803     6.6836     6.4818     8.0267
 1804.5000   102.5176     2.6075     8.6489     0.0474   -47.5662  1248.0677     6.8247     6.4768     8.1896
 1805.0000   104.0191     2.6017     8.6469     0.0396   -48.0604  1249.3552     6.8195     6.4263     8.1826
 1805.5000   104.9136     2.5701     8.6450     0.0273   -48.3264  1250.6426     6.8153     6.4223     8.0600
 1806.0000   106.4151     2.5561     8.6583     0.0171   -48.2164  1251.9301     6.8111     6.3723     7.8815
