~VERSION INFORMATION
 VERS.                2.0:   CWLS LOG ASCII STANDARD - VERSION 2.0
 WRAP.                 NO:   ONE LINE PER DEPTH STEP
~WELL INFORMATION
#MNEM.UNIT      DATA TYPE    INFORMATION
#----------   ------------   ------------------------------
 STRT.F           63.5000:   START DEPTH
 STOP.F         4112.0000:   STOP DEPTH
 STEP.F            0.5000:   STEP LENGTH
 NULL.          -999.2500:   NO VALUE
 COMP. LAWRENCE-ALLISON & ASSOC:   COMPANY
 WELL. LAWRENCE "X" #34-34:   WELL
 FLD .           N.P.R.#3:   FIELD
 LOC .      S34 T39N R78W:   LOCATION
 CNTY.            NATRONA:   COUNTY
 STAT.            WYOMING:   STATE
 CTRY. UNITED STATES OF AMERICA:   COUNTRY
 SRVC.      DRESSER ATLAS:   SERVICE COMPANY
 DATE.        19-OCT-1983:   LOGDATE
 API .     49025109440000:   API NUMBER
~CURVE INFORMATION
#MNEM.UNIT       API CODE    CURVE DESCRIPTION
#----------   ------------   ------------------------------
 DEPT.F                  :   
 AC  .US/F   60 250 00 00:   ACCOUSTIC
 TENS.LBS    60 635 01 00:   TENSION FROM SONIC
 ILD .OHMM   07 120 46 00:   DEEP INDUCTION RESISTIVITY
 ILM .OHMM   07 120 44 00:   INDUCTION LOG MEDIUM RESISTIVITY
 RFOC.OHMM   07 220 04 00:   RESISTIVITY FOCUSED LOG RES.
 TENR.LBS    07 635 01 00:   TENSION FROM RESISTIVITY
 SPR .MV     07 010 01 00:   SPONTANEOUS POTENTIAL
 GRR .GAPI   07 310 01 00:   GAMMA RAY FROM RESISTIVITY
 CALD.IN     45 280 60 00:   CALIPER FROM DENSITY LOG
 RHOB.G/C3   45 350 01 00:   BULK DENSITY
 CORR.G/C3   45 356 01 00:   DENSITY CORRECTION
 TEND.LBS    45 635 01 00:   TENSION FROM DENSITY LOG
 NPHI.DEC    42 890 03 00:   NEUTRON POROSITY SANDSTONE
~PARAMETER INFORMATION
#MNEM.UNIT          VALUE    DESCRIPTION
#----------   ------------   ------------------------------
 EKB .F         5100.0000:   Kelly bushing
 EGL .F         5090.0000:   Ground level
 TD  .F         4107.0000:   Total depth
 DATE.        19-OCT-1983:   Date logged
 CLNT.            A2DTECH:   Client Code
 SL  . 1997' FNL & 1661' FWL:   Surface Location
 PD  .                 GL:   Permanent Datum
 EPD .F              5090:   Elevation Permanent Datum
 LMF .                 KB:   Log Measured From
 DMF .                 KB:   Drilling Measured From
 DAPD.F                10:   Feet Above Permanent Datum
 DD  .F              4107:   Depth driller
 DL  .F              4102:   Depth logger
 BLI .F              4100:   Bottom log interval
 CS1 .IN            9.625:   Casing size
 CBD1.      9.625" @ 695':   Casing driller 1
 CBL1.F               696:   Casing logger 1
 BS1 .IN            7.875:   Bit size
 BSD1.F              4107:   Depth drilled with bit1
 DFT .            GEL-KCL:   Type fluid in hole
 DFD .                  9:   Density
 DFV .                 43:   Viscosity
 DFPH.                  9:   pH
 DFL .                 11:   Fluid loss
 MSS .           FLOWLINE:   Source of sample
 RMS .OHMM          0.313:   Rm
 MST .F                72:   Rm Meas. temp.
 RMF .OHMM          0.265:   Rmf
 MFST.F                68:   Rmf Meas. temp.
 RMC .OHMM          0.598:   Rmc
 MCST.F                68:   Rmc Meas. temp.
 MFSS.               MEAS:   Source Rmf.
 MCSS.               MEAS:   Source Rmc.
 RMB .OHMM          0.173:   Rm. at BHT
 BHT .F               130:   BHT.
 TCS .HRS               4:   Time Circ. stopped
 MRT .F               130:   Maximum recorded temp.
 LUN .               6774:   Logging unit number
 LUL .               GLTE:   Logging unit location
 ENGI.           FAHLEING:   Recorded By
 WITN.           JENNINGS:   Witnessed by
 ORIG.           5" PRINT:   Origin of data
 UWI .     49025109440000:   Unique Well ID
 DICO. A2D TECHNOLOGIES, INC.:   Digitizing Company
~OTHER INFORMATION
~A   DEPT       AC       TENS        ILD        ILM       RFOC       TENR        SPR         GRR      CALD       RHOB       CORR       TEND       NPHI   
# ...
 1805.5000  -999.2500  -999.2500     9.2810     8.9670    10.1830   -52.4320   -68.7160   203.2530     9.1510     2.4020    -0.0170   -36.0500     0.2960
 1806.0000  -999.2500  -999.2500     9.4020     9.2780    10.0480   -52.4320   -68.4390   199.2220     9.1500     2.3970    -0.0040   -35.6120     0.3070
 1806.5000  -999.2500  -999.2500     9.4800     9.4800     9.9330   -52.4320   -68.1620   185.3070     9.1490     2.3910     0.0020   -35.1740     0.3100
 1807.0000  -999.2500  -999.2500     9.3820     9.3990    10.4430   -51.8670   -67.8850   172.8200     9.1480     2.3860     0.0040   -34.7360     0.3110
 1807.5000  -999.2500  -999.2500     9.3090     9.3400    10.9040   -48.2340   -67.6050   166.2580     9.1470     2.3850     0.0060   -34.2980     0.3110
 1808.0000  -999.2500  -999.2500     9.2370     9.2800    11.0070   -44.6010   -67.5290   161.1360     9.1450     2.3880    -0.0110   -33.8600     0.3140
 1808.5000  -999.2500  -999.2500     9.1640     9.2180    10.5670   -40.9680   -67.5010   155.9490     9.1440     2.3930    -0.0330   -33.4220     0.3090
 1809.0000  -999.2500  -999.2500     9.1000     9.0940    10.1890   -37.3350   -67.4740   151.9630     9.1430     2.3960    -0.0570   -32.9840     0.3000
 1809.5000  -999.2500  -999.2500     9.0440     8.9660     9.8100   -33.7020   -67.4460   149.7730     9.1430     2.4000    -0.0570   -32.5460     0.2860
 1810.0000  -999.2500  -999.2500     8.9870     8.8370     9.4320   -35.2610   -67.4180   153.0040     9.1680     2.4030    -0.0490   -32.0030     0.2740
 1810.5000  -999.2500  -999.2500     8.9300     8.7090     9.0480   -40.6150   -67.3910   160.5310     9.2430     2.4060    -0.0420   -30.8110     0.2720
 1811.0000  -999.2500  -999.2500     8.8730     8.5810     9.2490   -45.9690   -67.3640   164.3530     9.2400     2.4100    -0.0340   -29.6190     0.2680
 1811.5000  -999.2500  -999.2500     8.8160     8.4520     9.4540   -51.3220   -67.4430   160.2310     9.2370     2.4180    -0.0250   -28.4270     0.2650
 1812.0000  -999.2500  -999.2500     8.7590     8.3240     9.6590   -50.7510   -67.6620   150.3350     9.2350     2.4300    -0.0170   -27.2340     0.2670
 1812.5000  -999.2500  -999.2500     8.7030     8.1960     9.3640   -48.6320   -67.8810   140.5010     9.2330     2.4430    -0.0070   -26.0420     0.2760
 1813.0000  -999.2500  -999.2500     8.6460     8.0670     8.9950   -46.5130   -68.1000   130.6880     9.2310     2.4550     0.0230   -24.8500     0.2820
 1813.5000  -999.2500  -999.2500     8.5890     7.8660     8.6260   -44.3940   -68.3190   121.7490     9.2290     2.4680     0.0310   -23.6580     0.2800
 1814.0000  -999.2500  -999.2500     8.5210     8.0200     8.4360   -42.2750   -68.5380   116.6430     9.2260     2.4780     0.0240   -22.4650     0.2720
 1814.5000  -999.2500  -999.2500     8.4360     8.2110     8.3700   -40.1550   -68.6070   118.0950     9.2240     2.4870     0.0080   -23.0120     0.2700
 1815.0000  -999.2500  -999.2500     8.3300     8.3970     8.3190   -38.0360   -68.6540   119.0020     9.2220     2.4830    -0.0070   -24.5340     0.2670
 1815.5000  -999.2500  -999.2500     8.3760     8.3610     8.3940   -35.9170   -68.7000   119.1750     9.2200     2.4770     0.0040   -26.0570     0.2580
 1816.0000  -999.2500  -999.2500     8.4670     8.3170     8.5140   -33.7980   -68.7460   119.4030     9.2180     2.4720     0.0150   -27.5800     0.2520
 1816.5000  -999.2500  -999.2500     8.5550     8.2730     8.6340   -32.6090   -68.7930   120.6360     9.2160     2.4670     0.0250   -29.1030     0.2600
 1817.0000  -999.2500  -999.2500     8.4380     8.2290     8.7850   -34.5160   -68.8390   123.9670     9.2130     2.4680     0.0210   -30.6250     0.2690
 1817.5000  -999.2500  -999.2500     8.3290     8.1840     8.7200   -36.4240   -68.8860   123.8870     9.2110     2.4700     0.0170   -32.1480     0.2690
 1818.0000  -999.2500  -999.2500     8.2230     8.1400     8.5970   -38.3310   -68.9320   123.4180     9.2090     2.4710     0.0130   -33.6710     0.2710
 1818.5000  -999.2500  -999.2500     8.1170     8.0960     8.4740   -40.2380   -68.9790   123.0990     9.2070     2.4730     0.0100   -35.1940     0.2830
 1819.0000  -999.2500  -999.2500     8.0100     7.9390     8.3520   -42.1450   -69.0250   124.4890     9.2050     2.4760     0.0100   -36.7160     0.2890
 1819.5000  -999.2500  -999.2500     7.9040     7.7610     8.2290   -44.0530   -69.0710   126.4140     9.2020     2.4790     0.0090   -38.2390     0.2840
 1820.0000  -999.2500  -999.2500     7.7980     7.5830     8.1060   -45.9600   -69.1180   127.6050     9.2000     2.4820     0.0100   -39.7620     0.2750
 1820.5000  -999.2500  -999.2500     7.6920     7.4060     7.9830   -47.8670   -69.1640   128.7810     9.1980     2.4830     0.0120   -41.2850     0.2730
 1821.0000  -999.2500  -999.2500     7.5850     7.2280     7.8610   -49.7750   -69.2110   130.6330     9.1960     2.4830     0.0140   -42.8070     0.2750
 1821.5000  -999.2500  -999.2500     7.4790     7.0890     7.7380   -51.6820   -69.2570   132.6730     9.1940     2.4820     0.0160   -44.3300     0.2730
 1822.0000  -999.2500  -999.2500     7.3730     7.0520     7.6490   -53.5890   -69.3040   133.9240     9.1910     2.4800     0.0200   -45.8530     0.2690
 1822.5000  -999.2500  -999.2500     7.2660     7.0150     8.0160   -55.4960   -69.3510   131.2890     9.1890     2.4780     0.0230   -47.3760     0.2700
 1823.0000  -999.2500  -999.2500     7.2130     6.9780     8.1650   -57.4040   -69.4420   128.3660     9.1870     2.4790     0.0270   -48.8990     0.2750
 1823.5000  -999.2500  -999.2500     7.1830     6.9410     8.1650   -59.3110   -69.6130   128.8280     9.1850     2.4790     0.0200   -50.4210     0.2830
 1824.0000  -999.2500  -999.2500     7.1540     6.9040     8.0970   -61.2180   -69.7830   131.3310     9.1830     2.4770    -0.0200   -51.9440     0.2890
 1824.5000  -999.2500  -999.2500     7.1250     6.8670     7.8610   -62.5630   -69.9540   132.1790     9.1810     2.4740    -0.0290   -52.0740     0.2960
 1825.0000  -999.2500  -999.2500     7.0990     6.8300     7.6250   -62.5630   -70.1240   131.5980     9.1800     2.4760    -0.0240   -51.5480     0.3040
 1825.5000  -999.2500  -999.2500     6.9980     6.7930     7.4380   -62.5630   -70.2950   134.4440     9.1790     2.4860     0.0000   -51.0230     0.3090
 1826.0000  -999.2500  -999.2500     6.9070     6.7200     7.4550   -62.5630   -70.4650   138.7410     9.1780     2.4970     0.0150   -50.4970     0.3160
 1826.5000  -999.2500  -999.2500     6.8150     6.6100     7.4710   -62.5630   -70.6370   142.1010     9.1770     2.5020     0.0270   -49.9710     0.3230
 1827.0000  -999.2500  -999.2500     6.7230     6.5010     7.4870   -62.5630   -70.7940   140.4270     9.1760     2.5050     0.0390   -49.4450     0.3160
 1827.5000  -999.2500  -999.2500     6.6320     6.3910     7.5030   -62.5630   -70.6640   134.5960     9.1750     2.5080     0.0510   -48.9190     0.3070
 1828.0000  -999.2500  -999.2500     6.5560     6.2810     7.5080   -62.5630   -70.5260   130.9130     9.1740     2.5050     0.0620   -48.3930     0.2950
 1828.5000  -999.2500  -999.2500     6.4950     6.2290     7.3460   -62.5630   -70.3890   128.8140     9.1730     2.5010     0.0390   -47.8680     0.2820
 1829.0000  -999.2500  -999.2500     6.4350     6.2290     7.0400   -62.5630   -70.2540   127.8330     9.1720     2.4990     0.0120   -47.3420     0.2750
 1829.5000  -999.2500  -999.2500     6.4060     6.2650     6.7120   -62.5630   -70.1210   127.2740     9.1710     2.4990     0.0190   -46.8160     0.2790
 1830.0000  -999.2500  -999.2500     6.5220     6.3320     6.9130   -62.5630   -69.9520   129.9340     9.1700     2.4980     0.0270   -46.2900     0.2880
 1830.5000  -999.2500  -999.2500     6.6090     6.3990     7.2320   -62.5630   -69.8850   132.0530     9.1690     2.4970     0.0290   -45.7640     0.2950
 1831.0000  -999.2500  -999.2500     6.6960     6.4660     7.3240   -62.5630   -69.9820   132.9910     9.1680     2.4960     0.0310   -45.2390     0.3030
