~VERSION INFORMATION
 VERS.                2.0:   CWLS LOG ASCII STANDARD - VERSION 2.0
 WRAP.                 NO:   ONE LINE PER DEPTH STEP
~WELL INFORMATION
#MNEM.UNIT      DATA TYPE    INFORMATION
#----------   ------------   ------------------------------
 STRT.F           46.5000:   START DEPTH
 STOP.F         3160.0000:   STOP DEPTH
 STEP.F            0.5000:   STEP LENGTH
 NULL.          -999.2500:   NO VALUE
 COMP. LAWRENCE ALLISON & WEST:   COMPANY
 WELL. LAWRENCE NPR 3 "AX" #42-34:   WELL
 FLD .                NPR:   FIELD
 LOC .      S34 T39N R78W:   LOCATION
 CNTY.            NATRONA:   COUNTY
 STAT.            WYOMING:   STATE
 CTRY. UNITED STATES OF AMERICA:   COUNTRY
 SRVC.      WESTERN ATLAS:   SERVICE COMPANY
 DATE.        19-OCT-1987:   LOGDATE
 API .     49025111830000:   API NUMBER
~CURVE INFORMATION
#MNEM.UNIT       API CODE    CURVE DESCRIPTION
#----------   ------------   ------------------------------
 DEPT.F                  :   
 CALD.IN     45 280 60 00:   CALIPER FROM DENSITY LOG
 DEN .LBS    45 635 01 00:   BUCK DENSITY
 CORR.G/C3   45 356 01 00:   DENSITY CORRECTION
 NPOR.DEC    42 890 03 00:   ALPHA PROCESSED NEUTRON POROSITY
 SPR .MV     07 010 01 00:   SPONTANEOUS POTENTIAL
 GRR .GAPI   07 310 01 00:   GAMMA RAY FROM RESISTIVITY
 RFOC.OHMM   07 220 04 00:   RESISTIVITY FOCUSED LOG RES.
 RILD.OHMM   07 120 46 00:   DEEP INDUCTION RESISTIVITY
 RILM.OHMM   07 120 44 00:   INDUCTION LOG MEDIUM RESISTIVITY
 TENR.LBS    07 635 01 00:   TENSION FROM RESISTIVITY
~PARAMETER INFORMATION
#MNEM.UNIT          VALUE    DESCRIPTION
#----------   ------------   ------------------------------
 EKB .F         5088.0000:   Kelly bushing
 EGL .F         5077.0000:   Ground level
 EDF .F         5087.0000:   Drilling floor
 TD  .F         3151.0000:   Total depth
 DATE.        19-OCT-1987:   Date logged
 CLNT.            A2DTECH:   Client Code
 SL  . 1032' FNL & 2316' FWL:   Surface Location
 PD  .                 GL:   Permanent Datum
 EPD .F              5077:   Elevation Permanent Datum
 LMF .                 KB:   Log Measured From
 DMF .                 KB:   Drilling Measured From
 DAPD.F                11:   Feet Above Permanent Datum
 DD  .F              3151:   Depth driller
 DL  .F              3151:   Depth logger
 BLI .F              3149:   Bottom log interval
 TLI .F                50:   Top log interval
 CS1 .IN            8.625:   Casing size
 CBD1.      8.625" @ 693':   Casing driller 1
 CBL1.F               693:   Casing logger 1
 BS1 .IN            7.875:   Bit size
 BSD1.F              3151:   Depth drilled with bit1
 DFT .        KCL/POLYMER:   Type fluid in hole
 DFD .                9.2:   Density
 DFV .                 53:   Viscosity
 DFPH.                9.5:   pH
 DFL .               11.8:   Fluid loss
 MSS .            MUD/PIT:   Source of sample
 RMS .OHMM           .441:   Rm
 MST .F                66:   Rm Meas. temp.
 RMF .OHMM           .336:   Rmf
 MFST.F                66:   Rmf Meas. temp.
 RMC .OHMM           .711:   Rmc
 MCST.F                66:   Rmc Meas. temp.
 MFSS.               MEAS:   Source Rmf.
 MCSS.               MEAS:   Source Rmc.
 RMB .OHMM           .244:   Rm. at BHT
 BHT .F               119:   BHT.
 TCS .HRS               3:   Time Circ. stopped
 MRT .F               119:   Maximum recorded temp.
 LUN .            HL-6343:   Logging unit number
 LUL .               CODY:   Logging unit location
 ENGI.               JULL:   Recorded By
 WITN.             STRONG:   Witnessed by
 ORIG.           5" PRINT:   Origin of data
 UWI .     49025111830000:   Unique Well ID
 DICO. A2D TECHNOLOGIES, INC.:   Digitizing Company
~OTHER INFORMATION
~A   DEPT     CALD        DEN       CORR       NPOR        SPR         GRR      RFOC       RILD       RILM       TENR   
# ...
  884.0000  -999.2500  -999.2500  -999.2500  -999.2500   -17.4874   107.4255     9.7265     9.5809     8.6473   -97.6083
  884.5000  -999.2500  -999.2500  -999.2500  -999.2500   -17.2896   107.8212     9.7236     9.5786     8.6447  -107.4295
  885.0000  -999.2500  -999.2500  -999.2500  -999.2500   -17.2946   107.8113     9.7207     9.5752     8.5619  -107.0714
  885.5000  -999.2500  -999.2500  -999.2500  -999.2500   -17.5034   105.3653     9.7178     9.5723     8.5593  -106.7729
  886.0000  -999.2500  -999.2500  -999.2500  -999.2500   -17.3045   104.5441     9.7154     9.5694     8.5568  -116.5943
  886.5000  -999.2500  -999.2500  -999.2500  -999.2500   -18.1208   101.6944     9.7125     9.5665     8.5542  -106.1760
  887.0000  -999.2500  -999.2500  -999.2500  -999.2500   -17.7201    99.6561     9.7096     9.5636     8.5521  -105.8775
  887.5000  -999.2500  -999.2500  -999.2500  -999.2500   -17.5223    98.4291     9.7061     9.5613     8.6291  -105.5791
  888.0000  -999.2500  -999.2500  -999.2500  -999.2500   -16.7159   101.6646     9.7038     9.5585     8.6265  -105.2806
  888.5000  -999.2500  -999.2500  -999.2500  -999.2500   -16.9247   105.7055     9.7003     9.5550     8.6239  -104.9821
  889.0000  -999.2500  -999.2500  -999.2500  -999.2500   -16.9297   107.7239     9.6968     9.5516     8.7015  -104.6836
  889.5000  -999.2500  -999.2500  -999.2500  -999.2500   -17.3403   105.6856     9.6939     9.5487     8.7803  -104.3852
  890.0000  -999.2500  -999.2500  -999.2500  -999.2500   -17.3473   104.4587     9.6910     9.5464     8.7777   -83.7864
  890.5000  -999.2500  -999.2500  -999.2500  -999.2500   -17.5531   107.2865     9.6880     9.5429     8.7756  -103.7285
  891.0000  -999.2500  -999.2500  -999.2500  -999.2500   -17.7609   110.1220     9.7763     9.5407     8.8245  -103.4300
  891.5000  -999.2500  -999.2500  -999.2500  -999.2500   -17.7659   109.7064     9.7728     9.5378     8.7401  -103.1315
  892.0000  -999.2500  -999.2500  -999.2500  -999.2500   -17.5680   101.5772     9.7699     9.5343     8.7380  -102.8330
  892.5000  -999.2500  -999.2500  -999.2500  -999.2500   -17.5730    94.6727     9.8565     9.5315     8.6534  -102.5345
  893.0000  -999.2500  -999.2500  -999.2500  -999.2500   -17.7808    95.4780     9.8546     9.5286     8.5716  -102.2360
  893.5000  -999.2500  -999.2500  -999.2500  -999.2500   -18.3962    99.5191     9.8524     9.4362     8.4099  -101.9375
  894.0000  -999.2500  -999.2500  -999.2500  -999.2500   -19.0087   101.5375     9.6677     9.3132     8.2523  -101.6390
  894.5000  -999.2500  -999.2500  -999.2500  -999.2500   -19.6222   105.5842     9.4859     9.1917     8.1728  -101.3405
  895.0000  -999.2500  -999.2500  -999.2500  -999.2500   -19.8300   105.9837     9.2218     9.0837     8.1703  -100.9823
  895.5000  -999.2500  -999.2500  -999.2500  -999.2500   -19.8350   105.6308     9.1336     8.9962     8.1678  -100.6838
  896.0000  -999.2500  -999.2500  -999.2500  -999.2500   -19.6371    98.6560     9.1308     8.9940     8.1655   -80.1434
  896.5000  -999.2500  -999.2500  -999.2500  -999.2500   -19.2364    94.9987     9.1281     8.9079     8.1630  -100.0867
  897.0000  -999.2500  -999.2500  -999.2500  -999.2500   -19.2414    96.6135     9.1253     8.9047     8.1605  -109.9092
  897.5000  -999.2500  -999.2500  -999.2500  -999.2500   -19.2464   105.1169     9.1226     8.9025     8.1581   -99.4897
  898.0000  -999.2500  -999.2500  -999.2500  -999.2500   -18.8457   112.0034     9.1199     8.8999     8.1561  -129.5545
  898.5000  -999.2500  -999.2500  -999.2500  -999.2500   -19.2573   112.0011     9.1171     8.8972     8.1537   -98.8926
  899.0000  -999.2500  -999.2500  -999.2500  -999.2500   -19.0594   109.5552     9.1144     8.8945     8.1507   -98.5941
  899.5000  -999.2500  -999.2500  -999.2500  -999.2500   -18.8616   102.2392     9.1111     8.9740     8.0722   -98.2955
  900.0000  -999.2500  -999.2500  -999.2500  -999.2500   -17.8524   102.2275     9.0239     9.0553     8.0703   -57.4519
  900.5000  -999.2500  -999.2500  -999.2500  -999.2500   -18.2672   100.1446     8.9478     9.0525     8.0113   -83.1124
  901.0000  -999.2500  -999.2500  -999.2500  -999.2500   -18.4740    98.5506     8.9371     9.1369     7.9181   -87.3221
  901.5000  -999.2500  -999.2500  -999.2500  -999.2500   -18.6834   100.1613     8.9355     9.1353     7.9170   -87.0753
  902.0000  -999.2500  -999.2500  -999.2500  -999.2500   -19.0957   102.5831     8.9340     9.0435     7.8420   -96.9496
  902.5000  -999.2500  -999.2500  -999.2500  -999.2500   -19.3051   105.4105     9.1845     8.9634     7.8406  -106.8236
  903.0000  -999.2500  -999.2500  -999.2500  -999.2500   -19.3117   106.6153     9.1836     8.8787     7.8393  -106.5767
  903.5000  -999.2500  -999.2500  -999.2500  -999.2500   -19.3183   105.3864     9.0128     8.7132     7.8379  -106.3297
  904.0000  -999.2500  -999.2500  -999.2500  -999.2500   -20.3402   103.7519     8.8450     8.6308     7.8366   -95.9623
  904.5000  -999.2500  -999.2500  -999.2500  -999.2500   -20.5496   104.9566     8.7615     8.6293     7.8352   -95.7155
  905.0000  -999.2500  -999.2500  -999.2500  -999.2500   -20.5561   106.9725     8.7596     8.6275     7.8341   -95.4686
  905.5000  -999.2500  -999.2500  -999.2500  -999.2500   -20.5627   105.3381     8.7581     8.6260     7.8322   -95.1725
  906.0000  -999.2500  -999.2500  -999.2500  -999.2500   -20.3665   104.1093     8.8385     8.6245     7.9046   -84.8055
  906.5000  -999.2500  -999.2500  -999.2500  -999.2500   -20.9814   101.2559     8.9196     8.6230     7.9028   -94.6789
  907.0000  -999.2500  -999.2500  -999.2500  -999.2500   -21.1855   102.8661     9.0857     8.6215     7.9277   -94.4321
  907.5000  -999.2500  -999.2500  -999.2500  -999.2500   -21.6029   104.8819     9.1691     8.7007     8.0006   -94.1853
  908.0000  -999.2500  -999.2500  -999.2500  -999.2500   -21.4066   106.8975     9.1674     8.7806     8.0741  -104.0583
  908.5000  -999.2500  -999.2500  -999.2500  -999.2500   -20.8049   109.3186     9.1652     8.7791     7.8972   -93.6918
  909.0000  -999.2500  -999.2500  -999.2500  -999.2500   -20.0004   112.1451     9.1638     8.7776     7.8959  -113.6347
  909.5000  -999.2500  -999.2500  -999.2500  -999.2500   -19.8042   110.9170     9.1626     8.7760     7.8945  -113.4371
  910.0000  -999.2500  -999.2500  -999.2500  -999.2500   -20.2176   106.8546     8.9920     8.7745     7.8934  -113.1901
  910.5000  -999.2500  -999.2500  -999.2500  -999.2500   -20.6297   105.2205     8.9901     8.7726     7.8915  -112.9432
  911.0000  -999.2500  -999.2500  -999.2500  -999.2500   -20.8377   108.4469     8.9053     8.7711     7.8901  -112.6469
  911.5000  -999.2500  -999.2500  -999.2500  -999.2500   -21.2018   108.0293     8.9037     8.7699     7.8890  -102.2809
  912.0000  -999.2500  -999.2500  -999.2500  -999.2500   -20.4467   107.2062     8.9022     8.6867     7.8145  -102.0341
  912.5000  -999.2500  -999.2500  -999.2500  -999.2500   -20.6560   107.1941     8.8181     8.6046     7.8129  -101.7872
  913.0000  -999.2500  -999.2500  -999.2500  -999.2500   -20.2571   107.5850     8.8166     8.5233     7.8118  -101.5404
  913.5000  -999.2500  -999.2500  -999.2500  -999.2500   -20.0609   108.7892     8.7334     8.4428     7.7378  -101.2936
  914.0000  -999.2500  -999.2500  -999.2500  -999.2500   -19.6608   109.9934     8.7321     8.4413     7.7365  -101.0468
  914.5000  -999.2500  -999.2500  -999.2500  -999.2500   -20.8850   109.5758     8.7303     8.3615     7.7354  -100.8000
  915.0000  -999.2500  -999.2500  -999.2500  -999.2500   -21.2969   107.5366     8.7288     8.2825     7.5911  -100.5532
  915.5000  -999.2500  -999.2500  -999.2500  -999.2500   -21.2983   106.3082     8.5663     8.2811     7.5898  -100.3063
  916.0000  -999.2500  -999.2500  -999.2500  -999.2500   -21.5141   107.1070     8.3289     8.2028     7.5182  -120.2958
  916.5000  -999.2500  -999.2500  -999.2500  -999.2500   -21.3179   107.9057     8.2500     8.2011     7.5166   -99.7634
  917.0000  -999.2500  -999.2500  -999.2500  -999.2500   -21.3245   108.2989     8.3257     8.1997     7.5153   -99.5166
