~VERSION INFORMATION
 VERS.                2.0:   CWLS LOG ASCII STANDARD - VERSION 2.0
 WRAP.                 NO:   ONE LINE PER DEPTH STEP
~WELL INFORMATION
#MNEM.UNIT      DATA TYPE    INFORMATION
#----------   ------------   ------------------------------
 STRT.F          198.0000:   START DEPTH
 STOP.F         3140.0000:   STOP DEPTH
 STEP.F            0.5000:   STEP LENGTH
 NULL.          -999.2500:   NO VALUE
 COMP.    FENIX & SCISSON:   COMPANY
 WELL. FENIX NPR 3 "AX" #43-34:   WELL
 FLD .                NPR:   FIELD
 LOC .      S34 T39N R78W:   LOCATION
 CNTY.            NATRONA:   COUNTY
 STAT.            WYOMING:   STATE
 CTRY. UNITED STATES OF AMERICA:   COUNTRY
 SRVC.              WELEX:   SERVICE COMPANY
 DATE.        02-JUL-1977:   LOGDATE
 API .     49025103890000:   API NUMBER
~CURVE INFORMATION
#MNEM.UNIT       API CODE    CURVE DESCRIPTION
#----------   ------------   ------------------------------
 DEPT.F                  :   
 CALD.IN     45 280 60 00:   CALIPER FROM DENSITY LOG
 GRD .GAPI   45 310 01 00:   GAMMA RAY FROM DENSITY LOG
 RHOB.G/C3   45 350 01 00:   BULK DENSITY
 CORR.G/C3   45 356 01 00:   DENSITY CORRECTION
 SPR .MV     07 010 01 00:   SPONTANEOUS POTENTIAL
 SFLU.OHMM   07 220 01 00:   SPHERICALLY FOCUSED LOG UNAVERAGED RESISTIVITY
 ILD .OHMM   07 120 46 00:   DEEP INDUCTION RESISTIVITY
 ILM .OHMM   07 120 44 00:   INDUCTION LOG MEDIUM RESISTIVITY
~PARAMETER INFORMATION
#MNEM.UNIT          VALUE    DESCRIPTION
#----------   ------------   ------------------------------
 EKB .F         5118.0000:   Kelly bushing
 EGL .F         5108.0000:   Ground level
 TD  .F         3145.0000:   Total depth
 DATE.        02-JUL-1977:   Date logged
 CLNT.            A2DTECH:   Client Code
 SL  . 1650' FNL & 2310' FWL:   Surface Location
 PD  .                 GL:   Permanent Datum
 EPD .F              5108:   Elevation Permanent Datum
 LMF .                 KB:   Log Measured From
 DMF .                 KB:   Drilling Measured From
 DAPD.F                10:   Feet Above Permanent Datum
 DD  .F              3145:   Depth driller
 DL  .F              3143:   Depth logger
 BLI .F              3141:   Bottom log interval
 TLI .F               200:   Top log interval
 CS1 .IN            8.625:   Casing size
 CBD1.      8.625" @ 203':   Casing driller 1
 CBL1.F               224:   Casing logger 1
 BS1 .IN            7.875:   Bit size
 BSD1.F              3145:   Depth drilled with bit1
 DFT .            KCL/MUD:   Type fluid in hole
 DFD .                  9:   Density
 DFV .                 34:   Viscosity
 DFPH.                7.5:   pH
 DFL .                9.2:   Fluid loss
 MSS .           FLOWLINE:   Source of sample
 RMS .OHMM            .18:   Rm
 MST .F                75:   Rm Meas. temp.
 RMF .OHMM            .16:   Rmf
 MFST.F                75:   Rmf Meas. temp.
 RMC .OHMM            .30:   Rmc
 MCST.F                75:   Rmc Meas. temp.
 MFSS.               FANN:   Source Rmf.
 MCSS.                KIT:   Source Rmc.
 RMB .OHMM            .11:   Rm. at BHT
 BHT .F               118:   BHT.
 TCS .HRS            3.75:   Time Circ. stopped
 MRT .F               118:   Maximum recorded temp.
 LUN .               8766:   Logging unit number
 LUL .             CASPER:   Logging unit location
 ENGI.          T. JOYNER:   Recorded By
 WITN.     W. PETTNG/GILL:   Witnessed by
 ORIG.           5" PRINT:   Origin of data
 UWI .     49025103890000:   Unique Well ID
 DICO. A2D TECHNOLOGIES, INC.:   Digitizing Company
~OTHER INFORMATION
~A   DEPT     CALD         GRD        RHOB     CORR        SPR       SFLU        ILD        ILM   
# ...
 1372.5000     8.4571   124.5372     2.4925     0.0232   -49.0908     9.3627     7.2909     7.2909
 1373.0000     8.4568   126.1185     2.4885     0.0232   -49.0925     9.5357     7.2909     7.2909
 1373.5000     8.4565   123.3350     2.4855     0.0232   -49.0950     9.5357     7.4259     7.2909
 1374.0000     8.4562   123.7259     2.4835     0.0191   -49.0966     9.5357     6.9151     7.2909
 1374.5000     8.4559   125.7039     2.4835     0.0191   -49.0990     9.5357     6.7750     7.2909
 1375.0000     8.4555   126.8884     2.4785     0.0151   -49.1006     9.5357     6.6518     7.0282
 1375.5000     8.4552   128.0729     2.4764     0.0151   -49.1030     9.5357     6.7750     7.0282
 1376.0000     8.4550   130.0509     2.4764     0.0150   -49.1046     9.5357     7.0282     7.1584
 1376.5000     8.4547   130.0450     2.4983     0.0150   -49.1070     9.5357     7.2909     7.1584
 1377.0000     8.4544   129.6423     2.5063     0.0230   -49.1087     9.5357     7.5634     7.4259
 1377.5000     8.4542   127.6524     2.5103     0.0309   -49.1111     9.3627     7.5634     7.5634
 1378.0000     8.4537   127.2497     2.5102     0.0308   -49.1128     9.5357     7.5634     7.7035
 1378.5000     8.4534   128.8310     2.5082     0.0308   -49.1152     9.5357     7.4259     7.7035
 1379.0000     8.4533   131.6026     2.5042     0.0268   -49.1168     9.3627     7.0282     7.2909
 1379.5000     8.4330   133.1839     2.5022     0.0228   -49.1192     9.3627     7.0282     6.9005
 1380.0000     8.4327   131.1940     2.5022     0.0227   -49.1208     9.3627     7.0282     6.9005
 1380.5000     8.4325   131.1881     2.5082     0.0267   -49.1232     9.3627     7.0282     7.0282
 1381.0000     8.4322   133.5629     2.5101     0.0346   -49.1249    10.0741     7.2909     7.1584
 1381.5000     8.4318   130.3783     2.5141     0.0346   -49.1273     9.9596     7.2909     7.4259
 1382.0000     8.4316   132.3607     2.5201     0.0386   -49.1289     9.9596     7.4259     7.5634
 1382.5000     8.4312   133.9420     2.5240     0.0465   -49.1313     9.9596     7.4259     7.5634
 1383.0000     8.4309   132.3489     2.5280     0.0465   -49.1330     9.7785     6.9005     7.5634
 1383.5000     8.4307   134.7237     2.5280     0.0505   -49.1354     9.7119     6.9005     7.5634
 1384.0000     8.4305   132.7306     2.5280     0.0504   -49.1370     9.7119     6.7750     7.4259
 1384.5000     8.4301   135.5055     2.5280     0.0504   -49.1394     9.7119     6.7750     7.2909
 1385.0000     8.4298   138.2763     2.5260     0.0583   -49.1410     9.3627     6.7750     7.2909
 1385.5000     8.4295   133.9057     2.5259     0.0503   -49.1435     9.3627     6.7750     7.2909
 1386.0000     8.4290   137.4717     2.5259     0.0503   -49.1451     9.3627     6.7750     7.2909
 1386.5000     8.4289   136.2754     2.5219     0.0502   -49.1475     9.1928     7.0282     7.2909
 1387.0000     8.4286   138.6503     2.5179     0.0502   -49.1491     9.1928     6.9005     7.4259
 1387.5000     8.4283   137.8508     2.5109     0.0462   -49.1515     9.1928     7.0287     7.4259
 1388.0000     8.4280   137.4481     2.4999     0.0422   -49.1532     9.1928     7.1584     7.7035
 1388.5000     8.4276   140.2153     2.4979     0.0381   -49.1556     9.5357     7.1584     7.7035
 1389.0000     8.4273   137.8330     2.4979     0.0381   -49.1572     9.3627     6.9005     7.7035
 1389.5000     8.4270   134.2560     2.4989     0.0421   -49.1596     9.3627     6.4122     7.5634
 1390.0000     8.4268   134.2500     2.5038     0.0341   -49.1612     9.1928     6.4122     7.4259
 1390.5000     8.4265   133.4505     2.5148     0.0460   -49.1637     9.1928     6.2956     7.1584
 1391.0000     8.4262   133.8414     2.5158     0.0500   -49.1653     9.1928     6.4122     7.1584
 1391.5000     8.4259   132.6451     2.5197     0.0579   -49.1677     9.1928     6.7750     7.1584
 1392.0000     8.4256   132.6392     2.5227     0.0579   -49.1693     9.1928     6.9005     7.1584
 1392.5000     8.4253   132.2365     2.5257     0.0618   -49.1717     9.3627     6.9005     7.1584
 1393.0000     8.4250   131.0390     2.5277     0.0658   -49.1734     9.3627     6.9005     7.1584
 1393.5000     8.4247   129.8427     2.5296     0.0657   -49.1758     9.7119     6.7750     7.2909
 1394.0000     8.4244   129.0432     2.5276     0.0657   -49.1774    10.0741     6.6518     7.2909
 1394.5000     8.4241   128.2437     2.5276     0.0657   -49.1798    10.6428     6.5309     7.2909
 1395.0000     8.4238   127.8410     2.5336     0.0696   -49.1814     9.5357     6.4122     7.2909
 1395.5000     8.4235   131.4062     2.5415     0.0696   -49.1838     9.7119     6.4122     7.2909
 1396.0000     8.4232   133.3822     2.5415     0.0696   -49.1854     9.7119     6.4122     7.2909
 1396.5000     8.4229   130.5952     2.5455     0.0735   -49.1879     9.3627     6.5309     7.2909
 1397.0000     8.4226   132.9756     2.5415     0.0735   -49.1895     9.3627     6.6518     7.2909
 1397.5000     8.4223   132.1761     2.5275     0.0575   -49.1919     9.3627     6.6518     7.1584
 1398.0000     8.4220   129.7894     2.5195     0.0495   -49.1935     9.3627     6.5309     7.0282
 1398.5000     8.4217   128.9899     2.5115     0.0455   -49.1959     9.1928     6.4122     7.0282
 1399.0000     8.4214   128.5872     2.4976     0.0375   -49.1975     9.1928     6.4122     7.0282
 1399.5000     8.4211   128.5813     2.4995     0.0335   -49.1999     9.1928     6.2956     6.9005
 1400.0000     8.4208   128.9722     2.4995     0.0334   -49.2015     9.1928     6.2956     6.9005
 1400.5000     8.4205   127.0562     2.5013     0.0367   -49.2042     9.3261     6.2956     6.8264
 1401.0000     8.4203   125.3914     2.5055     0.0374   -49.2152     9.3610     6.2946     6.7906
 1401.5000     8.4200   124.1962     2.5075     0.0453   -49.2247     9.3598     6.2935     6.7731
 1402.0000     8.4197   125.7765     2.5114     0.0453   -49.2311     9.3590     6.4095     6.7722
 1402.5000     8.4590   122.5985     2.5174     0.0453   -49.2407     9.5308     6.4086     6.7713
 1403.0000     8.4589   124.9757     2.5164     0.0532   -49.2471     9.7060     6.4078     6.7706
 1403.5000     8.4587   122.1922     2.5124     0.0492   -49.2567     9.7710     6.4071     6.7697
 1404.0000     8.4584   126.1526     2.5104     0.0412   -49.2631     9.3065     6.4065     6.7691
 1404.5000     8.4581   122.9773     2.5094     0.0412   -49.2726     8.8641     6.0626     6.7685
 1405.0000     8.4578   122.1789     2.5094     0.0372   -49.2790     8.4347     5.9518     6.5240
 1405.5000     8.4775   122.5710     2.5094     0.0372   -49.2886     9.1821     5.9512     6.2877
 1406.0000     8.4771   124.9473     2.5094     0.0372   -49.2950     8.8508     5.9507     6.2872
 1406.5000     8.4769   128.5083     2.5173     0.0411   -49.3046     8.8504     5.8414     6.2863
 1407.0000     8.4767   126.5253     2.5253     0.0411   -49.3110     8.8497     5.8406     6.2857
 1407.5000     8.4764   126.5206     2.5263     0.0451   -49.3206     8.6879     5.8406     6.2852
 1408.0000     8.4362   128.5002     2.5273     0.0451   -49.3269     8.6868     5.8397     6.2846
 1408.5000     8.4360   127.3049     2.5273     0.0450   -49.3365     8.6860     5.8386     6.2837
 1409.0000     8.4159   129.2845     2.5302     0.0490   -49.3429     8.6853     5.8381     6.2831
 1409.5000     8.4157   128.8830     2.5322     0.0490   -49.3525     8.6838     5.8376     6.2820
 1410.0000     8.4153   127.6876     2.5352     0.0490   -49.3589     8.6830     5.8370     6.2814
 1410.5000     8.4152   127.6829     2.5372     0.0490   -49.3685     8.3704     5.8359     6.2808
 1411.0000     8.4149   127.2814     2.5332     0.0489   -49.3748     8.6812     5.9435     6.3966
 1411.5000     8.4145   127.2766     2.5352     0.0529   -49.3844     8.6800     6.0528     6.6349
 1412.0000     8.4143   129.6533     2.5392     0.0529   -49.3908     8.6793     6.0525     6.6340
 1412.5000     8.4141   130.4424     2.5391     0.0568   -49.0020     9.1684     6.2777     6.7563
