~VERSION INFORMATION
 VERS.                2.0:   CWLS LOG ASCII STANDARD - VERSION 2.0
 WRAP.                 NO:   ONE LINE PER DEPTH STEP
~WELL INFORMATION
#MNEM.UNIT      DATA TYPE    INFORMATION
#----------   ------------   ------------------------------
 STRT.F         1999.5000:   START DEPTH
 STOP.F         2762.5000:   STOP DEPTH
 STEP.F            0.5000:   STEP LENGTH
 NULL.          -999.2500:   NO VALUE
 COMP.          U.S. NAVY:   COMPANY
 WELL. LAWRENCE US NAVY 3 "A" #404-20:   WELL
 FLD .        TEAPOT DOME:   FIELD
 LOC .      S20 T39N R78W:   LOCATION
 CNTY.            NATRONA:   COUNTY
 STAT.            WYOMING:   STATE
 CTRY. UNITED STATES OF AMERICA:   COUNTRY
 SRVC.         MCCULLOUGH:   SERVICE COMPANY
 DATE.        09-JUL-1966:   LOGDATE
 API .     49025095910000:   API NUMBER
~CURVE INFORMATION
#MNEM.UNIT       API CODE    CURVE DESCRIPTION
#----------   ------------   ------------------------------
 DEPT.F                  :   
 TEMP.DEG    99 000 00 00:   TEMPERATURE AT TOOL
 GR  .GAPI   30 310 01 00:   GAMMA RAY
~PARAMETER INFORMATION
#MNEM.UNIT          VALUE    DESCRIPTION
#----------   ------------   ------------------------------
 EGL .F         5004.0000:   Ground level
 EDF .F         5008.0000:   Drilling floor
 TD  .F         2765.0000:   Total depth
 DATE.        09-JUL-1966:   Date logged
 CLNT.            A2DTECH:   Client Code
 PD  .                 GL:   Permanent Datum
 EPD .F              5004:   Elevation Permanent Datum
 LMF .                 GL:   Log Measured From
 DMF .                 GL:   Drilling Measured From
 DL  .F              2765:   Depth logger
 BLI .F              2763:   Bottom log interval
 TLI .F              2000:   Top log interval
 CS1 .IN           5.1875:   Casing size
 CBD1.    5.1875" @ 2790':   Casing driller 1
 DFT .              WATER:   Type fluid in hole
 ENGI.        FITZSIMMONS:   Recorded By
 WITN.             HUDSON:   Witnessed by
 ORIG.           5" PRINT:   Origin of data
 UWI .     49025095910000:   Unique Well ID
 DICO. A2D TECHNOLOGIES, INC.:   Digitizing Company
~OTHER INFORMATION
~A  DEPT      TEMP          GR  
# ...
 2485.5000  -999.2500   120.2312
 2486.0000  -999.2500   114.0598
 2486.5000  -999.2500   115.8092
 2487.0000  -999.2500   120.4059
 2487.5000  -999.2500   122.5869
 2488.0000  -999.2500   120.3176
 2488.5000  -999.2500   119.9585
 2489.0000  -999.2500   117.8088
 2489.5000  -999.2500   117.7205
 2490.0000  -999.2500   116.2242
 2490.5000  -999.2500   114.2266
 2491.0000  -999.2500   117.0867
 2491.5000  -999.2500   120.4755
 2492.0000  -999.2500   121.7726
 2492.5000  -999.2500   119.1461
 2493.0000  -999.2500   117.8726
 2493.5000  -999.2500   122.2161
 2494.0000  -999.2500   124.7651
 2494.5000  -999.2500   119.6592
 2495.0000  -999.2500   118.0550
 2495.5000  -999.2500   116.8767
 2496.0000  -999.2500   120.1871
 2496.5000  -999.2500   126.4104
 2497.0000  -999.2500   132.6652
 2497.5000  -999.2500   130.4312
 2498.0000  -999.2500   127.3769
 2498.5000  -999.2500   124.7886
 2499.0000  -999.2500   126.4703
 2499.5000  -999.2500   127.1434
 2500.0000  -999.2500   118.2189
 2500.5000  -999.2500   119.0058
 2501.0000  -999.2500   120.0693
 2501.5000  -999.2500   119.4061
 2502.0000  -999.2500   120.6453
 2502.5000  -999.2500   110.1127
 2503.0000  -999.2500   112.8138
 2503.5000  -999.2500   116.3537
 2504.0000  -999.2500   122.4525
 2504.5000  -999.2500   128.5209
 2505.0000  -999.2500   129.8533
 2505.5000  -999.2500   124.8063
 2506.0000  -999.2500   116.5392
 2506.5000  -999.2500   109.4926
 2507.0000  -999.2500   118.1914
 2507.5000  -999.2500   121.6382
 2508.0000  -999.2500   119.7102
 2508.5000  -999.2500   117.3692
 2509.0000  -999.2500   122.0051
 2509.5000  -999.2500   123.3493
 2510.0000  -999.2500   121.6794
 2510.5000  -999.2500   132.7682
 2511.0000  -999.2500   132.9959
 2511.5000  -999.2500   129.5059
 2512.0000  -999.2500   125.8846
 2512.5000  -999.2500   122.3014
 2513.0000  -999.2500   119.4983
 2513.5000  -999.2500   121.0220
 2514.0000  -999.2500   125.6716
 2514.5000  -999.2500   128.7642
 2515.0000  -999.2500   128.0960
 2515.5000  -999.2500   136.3141
 2516.0000  -999.2500   139.7079
 2516.5000  -999.2500   136.1257
 2517.0000  -999.2500   135.3957
 2517.5000  -999.2500   144.9010
 2518.0000  -999.2500   147.2214
 2518.5000  -999.2500   148.2879
 2519.0000  -999.2500   145.8272
 2519.5000  -999.2500   139.4498
 2520.0000  -999.2500   129.9435
 2520.5000  -999.2500   123.5936
 2521.0000  -999.2500   126.5517
 2521.5000  -999.2500   130.0279
 2522.0000  -999.2500   127.9243
 2522.5000  -999.2500   128.2540
 2523.0000  -999.2500   121.1398
 2523.5000  -999.2500   116.1987
 2524.0000  -999.2500   123.7673
 2524.5000  -999.2500   127.6104
 2525.0000  -999.2500   127.9440
 2525.5000  -999.2500   131.4260
 2526.0000  -999.2500   132.8487
 2526.5000  -999.2500   135.8706
 2527.0000  -999.2500   136.1640
 2527.5000  -999.2500   134.3783
 2528.0000  -999.2500   134.1153
 2528.5000  -999.2500   138.8013
 2529.0000  -999.2500   144.6773
 2529.5000  -999.2500   148.8491
 2530.0000  -999.2500   144.2623
 2530.5000  -999.2500   149.7910
 2531.0000  -999.2500   145.1404
 2531.5000  -999.2500   137.9948
 2532.0000  -999.2500   130.4900
 2532.5000  -999.2500   133.2441
 2533.0000  -999.2500   139.8599
 2533.5000  -999.2500   143.8856
 2534.0000  -999.2500   151.3118
 2534.5000  -999.2500   156.0017
 2535.0000  -999.2500   155.2972
 2535.5000  -999.2500   155.0804
 2536.0000  -999.2500   156.3676
 2536.5000  -999.2500   158.1523
 2537.0000  -999.2500   156.9494
 2537.5000  -999.2500   155.6671
 2538.0000  -999.2500   151.9044
 2538.5000  -999.2500   149.4555
 2539.0000  -999.2500   146.0411
 2539.5000  -999.2500   144.4968
 2540.0000  -999.2500   144.0259
 2540.5000  -999.2500   155.4110
 2541.0000  -999.2500   153.9158
 2541.5000  -999.2500   155.0038
 2542.0000  -999.2500   148.6667
 2542.5000  -999.2500   146.8358
 2543.0000  -999.2500   153.2711
 2543.5000  -999.2500   157.2585
 2544.0000  -999.2500   161.1929
 2544.5000  -999.2500   167.4742
 2545.0000  -999.2500   172.1944
 2545.5000  -999.2500   176.0395
 2546.0000  -999.2500   171.9697
 2546.5000  -999.2500   170.7237
 2547.0000  -999.2500   171.4900
 2547.5000  -999.2500   172.2621
 2548.0000  -999.2500   172.4966
 2548.5000  -999.2500   172.6095
 2549.0000  -999.2500   170.6727
 2549.5000  -999.2500   167.2730
 2550.0000  -999.2500   165.0939
 2550.5000  -999.2500   175.0015
 2551.0000  -999.2500   182.9821
 2551.5000  -999.2500   179.7541
 2552.0000  -999.2500   178.7102
 2552.5000  -999.2500   180.1044
 2553.0000  -999.2500   181.4652
 2553.5000  -999.2500   173.9781
 2554.0000  -999.2500   163.1709
 2554.5000  -999.2500   152.8571
 2555.0000  -999.2500   157.4969
 2555.5000  -999.2500   159.6751
 2556.0000  -999.2500   152.5922
 2556.5000  -999.2500   148.2418
 2557.0000  -999.2500   150.9027
 2557.5000  -999.2500   149.7547
 2558.0000  -999.2500   146.6337
 2558.5000  -999.2500   148.3507
 2559.0000  -999.2500   152.6020
 2559.5000  -999.2500   152.1605
 2560.0000  -999.2500   153.7480
 2560.5000  -999.2500   150.5073
 2561.0000  -999.2500   148.5155
 2561.5000  -999.2500   149.8862
 2562.0000  -999.2500   150.0314
 2562.5000  -999.2500   145.3582
 2563.0000  -999.2500   146.2854
 2563.5000  -999.2500   140.0856
 2564.0000  -999.2500   135.9314
 2564.5000  -999.2500   137.0097
 2565.0000  -999.2500   133.8318
 2565.5000  -999.2500   129.0409
 2566.0000  -999.2500   130.7412
 2566.5000  -999.2500   132.3316
 2567.0000  -999.2500   133.7612
 2567.5000  -999.2500   133.6081
 2568.0000  -999.2500   137.8770
 2568.5000  -999.2500   145.7899
 2569.0000  -999.2500   142.7857
 2569.5000  -999.2500   146.3806
 2570.0000  -999.2500   151.8210
 2570.5000  -999.2500   153.2250
 2571.0000  -999.2500   150.8948
 2571.5000  -999.2500   152.0290
 2572.0000  -999.2500   153.1622
 2572.5000  -999.2500   156.0174
 2573.0000  -999.2500   154.1895
 2573.5000  -999.2500   166.5509
 2574.0000  -999.2500   167.4182
 2574.5000  -999.2500   162.8598
 2575.0000  -999.2500   158.2063
 2575.5000  -999.2500   152.2782
 2576.0000  -999.2500   155.6700
 2576.5000  -999.2500   159.7869
 2577.0000  -999.2500   159.7153
 2577.5000  -999.2500   158.9814
 2578.0000  -999.2500   158.2024
 2578.5000  -999.2500   160.4502
 2579.0000  -999.2500   164.9556
 2579.5000  -999.2500   161.4794
 2580.0000  -999.2500   155.8653
 2580.5000  -999.2500   157.3017
 2581.0000  -999.2500   159.5249
 2581.5000  -999.2500   164.1275
 2582.0000  -999.2500   168.2885
 2582.5000  -999.2500   168.7231
 2583.0000  -999.2500   166.0083
 2583.5000  -999.2500   159.0550
 2584.0000  -999.2500   161.8601
 2584.5000  -999.2500   161.8179
 2585.0000  -999.2500   165.3107
 2585.5000  -999.2500   162.0700
 2586.0000  -999.2500   154.6359
 2586.5000  -999.2500   151.3236
 2587.0000  -999.2500   151.9603
 2587.5000  -999.2500   152.4372
 2588.0000  -999.2500   149.4839
 2588.5000  -999.2500   151.3981
 2589.0000  -999.2500   153.6322
 2589.5000  -999.2500   158.0572
 2590.0000  -999.2500   162.8069
 2590.5000  -999.2500   165.0605
 2591.0000  -999.2500   168.9665
 2591.5000  -999.2500   170.2370
 2592.0000  -999.2500   167.4133
 2592.5000  -999.2500   161.6893
 2593.0000  -999.2500   158.8921
 2593.5000  -999.2500   162.2702
 2594.0000  -999.2500   156.6669
 2594.5000  -999.2500   159.6025
 2595.0000  -999.2500   164.7358
 2595.5000  -999.2500   165.4952
 2596.0000  -999.2500   161.9091
 2596.5000  -999.2500   158.3858
 2597.0000  -999.2500   163.0924
 2597.5000  -999.2500   167.8647
 2598.0000  -999.2500   168.5828
 2598.5000  -999.2500   166.6941
 2599.0000  -999.2500   168.6329
 2599.5000  -999.2500   167.5154
 2600.0000    96.2070   169.5620
 2600.5000    96.2070   165.6188
 2601.0000    96.2070   169.7445
 2601.5000    96.3700   167.4310
 2602.0000    96.2140   166.2291
 2602.5000    96.2280   171.2820
 2603.0000    96.2420   165.5982
 2603.5000    96.2510   168.5456
 2604.0000    96.2560   170.7904
 2604.5000    96.2620   168.7791
 2605.0000    96.2670   169.8397
 2605.5000    96.2660   168.4151
 2606.0000    96.2660   169.4796
 2606.5000    96.2660   171.5920
