~VERSION INFORMATION
 VERS.                2.0:   CWLS LOG ASCII STANDARD - VERSION 2.0
 WRAP.                 NO:   ONE LINE PER DEPTH STEP
~WELL INFORMATION
#MNEM.UNIT      DATA TYPE    INFORMATION
#----------   ------------   ------------------------------
 STRT.F           48.5000:   START DEPTH
 STOP.F         3509.0000:   STOP DEPTH
 STEP.F            0.5000:   STEP LENGTH
 NULL.          -999.2500:   NO VALUE
 COMP.   TESORO PETROLEUM:   COMPANY
 WELL. TESORO "TX" #45-33:   WELL
 FLD .        TEAPOT DOME:   FIELD
 LOC .      S33 T39N R78W:   LOCATION
 CNTY.            NATRONA:   COUNTY
 STAT.            WYOMING:   STATE
 CTRY. UNITED STATES OF AMERICA:   COUNTRY
 SRVC.      DRESSER ATLAS:   SERVICE COMPANY
 DATE.        03-OCT-1976:   LOGDATE
 API .     49025102700000:   API NUMBER
~CURVE INFORMATION
#MNEM.UNIT       API CODE    CURVE DESCRIPTION
#----------   ------------   ------------------------------
 DEPT.F                  :   
 SPR .MV     07 010 01 00:   SPONTANEOUS POTENTIAL
 TENR.LBS    07 635 01 00:   TENSION FROM RESISTIVITY
 SFL .OHMM   07 220 01 00:   SHALLOW FOCUSED LOG RESISTIVITY
 ILM .OHMM   07 120 44 00:   INDUCTION LOG MEDIUM RESISTIVITY
 ILD .OHMM   07 120 46 00:   DEEP INDUCTION RESISTIVITY
 GRD .GAPI   45 310 01 00:   GAMMA RAY FROM DENSITY LOG
 CALD.IN     45 280 60 00:   CALIPER FROM DENSITY LOG
 NPHI.DEC    42 890 03 00:   NEUTRON POROSITY SANDSTONE
 DPHI.DEC    45 890 12 00:   DENSITY POROSITY SANDSTONE
 TEND.LBS    45 635 01 00:   TENSION FROM DENSITY LOG
~PARAMETER INFORMATION
#MNEM.UNIT          VALUE    DESCRIPTION
#----------   ------------   ------------------------------
 EKB .F         5217.0000:   Kelly bushing
 EGL .F         5206.0000:   Ground level
 EDF .F         5216.0000:   Drilling floor
 EPD .F         5206.0000:   Permanent datum
 TD  .F         3491.0000:   Total depth
 DATE.        03-OCT-1976:   Date logged
 CLNT.            A2DTECH:   Client Code
 SL  . 2030' FWL & 2145' FSL:   Surface Location
 PD  .                 GL:   Permanent Datum
 DD  .F              3491:   Depth driller
 DL  .F              3487:   Depth logger
 BLI .F              3485:   Bottom log interval
 TLI .F               813:   Top log interval
 CS1 .IN            8.625:   Casing size
 CBD1.      8.625" @ 823':   Casing driller 1
 CBL1.F               819:   Casing logger 1
 BS1 .IN            7.875:   Bit size
 BSD1.F              3491:   Depth drilled with bit1
 DFT .           CHEM GEL:   Type fluid in hole
 DFD .                9.4:   Density
 DFV .                 47:   Viscosity
 DFPH.                 10:   pH
 DFL .                5.8:   Fluid loss
 MSS .           FLOWLINE:   Source of sample
 RMS .OHMM           1.09:   Rm
 MST .F                68:   Rm Meas. temp.
 RMF .OHMM              1:   Rmf
 MFST.F                68:   Rmf Meas. temp.
 RMC .OHMM           1.24:   Rmc
 MCST.F                68:   Rmc Meas. temp.
 MFSS.               MEAS:   Source Rmf.
 MCSS.               MEAS:   Source Rmc.
 RMB .OHMM            .62:   Rm. at BHT
 BHT .F               119:   BHT.
 TCS .HRS              12:   Time Circ. stopped
 MRT .F               119:   Maximum recorded temp.
 LUN .               6134:   Logging unit number
 LUL .              GLTTE:   Logging unit location
 ENGI.            VAUGHIN:   Recorded By
 WITN.        WOLF-CARTER:   Witnessed by
 ORIG.     2.5", 5" PRINT:   Origin of data
 UWI .     49025102700000:   Unique Well ID
 DICO. A2D TECHNOLOGIES, INC.:   Digitizing Company
 DAPD.                 11:   Feet Above Permanent Datum
~OTHER INFORMATION
~A   DEPT      SPR        TENR       SFL        ILM        ILD        GRD       CALD       NPHI       DPHI       TEND   
# ...
 1221.0000   -25.8000  -999.2500     7.1760     6.9450     6.8910   114.6770     9.4510     0.2700     0.0570   301.0140
 1221.5000   -25.8010  -999.2500     7.1680     6.9420     6.8850   114.4290     9.4510     0.2720     0.0530   300.5010
 1222.0000   -25.8010  -999.2500     7.1600     6.9380     6.8790   115.2850     9.4510     0.2750     0.0530   299.9880
 1222.5000   -25.8000  -999.2500     7.1530     6.9350     6.8740   115.8440     9.4510     0.2790     0.0540   299.4740
 1223.0000   -25.8010  -999.2500     7.1450     6.9320     6.8680   116.0110     9.4510     0.2750     0.0540   298.9610
 1223.5000   -25.8010  -999.2500     7.1360     6.9290     6.8620   115.7210     9.4510     0.2690     0.0570   298.4470
 1224.0000   -25.7990  -999.2500     7.1290     6.9250     6.8560   114.4470     9.4510     0.2650     0.0580   297.9340
 1224.5000   -25.8070  -999.2500     7.1210     6.9220     6.8510   113.8760     9.4510     0.2630     0.0550   297.4210
 1225.0000   -25.7840  -999.2500     7.1140     6.9190     6.8450   114.5920     9.4510     0.2630     0.0510   296.9070
 1225.5000   -25.9160  -999.2500     7.1010     6.9160     6.8390   115.6980     9.4510     0.2640     0.0470   296.3940
 1226.0000   -26.1190  -999.2500     7.0910     6.9130     6.8330   116.6450     9.4510     0.2630     0.0450   295.8800
 1226.5000   -26.3090  -999.2500     7.0800     6.9090     6.8280   115.7520     9.4510     0.2620     0.0490   295.3670
 1227.0000   -26.5810  -999.2500     7.0700     6.9060     6.8220   115.3420     9.4510     0.2660     0.0540   295.0000
 1227.5000   -26.3610  -999.2500     7.0590     6.9030     6.8160   116.4140     9.4510     0.2720     0.0550   294.4490
 1228.0000   -26.3360  -999.2500     7.0480     6.9000     6.8100   117.4520     9.4510     0.2780     0.0540   293.9410
 1228.5000   -26.3560  -999.2500     7.0380     6.8960     6.8050   118.4880     9.4510     0.2840     0.0520   293.4330
 1229.0000   -26.0100  -999.2500     7.0270     6.8930     6.7990   117.2470     9.4510     0.2860     0.0490   292.9240
 1229.5000   -25.7940  -999.2500     7.0160     6.8900     6.7930   116.0960     9.4510     0.2870     0.0450   292.4160
 1230.0000   -25.8130  -999.2500     7.0060     6.8870     6.7870   115.9060     9.4510     0.2890     0.0480   291.9080
 1230.5000   -25.7930  -999.2500     6.9950     6.8840     6.7820   116.2810     9.4510     0.2910     0.0540   291.4000
 1231.0000   -25.8040  -999.2500     6.9840     6.8800     6.7760   115.7070     9.4510     0.2930     0.0550   290.8920
 1231.5000   -25.8000  -999.2500     6.9740     6.8770     6.7700   114.8060     9.4510     0.2890     0.0550   290.3840
 1232.0000   -25.8010  -999.2500     6.9630     6.8740     6.7640   115.2750     9.4510     0.2850     0.0570   289.8760
 1232.5000   -25.8000  -999.2500     6.9520     6.8710     6.7590   115.7690     9.4460     0.2820     0.0580   289.3670
 1233.0000   -25.8000  -999.2500     6.9420     6.8670     6.7530   115.7440     9.4400     0.2770     0.0560   288.8590
 1233.5000   -25.8000  -999.2500     6.9310     6.8640     6.7470   115.0240     9.4350     0.2760     0.0580   288.3510
 1234.0000   -25.8010  -999.2500     6.9210     6.8600     6.7420   114.6710     9.4310     0.2710     0.0600   287.8430
 1234.5000   -25.8010  -999.2500     6.9100     6.8590     6.7350   114.5050     9.4410     0.2740     0.0620   287.3350
 1235.0000   -25.7990  -999.2500     6.8990     6.8440     6.7290   114.5590     9.4520     0.2800     0.0640   286.8270
 1235.5000   -25.8050  -999.2500     6.8890     6.8200     6.7040   114.7360     9.4620     0.2810     0.0650   286.3180
 1236.0000   -25.7880  -999.2500     6.8780     6.7970     6.6820   114.7710     9.4720     0.2790     0.0670   285.8100
 1236.5000   -25.9210  -999.2500     6.8670     6.7750     6.6600   114.9250     9.4760     0.2800     0.0660   285.3020
 1237.0000   -26.1450  -999.2500     6.8570     6.7520     6.6370   115.7400     9.4800     0.2840     0.0620   284.8860
 1237.5000   -26.3330  -999.2500     6.8460     6.7290     6.6150   116.2250     9.4840     0.2870     0.0580   284.6050
 1238.0000   -26.5470  -999.2500     6.8350     6.7060     6.5930   116.5080     9.4890     0.2910     0.0550   284.3230
 1238.5000   -26.5180  -999.2500     6.8250     6.6840     6.5700   116.7940     9.4930     0.2920     0.0570   284.0420
 1239.0000   -26.3580  -999.2500     6.8140     6.6610     6.5480   117.2220     9.4970     0.2920     0.0600   283.7600
 1239.5000   -26.2240  -999.2500     6.8030     6.6380     6.5260   118.2920     9.5010     0.2930     0.0630   283.4790
 1240.0000   -26.0860  -999.2500     6.7930     6.6150     6.5030   119.4880     9.5060     0.2950     0.0660   283.1980
 1240.5000   -25.9470  -999.2500     6.7820     6.5930     6.4810   120.9050     9.5100     0.2930     0.0660   282.9160
 1241.0000   -25.8100  -999.2500     6.7720     6.5700     6.4590   121.5300     9.5140     0.2900     0.0650   282.6350
 1241.5000   -25.6720  -999.2500     6.7610     6.5470     6.4360   121.9580     9.5180     0.2880     0.0640   282.3540
 1242.0000   -25.5330  -999.2500     6.7500     6.5240     6.4140   122.3850     9.5230     0.2870     0.0620   282.0720
 1242.5000   -25.3980  -999.2500     6.7400     6.5020     6.3920   122.7910     9.5270     0.2870     0.0610   281.7910
 1243.0000   -25.2550  -999.2500     6.7310     6.4790     6.3690   122.2910     9.5300     0.2880     0.0620   281.5100
 1243.5000   -25.1190  -999.2500     6.7310     6.4560     6.3470   122.4590     9.4870     0.2910     0.0620   281.2280
 1244.0000   -25.0240  -999.2500     6.7310     6.4330     6.3250   122.8200     9.4410     0.2930     0.0580   280.9470
 1244.5000   -25.2270  -999.2500     6.6980     6.4110     6.3020   123.0920     9.4100     0.2950     0.0550   280.6660
 1245.0000   -25.4080  -999.2500     6.6570     6.3880     6.2800   122.7490     9.4200     0.2930     0.0530   280.3840
 1245.5000   -25.6060  -999.2500     6.6160     6.3650     6.2580   122.2560     9.4870     0.2950     0.0500   280.1030
 1246.0000   -25.7930  -999.2500     6.5750     6.3420     6.2350   121.7590     9.5530     0.2970     0.0520   279.8210
 1246.5000   -25.9840  -999.2500     6.5330     6.3200     6.2130   121.5400     9.6110     0.3000     0.0550   279.5400
 1247.0000   -26.1770  -999.2500     6.4920     6.2970     6.1910   122.0860     9.6080     0.3030     0.0590   279.2590
 1247.5000   -26.3630  -999.2500     6.4510     6.2740     6.1680   122.6870     9.6050     0.3030     0.0610   278.9770
 1248.0000   -26.5520  -999.2500     6.4100     6.2510     6.1460   123.2990     9.6010     0.3000     0.0590   278.6960
 1248.5000   -26.5210  -999.2500     6.3680     6.2290     6.1240   123.7470     9.5980     0.2960     0.0590   278.4150
 1249.0000   -26.4130  -999.2500     6.3270     6.2060     6.1010   124.1510     9.5950     0.2930     0.0610   278.1330
 1249.5000   -26.3100  -999.2500     6.2860     6.1830     6.0790   124.5320     9.5920     0.2920     0.0610   277.8520
 1250.0000   -26.2080  -999.2500     6.2450     6.1610     6.0570   124.2150     9.5880     0.2880     0.0590   277.5710
 1250.5000   -26.1030  -999.2500     6.2040     6.1380     6.0250   122.1800     9.5850     0.2800     0.0600   277.2890
 1251.0000   -26.0010  -999.2500     6.1620     6.2050     6.0650   120.1590     9.5820     0.2770     0.0620   277.0080
 1251.5000   -25.8980  -999.2500     6.1380     6.2720     6.1310   118.8150     9.5780     0.2790     0.0640   276.7270
 1252.0000   -25.7940  -999.2500     6.2540     6.3390     6.1970   117.6630     9.5750     0.2790     0.0610   276.4450
 1252.5000   -25.6920  -999.2500     6.3710     6.4060     6.2630   116.4770     9.5720     0.2770     0.0540   276.1640
 1253.0000   -25.5870  -999.2500     6.4870     6.4870     6.3290   115.2980     9.5690     0.2770     0.0490   275.8820
 1253.5000   -25.4830  -999.2500     6.6040     6.6200     6.4670   114.0700     9.5650     0.2730     0.0470   275.6010
 1254.0000   -25.4100  -999.2500     6.7200     6.7860     6.7140   112.6300     9.5620     0.2730     0.0470   275.3200
