~VERSION INFORMATION
 VERS.                2.0:   CWLS LOG ASCII STANDARD - VERSION 2.0
 WRAP.                 NO:   ONE LINE PER DEPTH STEP
~WELL INFORMATION
#MNEM.UNIT      DATA TYPE    INFORMATION
#----------   ------------   ------------------------------
 STRT.F          192.0000:   START DEPTH
 STOP.F         3016.0000:   STOP DEPTH
 STEP.F            0.5000:   STEP LENGTH
 NULL.          -999.2500:   NO VALUE
 COMP. FENIX & SCISSON U.S. NAVY:   COMPANY
 WELL.  FENIX "AX" #81-33:   WELL
 FLD .              NPR-3:   FIELD
 LOC .      S33 T39N R78W:   LOCATION
 CNTY.            NATRONA:   COUNTY
 STAT.            WYOMING:   STATE
 CTRY. UNITED STATES OF AMERICA:   COUNTRY
 SRVC.              WELEX:   SERVICE COMPANY
 DATE.        12-MAY-1977:   LOGDATE
 API .     49025109850000:   API NUMBER
~CURVE INFORMATION
#MNEM.UNIT       API CODE    CURVE DESCRIPTION
#----------   ------------   ------------------------------
 DEPT.F                  :   
 SPR .MV     07 010 01 00:   SPONTANEOUS POTENTIAL
 RILM.OHMM   07 120 44 00:   INDUCTION LOG MEDIUM RESISTIVITY
 RILD.OHMM   07 120 46 00:   DEEP INDUCTION RESISTIVITY
 SGRD.OHMM   07 220 05 00:   SHALLOW GUARD LOG RESISTIVITY
 NPHI.DEC    42 890 03 00:   NEUTRON POROSITY SANDSTONE
 GRD .GAPI   45 310 01 00:   GAMMA RAY FROM DENSITY LOG
 CALD.IN     45 280 60 00:   CALIPER FROM DENSITY LOG
 RHOB.G/C3   45 350 01 00:   BULK DENSITY
 DCOR.G/C3   45 356 01 00:   DENSITY CORRECTION
~PARAMETER INFORMATION
#MNEM.UNIT          VALUE    DESCRIPTION
#----------   ------------   ------------------------------
 EKB .F         5114.0000:   Kelly bushing
 EGL .F         5100.0000:   Ground level
 EDF .F         5112.0000:   Drilling floor
 TD  .F         3014.0000:   Total depth
 DATE.        12-MAY-1977:   Date logged
 CLNT.            A2DTECH:   Client Code
 SL  . 660' FEL & 660' FNL:   Surface Location
 PD  .                 GL:   Permanent Datum
 EPD .F              5100:   Elevation Permanent Datum
 LMF .                 KB:   Log Measured From
 DMF .                 KB:   Drilling Measured From
 DD  .F              3000:   Depth driller
 DL  .F              3014:   Depth logger
 BLI .F              3012:   Bottom log interval
 TLI .F              1500:   Top log interval
 CS1 .IN            8.625:   Casing size
 CBD1.      8.625" @ 217':   Casing driller 1
 CBL1.F               209:   Casing logger 1
 BS1 .IN            7.875:   Bit size
 BSD1.F              3000:   Depth drilled with bit1
 DFT .            KCL MUD:   Type fluid in hole
 DFD .                  9:   Density
 DFV .                 33:   Viscosity
 DFPH.                7.5:   pH
 DFL .                7.8:   Fluid loss
 MSS .           FLOWLINE:   Source of sample
 RMS .OHMM           0.69:   Rm
 MST .F                68:   Rm Meas. temp.
 RMF .OHMM           0.66:   Rmf
 MFST.F                68:   Rmf Meas. temp.
 RMC .OHMM           1.27:   Rmc
 MCST.F                68:   Rmc Meas. temp.
 MFSS.                 BK:   Source Rmf.
 MCSS.                 BK:   Source Rmc.
 RMB .OHMM           0.39:   Rm. at BHT
 BHT .F               118:   BHT.
 TCS .HRS               6:   Time Circ. stopped
 MRT .F               118:   Maximum recorded temp.
 LUN .               9685:   Logging unit number
 LUL .           BRIGHTON:   Logging unit location
 ENGI.          T. JOYNER:   Recorded By
 WITN.            K. JAPP:   Witnessed by
 ORIG.           5" PRINT:   Origin of data
 UWI .     49025109850000:   Unique Well ID
 DICO. A2D TECHNOLOGIES, INC.:   Digitizing Company
~OTHER INFORMATION
~A   DEPT      SPR       RILM       RILD       SGRD       NPHI         GRD        CALD       RHOB     DCOR   
# ...
 2966.0000   -23.9860     3.8330     3.3440     4.5740     0.2520   138.4310     8.0000     2.5860     0.0590
 2966.5000   -24.0340     3.7980     3.2910     4.6400     0.2570   140.8200     8.0080     2.5790     0.0560
 2967.0000   -24.0820     3.7610     3.2390     4.7910     0.2610   143.2300     8.0160     2.5730     0.0520
 2967.5000   -24.1310     3.7190     3.1860     4.9690     0.2670   143.1820     8.0240     2.5660     0.0490
 2968.0000   -24.1780     3.6690     3.1500     4.8850     0.2550   142.6670     8.0320     2.5620     0.0450
 2968.5000   -24.2040     3.6760     3.1240     4.7570     0.2570   142.1350     8.0400     2.5590     0.0430
 2969.0000   -24.1380     3.6840     3.0980     4.8040     0.2580   141.6120     8.0470     2.5560     0.0410
 2969.5000   -24.0750     3.6930     3.0710     4.8960     0.2520   141.0830     8.0550     2.5540     0.0420
 2970.0000   -24.0120     3.7010     3.0450     4.9690     0.2590   141.6910     8.0630     2.5530     0.0460
 2970.5000   -23.9490     3.7170     3.0250     4.8780     0.2570   143.2080     8.0710     2.5520     0.0460
 2971.0000   -23.8860     3.7340     3.0280     4.8900     0.2540   144.7350     8.0800     2.5540     0.0410
 2971.5000   -23.8230     3.7510     3.0310     4.9080     0.2580   146.2380     8.0750     2.5570     0.0380
 2972.0000   -23.7600     3.7710     3.0340     4.9230     0.2530   145.7760     8.0670     2.5600     0.0390
 2972.5000   -23.6960     3.7400     3.0370     4.8460     0.2530   145.0630     8.0580     2.5640     0.0400
 2973.0000   -23.6330     3.7020     3.0400     4.7450     0.2480   144.3460     8.0500     2.5680     0.0420
 2973.5000   -23.5700     3.7300     3.0430     4.7990     0.2500   143.6300     8.0410     2.5700     0.0450
 2974.0000   -23.5070     3.7710     3.0460     4.9300     0.2470   142.9140     8.0320     2.5720     0.0470
 2974.5000   -23.4440     3.7320     3.0490     5.0610     0.2540   142.2110     8.0240     2.5740     0.0490
 2975.0000   -23.3810     3.6840     3.0530     4.8870     0.2530   141.8050     8.0150     2.5760     0.0500
 2975.5000   -23.3180     3.6350     3.0790     4.7140     0.2490   142.3220     8.0060     2.5780     0.0490
 2976.0000   -23.2550     3.6690     3.1060     4.5740     0.2480   142.7000     7.9980     2.5830     0.0480
 2976.5000   -23.1910     3.7460     3.1320     4.8220     0.2420   143.0680     7.9890     2.5890     0.0490
 2977.0000   -23.1280     3.8580     3.1960     5.0290     0.2390   143.8450     7.9800     2.5950     0.0510
 2977.5000   -23.0650     3.9690     3.3330     5.2820     0.2360   144.9410     7.9710     2.6020     0.0520
 2978.0000   -23.0020     4.1080     3.5160     5.6090     0.2320   146.0580     7.9630     2.6110     0.0540
 2978.5000   -22.9390     4.3650     3.6980     5.9950     0.2290   147.4420     7.9660     2.6130     0.0500
 2979.0000   -22.8760     4.6230     3.8800     6.7700     0.2250   149.7310     7.9700     2.6130     0.0460
 2979.5000   -22.8130     4.8800     4.0620     7.5980     0.2210   151.9710     7.9740     2.6120     0.0410
 2980.0000   -22.7500     5.1350     4.2440     7.8530     0.2240   154.1910     7.9780     2.6110     0.0370
 2980.5000   -22.6880     5.3900     4.4260     8.0880     0.2190   156.2800     7.9830     2.6110     0.0350
 2981.0000   -22.7030     5.6510     4.6090     8.0240     0.2200   161.0200     7.9870     2.6080     0.0360
 2981.5000   -22.8580     5.8630     4.7910     7.9140     0.2190   165.9780     7.9910     2.6050     0.0400
 2982.0000   -23.0110     5.7800     5.0150     7.6110     0.2170   171.8510     7.9950     2.6010     0.0380
 2982.5000   -23.1630     5.6730     4.9690     7.1640     0.2230   177.9930     7.9990     2.5980     0.0370
 2983.0000   -23.3160     5.5660     4.8720     6.7530     0.2280   187.6320     8.0030     2.5980     0.0350
 2983.5000   -23.4700     5.4590     4.7730     6.6210     0.2300   198.2920     8.0070     2.5980     0.0340
 2984.0000   -23.6240     5.3480     4.6740     6.8370     0.2460   200.8350     8.0120     2.5980     0.0340
 2984.5000   -23.7070     5.3480     4.5740     6.7730     0.2270   213.4560     8.0160     2.5990     0.0370
 2985.0000   -23.7880     5.3480     4.4750     6.5510     0.2290   229.4420     8.0200     2.6010     0.0430
 2985.5000   -23.8690     5.1970     4.3760     6.3280     0.2310   246.0470     8.0170     2.6020     0.0490
 2986.0000   -23.9510     4.9690     4.2760     6.1050     0.2280   253.5840     8.0080     2.6040     0.0550
 2986.5000   -24.0320     4.9690     4.1720     5.9170     0.2280   230.1860     7.9990     2.6040     0.0570
 2987.0000   -24.1140     4.6160     4.1420     6.0150     0.2310   193.0770     7.9900     2.6020     0.0550
 2987.5000   -24.1950     4.6490     4.1100     6.1380     0.2370   160.6670     7.9810     2.6010     0.0540
 2988.0000   -24.2770     4.7070     4.0790     6.0930     0.2590   139.0630     7.9720     2.6060     0.0560
 2988.5000   -24.3580     4.7450     4.0470     5.9710     0.2860   126.9780     7.9630     2.6140     0.0640
 2989.0000   -24.4400     4.6580     4.0150     6.0350  -999.2500   126.2320     7.9540     2.6220     0.0700
 2989.5000   -24.5220     4.6160     3.9830     6.1520  -999.2500   126.0900     7.9450     2.6310     0.0740
 2990.0000   -24.6050     4.7450     3.9510     6.2390  -999.2500   126.5670     7.9360     2.6390     0.0780
 2990.5000   -24.6280     4.6660     3.9200     6.1360  -999.2500   126.9580     7.9270     2.6380     0.0820
 2991.0000   -24.6480     4.5810     3.8880     6.0270  -999.2500   127.3530     7.9180     2.6340     0.0820
 2991.5000   -24.6690     4.4910     3.8560     5.6360  -999.2500   127.7440     7.9090     2.6300     0.0810
 2992.0000   -24.6900     4.3960     3.8330     5.1080  -999.2500   128.0080     7.9000     2.6270     0.0810
 2992.5000   -24.7110     4.2630     3.8170     5.3060  -999.2500   127.4040     7.8910     2.6280     0.0800
 2993.0000   -24.7320     4.3660     3.8010     5.5770  -999.2500   126.7920     7.8830     2.6300     0.0790
 2993.5000   -24.7520     4.4690     3.7850     5.8490  -999.2500   126.1820     7.8950     2.6310     0.0760
 2994.0000   -24.7730     4.5720     3.7730     6.1950  -999.2500   125.5700     7.9070     2.6310     0.0740
 2994.5000   -24.7940     4.6750     3.8040     6.1370  -999.2500   125.0120     7.9180     2.6280     0.0710
 2995.0000   -24.7860     4.7450     3.8330     6.0820  -999.2500   124.5760     7.9300     2.6250     0.0690
 2995.5000   -24.7530     4.7020     3.8620     6.1950  -999.2500   122.3950     7.9410     2.6220     0.0690
 2996.0000   -24.7190     4.6590     3.8910     6.0510  -999.2500    97.7070     7.9530     2.6190     0.0730
 2996.5000   -24.6850     4.7220     3.9200     5.8950  -999.2500    43.0200     7.9640     2.6170     0.0730
 2997.0000   -24.6520     4.8110     3.9490     5.7740  -999.2500    10.0180     7.9760     2.6150     0.0720
 2997.5000   -24.6180     4.8990     3.9780     5.9370  -999.2500     8.1200     7.9880     2.6130     0.0680
 2998.0000   -24.5850     4.9870     4.0070     6.1100  -999.2500     7.9640     7.9990     2.6100     0.0640
 2998.5000   -24.5510     5.0760     4.0360     6.3700  -999.2500     8.6120     7.9960     2.6050     0.0600
 2999.0000   -24.5170     5.1720     4.0650     6.6290  -999.2500     9.4660     7.9850     2.5980     0.0580
 2999.5000   -24.4840     5.3420     4.0960     6.8880  -999.2500    10.3020     7.9750     2.5910     0.0570
 3000.0000   -24.4500     5.5110     4.1750     7.1480  -999.2500    11.1420     7.9640     2.5850     0.0550
 3000.5000   -24.4160     5.6810     4.2620     7.4070  -999.2500    11.9960     7.9540     2.5780     0.0540
 3001.0000   -24.2600     5.8500     4.3490     7.5840  -999.2500    11.9300     7.9430     2.5720     0.0550
 3001.5000   -24.0850     5.9710     4.4360     7.4200  -999.2500    11.6640     7.9320     2.5780     0.0560
 3002.0000   -23.9100     5.7630     4.6020     7.0940  -999.2500    11.3900     7.9220     2.5830     0.0590
