~VERSION INFORMATION
 VERS.                2.0:   CWLS LOG ASCII STANDARD - VERSION 2.0
 WRAP.                 NO:   ONE LINE PER DEPTH STEP
~WELL INFORMATION
#MNEM.UNIT      DATA TYPE    INFORMATION
#----------   ------------   ------------------------------
 STRT.F          200.0000:   START DEPTH
 STOP.F         3078.0000:   STOP DEPTH
 STEP.F            0.5000:   STEP LENGTH
 NULL.          -999.2500:   NO VALUE
 COMP.   FENIX & SCISSION:   COMPANY
 WELL. FENIX NPR 72 "A" #3-28:   WELL
 FLD .              NPR-3:   FIELD
 LOC .      S28 T39N R78W:   LOCATION
 CNTY.            NATRONA:   COUNTY
 STAT.            WYOMING:   STATE
 CTRY. UNITED STATES OF AMERICA:   COUNTRY
 SRVC.              WELEX:   SERVICE COMPANY
 DATE.        06-JUN-1977:   LOGDATE
 API .     49025103770000:   API NUMBER
~CURVE INFORMATION
#MNEM.UNIT       API CODE    CURVE DESCRIPTION
#----------   ------------   ------------------------------
 DEPT.F                  :   
 CORR.G/C3   45 356 01 00:   DENSITY CORRECTION
 RHOB.G/C3   45 350 01 00:   BULK DENSITY
 CALD.IN     45 280 60 00:   CALIPER FROM DENSITY LOG
 SPR .MV     07 010 01 00:   SPONTANEOUS POTENTIAL
 GURD.OHMM   07 220 05 00:   GUARD LOG RESISTIVITY
 ILM .OHMM   07 120 44 00:   INDUCTION LOG MEDIUM RESISTIVITY
 ILD .OHMM   07 120 46 00:   DEEP INDUCTION RESISTIVITY
 GRD .GAPI   45 310 01 00:   GAMMA RAY FROM DENSITY LOG
~PARAMETER INFORMATION
#MNEM.UNIT          VALUE    DESCRIPTION
#----------   ------------   ------------------------------
 EKB .F         5022.0000:   Kelly bushing
 EGL .F         5011.0000:   Ground level
 EDF .F            0.0000:   Drilling floor
 EPD .F         5011.0000:   Permanent datum
 TD  .F         3081.0000:   Total depth
 DATE.        06-JUN-1977:   Date logged
 CLNT.            A2DTECH:   Client Code
 SL  . 990' FNL & 990' FEL:   Surface Location
 PD  .                 GL:   Permanent Datum
 DAPD.F                11:   Feet Above Permanent Datum
 DD  .F              3041:   Depth driller
 DL  .F              3081:   Depth logger
 BLI .F              3079:   Bottom log interval
 TLI .F               200:   Top log interval
 CS1 .IN            8.625:   Casing size
 CBD1.      8.625" @ 200':   Casing driller 1
 CBL1.F               218:   Casing logger 1
 BS1 .IN            7.875:   Bit size
 BSD1.F              3041:   Depth drilled with bit1
 DFT .            KCL MUD:   Type fluid in hole
 DFD .                8.8:   Density
 DFV .                 38:   Viscosity
 DFPH.                7.5:   pH
 DFL .                5.8:   Fluid loss
 MSS .           FLOWLINE:   Source of sample
 RMS .OHMM           1.19:   Rm
 MST .F                89:   Rm Meas. temp.
 RMF .OHMM           1.05:   Rmf
 MFST.F                89:   Rmf Meas. temp.
 RMC .OHMM           2.17:   Rmc
 MCST.F                89:   Rmc Meas. temp.
 MFSS.               FANN:   Source Rmf.
 MCSS.                KIT:   Source Rmc.
 RMB .OHMM           0.98:   Rm. at BHT
 BHT .F               108:   BHT.
 TCS .HRS             2.5:   Time Circ. stopped
 MRT .F               108:   Maximum recorded temp.
 LUN .               8611:   Logging unit number
 LUL .             CASPER:   Logging unit location
 ENGI.          T. JOYNER:   Recorded By
 WITN.      W. PETTINGILL:   Witnessed by
 ORIG.           5" PRINT:   Origin of data
 UWI .     49025103770000:   Unique Well ID
 DICO. A2D TECHNOLOGIES, INC.:   Digitizing Company
~OTHER INFORMATION
~A   DEPT     CORR       RHOB         CALD      SPR       GURD        ILM        ILD         GRD  
# ...
 1698.5000     0.0110     2.5060     8.5830   -51.0290     7.9170     7.4910     7.1350   121.1470
 1699.0000     0.0100     2.5040     8.5830   -51.0310     7.9660     7.5320     7.1560   120.7620
 1699.5000     0.0090     2.5030     8.5830   -51.0320     8.0140     7.5740     7.1760   120.1650
 1700.0000     0.0080     2.5000     8.5830   -51.0340     8.0770     7.6160     7.1970   119.9530
 1700.5000     0.0070     2.4960     8.5830   -51.0360     8.0370     7.6450     7.2180   120.8810
 1701.0000     0.0060     2.4950     8.5830   -51.0380     7.9790     7.6130     7.2360   121.7720
 1701.5000     0.0050     2.4930     8.5830   -51.0390     7.9210     7.5880     7.2200   122.6500
 1702.0000     0.0040     2.4900     8.5830   -51.0410     7.8630     7.5640     7.2050   123.1780
 1702.5000     0.0040     2.4870     8.5830   -51.0430     7.7870     7.5390     7.1900   122.7610
 1703.0000     0.0030     2.4850     8.5830   -51.0450     7.8440     7.5060     7.1700   122.5530
 1703.5000     0.0020     2.4830     8.5830   -51.0470     7.9270     7.5360     7.1910   122.8350
 1704.0000     0.0020     2.4800     8.5830   -51.0480     8.0090     7.5800     7.2210   123.0780
 1704.5000     0.0010     2.4780     8.5830   -51.0500     8.0920     7.6230     7.2510   122.7510
 1705.0000     0.0000     2.4750     8.5830   -51.0520     8.1650     7.6670     7.2820   120.8190
 1705.5000     0.0000     2.4730     8.5810   -51.0540     8.2120     7.7100     7.3120   118.9390
 1706.0000     0.0020     2.4730     8.5780   -51.0550     8.2590     7.7600     7.3420   117.0560
 1706.5000     0.0040     2.4830     8.5760   -51.0570     8.3030     7.8110     7.3700   117.9320
 1707.0000     0.0060     2.4860     8.5730   -51.0590     8.3030     7.8580     7.3890   118.9920
 1707.5000     0.0080     2.4880     8.5700   -51.0610     8.3030     7.8580     7.4070   119.4770
 1708.0000     0.0090     2.4850     8.5680   -51.0630     8.3020     7.8580     7.4250   118.5880
 1708.5000     0.0100     2.4820     8.5650   -51.0640     8.3030     7.8580     7.4380   119.4640
 1709.0000     0.0100     2.4790     8.5620   -51.0660     8.2770     7.8580     7.4380   120.4520
 1709.5000     0.0100     2.4760     8.5600   -51.0680     8.2530     7.8580     7.4380   119.4450
 1710.0000     0.0100     2.4770     8.5570   -51.0700     8.2280     7.8580     7.4380   118.2950
 1710.5000     0.0100     2.4780     8.5550   -51.0710     8.2040     7.8590     7.4450   118.1090
 1711.0000     0.0110     2.4800     8.5520   -51.0730     8.1800     7.8480     7.4550   119.3160
 1711.5000     0.0110     2.4820     8.5490   -51.0750     8.1540     7.8330     7.4650   120.4850
 1712.0000     0.0110     2.4830     8.5470   -51.0770     8.1700     7.8170     7.4760   121.6520
 1712.5000     0.0110     2.4850     8.5440   -51.0790     8.1900     7.8010     7.4860   121.7040
 1713.0000     0.0110     2.4860     8.5440   -51.1020     8.2110     7.7870     7.4960   121.6990
 1713.5000     0.0100     2.4820     8.5440   -51.1260     8.2360     7.8650     7.5060   121.7010
 1714.0000     0.0080     2.4780     8.5440   -51.1490     8.2720     7.9570     7.6450   121.6750
 1714.5000     0.0070     2.4750     8.5440   -51.1720     8.3080     8.0490     7.7770   120.6830
 1715.0000     0.0070     2.4760     8.5440   -51.1950     8.3440     8.1410     7.9310   119.6270
 1715.5000     0.0060     2.4780     8.5440   -51.2180     8.3790     8.2320     7.8730   119.3180
 1716.0000     0.0060     2.4800     8.5440   -51.2410     8.6330     8.3270     8.0260   120.4580
 1716.5000     0.0060     2.4820     8.5440   -51.2640     8.8780     8.4300     8.1280   121.5720
 1717.0000     0.0060     2.4830     8.5440   -51.2870     9.0370     8.5330     8.2270   122.6910
 1717.5000     0.0070     2.4830     8.5440   -51.3100     9.0940     8.6130     8.1470   123.8400
 1718.0000     0.0070     2.4820     8.5440   -51.3330     8.9610     8.4630     8.0690   123.5420
 1718.5000     0.0070     2.4810     8.5440   -51.3560     8.7400     8.3420     7.9910   122.9100
 1719.0000     0.0070     2.4780     8.5440   -51.3790     8.5190     8.2200     7.8960   123.1120
 1719.5000     0.0070     2.4760     8.5440   -51.4020     8.3030     8.0990     7.7430   123.0920
 1720.0000     0.0070     2.4710     8.5440   -51.4250     8.2700     7.9770     7.5890   122.5900
 1720.5000     0.0080     2.4660     8.5440   -51.4490     8.2390     7.8890     7.4380   122.1030
 1721.0000     0.0090     2.4650     8.5440   -51.4670     8.1700     7.8210     7.4010   121.7900
 1721.5000     0.0100     2.4640     8.5390   -51.3740     8.0770     7.7530     7.3650   122.4150
 1722.0000     0.0110     2.4640     8.5330   -51.2780     7.9780     7.6850     7.3290   123.0250
 1722.5000     0.0120     2.4660     8.5260   -51.1830     7.8590     7.6150     7.2930   123.6340
 1723.0000     0.0130     2.4650     8.5200   -51.0870     7.7400     7.5410     7.2570   124.2490
 1723.5000     0.0130     2.4590     8.5140   -50.9920     7.6450     7.4670     7.2110   124.8140
 1724.0000     0.0130     2.4540     8.5070   -50.8960     7.6450     7.4170     7.1490   124.0730
 1724.5000     0.0120     2.4490     8.5000   -50.8010     7.6450     7.3840     7.0870   123.2710
 1725.0000     0.0120     2.4480     8.4930   -50.7060     7.6450     7.3030     7.0250   122.5160
 1725.5000     0.0120     2.4470     8.4850   -50.6340     7.6450     7.1920     6.9550   122.7650
 1726.0000     0.0150     2.4470     8.4780   -50.5690     7.5100     7.0810     6.8500   123.0410
 1726.5000     0.0180     2.4460     8.4700   -50.5040     7.3390     6.9700     6.7460   122.9410
 1727.0000     0.0210     2.4440     8.4630   -50.4380     7.2470     6.8590     6.6430   121.1560
 1727.5000     0.0230     2.4370     8.4550   -50.3730     7.3470     6.7480     6.5040   119.4070
 1728.0000     0.0240     2.4230     8.4480   -50.3080     7.4260     6.4400     6.3650   117.6770
 1728.5000     0.0250     2.4100     8.4470   -50.2430     7.5060     6.0790     6.1690   117.0510
 1729.0000     0.0250     2.3960     8.4540   -50.1770     7.1700     5.7190     5.9710   118.2220
 1729.5000     0.0150     2.3830     8.4620   -50.1070     5.8550     5.3970     5.7720   119.3800
 1730.0000     0.0090     2.3780     8.4700   -50.2310     4.4930     5.3100     5.6520   120.5020
 1730.5000     0.0070     2.3830     8.4780   -50.3980     5.2130     5.1550     5.6720   119.9780
 1731.0000     0.0050     2.4270     8.4850   -50.5670     5.9480     5.4910     5.6880   119.3270
 1731.5000     0.0060     2.4500     8.4800   -50.7360     6.6820     6.0720     5.7740   119.1290
 1732.0000     0.0070     2.4600     8.4750   -50.9060     7.4380     6.6540     6.1850   119.5910
 1732.5000     0.0080     2.4670     8.4700   -51.0710     7.7290     7.2360     6.5970   120.0720
 1733.0000     0.0090     2.4650     8.4660   -50.9940     7.9280     7.4360     7.0090   119.2900
 1733.5000     0.0100     2.4610     8.4660   -50.9040     8.0510     7.5230     7.1680   118.3060
 1734.0000     0.0110     2.4570     8.4660   -50.8140     8.2270     7.6090     7.2780   117.3970
 1734.5000     0.0110     2.4550     8.4660   -50.7250     8.1990     7.7160     7.4380   117.9070
 1735.0000     0.0110     2.4540     8.4660   -50.6360     8.1490     7.6950     7.4130   118.4520
 1735.5000     0.0110     2.4540     8.4660   -50.5470     8.0770     7.6680     7.3680   118.9920
 1736.0000     0.0120     2.4520     8.4660   -50.4580     8.1070     7.6070     7.3230   119.5460
 1736.5000     0.0100     2.4490     8.4660   -50.3700     8.1520     7.3660     7.1420   119.1410
 1737.0000     0.0070     2.4440     8.4660   -50.2800     7.8380     7.1240     6.8530   118.2560
 1737.5000     0.0050     2.4390     8.4660   -50.1900     7.4700     6.8820     6.5630   117.7950
 1738.0000     0.0030     2.4350     8.4660   -50.1030     7.0240     6.6400     6.2740   117.8800
 1738.5000     0.0020     2.4420     8.4660   -50.2040     6.7240     6.4230     5.9690   117.9620
