~VERSION INFORMATION
 VERS.                2.0:   CWLS LOG ASCII STANDARD - VERSION 2.0
 WRAP.                 NO:   ONE LINE PER DEPTH STEP
~WELL INFORMATION
#MNEM.UNIT      DATA TYPE    INFORMATION
#----------   ------------   ------------------------------
 STRT.F            0.0000:   START DEPTH
 STOP.F         4000.0000:   STOP DEPTH
 STEP.F            0.5000:   STEP LENGTH
 NULL.          -999.2500:   NO VALUE
 COMP. LAWRENCE &  ALLISON ASSOC.:   COMPANY
 WELL. LAWRENCE NPR 3 "TX" #14-28:   WELL
 FLD .              N P R:   FIELD
 LOC .      S28 T39N R78W:   LOCATION
 CNTY.            NATRONA:   COUNTY
 STAT.            WYOMING:   STATE
 CTRY. UNITED STATES OF AMERICA:   COUNTRY
 SRVC.      DRESSER ATLAS:   SERVICE COMPANY
 DATE.        11-APR-1984:   LOGDATE
 API .     49025109710000:   API NUMBER
~CURVE INFORMATION
#MNEM.UNIT       API CODE    CURVE DESCRIPTION
#----------   ------------   ------------------------------
 DEPT.F                  :   
 RHOB.G/C3   45 350 01 00:   BULK DENSITY
 CORR.G/C3   45 356 01 00:   DENSITY CORRECTION
 TEND.LBS    45 635 01 00:   TENSION FROM DENSITY LOG
 CNC .DEC    42 890 03 00:   NEUTRON PORISITY SANDSTONE
 DT  .US/F   60 520 00 00:   DELTA TIME
 TENS.LBS    60 635 01 00:   TENSION FROM SONIC LOG
 GRR .GAPI   07 310 01 00:   GAMMA RAY FROM RESISTIVITY
 SPR .MV     07 010 01 00:   SPONTANEOUS POTENTIAL
 CALR.IN     07 280 01 00:   CALIPER FROM RESISTIVITY
 TENR.LBS    07 635 01 00:   TENSION
 RILD.OHMM   07 120 46 00:   INDUCTION LOG DEEP RESISTIVITY
 RILM.OHMM   07 120 44 00:   INDUCTION LOG MEDIUM RESISTIVITY
 RFOC.OHMM   07 220 01 00:   RESISTIVITY FOCUSED LOG RES.
~PARAMETER INFORMATION
#MNEM.UNIT          VALUE    DESCRIPTION
#----------   ------------   ------------------------------
 EKB .F         5024.0000:   Kelly bushing
 EGL .F         5014.0000:   Ground level
 TD  .F         3996.0000:   Total depth
 DATE.        11-APR-1984:   Date logged
 CLNT.            A2DTECH:   Client Code
 SL  . 250' FWL & 2100' FNL:   Surface Location
 PD  .                 GL:   Permanent Datum
 EPD .F              5014:   Elevation Permanent Datum
 LMF .                 KB:   Log Measured From
 DMF .                 KB:   Drilling Measured From
 DD  .F              3996:   Depth driller
 DL  .F              3994:   Depth logger
 BLI .F              3992:   Bottom log interval
 CS1 .IN            8.625:   Casing size
 CBD1.      8.625" @ 404':   Casing driller 1
 CBL1.F               404:   Casing logger 1
 BS1 .IN            7.875:   Bit size
 DFT .            GEL/KCL:   Type fluid in hole
 DFD .                9.1:   Density
 DFV .                 38:   Viscosity
 DFPH.                  8:   pH
 DFL .                 14:   Fluid loss
 MSS .           FLOWLINE:   Source of sample
 RMS .OHMM           .417:   Rm
 MST .F                90:   Rm Meas. temp.
 RMF .OHMM           .313:   Rmf
 MFST.F                90:   Rmf Meas. temp.
 RMC .OHMM           .521:   Rmc
 MCST.F                90:   Rmc Meas. temp.
 MFSS.               CALC:   Source Rmf.
 RMB .OHMM            .25:   Rm. at BHT
 BHT .F               150:   BHT.
 TCS .HRS               3:   Time Circ. stopped
 MRT .F               150:   Maximum recorded temp.
 LUN .               6307:   Logging unit number
 LUL .               GLTE:   Logging unit location
 ENGI.           FAHLSING:   Recorded By
 WITN.             STRONG:   Witnessed by
 ORIG.           5" PRINT:   Origin of data
 UWI .     49025109710000:   Unique Well ID
 DICO. A2D TECHNOLOGIES, INC.:   Digitizing Company
 DAPD.F                10:   Feet Above Permanent Datum
 BSD1.F              3996:   Depth drilled with bit1
 MCSS.               CALC:   Source Rmc.
~OTHER INFORMATION
~A    DEPT    RHOB       CORR       TEND        CNC         DT       TENS         GRR       SPR       CALR       TENR       RILD       RILM       RFOC   
# ...
 1118.0000  -999.2500  -999.2500  -999.2500  -999.2500  -999.2500  -999.2500    87.5860   -50.9530     8.6510   -62.0730     9.0740     8.4820     7.9550
 1118.5000  -999.2500  -999.2500  -999.2500  -999.2500  -999.2500  -999.2500    89.3980   -50.8630     8.6520   -62.3500     9.0790     8.4490     7.8640
 1119.0000  -999.2500  -999.2500  -999.2500  -999.2500  -999.2500  -999.2500    92.5980   -50.7740     8.6520   -62.6270     9.0830     8.4050     7.7720
 1119.5000  -999.2500  -999.2500  -999.2500  -999.2500  -999.2500  -999.2500    95.7750   -50.6890     8.6530   -62.9030     9.0880     8.4560     7.6680
 1120.0000  -999.2500  -999.2500  -999.2500  -999.2500  -999.2500  -999.2500    98.9090   -50.7870     8.6530   -63.1800     9.0920     8.5060     7.7460
 1120.5000  -999.2500  -999.2500  -999.2500  -999.2500  -999.2500  -999.2500   102.1650   -50.9330     8.6540   -63.4570     9.0970     8.5410     7.8370
 1121.0000  -999.2500  -999.2500  -999.2500  -999.2500  -999.2500  -999.2500   108.0190   -51.0810     8.6550   -63.7340     9.1010     8.5760     7.9270
 1121.5000  -999.2500  -999.2500  -999.2500  -999.2500  -999.2500  -999.2500   115.3810   -51.2280     8.6550   -64.0110     9.1060     8.6120     8.0180
 1122.0000  -999.2500  -999.2500  -999.2500  -999.2500  -999.2500  -999.2500   115.0460   -51.3760     8.6560   -64.2870     9.1110     8.6470     8.1020
 1122.5000  -999.2500  -999.2500  -999.2500  -999.2500  -999.2500  -999.2500   109.2710   -51.5230     8.6560   -64.5640     9.1150     8.6830     8.1220
 1123.0000  -999.2500  -999.2500  -999.2500  -999.2500  -999.2500  -999.2500   103.6980   -51.6710     8.6570   -64.8410     9.1200     8.7180     8.1400
 1123.5000  -999.2500  -999.2500  -999.2500  -999.2500  -999.2500  -999.2500    98.1360   -51.8180     8.6580   -65.1180     9.1240     8.7530     8.1580
 1124.0000  -999.2500  -999.2500  -999.2500  -999.2500  -999.2500  -999.2500    93.0360   -51.9660     8.6580   -65.3690     9.1290     8.7890     8.1770
 1124.5000  -999.2500  -999.2500  -999.2500  -999.2500  -999.2500  -999.2500    92.1780   -52.1130     8.6590   -64.4630     9.1390     8.8040     8.1950
 1125.0000  -999.2500  -999.2500  -999.2500  -999.2500  -999.2500  -999.2500    97.3420   -52.2610     8.6590   -63.6320     9.1590     8.8100     8.2130
 1125.5000  -999.2500  -999.2500  -999.2500  -999.2500  -999.2500  -999.2500   106.2640   -52.4090     8.6600   -62.8020     9.1800     8.8170     8.2320
 1126.0000  -999.2500  -999.2500  -999.2500  -999.2500  -999.2500  -999.2500   112.9290   -52.5540     8.6610   -61.9720     9.2010     8.8230     8.2500
 1126.5000  -999.2500  -999.2500  -999.2500  -999.2500  -999.2500  -999.2500   112.5590   -52.6240     8.6610   -61.1410     9.2210     8.8300     8.2680
 1127.0000  -999.2500  -999.2500  -999.2500  -999.2500  -999.2500  -999.2500   107.2350   -52.5020     8.6620   -60.3110     9.2420     8.8360     8.2870
 1127.5000  -999.2500  -999.2500  -999.2500  -999.2500  -999.2500  -999.2500   101.8410   -52.3840     8.6620   -59.4800     9.2630     8.8430     8.3050
 1128.0000  -999.2500  -999.2500  -999.2500  -999.2500  -999.2500  -999.2500    96.4570   -52.2650     8.6630   -58.6500     9.2830     8.8490     8.3230
 1128.5000  -999.2500  -999.2500  -999.2500  -999.2500  -999.2500  -999.2500    93.4890   -52.1460     8.6640   -57.8200     9.2960     8.8560     8.3420
 1129.0000  -999.2500  -999.2500  -999.2500  -999.2500  -999.2500  -999.2500    95.6880   -51.9200     8.6640   -56.9890     9.2800     8.8620     8.3600
 1129.5000  -999.2500  -999.2500  -999.2500  -999.2500  -999.2500  -999.2500    99.0760   -51.4600     8.6650   -56.1590     9.2670     8.8690     8.3780
 1130.0000  -999.2500  -999.2500  -999.2500  -999.2500  -999.2500  -999.2500   102.5660   -51.0040     8.6650   -55.3290     9.2540     8.8750     8.4050
 1130.5000  -999.2500  -999.2500  -999.2500  -999.2500  -999.2500  -999.2500   104.2680   -50.5460     8.6660   -54.4980     9.2410     8.8790     8.3600
 1131.0000  -999.2500  -999.2500  -999.2500  -999.2500  -999.2500  -999.2500   105.5240   -50.0910     8.6660   -53.6680     9.2280     8.7810     8.2760
 1131.5000  -999.2500  -999.2500  -999.2500  -999.2500  -999.2500  -999.2500   106.7570   -49.7290     8.6670   -52.8370     9.2160     8.6930     8.1920
 1132.0000  -999.2500  -999.2500  -999.2500  -999.2500  -999.2500  -999.2500   108.1130   -49.9870     8.6680   -52.0070     9.0920     8.6060     8.1090
 1132.5000  -999.2500  -999.2500  -999.2500  -999.2500  -999.2500  -999.2500   112.0570   -50.2360     8.6680   -51.1770     8.9330     8.5190     8.0250
 1133.0000  -999.2500  -999.2500  -999.2500  -999.2500  -999.2500  -999.2500   115.6320   -50.4830     8.6690   -50.3460     8.7740     8.4310     7.9420
 1133.5000  -999.2500  -999.2500  -999.2500  -999.2500  -999.2500  -999.2500   112.8910   -50.7300     8.6690   -49.5160     8.6140     8.3440     7.8580
 1134.0000  -999.2500  -999.2500  -999.2500  -999.2500  -999.2500  -999.2500   106.6300   -50.9780     8.6700   -48.6860     8.4630     8.2570     7.7750
 1134.5000  -999.2500  -999.2500  -999.2500  -999.2500  -999.2500  -999.2500   105.1850   -51.2310     8.6710   -47.8550     8.3530     8.1690     7.7100
 1135.0000  -999.2500  -999.2500  -999.2500  -999.2500  -999.2500  -999.2500   109.1840   -51.2790     8.6710   -47.0250     8.3280     8.0820     7.6680
 1135.5000  -999.2500  -999.2500  -999.2500  -999.2500  -999.2500  -999.2500   112.7080   -51.2810     8.6720   -46.1940     8.4390     8.0280     7.6680
 1136.0000  -999.2500  -999.2500  -999.2500  -999.2500  -999.2500  -999.2500   111.3200   -51.2850     8.6720   -45.3640     8.6220     8.1630     7.6950
 1136.5000  -999.2500  -999.2500  -999.2500  -999.2500  -999.2500  -999.2500   107.3250   -51.0590     8.6730   -44.5340     8.8060     8.2770     7.8410
 1137.0000  -999.2500  -999.2500  -999.2500  -999.2500  -999.2500  -999.2500   103.3110   -50.8840     8.6740   -43.7030     8.8810     8.3910     7.9860
 1137.5000  -999.2500  -999.2500  -999.2500  -999.2500  -999.2500  -999.2500    97.9460   -50.8800     8.6740   -42.8730     8.8810     8.4820     8.1020
 1138.0000  -999.2500  -999.2500  -999.2500  -999.2500  -999.2500  -999.2500    92.4470   -50.8440     8.6750   -42.0420     8.8010     8.3330     8.1020
 1138.5000  -999.2500  -999.2500  -999.2500  -999.2500  -999.2500  -999.2500    90.2910   -50.8100     8.6750   -41.2120     8.6680     8.2090     7.9400
 1139.0000  -999.2500  -999.2500  -999.2500  -999.2500  -999.2500  -999.2500    94.1200   -50.7750     8.6760   -40.3820     8.5350     8.0840     7.7390
 1139.5000  -999.2500  -999.2500  -999.2500  -999.2500  -999.2500  -999.2500    98.8220   -50.7400     8.6770   -39.5510     8.4020     7.9600     7.5370
 1140.0000  -999.2500  -999.2500  -999.2500  -999.2500  -999.2500  -999.2500   100.7570   -50.7060     8.6770   -38.7210     8.2700     7.8360     7.4600
 1140.5000  -999.2500  -999.2500  -999.2500  -999.2500  -999.2500  -999.2500   100.5780   -50.6710     8.6780   -37.8910     8.1370     7.7280     7.3920
 1141.0000  -999.2500  -999.2500  -999.2500  -999.2500  -999.2500  -999.2500    96.5600   -50.6360     8.6780   -37.0600     7.9550     7.6680     7.3240
 1141.5000  -999.2500  -999.2500  -999.2500  -999.2500  -999.2500  -999.2500    92.5480   -50.6020     8.6790   -36.2300     8.0410     7.7390     7.1260
 1142.0000  -999.2500  -999.2500  -999.2500  -999.2500  -999.2500  -999.2500    91.0630   -50.5670     8.6800   -35.4290     8.1780     7.8240     7.2300
 1142.5000  -999.2500  -999.2500  -999.2500  -999.2500  -999.2500  -999.2500    95.0140   -50.5320     8.6800   -35.4290     8.3150     7.9090     7.3320
 1143.0000  -999.2500  -999.2500  -999.2500  -999.2500  -999.2500  -999.2500    99.8050   -50.4960     8.6810   -35.4290     8.4510     7.9930     7.4330
 1143.5000  -999.2500  -999.2500  -999.2500  -999.2500  -999.2500  -999.2500   104.6320   -50.5390     8.6810   -35.4290     8.5880     8.0780     7.5350
