~VERSION INFORMATION
 VERS.                2.0:   CWLS LOG ASCII STANDARD - VERSION 2.0
 WRAP.                 NO:   ONE LINE PER DEPTH STEP
~WELL INFORMATION
#MNEM.UNIT      DATA TYPE    INFORMATION
#----------   ------------   ------------------------------
 STRT.F          212.0000:   START DEPTH
 STOP.F         2806.0000:   STOP DEPTH
 STEP.F            0.5000:   STEP LENGTH
 NULL.          -999.2500:   NO VALUE
 COMP.    FENIX & SCISSON:   COMPANY
 WELL.    FENIX AX #12-21:   WELL
 FLD .        TEAPOT DOME:   FIELD
 LOC .      S21 T39N R78W:   LOCATION
 CNTY.            NATRONA:   COUNTY
 STAT.            WYOMING:   STATE
 CTRY. UNITED STATES OF AMERICA:   COUNTRY
 SRVC.           BIRDWELL:   SERVICE COMPANY
 DATE.        14-AUG-1973:   LOGDATE
 API .     49025106930000:   API NUMBER
~CURVE INFORMATION
#MNEM.UNIT       API CODE    CURVE DESCRIPTION
#----------   ------------   ------------------------------
 DEPT.F                  :   
 SN  .OHMM   05 040 16 00:   SHORT NORMAL 16"
 ILD .OHMM   05 120 46 00:   INDUCTION LOG DEEP RESISTIVITY
 RHOB.G/C3   45 350 01 00:   BULK DENSITY
 CORR.G/C3   45 356 01 00:   DENSITY CORRECTION
 GRD .GAPI   45 310 01 00:   GAMMA RAY FROM DENSITY LOG
 CALD.IN     45 280 60 00:   CALIPER FROM DENSITY LOG
 SPR .MV     05 010 01 00:   SPONTANEOUS POTENTIAL
~PARAMETER INFORMATION
#MNEM.UNIT          VALUE    DESCRIPTION
#----------   ------------   ------------------------------
 EKB .F         4998.0000:   Kelly bushing
 EGL .F         4988.0000:   Ground level
 EDF .F            0.0000:   Drilling floor
 EPD .F         4988.0000:   Permanent datum
 TD  .F         2809.0000:   Total depth
 DATE.        14-AUG-1973:   Date logged
 CLNT.            A2DTECH:   Client Code
 SL  . 1300' FNL & 300' FWL:   Surface Location
 PD  .                 GL:   Permanent Datum
 DD  .F              2800:   Depth driller
 DL  .F              2809:   Depth logger
 BLI .F              2803:   Bottom log interval
 TLI .F               235:   Top log interval
 CS1 .IN            8.625:   Casing size
 BS1 .IN            7.875:   Bit size
 BSD1.F              2800:   Depth drilled with bit1
 DFT .                GEL:   Type fluid in hole
 DFD .                9.7:   Density
 DFV .                 34:   Viscosity
 DFPH.                 12:   pH
 MSS .           FLOWLINE:   Source of sample
 RMS .OHMM            .15:   Rm
 MST .F                57:   Rm Meas. temp.
 RMF .OHMM            .95:   Rmf
 MFST.F                69:   Rmf Meas. temp.
 RMC .OHMM            1.5:   Rmc
 MCST.F                78:   Rmc Meas. temp.
 MFSS.               MEAS:   Source Rmf.
 RMB .OHMM            .87:   Rm. at BHT
 BHT .F               115:   BHT.
 TCS .HRS               3:   Time Circ. stopped
 MRT .F               115:   Maximum recorded temp.
 LUN .               3006:   Logging unit number
 LUL .               CASP:   Logging unit location
 ENGI.             MILLER:   Recorded By
 WITN.           MCGINLEY:   Witnessed by
 UWI .     49025106930000:   Unique Well ID
 DICO. A2D TECHNOLOGIES, INC.:   Digitizing Company
 ORIG.           5" PRINT:   Origin of data
~OTHER INFORMATION
~A   DEPT       SN        ILD       RHOB       CORR         GRD      CALD        SPR   
# ...
 1213.0000    10.1440     7.6540     2.5600     0.0610    79.6630     8.7100   -10.2400
 1213.5000    10.1570     7.6730     2.5580     0.0590    80.5000     8.7660   -10.2470
 1214.0000    10.1710     7.6940     2.5630     0.0590    80.1670     8.8030   -10.2550
 1214.5000    10.1820     7.7150     2.5680     0.0590    84.6270     8.8400   -10.2630
 1215.0000    10.1910     7.7870     2.5670     0.0590    80.2850     8.8580   -10.2700
 1215.5000    10.2010     7.8980     2.5620     0.0610    79.7410     8.8190   -10.2780
 1216.0000    10.2100     8.0140     2.5600     0.0630    80.9250     8.7800   -10.2860
 1216.5000    10.2190     8.0140     2.5620     0.0650    81.8620     8.8350   -10.2930
 1217.0000    10.2280     8.0140     2.5620     0.0750    81.3490     8.8660   -10.3010
 1217.5000    10.2370     8.0140     2.5550     0.0790    81.3490     8.8670   -10.3080
 1218.0000    10.2470     8.0140     2.5530     0.0830    82.7140     8.8680   -10.3160
 1218.5000    10.2560     8.0140     2.5560     0.0970    83.2800     8.9220   -10.3240
 1219.0000    10.2650     8.0140     2.5590     0.1010    83.1590     8.8910   -10.3310
 1219.5000    10.2710     8.0140     2.5580     0.1030    82.1920     8.9800   -10.3390
 1220.0000    10.2710     8.0140     2.5560     0.1050    80.8310     9.1110   -10.3460
 1220.5000    10.2710     8.0140     2.5540     0.1070    78.2550     8.9190   -10.3540
 1221.0000    10.2710     8.0140     2.5490     0.1090    78.6140     9.0570   -10.3620
 1221.5000    10.2710     8.0140     2.5480     0.1120    78.3170     9.0530   -10.3690
 1222.0000    10.2710     8.0140     2.5540     0.1250    76.8900     9.0320   -10.3750
 1222.5000    10.2710     8.0140     2.5630     0.1500    74.9040     9.0800   -10.3680
 1223.0000    10.2710     8.0140     2.5610     0.1560    76.3070     9.0880   -10.3610
 1223.5000    10.2710     8.0140     2.5510     0.1550    79.7510     9.2540   -10.3540
 1224.0000    10.2710     8.0140     2.5410     0.1550    83.1830     8.9890   -10.3470
 1224.5000    10.2710     8.0140     2.5030     0.1590    85.0000     9.1810   -10.3410
 1225.0000    10.2710     8.0140     2.5020     0.1730    83.2410     9.1490   -10.3340
 1225.5000    10.2710     8.0230     2.5680     0.2080    83.5430     9.1320   -10.3270
 1226.0000    10.2710     8.0370     2.5650     0.2100    83.8510     9.1160   -10.3210
 1226.5000    10.2710     8.0520     2.5610     0.2010    81.1550     8.9030   -10.3140
 1227.0000    10.2710     8.0660     2.5540     0.2040    80.3550     9.0520   -10.3070
 1227.5000    10.2710     8.0810     2.5600     0.2160    80.2370     9.1300   -10.3010
 1228.0000    10.2710     8.0950     2.5740     0.2240    80.9650     9.3170   -10.2940
 1228.5000    10.2700     8.1100     2.5820     0.2230    83.6010     9.1070   -10.2870
 1229.0000    10.3030     8.1250     2.5900     0.2220    84.4680     9.0620   -10.2810
 1229.5000    10.3810     8.1390     2.6020     0.2210    84.6450     9.0750   -10.2740
 1230.0000    10.4590     8.1620     2.6310     0.2200    84.7750     9.0860   -10.2670
 1230.5000    10.5380     8.1580     2.6320     0.2040    83.4260     9.0950   -10.2610
 1231.0000    10.6160     8.1480     2.6170     0.1900    80.1300     9.0920   -10.2540
 1231.5000    10.6940     8.1390     2.6040     0.1670    78.3630     8.8950   -10.2470
 1232.0000    10.7540     8.1290     2.5690     0.1530    76.0270     8.9840   -10.2400
 1232.5000    10.7230     8.1190     2.5700     0.1650    78.1480     9.0780   -10.2340
 1233.0000    10.6980     8.1100     2.5970     0.1900    80.2990     9.1700   -10.2270
 1233.5000    10.6720     8.1000     2.6090     0.1960    82.3600     9.1460   -10.2200
 1234.0000    10.6470     8.0900     2.6200     0.1970    78.5190     9.1010   -10.2140
 1234.5000    10.6220     8.0810     2.6180     0.1980    82.1210     8.8350   -10.2070
 1235.0000    10.5970     8.0710     2.6120     0.1980    77.6650     8.8390   -10.2000
 1235.5000    10.5710     8.0610     2.6070     0.2040    76.7460     9.0220   -10.1940
 1236.0000    10.5460     8.0520     2.6180     0.2180    76.2420     8.7280   -10.1870
 1236.5000    10.5210     8.0420     2.6370     0.2220    75.8670     8.8670   -10.1800
 1237.0000    10.4960     8.0320     2.6310     0.2080    75.4990     8.7390   -10.1810
 1237.5000    10.4620     8.0230     2.6520     0.1940    75.1700     9.1420   -10.1870
 1238.0000    10.4830     8.0140     2.6250     0.1730    76.3600     8.6710   -10.1920
 1238.5000    10.5160     8.0070     2.6090     0.1530    77.3160     9.2330   -10.1970
 1239.0000    10.5500     8.0010     2.6080     0.1470    76.0190     9.1490   -10.2030
 1239.5000    10.5830     7.9940     2.6110     0.1430    74.7610     9.0110   -10.2080
 1240.0000    10.6160     7.9880     2.6120     0.1380    74.2470     8.8700   -10.2130
 1240.5000    10.6490     7.9820     2.6120     0.1330    73.7640     8.7820   -10.2180
 1241.0000    10.6830     7.9750     2.6110     0.1280    73.9220     8.8320   -10.2240
 1241.5000    10.7160     7.9690     2.6100     0.1230    75.8820     8.7540   -10.2290
 1242.0000    10.7490     7.9630     2.6080     0.1170    77.8170     8.8690   -10.2340
 1242.5000    10.7830     7.9560     2.6000     0.1120    80.3330     8.6160   -10.2400
 1243.0000    10.8160     7.9500     2.5940     0.1070    82.7500     8.7320   -10.2450
 1243.5000    10.8490     7.9440     2.5900     0.1020    82.6550     8.7800   -10.2500
 1244.0000    10.8530     7.9380     2.5890     0.0990    83.4160     8.7110   -10.2560
 1244.5000    10.8230     7.9310     2.6050     0.1000    85.4790     8.6880   -10.2610
 1245.0000    10.8000     7.9250     2.6050     0.1000    84.6030     8.6810   -10.2660
 1245.5000    10.7760     7.9190     2.6070     0.1000    81.7900     8.7330   -10.2710
 1246.0000    10.7530     7.9120     2.6080     0.0970    80.2650     8.7810   -10.2770
 1246.5000    10.7290     7.9060     2.6090     0.0950    76.5710     8.7130   -10.2820
 1247.0000    10.7060     7.9000     2.6060     0.0930    76.6510     8.6370   -10.2870
 1247.5000    10.6820     7.8930     2.6010     0.0910    74.9110     8.7350   -10.2930
 1248.0000    10.6590     7.8870     2.5970     0.0910    72.3240     8.7410   -10.2980
 1248.5000    10.6350     7.8810     2.5890     0.0920    72.2020     8.6390   -10.3030
 1249.0000    10.6120     7.8740     2.5880     0.0910    76.8090     8.6330   -10.3090
 1249.5000    10.5890     7.8680     2.5860     0.0840    80.6530     8.6600   -10.3140
 1250.0000    10.5650     7.8670     2.5630     0.0770    84.5350     8.6890   -10.3190
 1250.5000    10.4880     7.8680     2.5610     0.0710    80.2890     8.6680   -10.3240
 1251.0000    10.3890     7.8670     2.5600     0.0710    80.0590     8.6410   -10.3300
 1251.5000    10.2900     7.8350     2.5560     0.0720    76.4750     8.6160   -10.3350
 1252.0000    10.1900     7.8000     2.5630     0.0800    75.0120     8.5940   -10.3400
 1252.5000    10.0840     7.7640     2.5720     0.0900    73.5990     8.6110   -10.3460
 1253.0000    10.0840     7.7280     2.5790     0.0980    73.7890     8.8090   -10.3510
 1253.5000    10.0840     7.6930     2.5850     0.1020    76.7830     8.6800   -10.3560
 1254.0000    10.0840     7.6570     2.5860     0.1030    80.4600     8.7150   -10.3620
 1254.5000    10.0840     7.6220     2.5850     0.1030    80.3020     8.7040   -10.3670
 1255.0000    10.0840     7.5860     2.5870     0.0990    80.2490     8.6620   -10.3720
 1255.5000    10.0680     7.5510     2.5890     0.0910    78.9430     8.7330   -10.3730
 1256.0000     9.9720     7.5140     2.5580     0.0710    77.3220     8.8090   -10.3680
 1256.5000     9.8750     7.5240     2.5430     0.0700    76.2110     8.7080   -10.3620
 1257.0000     9.7790     7.5340     2.5400     0.0810    74.4410     8.7020   -10.3560
 1257.5000     9.7290     7.5440     2.5370     0.0900    74.5270     8.6870   -10.3500
 1258.0000     9.8140     7.5540     2.5440     0.1040    77.2440     8.8130   -10.3440
