~VERSION INFORMATION
 VERS.                2.0:   CWLS LOG ASCII STANDARD - VERSION 2.0
 WRAP.                 NO:   ONE LINE PER DEPTH STEP
~WELL INFORMATION
#MNEM.UNIT      DATA TYPE    INFORMATION
#----------   ------------   ------------------------------
 STRT.F           95.0000:   START DEPTH
 STOP.F          866.5000:   STOP DEPTH
 STEP.F            0.5000:   STEP LENGTH
 NULL.          -999.2500:   NO VALUE
 COMP.          U.S. NAVY:   COMPANY
 WELL. U.S NAVY RES 3 TEAPOT DOM "SX" #41-2:   WELL
 FLD .        TEAPOT DOME:   FIELD
 LOC .       S2 T38N R78W:   LOCATION
 CNTY.            NATRONA:   COUNTY
 STAT.            WYOMING:   STATE
 CTRY. UNITED STATES OF AMERICA:   COUNTRY
 SRVC.       SCHLUMBERGER:   SERVICE COMPANY
 DATE.        20-JUL-1953:   LOGDATE
 API .     49025064770000:   API NUMBER
~CURVE INFORMATION
#MNEM.UNIT       API CODE    CURVE DESCRIPTION
#----------   ------------   ------------------------------
 DEPT.F                  :   
 SPR .MV     05 010 01 00:   SPONTANEOUS POTENTIAL FROM RES.
 ASN .OHMM   05 041 16 00:   AMPLIFIED SHORT NORMAL 16"
 ILD .OHMM   05 120 46 00:   INDUCTION LOG DEEP
 GR  .GAPI   30 310 01 00:   GAMMA RAY
~PARAMETER INFORMATION
#MNEM.UNIT          VALUE    DESCRIPTION
#----------   ------------   ------------------------------
 EKB .F         5140.0000:   Kelly bushing
 EGL .F         5135.0000:   Ground level
 TD  .F          862.0000:   Total depth
 DATE.        20-JUL-1953:   Date logged
 CLNT.            A2DTECH:   Client Code
 DD  .F               862:   Depth driller
 DL  .F               855:   Depth logger
 BLI .F               654:   Bottom log interval
 TLI .F                50:   Top log interval
 CS1 .IN            8.625:   Casing size
 CBD1.       8.625" @ 10':   Casing driller 1
 BS1 .IN             6.75:   Bit size
 BSD1.F               862:   Depth drilled with bit1
 DFT .            GEL-OIL:   Type fluid in hole
 DFD .                9.4:   Density
 DFV .                 50:   Viscosity
 DFPH.                8.0:   pH
 DFL .                3.1:   Fluid loss
 RMS .OHMM           1.83:   Rm
 MST .F                96:   Rm Meas. temp.
 RMF .OHMM           1.56:   Rmf
 MFST.F                96:   Rmf Meas. temp.
 TCS .HRS               1:   Time Circ. stopped
 LUN .               4507:   Logging unit number
 LUL .               CSPR:   Logging unit location
 ENGI.            WINKLER:   Recorded By
 WITN.          JORGENSON:   Witnessed by
 ORIG.           5" PRINT:   Origin of data
 UWI .     49025064770000:   Unique Well ID
 DICO. A2D TECHNOLOGIES, INC.:   Digitizing Company
 MSS .           FLOWLINE:   Source of sample
~OTHER INFORMATION
~A  DEPTH      SPR        ASN        ILD         GR
# ...
  168.0000   -71.5360     7.2671     6.2147  -999.2500
  168.5000   -71.6877     7.1180     6.2881  -999.2500
  169.0000   -71.8399     7.1934     6.5103  -999.2500
  169.5000   -72.1404     7.3289     6.7322  -999.2500
  170.0000   -72.4409     7.5690     7.1042  -999.2500
  170.5000   -72.7414     7.8390     7.4012  -999.2500
  171.0000   -72.8931     8.0342     7.6239  -999.2500
  171.5000   -72.8960     8.2593     7.7717  -999.2500
  172.0000   -72.8989     8.4845     7.9195  -999.2500
  172.5000   -72.9023     8.6797     7.9927  -999.2500
  173.0000   -72.9048     8.8600     7.9910  -999.2500
  173.5000   -72.9077     8.9654     7.9146  -999.2500
  174.0000   -72.9110     8.9959     7.9132  -999.2500
  174.5000   -72.8702     8.9814     7.7625  -999.2500
  175.0000   -72.7675     8.9521     7.4625  -999.2500
  175.5000   -72.9197     8.8629     7.2226  -999.2500
  176.0000   -72.7733     8.4744     6.8626  -999.2500
  176.5000   -72.4795     7.9809     6.6372  -999.2500
  177.0000   -72.3331     7.5474     6.4863  -999.2500
  177.5000   -72.1872     7.3085     6.4102  -999.2500
  178.0000   -72.0413     7.2491     6.7819  -999.2500
  178.5000   -72.0452     7.3246     7.0043  -999.2500
  179.0000   -72.1969     7.5497     6.9282  -999.2500
  179.5000   -72.3486     7.7450     6.7029  -999.2500
  180.0000   -72.3515     7.7606     6.5522  -999.2500
  180.5000   -72.3544     7.8210     6.9982  -999.2500
  181.0000   -72.3573     8.0162     7.2955  -999.2500
  181.5000   -72.3607     8.1516     7.3689  -999.2500
  182.0000   -72.5124     8.0773     6.7700  -999.2500
  182.5000   -72.5153     7.7785     6.3954  -999.2500
  183.0000   -72.5179     7.4199     6.2447  -999.2500
  183.5000   -72.5208     7.2857     6.1686  -999.2500
  184.0000   -72.5239     7.1664     6.1669  -999.2500
  184.5000   -72.3785     7.1072     6.1657  -999.2500
  185.0000   -72.3814     7.0928     6.1640  -999.2500
  185.5000   -72.2345     7.0186     6.1625  -999.2500
  186.0000   -72.0891     6.8995     6.1612  -999.2500
  186.5000   -71.9432     7.0348     6.0850  -999.2500
  187.0000   -71.9466     7.2749     5.9817  -999.2500
  187.5000   -72.0988     7.2904     5.8579  -999.2500
  188.0000   -72.3993     7.1563     5.8565  -999.2500
  188.5000   -72.4022     6.9773     5.8552  -999.2500
  189.0000   -72.4051     6.8132     5.8536  -999.2500
  189.5000   -72.4080     6.7240     5.8521  -999.2500
  190.0000   -72.4628     6.7095     5.9255  -999.2500
  190.5000   -72.4133     6.7252     5.9238  -999.2500
  191.0000   -72.4171     6.7857     5.9224  -999.2500
  191.5000   -72.4200     6.8761     5.9958  -999.2500
  192.0000   -72.4229     6.9964     6.0689  -999.2500
  192.5000   -72.2768     7.0719     6.2165  -999.2500
  193.0000   -72.2799     7.0873     6.2897  -999.2500
  193.5000   -72.2833     7.0281     6.2880  -999.2500
  194.0000   -72.4350     6.9091     6.0626  -999.2500
  194.5000   -72.4379     6.7001     5.7624  -999.2500
  195.0000   -72.4408     6.5060     5.5371  -999.2500
  195.5000   -72.4437     6.3419     5.3864  -999.2500
  196.0000   -72.4464     6.2079     5.2978  -999.2500
  196.5000   -72.5988     6.1336     5.1597  -999.2500
  197.0000   -72.6017     6.0892     5.0835  -999.2500
  197.5000   -72.6042     6.0600     5.0072  -999.2500
  198.0000   -72.6075     6.0605     5.0060  -999.2500
  198.5000   -72.7592     6.0611     5.0045  -999.2500
  199.0000   -72.9109     6.0767     5.0028  -999.2500
  199.5000   -73.0631     6.0923     4.9267  -999.2500
  200.0000   -73.1687     6.0929     4.9253  -999.2500
  200.5000   -73.0655     6.1826     5.0754  -999.2500
  201.0000   -72.9167     6.1826     5.0762  -999.2500
  201.5000   -72.9167     6.1826     5.0769  -999.2500
  202.0000   -73.0655     6.1527     5.0777  -999.2500
  202.5000   -73.2682     6.1677     5.1530  -999.2500
  203.0000   -73.5119     6.2126     5.2284  -999.2500
  203.5000   -73.8095     6.2725     5.3038  -999.2500
  204.0000   -73.9583     6.3725     5.3792  -999.2500
  204.5000   -73.8095     6.4970     5.4545  -999.2500
  205.0000   -73.6607     6.6317     5.5299  -999.2500
  205.5000   -73.6607     6.7365     5.6800  -999.2500
  206.0000   -73.6607     6.8413     5.8300  -999.2500
  206.5000   -73.6607     6.9461     6.0546  -999.2500
  207.0000   -73.6607     7.0808     6.2045  -999.2500
  207.5000   -73.8095     7.1707     6.3546  -999.2500
  208.0000   -74.1071     7.1707     6.3553  -999.2500
  208.5000   -74.4048     7.1707     6.3561  -999.2500
  209.0000   -74.5536     7.1707     6.3568  -999.2500
  209.5000   -74.8512     7.0958     6.3575  -999.2500
  210.0000   -74.8512     7.0210     6.2091  -999.2500
  210.5000   -74.8512     6.9461     5.9859  -999.2500
  211.0000   -74.7024     6.8413     5.6627  -999.2500
  211.5000   -74.7024     6.6766     5.2411  -999.2500
  212.0000   -74.4048     6.2425     4.7942  -999.2500
  212.5000   -74.1071     5.9132     4.5708  -999.2500
  213.0000   -73.8095     5.5988     4.2731  -999.2500
  213.5000   -73.6607     5.2545     4.1247  -999.2500
  214.0000   -73.6607     5.0898     4.0507  -999.2500
  214.5000   -73.6607     5.0749     3.8277  -999.2500
  215.0000   -73.5119     5.1198     3.6792  -999.2500
  215.5000   -73.5119     5.0898     3.6052  -999.2500
  216.0000   -73.3631     4.5359     3.5313  -999.2500
  216.5000   -73.2143     3.8473     3.4574  -999.2500
  217.0000   -73.0655     3.9820     3.4583  -999.2500
  217.5000   -73.0655     4.9251     3.3842  -999.2500
  218.0000   -73.0655     5.4192     3.3851  -999.2500
  218.5000   -73.0655     5.1048     3.3859  -999.2500
  219.0000   -73.0655     5.0150     3.4613  -999.2500
  219.5000   -73.0655     5.2844     3.8352  -999.2500
  220.0000   -73.2143     5.6737     4.4329  -999.2500
  220.5000   -73.2143     6.0030     5.1799  -999.2500
  221.0000   -73.3631     6.3323     5.6284  -999.2500
  221.5000   -73.2143     6.4820     6.0770  -999.2500
  222.0000   -73.2143     6.6617     6.3762  -999.2500
  222.5000   -73.0655     6.8413     6.4516  -999.2500
  223.0000   -72.9167     6.8713     6.4523  -999.2500
  223.5000   -72.9167     6.9012     6.5276  -999.2500
  224.0000   -72.9167     7.0808     6.5285  -999.2500
  224.5000   -72.7679     7.3204     6.6784  -999.2500
  225.0000   -72.7679     7.4850     6.7537  -999.2500
  225.5000   -72.7679     7.5898     6.8291  -999.2500
  226.0000   -72.7679     7.6497     6.9792  -999.2500
  226.5000   -72.7679     7.6647     6.9800  -999.2500
  227.0000   -72.9167     7.5749     6.9060  -999.2500
  227.5000   -72.9167     7.4551     6.8321  -999.2500
  228.0000   -72.9167     7.3204     6.7582  -999.2500
  228.5000   -73.0655     7.1557     6.6844  -999.2500
  229.0000   -73.2143     6.9611     6.6852  -999.2500
  229.5000   -73.3631     6.6916     6.3873  -999.2500
  230.0000   -73.3631     6.5120     5.9403  -999.2500
  230.5000   -73.3631     6.4222     5.4934  -999.2500
  231.0000   -73.2143     6.3174     5.2700  -999.2500
  231.5000   -73.2143     6.1527     5.1962  -999.2500
  232.0000   -73.0655     5.9880     5.0478  -999.2500
  232.5000   -72.9167     5.7784     4.8994  -999.2500
  233.0000   -72.8173     5.4641     4.7507  -999.2500
  233.5000   -72.6190     5.1647     4.3784  -999.2500
  234.0000   -72.4702     4.8653     4.0060  -999.2500
  234.5000   -72.3214     4.6108     3.7081  -999.2500
  235.0000   -72.0238     4.6856     3.5598  -999.2500
  235.5000   -71.7262     5.0449     3.5606  -999.2500
  236.0000   -71.7262     4.7006     3.6359  -999.2500
  236.5000   -71.7262     4.5808     3.7112  -999.2500
  237.0000   -71.7262     4.6707     3.8613  -999.2500
  237.5000   -71.7262     4.8802     4.0859  -999.2500
  238.0000   -72.0238     5.1796     4.3105  -999.2500
  238.5000   -72.1726     5.4042     4.4605  -999.2500
  239.0000   -72.4702     5.5838     4.8344  -999.2500
  239.5000   -72.7679     5.6886     5.2830  -999.2500
  240.0000   -72.6190     5.7784     5.5822  -999.2500
  240.5000   -72.4702     5.8234     5.8068  -999.2500
