~VERSION INFORMATION
 VERS.                2.0:   CWLS LOG ASCII STANDARD - VERSION 2.0
 WRAP.                 NO:   ONE LINE PER DEPTH STEP
~WELL INFORMATION
#MNEM.UNIT      DATA TYPE    INFORMATION
#----------   ------------   ------------------------------
 STRT.F          240.0000:   START DEPTH
 STOP.F         2876.0000:   STOP DEPTH
 STEP.F            0.5000:   STEP LENGTH
 NULL.          -999.2500:   NO VALUE
 COMP.    FENIX & SCISSON:   COMPANY
 WELL. FENIX & SCISSON "A" #23-21:   WELL
 FLD .               NPR3:   FIELD
 LOC .      S21 T39N R78W:   LOCATION
 CNTY.            NATRONA:   COUNTY
 STAT.            WYOMING:   STATE
 CTRY. UNITED STATES OF AMERICA:   COUNTRY
 SRVC.              WELEX:   SERVICE COMPANY
 DATE.        05-MAR-1977:   LOGDATE
 API .     49025103030000:   API NUMBER
~CURVE INFORMATION
#MNEM.UNIT       API CODE    CURVE DESCRIPTION
#----------   ------------   ------------------------------
 DEPT.F                  :   
 GRD .GAPI   45 310 01 00:   GAMMA RAY FROM DENSITY LOG
 CALD.IN     45 280 60 00:   CALIPER FROM DENSITY LOG
 CORR.G/C3   45 356 01 00:   DENSITY CORRECTION
 RHOB.G/C3   45 350 01 00:   BULK DENSITY
 SPR .MV     07 010 01 00:   SPONTANEOUS POTENTIAL
 ILD .OHMM   07 120 46 00:   DEEP INDUCTION RESISTIVITY
 ILM .OHMM   07 120 44 00:   INDUCTION LOG MEDIUM RESISTIVITY
 SGRD.OHMM   07 220 05 00:   SHALLOW SHORT GUARD RESISTIVITY
~PARAMETER INFORMATION
#MNEM.UNIT          VALUE    DESCRIPTION
#----------   ------------   ------------------------------
 EKB .F         4986.0000:   Kelly bushing
 EGL .F         4976.0000:   Ground level
 TD  .F         2885.0000:   Total depth
 CLNT.            A2DTECH:   Client Code
 SL  . 990' FWL & 1650' FNL:   Surface Location
 DATE.        05-MAR-1977:   Date Logged [DD-MMM-YYYY]
 DD  .F              2885:   Depth driller
 DL  .F              2882:   Depth logger
 BLI .F              2876:   Bottom log interval
 TLI .F               238:   Top log interval
 CS1 .IN            8.625:   Casing size
 CBD1.      8.625" @ 251':   Casing driller 1
 CBL1.IN              251:   Casing logger 1
 BS1 .IN            7.875:   Bit size
 BSD1.F              2885:   Depth drilled with bit1
 DFT .                KCL:   Type fluid in hole
 DFD .                9.5:   Density
 TCS .HRS               3:   Time Circ. stopped
 MRT .F                78:   Maximum recorded temp.
 ENGI.          D. LAWSON:   Recorded By
 WITN.            K. JAPP:   Witnessed by
 ORIG.         2.5" PRINT:   Origin of data
 UWI .     49025103030000:   Unique Well ID
 DICO. A2D TECHNOLOGIES,INC.:   Digitizing Company
 PD  .                 GL:   Permanent Datum
 EPD .               4976:   Elevation Permanent Datum
 LMF .                 KB:   Log Measured From
 DMF .                 KB:   Drilling Measured From
 DAPD.                 10:   Feet Above Permanent Datum
 DFL .                8.8:   Fluid loss
 MSS .           FLOWLINE:   Source of sample
 RMS .OHMM            .40:   Rm
 MST .F                58:   Rm Meas. temp.
 RMF .OHMM            .37:   Rmf
 MFST.F                58:   Rmf Meas. temp.
 MFSS.OHMM            .67:   Source Rmf.
 MCST.F                58:   Rmc Meas. temp.
 MCSS.               MEAS:   Source Rmc.
 RMB .OHMM            .30:   Rm. at BHT
 BHT .F                78:   BHT.
~OTHER INFORMATION
~A   DEPT       GRD        CALD      CORR        RHOB      SPR        ILD        ILM       SGRD   
# ...
 1617.0000   162.0734     8.2597     0.0215     2.4861   -50.7870     5.8216     8.0017     9.8639
 1617.5000   162.6614     8.2595     0.0245     2.4787   -50.7841     5.9831     8.3922     9.3476
 1618.0000   163.2494     8.2594     0.0255     2.4697   -50.7811     6.0649     8.8117    10.1734
 1618.5000   165.0103     8.2887     0.0285     2.4653   -50.7781     6.0637     9.0677    10.7622
 1619.0000   165.5983     8.2885     0.0315     2.4653   -50.7752     6.0624     9.0093    11.3445
 1619.5000   164.4268     8.2590     0.0365     2.4638   -50.7722     5.9782     8.7627    11.3048
 1620.0000   162.0822     8.2588     0.0395     2.4519   -50.7692     5.8144     8.5863    10.2699
 1620.5000   160.0309     8.2292     0.0425     2.4355   -50.7663     5.5012     8.2289     9.6007
 1621.0000   158.2728     8.1997     0.0465     2.4146   -50.4674     5.2050     7.9009     9.2103
 1621.5000   156.5148     8.1701     0.0525     2.3893   -50.4645     4.8572     7.5302     9.0926
 1622.0000   157.1027     8.1700     0.0575     2.3446   -50.1656     4.5327     7.0267     9.1019
 1622.5000   159.4503     8.1404     0.0566     2.2969   -50.1627     4.2299     6.5998     9.4877
 1623.0000   161.2113     8.1403     0.0306     2.2641   -50.1597     4.1140     6.0784     9.4107
 1623.5000   161.3503     8.1401    -0.0043     2.2820   -49.8610     4.0013     5.2639     7.0823
 1624.0000   156.8154     8.1400     0.0137     2.4221   -49.8303     3.9457     4.2425     4.5539
 1624.5000   153.5910     8.1104     0.0257     2.4328   -49.5592     3.9448     4.8733     5.7732
 1625.0000   152.4194     8.1103     0.0277     2.4162   -49.5562     3.9440     5.7448    10.1563
 1625.5000   153.8872     8.0807     0.0217     2.3938   -49.5533     3.9432     5.9844     8.6217
 1626.0000   152.7157     8.0806     0.0177     2.3596   -49.5719     3.9424     5.9420     8.4508
 1626.5000   149.7846     8.0804     0.0158     2.3432   -49.8433     3.9416     5.7394     9.2550
 1627.0000   149.7861     8.0803     0.0188     2.3342   -49.8402     3.9955     5.1382     8.9113
 1627.5000   149.7875     8.0801     0.0148     2.3566   -49.8373     4.1634     4.6649     5.5811
 1628.0000   155.6541     8.0800    -0.0022     2.4639   -49.8343     4.2789     4.4768     5.3235
 1628.5000   160.9341     8.0798     0.0228     2.5220   -49.8313     4.3976     4.6091    10.1679
 1629.0000   161.5221     8.0797     0.0248     2.5296   -49.8284     4.6460     5.5710    11.7324
 1629.5000   161.2303     8.0795     0.0248     2.5191   -49.8254     4.8412     6.7389    11.8250
 1630.0000   158.8858     8.0794     0.0248     2.4997   -49.8225     5.0446     7.2569    11.6626
 1630.5000   156.5412     8.0792     0.0239     2.4729   -50.1154     5.1846     7.5630    11.5024
 1631.0000   154.7831     8.0791     0.0179     2.4461   -50.1125     5.4024     7.7074    11.6626
 1631.5000   155.3711     8.0790     0.0149     2.4327   -50.1095     5.5523     7.4409    10.2320
 1632.0000   157.7186     8.0788     0.0099     2.4386   -50.1065     5.7856     6.9437     7.2436
 1632.5000   158.5999     8.0787     0.0060     2.4506   -50.1036     5.9461     6.6191     7.5661
 1633.0000   159.1879     8.0785     0.0010     2.4595   -50.1006     6.1111     6.3894     9.9622
 1633.5000   160.3623     8.0784     0.0020     2.4640   -50.0976     6.2807     6.2234    11.8082
 1634.0000   156.5515     8.0782     0.0150     2.4580   -49.7988     6.3666     6.6912    12.4803
 1634.5000   158.8990     8.0781     0.0240     2.4506   -49.2041     6.4536     7.3546    12.6716
 1635.0000   160.6600     8.0779     0.0350     2.4431   -48.9053     6.4523     8.0521    12.6716
 1635.5000   159.4884     8.1072     0.0420     2.4357   -48.9023     6.4509     8.8680    12.6716
 1636.0000   158.7625     8.1070     0.0520     2.4163   -48.3077     6.2742     9.1494    12.6716
 1636.5000   160.0779     8.1363     0.0620     2.3865   -48.0088     6.1870     8.4919    12.9295
 1637.0000   158.9063     8.1362     0.0710     2.3523   -48.0059     6.1010     7.0526    13.0270
 1637.5000   156.5618     8.1360     0.0730     2.3135   -48.0029     6.0997     6.3258    12.1142
 1638.0000   156.8565     8.1653     0.0580     2.2599   -47.9999     6.0150     5.9638     6.6429
 1638.5000   158.9108     8.1945     0.0221     2.2912   -47.9970     5.9314     6.6217     7.2188
 1639.0000   160.9650     8.1944     0.0521     2.3419   -47.9940     5.8490     7.4749     9.5208
 1639.5000   164.1923     8.2237     0.0641     2.4030   -47.9910     5.9289     8.3921    11.2458
 1640.0000   166.8330     8.2235     0.0671     2.4121   -47.9881     6.1103     9.1390    12.3969
 1640.5000   162.7289     8.1940     0.0631     2.4075   -47.9851     6.1103     9.5236    13.1120
 1641.0000   165.0764     8.1644     0.0611     2.3985   -47.9821     6.1103     9.5223    13.1231
 1641.5000   166.8374     8.1643     0.0601     2.3866   -47.9792     6.1103     9.5210    11.5561
 1642.0000   167.1322     8.1347     0.0571     2.3687   -48.2721     6.1103     9.1340    10.4498
 1642.5000   168.8932     8.1640     0.0542     2.3717   -48.2691     6.1103     8.1789    10.1563
 1643.0000   176.2260     8.1638     0.0482     2.3837   -48.5620     6.0266     7.2234     9.6979
 1643.5000   183.2656     8.1637     0.0382     2.4015   -48.8549     5.9528     6.9298     8.1723
 1644.0000   187.3727     8.1635     0.0303     2.4064   -48.8519     5.7454     6.9288    11.4287
 1644.5000   193.5325     8.1634     0.0203     2.3732   -48.8489     5.6628     7.0241    13.4821
 1645.0000   198.2260     8.1632     0.0073     2.3643   -49.1420     5.7428     7.5243    10.4763
 1645.5000   221.6879     8.1631    -0.0046     2.3747   -49.1389     5.9474     8.1722     8.9722
 1646.0000   232.5398     8.1629    -0.0016     2.4105   -49.1359     6.1555     8.9990     9.2168
 1646.5000   236.9401     8.1628    -0.0016     2.4388   -49.4290     6.4169     9.6399    12.3248
 1647.0000   239.5809     8.1332    -0.0016     2.4389   -49.4258     6.6501    10.1851    12.9358
 1647.5000   241.9284     8.1331    -0.0016     2.4344   -49.4229     6.9341    10.7611    14.1626
 1648.0000   243.6894     8.1035    -0.0016     2.4269   -49.7160     7.4113    11.2140    16.2536
 1648.5000   245.1571     8.1034     0.0014     2.4210   -49.7128     7.9402    11.6860    17.5369
 1649.0000   246.9181     8.1032    -0.0015     2.4285   -49.7098     8.1622    12.1779    17.7832
 1649.5000   248.0926     8.1031    -0.0015     2.4374   -49.4110     8.5069    12.6904    17.5377
 1650.0000   249.8533     8.1029     0.0025     2.4404   -49.1122     8.9893    13.4081    18.2847
 1650.5000   249.8548     8.1028     0.0115     2.4404   -49.1092     9.3689    13.9724    19.7253
 1651.0000   249.8563     8.1026     0.0175     2.4389   -48.8104     9.6309    14.7626    18.6674
 1651.5000   249.8580     8.1025     0.0195     2.4359   -48.8074    10.0376    15.5975    17.0595
 1652.0000   228.7451     8.1023     0.0185     2.4359   -48.8045    10.1769    16.0314    18.3311
 1652.5000   211.7378     8.1022     0.0125     2.4389   -48.5056    10.3182    16.4774    20.2852
 1653.0000   200.8888     8.1020     0.0106     2.4419   -48.5027    10.3182    16.7042    20.7068
 1653.5000   198.2510     8.1019     0.0136     2.4434   -48.4997    10.1769    16.7016    22.3627
 1654.0000   197.3727     8.1018     0.0166     2.4419   -48.4967    10.0376    16.9315    23.6103
 1654.5000   195.9079     8.1016     0.0196     2.4419   -48.7896    10.0376    16.6970    22.7988
 1655.0000   191.5105     8.1015     0.0156     2.4420   -48.7867     9.9001    16.0182    21.2741
 1655.5000   181.2481     8.1013     0.0106     2.4435   -48.7837     9.7646    15.5804    20.4145
 1656.0000   168.3463     8.1012     0.0117     2.4464   -49.0766     9.4990    14.9470    19.8571
 1656.5000   164.8287     8.1010     0.0147     2.4509   -49.0736     9.3689    14.7403    19.7253
 1657.0000   158.6718     8.1009     0.0167     2.4584   -49.3669     8.9893    14.1411    19.5835
