~VERSION INFORMATION
 VERS.                2.0:   CWLS LOG ASCII STANDARD - VERSION 2.0
 WRAP.                 NO:   ONE LINE PER DEPTH STEP
~WELL INFORMATION
#MNEM.UNIT      DATA TYPE    INFORMATION
#----------   ------------   ------------------------------
 STRT.F          200.0000:   START DEPTH
 STOP.F         3080.0000:   STOP DEPTH
 STEP.F            0.5000:   STEP LENGTH
 NULL.          -999.2500:   NO VALUE
 COMP.    FENIX & SCISSON:   COMPANY
 WELL. FENIX NPR 3 "AX" #55-33:   WELL
 FLD .        TEAPOT DOME:   FIELD
 LOC .      S33 T38N R78W:   LOCATION
 CNTY.            NATRONA:   COUNTY
 STAT.            WYOMING:   STATE
 CTRY. UNITED STATES OF AMERICA:   COUNTRY
 SRVC.           BIRDWELL:   SERVICE COMPANY
 DATE.        08-FEB-1978:   LOGDATE
 API .     49025105740000:   API NUMBER
~CURVE INFORMATION
#MNEM.UNIT       API CODE    CURVE DESCRIPTION
#----------   ------------   ------------------------------
 DEPT.F                  :   
 CALD.IN     45 280 60 00:   CALIPER FROM DENSITY LOG
 GRD .GAPI   45 310 01 00:   GAMMA RAY FROM DENSITY LOG
 RHOB.G/C3   45 350 01 00:   BULK DENSITY
 CORR.G/C3   45 356 01 00:   DENSITY CORRECTION
 NPOR.DEC    42 890 03 00:   ALPHA PROCESSED NEUTRON POROSITY
 SPR .MV     05 010 01 00:   SPONTANEOUS POTENTIAL
 SN  .OHMM   05 040 16 00:   SHORT NORMAL 16"
 ILD .OHMM   05 120 46 00:   DEEP INDUCTION RESISTIVITY
~PARAMETER INFORMATION
#MNEM.UNIT          VALUE    DESCRIPTION
#----------   ------------   ------------------------------
 EKB .F         5197.0000:   Kelly bushing
 EGL .F         5187.0000:   Ground level
 EDF .F            0.0000:   Drilling floor
 TD  .F         3084.0000:   Total depth
 DATE.        08-FEB-1978:   Date logged
 CLNT.            A2DTECH:   Client Code
 SL  . 2000' FSL & 2310' FEL:   Surface Location
 PD  .                 GL:   Permanent Datum
 EPD .F              5187:   Elevation Permanent Datum
 LMF .                 KB:   Log Measured From
 DMF .                 KB:   Drilling Measured From
 DAPD.F                10:   Feet Above Permanent Datum
 DD  .F              3084:   Depth driller
 DL  .F              3080:   Depth logger
 BLI .F              3074:   Bottom log interval
 TLI .F               200:   Top log interval
 CS1 .IN            8.625:   Casing size
 CBD1.      8.625" @ 229':   Casing driller 1
 CBL1.F               230:   Casing logger 1
 BS1 .IN            7.875:   Bit size
 BSD1.F              3084:   Depth drilled with bit1
 DFT .     LIGNOSULFONATE:   Type fluid in hole
 DFD .                9.2:   Density
 DFV .                 30:   Viscosity
 DFPH.                  9:   pH
 DFL .                  5:   Fluid loss
 MSS .           FLOWLINE:   Source of sample
 RMS .OHMM            1.5:   Rm
 MST .F                62:   Rm Meas. temp.
 RMF .OHMM            1.2:   Rmf
 MFST.F                66:   Rmf Meas. temp.
 RMC .OHMM            2.8:   Rmc
 MCST.F                65:   Rmc Meas. temp.
 MFSS.               MEAS:   Source Rmf.
 RMB .OHMM            .82:   Rm. at BHT
 BHT .F               114:   BHT.
 TCS .HRS               3:   Time Circ. stopped
 MRT .F               114:   Maximum recorded temp.
 LUN .               2958:   Logging unit number
 LUL .               CASP:   Logging unit location
 ENGI.            POINTER:   Recorded By
 WITN.         HARRINGTON:   Witnessed by
 ORIG.           5" PRINT:   Origin of data
 UWI .     49025105740000:   Unique Well ID
 DICO. A2D TECHNOLOGIES, INC.:   Digitizing Company
~OTHER INFORMATION
~A   DEPT       CALD      GRD       RHOB        CORR      NPOR        SPR         SN        ILD   
# ...
 2103.5000     9.2986   114.5199     2.5451     0.0787  -999.2500   -49.6600    12.4174     9.8287
 2104.0000     9.2988   116.7002     2.5591     0.0807  -999.2500   -49.8546    12.3062     9.8317
 2104.5000     9.2990   116.5042     2.5411     0.0788  -999.2500   -49.8506    12.1959     9.7433
 2105.0000     9.2992   115.9121     2.5201     0.0628  -999.2500   -49.8466    12.1982     9.5673
 2105.5000     9.2994   116.3102     2.5381     0.0588  -999.2500   -49.8425    12.0889     9.3944
 2106.0000     9.2996   118.8865     2.5392     0.0668  -999.2500   -49.8393    11.8711     9.2247
 2106.5000     9.2998   121.6609     2.5412     0.0688  -999.2500   -49.8353    11.8733     9.2264
 2107.0000     9.3000   126.6135     2.5462     0.0728  -999.2500   -49.8312    11.8755     9.2281
 2107.5000     9.3001   125.2289     2.5462     0.0769  -999.2500   -49.8272    11.8778     9.2298
 2108.0000     9.3201   123.0527     2.5502     0.0769  -999.2500   -50.2205    11.8795     9.2315
 2108.5000     9.3005   119.6882     2.5502     0.0749  -999.2500   -50.2165    11.8817     9.2333
 2109.0000     9.2413   116.5222     2.5492     0.0709  -999.2500   -50.2125    11.8840     9.2340
 2109.5000     9.2415   113.7519     2.5432     0.0649  -999.2500   -50.2085    11.8862     9.2360
 2110.0000     9.2417   109.1993     2.5252     0.0509  -999.2500   -50.2044    11.8884     9.2381
 2110.5000     9.2419   107.6171     2.5202     0.0490  -999.2500   -50.2004    11.8906     9.2398
 2111.0000     9.2421   106.0349     2.5343     0.0550  -999.2500   -50.5937    11.8928     9.2416
 2111.5000     9.2423   107.0271     2.5533     0.0630  -999.2500   -50.5897    11.8950     9.2429
 2112.0000     9.2425   110.1971     2.5343     0.0590  -999.2500   -51.1817    11.7885     9.2450
 2112.5000     9.2427   120.1004     2.5293     0.0551  -999.2500   -51.1777    11.7907     9.2467
 2113.0000     9.2429   118.3201     2.5253     0.0471  -999.2500   -51.1737    11.7929     9.2485
 2113.5000     9.2431   114.7577     2.5223     0.0431  -999.2500   -51.1704    11.6872     9.2502
 2114.0000     9.2433   111.5913     2.5163     0.0431  -999.2500   -50.3717    11.6894     9.1671
 2114.5000     9.2435   109.8111     2.5113     0.0431  -999.2500   -49.9703    11.6916     9.0847
 2115.0000     9.2635   108.2289     2.5113     0.0431  -999.2500   -49.7676    11.6938     9.0031
 2115.5000     9.2439   109.8151     2.5123     0.0432  -999.2500   -49.7635    11.6955     8.7594
 2116.0000     9.2441   115.9559     2.5173     0.0452  -999.2500   -49.9582    11.6977     8.5226
 2116.5000     9.2443   118.5318     2.5183     0.0432  -999.2500   -50.1528    11.6999     8.5240
 2117.0000     9.2445   120.3165     2.5164     0.0432  -999.2500   -50.3475    11.7020     8.5254
 2117.5000     9.2645   119.7232     2.5124     0.0412  -999.2500   -50.3435    11.7042     8.5270
 2118.0000     9.2647   113.9837     2.5144     0.0413  -999.2500   -50.5381    11.7064     8.6075
 2118.5000     9.2649   112.4015     2.5124     0.0393  -999.2500   -50.5341    11.8166     8.6885
 2119.0000     9.2651   110.6212     2.5114     0.0353  -999.2500   -50.7287    12.0379     8.8517
 2119.5000     9.2653   110.8213     2.5174     0.0353  -999.2500   -51.1221    12.1513     9.0179
 2120.0000     9.2655   111.8130     2.5164     0.0353  -999.2500   -51.1181    12.3788     9.1031
 2120.5000     9.2657   111.8150     2.4884     0.0354  -999.2500   -51.1148    12.2680     9.2741
 2121.0000     9.2659   111.8170     2.4954     0.0354  -999.2500   -51.1108    12.2702     9.4483
 2121.5000     9.2463   110.8289     2.5004     0.0394  -999.2500   -50.7070    12.2725     9.7148
 2122.0000     9.2267   110.6329     2.5034     0.0414  -999.2500   -50.5067    12.2744    10.0813
 2122.5000     9.2269   110.6349     2.5035     0.0414  -999.2500   -50.3040    12.2766    11.1280
 2123.0000     9.2271   113.2112     2.5045     0.0415  -999.2500   -50.2999    12.2789    11.6535
 2123.5000     9.2273   115.7876     2.5120     0.0415  -999.2500   -50.2959    12.1689    12.2042
 2124.0000     9.2275   117.1754     2.5125     0.0415  -999.2500   -50.2919    12.0599    13.1385
 2124.5000     9.2277   119.3556     2.4875     0.0415  -999.2500   -50.4865    12.0622    13.8865
 2125.0000     9.2279   125.4972     2.4875     0.0415  -999.2500   -50.6812    12.0644    14.1470
 2125.5000     9.2281   125.4981     2.4835     0.0436  -999.2500   -50.6772    12.2904    14.2803
 2126.0000     9.2283   124.5095     2.4855     0.0436  -999.2500   -50.6731    12.7527    14.1522
 2126.5000     9.2285   127.6811     2.4935     0.0456  -999.2500   -50.6691    13.3544    13.8969
 2127.0000     9.2287   126.6922     2.4995     0.0516  -999.2500   -50.6651    12.9939    13.5212
 2127.5000     9.2289   122.3381     2.4995     0.0536  -999.2500   -50.8605    12.7598    13.0352
 2128.0000     9.2291   119.5681     2.4995     0.0537  -999.2500   -50.6578    12.1894    12.4516
 2128.5000     9.2293   121.9456     2.4946     0.0537  -999.2500   -50.0577    11.8603    10.4847
 2129.0000     9.2295   124.3240     2.4906     0.0537  -999.2500   -49.8550    11.7541     9.7417
 2129.5000     9.2297   125.5137     2.4896     0.0537  -999.2500   -49.6523    11.6483     9.2197
 2130.0000     9.2101   120.5663     2.4896     0.0537  -999.2500   -49.4496    11.7580     8.7256
 2130.5000     9.2301   119.5774     2.4916     0.0538  -999.2500   -49.6442    11.6527     8.5679
 2131.0000     9.2303   117.9964     2.4936     0.0518  -999.2500   -49.6402    11.7624     8.5695
 2131.5000     9.2305   119.9774     2.4886     0.0538  -999.2500   -49.6362    11.7646     8.5711
 2132.0000     9.2307   124.3360     2.4906     0.0558  -999.2500   -49.8308    11.7668     8.5727
 2132.5000     9.2309   125.1301     2.5147     0.0659  -999.2500   -49.8268    11.7690     8.6537
 2133.0000     9.2311   122.7558     2.5197     0.0699  -999.2500   -49.8228    11.6635     8.6550
 2133.5000     9.2313   120.1835     2.5187     0.0679  -999.2500   -50.0174    11.7733     8.7367
 2134.0000     9.2315   118.6017     2.5057     0.0579  -999.2500   -50.2121    11.6679     8.7383
 2134.5000     9.2317   119.7915     2.5037     0.0539  -999.2500   -50.0102    11.6700     8.7399
 2135.0000     9.2319   122.1698     2.5037     0.0479  -999.2500   -49.8075    11.6722     8.7416
 2135.5000     9.2123   123.7556     2.5057     0.0480  -999.2500   -49.6047    11.6744     8.6630
 2136.0000     9.2323   119.0054     2.5127     0.0460  -999.2500   -49.4020    11.6766     8.4285
 2136.5000     9.2325   113.6607     2.5057     0.0460  -999.2500   -48.8019    11.6783     8.2003
 2137.0000     9.2327   108.9101     2.4957     0.0440  -999.2500   -48.4006    11.7883     8.2778
 2137.5000     9.2329   102.7737     2.4847     0.0440  -999.2500   -48.3965    11.7905     8.4332
 2138.0000     9.2133   100.5975     2.5108     0.0481  -999.2500   -48.5912    12.2339     8.7514
 2138.5000     9.2333   101.5896     2.5028     0.0581  -999.2500   -48.9845    12.3491     8.9983
 2139.0000     9.2335   105.1557     2.4958     0.0661  -999.2500   -49.3779    12.8136     9.1673
 2139.5000     9.2337   107.5340     2.5018     0.0481  -999.2500   -49.5725    14.1785     9.3391
 2140.0000     9.2339   108.5261     2.5128     0.0461  -999.2500   -49.5685    15.6887     9.6914
 2140.5000     9.2143   109.1222     2.5038     0.0442  -999.2500   -49.9618    15.9819    10.2440
 2141.0000     9.2343   110.7080     2.4978     0.0442  -999.2500   -50.1565    16.8905    11.1315
 2141.5000     9.2147   112.0962     2.4928     0.0462  -999.2500   -50.1532    17.3656    12.0959
 2142.0000     9.2149   113.6824     2.4938     0.0482  -999.2500   -50.3479    17.5291    12.8661
 2142.5000     9.2349   116.6548     2.4888     0.0462  -999.2500   -50.3439    17.5324    12.8680
 2143.0000     9.2351   121.8051     2.4858     0.0483  -999.2500   -50.3398    17.5356    12.9893
 2143.5000     9.2352   124.1834     2.4869     0.0503  -999.2500   -50.3358    17.7007    12.8718
