~VERSION INFORMATION
 VERS.                2.0:   CWLS LOG ASCII STANDARD - VERSION 2.0
 WRAP.                 NO:   ONE LINE PER DEPTH STEP
~WELL INFORMATION
#MNEM.UNIT      DATA TYPE    INFORMATION
#----------   ------------   ------------------------------
 STRT.F            0.0000:   START DEPTH
 STOP.F         3358.0000:   STOP DEPTH
 STEP.F            0.5000:   STEP LENGTH
 NULL.          -999.2500:   NO VALUE
 COMP. LAWRENCE ALLISON & ASSOC.:   COMPANY
 WELL. LAWRENCE NPR 3 "X" #14-11:   WELL
 FLD .                NPR:   FIELD
 LOC .      S11 T38N R78W:   LOCATION
 CNTY.            NATRONA:   COUNTY
 STAT.            WYOMING:   STATE
 CTRY. UNITED STATES OF AMERICA:   COUNTRY
 SRVC.      DRESSER ATLAS:   SERVICE COMPANY
 DATE.        25-SEP-1985:   LOGDATE
 API .     49025110470000:   API NUMBER
~CURVE INFORMATION
#MNEM.UNIT       API CODE    CURVE DESCRIPTION
#----------   ------------   ------------------------------
 DEPT.F                  :   
 TENR.LBS    07 635 01 00:   TENSION
 SPR .MV     07 010 01 00:   SPONTANEOUS POTENTIAL
 SFL .OHMM   07 220 01 00:   SHALLOW FOCUSED LOG RESISTIVITY
 ILD .OHMM   07 120 46 00:   DEEP INDUCTION RESISTIVITY
 ILM .OHMM   07 120 44 00:   INDUCTION LOG MEDIUM RESISTIVITY
 TENS.LBS    60 635 01 00:   TENSION FROM SONIC LOG
 DT  .US/F   60 520 00 00:   DELTA TIME
 TEND.LBS    45 635 01 00:   TENSION FROM DENSITY LOG
 RHOB.G/C3   45 350 01 00:   BULK DENSITY
 CORR.G/C3   45 356 01 00:   DENSITY CORRECTION
 NPHI.DEC    42 890 01 00:   NEUTRON POROSITY LIMESTONE
 GRR .GAPI   07 310 01 00:   GAMMA RAY FROM RESISTIVITY
~PARAMETER INFORMATION
#MNEM.UNIT          VALUE    DESCRIPTION
#----------   ------------   ------------------------------
 EKB .F         5184.0000:   Kelly bushing
 EGL .F         5173.0000:   Ground level
 EDF .F            0.0000:   Drilling floor
 TD  .F         3353.0000:   Total depth
 DATE.        25-SEP-1985:   Date logged
 CLNT.            A2DTECH:   Client Code
 SL  . 473' FWL & 2360' FNL:   Surface Location
 PD  .                 GL:   Permanent Datum
 EPD .F              5173:   Elevation Permanent Datum
 LMF .                 KB:   Log Measured From
 DMF .                 KB:   Drilling Measured From
 DAPD.F                11:   Feet Above Permanent Datum
 DD  .F              3353:   Depth driller
 DL  .F              3346:   Depth logger
 BLI .F              3344:   Bottom log interval
 CS1 .IN            8.625:   Casing size
 CBD1.      8.625" @ 586':   Casing driller 1
 CBL1.F               585:   Casing logger 1
 BS1 .IN            7.875:   Bit size
 BSD1.F              3353:   Depth drilled with bit1
 DFT .     GEL/KCL/STAFLO:   Type fluid in hole
 DFD .                8.9:   Density
 DFV .                 39:   Viscosity
 DFPH.                  8:   pH
 DFL .                8.9:   Fluid loss
 MSS .           FLOWLINE:   Source of sample
 RMS .OHMM            .45:   Rm
 MST .F                80:   Rm Meas. temp.
 RMF .OHMM            .33:   Rmf
 MFST.F                80:   Rmf Meas. temp.
 RMC .OHMM            .56:   Rmc
 MCST.F                80:   Rmc Meas. temp.
 MFSS.               CALC:   Source Rmf.
 MCSS.               CALC:   Source Rmc.
 RMB .OHMM            .27:   Rm. at BHT
 BHT .F               130:   BHT.
 TCS .HRS               3:   Time Circ. stopped
 MRT .F               135:   Maximum recorded temp.
 LUN .               6274:   Logging unit number
 LUL .               GLTE:   Logging unit location
 ENGI.               MACK:   Recorded By
 WITN.             STRONG:   Witnessed by
 ORIG.           5" PRINT:   Origin of data
 UWI .     49025110470000:   Unique Well ID
 DICO. A2D TECHNOLOGIES, INC.:   Digitizing Company
~OTHER INFORMATION
~A    DEPT    TENR        SPR        SFL        ILD        ILM       TENS         DT       TEND       RHOB       CORR       NPHI         GRR  
# ...
 3136.0000   -54.7240   -54.8690     4.0660     3.6430     3.7100   -31.4520    82.9150   -45.8170     2.4780     0.0530     0.2530    53.9440
 3136.5000   -52.7510   -54.7640     3.9920     3.5770     3.6430   -31.1780    83.7710   -45.8170     2.4700     0.0320     0.2430    55.0970
 3137.0000   -50.7790   -54.6580     3.9920     3.5530     3.5970   -30.9040    83.9850   -45.8170     2.4700     0.0330     0.2440    56.2300
 3137.5000   -48.8070   -54.5530     3.9920     3.4960     3.5410   -30.6310    83.8860   -45.8170     2.4760     0.0430     0.2440    56.3400
 3138.0000   -46.8350   -54.4470     3.9920     3.4380     3.4840   -30.3570    83.7290   -45.8170     2.4820     0.0510     0.2420    55.8410
 3138.5000   -44.8630   -54.3410     3.9920     3.3800     3.4270   -30.0830    83.5730   -45.8170     2.4800     0.0460     0.2450    55.9230
 3139.0000   -42.8910   -54.2360     3.9920     3.3230     3.3710   -29.8100    83.6600   -46.2620     2.4760     0.0230     0.2490    56.7870
 3139.5000   -41.2520   -54.1310     3.9920     3.2650     3.3140   -29.5360    83.9900   -47.2400     2.4710     0.0150     0.2570    58.3990
 3140.0000   -40.6910   -54.0220     3.9700     3.2070     3.2580   -29.2620    84.6560   -48.2190     2.4680     0.0080     0.2630    58.4410
 3140.5000   -40.2100   -53.9240     3.9070     3.1500     3.2010   -28.9890    85.1420   -49.1970     2.4700     0.0140     0.2650    58.3610
 3141.0000   -39.7290   -53.8010     3.8440     3.0920     3.1450   -28.7150    85.4180   -50.1760     2.4720     0.0210     0.2680    58.2490
 3141.5000   -39.2490   -53.8650     3.7820     3.0340     3.0880   -28.4410    85.6930   -51.1540     2.4740     0.0290     0.2700    58.1220
 3142.0000   -38.7680   -54.0620     3.7190     2.9770     3.0320   -28.1670    85.9690   -52.1330     2.4710     0.0370     0.2710    58.5830
 3142.5000   -38.2880   -54.2350     3.6560     2.9190     2.9750   -27.8940    86.2440   -53.1110     2.4680     0.0430     0.2750    59.8250
 3143.0000   -37.8070   -54.4150     3.5930     2.8610     2.9190   -27.6200    86.5200   -54.0900     2.4670     0.0510     0.2820    60.0630
 3143.5000   -37.3270   -54.5600     3.5310     2.8030     2.8620   -27.3460    86.8940   -55.0680     2.4700     0.0640     0.2880    59.8510
 3144.0000   -36.8460   -54.5610     3.4940     2.7460     2.8060   -27.0730    87.3170   -56.0460     2.4700     0.0650     0.2940    59.8420
 3144.5000   -36.3650   -54.5660     3.4670     2.6880     2.7490   -26.7990    87.7070   -57.0250     2.4690     0.0670     0.2930    59.1970
 3145.0000   -35.8850   -54.5680     3.4190     2.6300     2.6930   -26.5250    88.4380   -58.0030     2.4700     0.0610     0.2910    60.0070
 3145.5000   -35.4040   -54.6830     3.3160     2.5730     2.6360   -26.2520    89.1150   -58.9820     2.4710     0.0520     0.2960    61.0380
 3146.0000   -34.9240   -54.8140     3.2140     2.5150     2.5800   -25.9780    89.6720   -59.9600     2.4720     0.0430     0.2980    60.9670
 3146.5000   -34.4430   -54.9430     3.1110     2.4570     2.5230   -25.7040    89.9220   -60.9390     2.4690     0.0200     0.2960    59.6640
 3147.0000   -33.9630   -55.0770     3.0340     2.3910     2.4670   -25.6730    90.0000   -61.9170     2.4640     0.0150     0.2920    58.3370
 3147.5000   -33.4820   -55.2010     3.0930     2.3480     2.4350   -25.6730    90.0000   -62.8950     2.4590     0.0160     0.2880    58.3120
 3148.0000   -33.0010   -55.3470     3.1640     2.3480     2.4350   -25.6730    90.0000   -63.8740     2.4540     0.0290     0.2840    59.4710
 3148.5000   -32.5210   -55.3070     3.2050     2.3350     2.4350   -25.6730    90.0000   -64.8520     2.4580     0.0430     0.2810    59.8740
 3149.0000   -32.0400   -55.1840     3.1320     2.3200     2.4350   -25.6730    90.3790   -65.7370     2.4580     0.0560     0.2790    59.9720
 3149.5000   -31.5600   -55.0660     3.0610     2.3050     2.4350   -25.6730    90.9230   -65.7370     2.4570     0.0610     0.2840    60.1000
 3150.0000   -31.0790   -54.9490     3.0340     2.2900     2.4350   -25.6730    91.1960   -65.7370     2.4560     0.0570     0.2870    60.2530
 3150.5000   -30.5990   -54.8300     3.0580     2.2750     2.4270   -25.6730    90.8670   -65.7370     2.4580     0.0530     0.2910    60.3660
 3151.0000   -30.1180   -54.7130     3.1190     2.2630     2.4060   -25.6730    90.5680   -65.7370     2.4590     0.0520     0.2940    60.5200
 3151.5000   -29.6380   -54.5940     3.2050     2.2400     2.3860   -25.6730    90.2990   -65.7370     2.4550     0.0550     0.2980    60.6340
 3152.0000   -29.1570   -54.4750     3.1480     2.2120     2.3650   -25.6730    90.4140   -65.7370     2.4520     0.0570     0.3020    60.7970
 3152.5000   -28.6760   -54.3610     3.0540     2.1830     2.3450   -25.6730    91.1310   -65.7370     2.4480     0.0410     0.3030    60.9720
 3153.0000   -28.1960   -54.2280     2.9510     2.1550     2.3250   -25.6730    91.8480   -65.7370     2.4490     0.0370     0.3030    62.2040
 3153.5000   -27.7150   -54.2020     2.9240     2.1260     2.3040   -25.6730    92.4930   -65.7370     2.4540     0.0370     0.3040    63.0400
 3154.0000   -27.2350   -54.3180     2.9510     2.1030     2.2840   -25.6730    92.2360   -65.7370     2.4590     0.0370     0.3090    62.2100
 3154.5000   -26.7540   -54.4160     2.9780     2.0980     2.2630   -25.6730    91.9510   -65.7370     2.4540     0.0380     0.3100    62.3840
 3155.0000   -26.2740   -54.5230     2.9780     2.0910     2.2640   -25.6730    91.6450   -65.7370     2.4450     0.0420     0.3100    64.5350
 3155.5000   -25.7930   -54.6250     2.9430     2.0840     2.2630   -25.6730    91.8200   -65.7370     2.4360     0.0470     0.3090    66.4250
 3156.0000   -25.3120   -54.7320     2.8980     2.0770     2.2640   -25.6730    92.2680   -65.7370     2.4300     0.0440     0.3060    68.1270
 3156.5000   -24.8320   -54.8320     2.8710     2.0710     2.2630   -25.6730    92.4430   -65.7370     2.4360     0.0160     0.3050    66.6640
 3157.0000   -24.3510   -54.9470     2.9180     2.0650     2.2620   -25.6730    92.0670   -65.7370     2.4410     0.0130     0.3020    63.0960
 3157.5000   -23.8710   -54.9600     2.9960     2.1450     2.2660   -25.6730    91.6020   -65.7370     2.4420     0.0470     0.2990    59.4900
 3158.0000   -23.3900   -54.9590     3.0900     2.2120     2.2630   -25.6730    91.1370   -65.7370     2.4420     0.0700     0.2870    58.0520
 3158.5000   -22.9100   -54.9480     3.0900     2.2780     2.5210   -25.6730    90.8970   -65.7370     2.4420     0.0630     0.2700    58.9490
 3159.0000   -22.4290   -54.8050     3.0900     2.4010     2.6650   -25.6730    90.8970   -65.7370     2.4480     0.0390     0.2540    60.0030
 3159.5000   -21.9480   -54.6520     3.0900     2.5610     2.8090   -25.6730    89.9000   -65.7370     2.4550     0.0150     0.2420    59.6700
 3160.0000   -21.3720   -54.4960     3.1180     2.7220     2.9540   -25.6730    87.8400   -65.7370     2.4660     0.0030     0.2340    57.8880
 3160.5000   -21.1320   -54.3430     3.1470     2.8820     3.0980   -25.6730    84.9150   -65.7370     2.4860     0.0130     0.2290    56.0600
 3161.0000   -20.8330   -54.1880     4.2980     3.0420     3.2430   -25.6730    81.9910   -65.7370     2.4960     0.0340     0.2280    54.5270
 3161.5000   -20.5330   -54.0340     5.4500     3.2020     3.3870   -25.6730    79.9590   -65.7370     2.4940     0.0550     0.2310    56.8850
 3162.0000   -20.2340   -53.8800     5.5510     3.3620     3.5310   -25.6730    78.9330   -65.7370     2.4890     0.0680     0.2360    61.9130
 3162.5000   -19.9350   -53.7260     4.9660     3.5230     3.6760   -25.6730    81.0270   -65.7370     2.4800     0.0530     0.2390    66.8860
 3163.0000   -19.6350   -53.5710     4.4790     3.6830     3.8490   -25.6730    83.0830   -65.7370     2.4870     0.0390     0.2360    70.7700
 3163.5000   -19.3360   -53.4170     3.9920     3.7790     3.9030   -25.6730    84.0430   -65.2840     2.5030     0.0310     0.2340    68.8190
