~VERSION INFORMATION
 VERS.                2.0:   CWLS LOG ASCII STANDARD - VERSION 2.0
 WRAP.                 NO:   ONE LINE PER DEPTH STEP
~WELL INFORMATION
#MNEM.UNIT      DATA TYPE    INFORMATION
#----------   ------------   ------------------------------
 STRT.F          204.5000:   START DEPTH
 STOP.F         2964.0000:   STOP DEPTH
 STEP.F            0.5000:   STEP LENGTH
 NULL.          -999.2500:   NO VALUE
 COMP.    FENIX & SCISSON:   COMPANY
 WELL. FENIX NPR 3 "AX" #14-28:   WELL
 FLD .  TEAPOT DOME NPR-3:   FIELD
 LOC .      S28 T39N R78W:   LOCATION
 CNTY.            NATRONA:   COUNTY
 STAT.            WYOMING:   STATE
 CTRY. UNITED STATES OF AMERICA:   COUNTRY
 SRVC.           BIRDWELL:   SERVICE COMPANY
 DATE.        24-MAY-1978:   LOGDATE
 API .     49025106450000:   API NUMBER
~CURVE INFORMATION
#MNEM.UNIT       API CODE    CURVE DESCRIPTION
#----------   ------------   ------------------------------
 DEPT.F                  :   
 SPR .MV     05 010 01 00:   SPONTANEOUS POTENTIAL
 CORR.G/C3   45 356 01 00:   DENSITY CORRECTION
 DEN .G/C3   45 350 01 00:   DENSITY
 CALD.IN     45 280 60 00:   CALIPER FROM DENSITY LOG
 GRD .GAPI   45 310 01 00:   GAMMA RAY FROM DENSITY LOG
 SN  .OHMM   05 040 16 00:   SHORT NORMAL 16"
 ILD .OHMM   05 120 46 00:   DEEP INDUCTION RESISTIVITY
~PARAMETER INFORMATION
#MNEM.UNIT          VALUE    DESCRIPTION
#----------   ------------   ------------------------------
 EKB .F         5042.0000:   Kelly bushing
 EGL .F         5032.0000:   Ground level
 EDF .F            0.0000:   Drilling floor
 TD  .F         2957.0000:   Total depth
 DATE.        24-MAY-1978:   Date logged
 CLNT.            A2DTECH:   Client Code
 SL  . 2410' FNL & 280' FWL:   Surface Location
 PD  .                 GL:   Permanent Datum
 EPD .F              5032:   Elevation Permanent Datum
 LMF .                 KB:   Log Measured From
 DMF .                 KB:   Drilling Measured From
 DAPD.F                10:   Feet Above Permanent Datum
 DD  .F              2950:   Depth driller
 DL  .F              2957:   Depth logger
 BLI .F              2951:   Bottom log interval
 TLI .F               225:   Top log interval
 CS1 .IN            8.625:   Casing size
 CBL1.F               225:   Casing logger 1
 BS1 .IN            7.875:   Bit size
 BSD1.F              2950:   Depth drilled with bit1
 DFT .       CHEMICAL GEL:   Type fluid in hole
 DFD .                  9:   Density
 DFV .                 34:   Viscosity
 DFPH.               10.5:   pH
 DFL .                  6:   Fluid loss
 MSS .           FLOWLINE:   Source of sample
 RMS .OHMM            1.5:   Rm
 MST .F                70:   Rm Meas. temp.
 RMF .OHMM            1.1:   Rmf
 MFST.F                78:   Rmf Meas. temp.
 RMC .OHMM            2.8:   Rmc
 MCST.F                72:   Rmc Meas. temp.
 MFSS.               MEAS:   Source Rmf.
 RMB .OHMM           0.95:   Rm. at BHT
 BHT .F               110:   BHT.
 TCS .HRS               2:   Time Circ. stopped
 MRT .F               110:   Maximum recorded temp.
 LUN .               2958:   Logging unit number
 LUL .               CASP:   Logging unit location
 ENGI.             MILLER:   Recorded By
 WITN.            RHOADES:   Witnessed by
 ORIG.           5" PRINT:   Origin of data
 UWI .     49025106450000:   Unique Well ID
 DICO. A2D TECHNOLOGIES, INC.:   Digitizing Company
~OTHER INFORMATION
~A   DEPT      SPR       CORR        DEN       CALD         GRD        SN        ILD   
# ...
 2388.5000    -3.4210     0.0290     2.5370  -999.2500  -999.2500     6.8860     5.2650
 2389.0000    -3.4120     0.0250     2.5440  -999.2500  -999.2500     6.8420     5.2700
 2389.5000    -3.4020     0.0200     2.5350  -999.2500  -999.2500     6.7390     5.2750
 2390.0000    -3.4000     0.0140     2.5420  -999.2500  -999.2500     6.6350     5.2800
 2390.5000    -3.4000     0.0170     2.5500  -999.2500  -999.2500     6.5160     5.2850
 2391.0000    -3.4000     0.0210     2.5550  -999.2500  -999.2500     6.5060     5.2900
 2391.5000    -3.4000     0.0250     2.5530  -999.2500  -999.2500     6.4930     5.2950
 2392.0000    -3.4000     0.0300     2.5590  -999.2500  -999.2500     6.4810     5.3000
 2392.5000    -3.4000     0.0340     2.5660  -999.2500  -999.2500     6.4680     5.3050
 2393.0000    -3.4000     0.0380     2.5660  -999.2500  -999.2500     6.4560     5.3100
 2393.5000    -3.4000     0.0430     2.5620  -999.2500  -999.2500     6.4430     5.3150
 2394.0000    -3.4000     0.0470     2.5590  -999.2500  -999.2500     6.4310     5.3200
 2394.5000    -3.4000     0.0480     2.5620  -999.2500  -999.2500     6.4190     5.3630
 2395.0000    -3.4000     0.0420     2.5610  -999.2500  -999.2500     6.3980     5.4900
 2395.5000    -3.4000     0.0360     2.5480  -999.2500  -999.2500     6.4470     5.6170
 2396.0000    -3.4000     0.0290     2.5460  -999.2500  -999.2500     6.6000     5.7450
 2396.5000    -3.4000     0.0230     2.5450  -999.2500  -999.2500     6.7600     5.8720
 2397.0000    -3.4000     0.0180     2.5470  -999.2500  -999.2500     6.8460     5.9990
 2397.5000    -3.4000     0.0220     2.5470  -999.2500  -999.2500     6.9380     6.1270
 2398.0000    -3.4000     0.0240     2.5500  -999.2500  -999.2500     7.0140     6.2540
 2398.5000    -3.4000     0.0280     2.5570  -999.2500  -999.2500     7.7880     6.3820
 2399.0000    -3.4000     0.0300     2.5640  -999.2500  -999.2500     8.0550     6.5090
 2399.5000    -3.4000     0.0290     2.5670  -999.2500  -999.2500     8.4290     6.6370
 2400.0000    -3.4000     0.0280     2.5640  -999.2500  -999.2500     8.3680     6.7160
 2400.5000    -3.4000     0.0260     2.5650  -999.2500  -999.2500     8.2650     6.7950
 2401.0000    -3.4000     0.0260     2.5700  -999.2500  -999.2500     8.1630     6.8740
 2401.5000    -3.4000     0.0250     2.5740  -999.2500  -999.2500     8.0600     6.9520
 2402.0000    -3.4000     0.0250     2.5750  -999.2500  -999.2500     7.9770     7.0310
 2402.5000    -3.4000     0.0250     2.5720  -999.2500  -999.2500     7.9770     7.1100
 2403.0000    -3.4000     0.0240     2.5700  -999.2500  -999.2500     7.9770     7.1440
 2403.5000    -3.4000     0.0240     2.5680  -999.2500  -999.2500     7.9770     7.1440
 2404.0000    -3.4000     0.0240     2.5670  -999.2500  -999.2500     7.9770     7.1440
 2404.5000    -3.4000     0.0230     2.5680  -999.2500  -999.2500     7.9770     7.1440
 2405.0000    -3.4000     0.0230     2.5690  -999.2500  -999.2500     7.9770     7.0450
 2405.5000    -3.4000     0.0230     2.5690  -999.2500  -999.2500     7.9770     6.9430
 2406.0000    -3.4000     0.0220     2.5680  -999.2500  -999.2500     7.9770     6.8410
 2406.5000    -3.4000     0.0220     2.5560  -999.2500  -999.2500     7.9770     6.7380
 2407.0000    -3.4000     0.0210     2.5540  -999.2500  -999.2500     7.9770     6.6360
 2407.5000    -3.4000     0.0200     2.5570  -999.2500  -999.2500     7.8740     6.5340
 2408.0000    -3.4000     0.0190     2.5600  -999.2500  -999.2500     7.7360     6.4310
 2408.5000    -3.4000     0.0180     2.5600  -999.2500  -999.2500     7.5970     6.2810
 2409.0000    -3.4000     0.0170     2.5570  -999.2500  -999.2500     7.4590     6.2840
 2409.5000    -3.4000     0.0160     2.5530  -999.2500  -999.2500     7.3210     6.2890
 2410.0000    -3.4000     0.0150     2.5510  -999.2500  -999.2500     7.1610     6.2940
 2410.5000    -3.4000     0.0150     2.5530  -999.2500  -999.2500     7.2010     6.2990
 2411.0000    -3.4000     0.0170     2.5530  -999.2500  -999.2500     7.2810     6.3040
 2411.5000    -3.4000     0.0150     2.5530  -999.2500  -999.2500     7.3610     6.3090
 2412.0000    -3.4080     0.0130     2.5530  -999.2500  -999.2500     7.4410     6.3140
 2412.5000    -3.4170     0.0110     2.5490  -999.2500  -999.2500     7.5200     6.3190
 2413.0000    -3.4260     0.0100     2.5450  -999.2500  -999.2500     7.6000     6.3240
 2413.5000    -3.4350     0.0150     2.5440  -999.2500  -999.2500     7.6890     6.3290
 2414.0000    -3.4440     0.0180     2.5460  -999.2500  -999.2500     7.6630     6.3340
 2414.5000    -3.4530     0.0220     2.5500  -999.2500  -999.2500     7.6350     6.3390
 2415.0000    -3.4630     0.0250     2.5520  -999.2500  -999.2500     7.6060     6.3440
 2415.5000    -3.4720     0.0290     2.5470  -999.2500  -999.2500     7.5780     6.3490
 2416.0000    -3.4810     0.0330     2.5500  -999.2500  -999.2500     7.5490     6.3540
 2416.5000    -3.4900     0.0370     2.5540  -999.2500  -999.2500     7.5210     6.3590
 2417.0000    -3.4990     0.0370     2.5590  -999.2500  -999.2500     7.4920     6.3640
 2417.5000    -3.5080     0.0340     2.5570  -999.2500  -999.2500     7.4640     6.3690
 2418.0000    -3.5170     0.0310     2.5540  -999.2500  -999.2500     7.4350     6.3740
 2418.5000    -3.5260     0.0290     2.5510  -999.2500  -999.2500     7.4070     6.3790
 2419.0000    -3.5350     0.0260     2.5470  -999.2500  -999.2500     7.3780     6.3840
 2419.5000    -3.5440     0.0230     2.5430  -999.2500  -999.2500     7.3490     6.3890
 2420.0000    -3.5530     0.0210     2.5380  -999.2500  -999.2500     7.3210     6.3960
 2420.5000    -3.5620     0.0180     2.5340  -999.2500  -999.2500     7.2920     6.3810
 2421.0000    -3.5710     0.0220     2.5320  -999.2500  -999.2500     7.2520     6.3130
 2421.5000    -3.5800     0.0290     2.5390  -999.2500  -999.2500     7.1970     6.2450
 2422.0000    -3.5890     0.0340     2.5430  -999.2500  -999.2500     7.1440     6.1770
 2422.5000    -3.5980     0.0370     2.5490  -999.2500  -999.2500     6.9970     6.1090
 2423.0000    -3.6070     0.0370     2.5500  -999.2500  -999.2500     6.8540     6.0410
 2423.5000    -3.6160     0.0340     2.5480  -999.2500  -999.2500     6.7120     5.9730
 2424.0000    -3.6260     0.0310     2.5460  -999.2500  -999.2500     6.5690     5.9050
 2424.5000    -3.6350     0.0320     2.5470  -999.2500  -999.2500     6.3980     5.8370
 2425.0000    -3.6440     0.0370     2.5510  -999.2500  -999.2500     6.3780     5.7690
 2425.5000    -3.6530     0.0420     2.5560  -999.2500  -999.2500     6.3530     5.7010
 2426.0000    -3.6620     0.0410     2.5600  -999.2500  -999.2500     6.3280     5.6330
 2426.5000    -3.6710     0.0410     2.5650  -999.2500  -999.2500     6.3030     5.5640
 2427.0000    -3.6800     0.0400     2.5610  -999.2500  -999.2500     6.2780     5.5160
 2427.5000    -3.6890     0.0390     2.5570  -999.2500  -999.2500     6.2530     5.5000
 2428.0000    -3.6980     0.0390     2.5530  -999.2500  -999.2500     6.2280     5.4830
 2428.5000    -3.7070     0.0380     2.5490  -999.2500  -999.2500     6.2030     5.4660
 2429.0000    -3.7160     0.0410     2.5440  -999.2500  -999.2500     6.1780     5.4490
 2429.5000    -3.7250     0.0440     2.5410  -999.2500  -999.2500     6.0880     5.4330
 2430.0000    -3.7340     0.0510     2.5370  -999.2500  -999.2500     5.9440     5.4220
 2430.5000    -3.7430     0.0590     2.5490  -999.2500  -999.2500     6.2750     5.5730
 2431.0000    -3.7520     0.0690     2.5660  -999.2500  -999.2500     6.6370     5.7310
 2431.5000    -3.7610     0.0440     2.5730  -999.2500  -999.2500     6.8770     5.8880
 2432.0000    -3.7700     0.0370     2.5590  -999.2500  -999.2500     7.1290     6.0540
 2432.5000    -3.7790     0.0320     2.5610  -999.2500  -999.2500     7.5490     6.0700
 2433.0000    -3.7890     0.0270     2.5570  -999.2500  -999.2500     7.5380     6.0870
 2433.5000    -3.7980     0.0250     2.5560  -999.2500  -999.2500     7.5070     6.1030
