~VERSION INFORMATION
 VERS.                2.0:   CWLS LOG ASCII STANDARD - VERSION 2.0
 WRAP.                 NO:   ONE LINE PER DEPTH STEP
~WELL INFORMATION
#MNEM.UNIT      DATA TYPE    INFORMATION
#----------   ------------   ------------------------------
 STRT.F            9.0000:   START DEPTH
 STOP.F         2876.0000:   STOP DEPTH
 STEP.F            0.5000:   STEP LENGTH
 NULL.          -999.2500:   NO VALUE
 COMP.    FENIX & SCISSON:   COMPANY
 WELL. FENIX & SCISSON "AX" #82-29:   WELL
 FLD .        TEAPOT DOME:   FIELD
 LOC .      S29 T39N R78W:   LOCATION
 CNTY.            NATRONA:   COUNTY
 STAT.            WYOMING:   STATE
 CTRY. UNITED STATES OF AMERICA:   COUNTRY
 SRVC.           BIRDWELL:   SERVICE COMPANY
 DATE.        12-JAN-1980:   LOGDATE
 API .     49025107980000:   API NUMBER
~CURVE INFORMATION
#MNEM.UNIT       API CODE    CURVE DESCRIPTION
#----------   ------------   ------------------------------
 DEPT.F                  :   
 GRD .GAPI   45 310 01 00:   GAMMA RAY FROM DENSITY LOG
 CALD.IN     45 280 60 00:   CALIPER FROM DENSITY LOG
 CORR.G/C3   45 356 01 00:   DENSITY CORRECTION
 RHOB.G/C3   45 350 01 00:   BULK DENSITY
 SPR .MV     07 010 01 00:   SPONTANEOUS POTENTIAL
 ILD .OHMM   07 120 46 00:   DEEP INDUCTION RESISTIVITY
 SN  .OHMM   07 220 01 00:   SHALLOW FOCUSED LOG RESISTIVITY
~PARAMETER INFORMATION
#MNEM.UNIT          VALUE    DESCRIPTION
#----------   ------------   ------------------------------
 EKB .F         4985.0000:   Kelly bushing
 EGL .F         4973.0000:   Ground level
 EDF .F         4982.0000:   Drilling floor
 TD  .F         2876.0000:   Total depth
 CLNT.            A2DTECH:   Client Code
 SL  . 1821' FEL & 414' FEL:   Surface Location
 DATE.        12-JAN-1980:   Date Logged [DD-MMM-YYYY]
 DD  .F              2870:   Depth driller
 DL  .F              2876:   Depth logger
 BLI .F              2876:   Bottom log interval
 TLI .F               320:   Top log interval
 CS1 .IN            8.625:   Casing size
 CBD1.      8.625" @ 280':   Casing driller 1
 CBL1.IN              320:   Casing logger 1
 BS1 .IN            7.875:   Bit size
 BSD1.F              2870:   Depth drilled with bit1
 DFT .            GEL MUD:   Type fluid in hole
 DFD .                8.7:   Density
 DFV .                 53:   Viscosity
 DFPH.               10.5:   pH
 DFL .               15.4:   Fluid loss
 MSS .            MUD PIT:   Source of sample
 RMS .OHMM            1.8:   Rm
 MST .F                50:   Rm Meas. temp.
 RMF .OHMM            1.4:   Rmf
 MFST.F                60:   Rmf Meas. temp.
 MFSS.               MEAS:   Source Rmf.
 RMC .OHMM            1.9:   Rmc
 MCST.F                60:   Rmc Meas. temp.
 MCSS.               MEAS:   Source Rmc.
 RMB .OHMM           0.65:   Rm. at BHT
 BHT .F               138:   BHT.
 TCS .HRS              11:   Time Circ. stopped
 MRT .F               138:   Maximum recorded temp.
 LUN .               3029:   Logging unit number
 LUL .             CASPEL:   Logging unit location
 ENGI.           T. VOLFF:   Recorded By
 WITN.          MR. AMEND:   Witnessed by
 ORIG.         2.5" PRINT:   Origin of data
 UWI .     49025107980000:   Unique Well ID
 DICO. A2D TECHNOLOGIES,INC.:   Digitizing Company
 PD  .                 GL:   Permanent Datum
 EPD .F              4973:   Elevation Permanent Datum
 LMF .                 DF:   Log Measured From
 DMF .                 KB:   Drilling Measured From
 DAPD.F                 9:   Feet Above Permanent Datum
~OTHER INFORMATION
~A    DEPT      GRD      CALD       CORR       RHOB        SPR        ILD         SN   
# ...
 1829.0000   141.0912     8.1554     0.0332     2.4708   -19.8171    18.3694    18.2632
 1829.5000   150.7325     8.1550     0.0323     2.4370   -19.5122    19.1710    18.3504
 1830.0000   161.4494     8.1546     0.0178     2.4334   -19.3395    19.4200    18.5202
 1830.5000   165.7370     8.1541    -0.0007     2.4384   -18.2927    19.0943    17.9352
 1831.0000   168.5593     8.1536    -0.0007     2.4430   -17.0732    17.9063    17.4250
 1831.5000   169.6995     8.1531     0.0023     2.4475   -18.5976    16.6478    16.8294
 1832.0000   168.9462     8.1527     0.0037     2.4505   -20.4268    15.7798    16.1090
 1832.5000   162.6064     8.1522     0.0051     2.4505   -19.2073    15.1954    16.0058
 1833.0000   153.2353     8.1518     0.0081     2.4378   -18.8892    14.5546    15.8810
 1833.5000   149.0421     8.1513     0.0081     2.4290   -19.5122    14.5709    15.8810
 1834.0000   142.4805     8.1509     0.0080     2.4329   -18.1159    15.2843    15.8266
 1834.5000   139.5532     8.1505     0.0170     2.4393   -18.4406    16.1637    16.3312
 1835.0000   139.3474     8.1500     0.0200     2.4467   -18.7652    17.0936    16.5610
 1835.5000   139.7771     8.1496     0.0230     2.4517   -19.5122    17.3326    17.2702
 1836.0000   140.6991     8.1491     0.0229     2.4397   -17.3780    17.8230    17.5165
 1836.5000   138.6219     8.1486     0.0193     2.4363   -17.0732    17.5725    17.2702
 1837.0000   135.8095     8.1482     0.0072     2.4363   -18.2927    17.3206    16.7276
 1837.5000   136.5873     8.1477     0.0046     2.4439   -18.9024    17.0620    15.9668
 1838.0000   135.6710     8.1170     0.0152     2.4484   -19.5122    16.3427    15.1142
 1838.5000   135.2787     8.1165     0.0277     2.4484   -18.8993    15.7834    14.7396
 1839.0000   142.0451     8.1161     0.0316     2.4468   -18.2927    14.8813    14.6036
 1839.5000   146.5174     8.1155     0.0301     2.4468   -17.9878    14.1614    14.4009
 1840.0000   149.9190     8.1151     0.0315     2.4467   -18.3536    13.6401    14.5090
 1840.5000   147.6578     8.1146     0.0345     2.4499   -19.2073    13.9212    15.2289
 1841.0000   145.3700     8.1142     0.0374     2.4545   -17.1767    14.3279    15.4432
 1841.5000   144.7576     8.1138     0.0344     2.4591   -16.4634    15.0398    15.2289
 1842.0000   144.4492     8.1133     0.0313     2.4618   -17.2134    15.2504    15.2289
 1842.5000   142.9250     8.1129     0.0282     2.4587   -17.5228    15.2480    15.0175
 1843.0000   140.4890     8.1124     0.0190     2.4468   -16.7683    15.2459    14.8091
 1843.5000   139.8380     8.1143     0.0159     2.4365   -15.5488    15.2439    14.6036
 1844.0000   141.9998     8.1458     0.0096     2.4302   -15.4635    15.0296    14.6036
 1844.5000   140.7796     8.2613     0.0067     2.4295   -15.5488    15.0276    14.8091
 1845.0000   139.2554     8.8909     0.0036     2.4310   -15.8537    14.6032    14.8091
 1845.5000   138.9271     8.9587     0.0028     2.4325   -16.1585    14.4048    14.8609
 1846.0000   135.2943     8.8148     0.0005     2.4355   -17.0732    14.6390    15.0175
 1846.5000   131.0346     8.7327    -0.0007     2.4354   -18.3065    15.0665    15.0975
 1847.0000   127.0788     8.7295    -0.0027     2.4293   -18.2927    15.5066    15.2289
 1847.5000   124.9466     8.7447    -0.0012     2.4338   -17.9344    15.8814    15.2289
 1848.0000   121.5987     8.6229     0.0020     2.4496   -18.5854    15.8787    15.1077
 1848.5000   119.1359     8.4104     0.0093     2.4679   -19.8171    15.8766    15.0175
 1849.0000   117.6385     8.4099     0.0183     2.4783   -19.5122    15.6533    15.0175
 1849.5000   118.9936     8.4095     0.0304     2.4829   -19.3796    15.4328    15.0175
 1850.0000   121.4285     8.4091     0.0303     2.4855   -19.2073    15.4307    15.0175
 1850.5000   123.2918     8.4086     0.0181     2.4713   -18.7302    15.4287    14.8091
 1851.0000   126.0027     8.4082     0.0150     2.4386   -17.9878    15.4266    14.8091
 1851.5000   129.7540     8.4077     0.0088     2.4304   -17.0732    15.2097    14.6036
 1852.0000   130.4863     8.4073     0.0055     2.4427   -17.0732    15.2077    14.6036
 1852.5000   130.8004     8.4371     0.0027     2.4614   -17.0732    14.7852    14.4009
 1853.0000   131.6961     8.4367     0.0070     2.4719   -17.3780    14.3651    14.3861
 1853.5000   134.9286     8.4362     0.0234     2.4744   -18.2927    13.9326    14.2495
 1854.0000   137.7183     8.4357     0.0298     2.4625   -18.9024    13.5867    14.1128
 1854.5000   140.6876     8.4353     0.0259     2.4544   -17.9361    13.5849    13.9226
 1855.0000   141.2918     8.4348     0.0176     2.4583   -18.0336    13.8330    13.9035
 1855.5000   136.4233     8.4488     0.0175     2.4573   -18.2927    14.2370    14.3106
 1856.0000   133.6833     8.4642     0.0174     2.4542   -17.8171    15.0695    14.6036
 1856.5000   135.1986     8.4637     0.0265     2.4542   -17.2729    15.8382    14.8091
 1857.0000   136.1064     8.4937     0.0325     2.4602   -17.0732    16.4164    15.0175
 1857.5000   128.5028     8.4931     0.0415     2.4724   -17.6675    16.2864    14.6036
 1858.0000   126.0667     8.4927     0.0415     2.4708   -18.2927    15.3962    14.0039
 1858.5000   125.1504     8.4922     0.0323     2.4402   -17.0732    14.5546    14.0039
 1859.0000   124.5047     8.4615     0.0141     2.4449   -17.6829    14.3501    14.0039
 1859.5000   122.2250     8.4610     0.0079     2.4619   -19.2073    14.3481    14.0039
 1860.0000   116.1599     8.4303     0.0147     2.4725   -19.2073    14.3462    14.0039
 1860.5000   113.8860     8.4299     0.0339     2.4766   -19.5122    14.3442    14.0039
 1861.0000   114.2553     8.4294     0.0411     2.4735   -19.5122    14.3422    14.0039
 1861.5000   114.4854     8.4290     0.0299     2.4496   -19.5122    14.3402    14.0039
 1862.0000   112.0608     8.4285     0.0216     2.4474   -19.1524    14.3382    14.0039
 1862.5000   111.1330     8.4280     0.0183     2.4482   -17.6067    14.2863    13.8096
 1863.0000   117.9467     8.4276     0.0166     2.4465   -17.0732    14.1346    13.7093
 1863.5000   125.3916     8.4271     0.0165     2.4426   -17.0732    13.8628    13.6179
 1864.0000   125.8663     8.4267     0.0134     2.4450   -17.5733    13.5487    13.2425
 1864.5000   126.6571     8.4262     0.0134     2.4410   -18.5976    13.1723    13.0587
 1865.0000   128.7378     8.4258     0.0133     2.4348   -17.8812    12.7052    13.0587
 1865.5000   130.2531     8.4253     0.0133     2.4286   -16.9161    12.6259    13.2425
 1866.0000   129.6407     8.4552     0.0132     2.4332   -16.9452    12.8024    14.6036
 1866.5000   125.0770     8.4547     0.0162     2.4392   -17.6829    13.5390    14.8091
 1867.0000   124.7686     8.4689     0.0161     2.4391   -18.2927    14.1186    15.0175
 1867.5000   124.1562     8.4841     0.0161     2.4376   -18.5976    14.3161    15.2289
 1868.0000   114.7293     8.4837     0.0201     2.4392   -19.2073    14.5161    15.2289
 1868.5000   114.1033     8.4832     0.0288     2.4470   -19.8171    14.9268    15.1288
 1869.0000   119.6027     8.4827     0.0380     2.4547   -18.9024    15.1355    14.6036
 1869.5000   129.6720     8.4823     0.0401     2.4572   -18.2927    14.9227    14.4009
 1870.0000   131.7629     8.4819     0.0309     2.4328   -19.2073    14.6718    14.1156
 1870.5000   132.6848     8.4814     0.0429     2.3915   -19.1570    14.2517    13.8096
 1871.0000   133.6069     8.4809     0.0679     2.3776   -18.5275    13.6506    13.6179
 1871.5000   132.9408     8.4501     0.1034     2.4052   -18.2028    13.0750    13.2425
 1872.0000   130.2672     8.4376     0.1519     2.4614   -17.6829    12.7812    13.4289
 1872.5000   126.6314     8.4189     0.1639     2.4807   -17.3780    12.5108    13.6179
 1873.0000   123.3947     8.4185     0.0972     2.4644   -17.0732    12.3240    13.6179
 1873.5000   120.6627     8.4180     0.0517     2.4704   -17.0732    12.2493    13.8096
 1874.0000   119.2421     8.4175     0.0425     2.4810   -17.0732    12.4206    13.8096
