~VERSION INFORMATION
 VERS.                2.0:   CWLS LOG ASCII STANDARD - VERSION 2.0
 WRAP.                 NO:   ONE LINE PER DEPTH STEP
~WELL INFORMATION
#MNEM.UNIT      DATA TYPE    INFORMATION
#----------   ------------   ------------------------------
 STRT.F          204.5000:   START DEPTH
 STOP.F         2964.0000:   STOP DEPTH
 STEP.F            0.5000:   STEP LENGTH
 NULL.          -999.2500:   NO VALUE
 COMP.    FENIX & SCISSON:   COMPANY
 WELL. FENIX NPR 3 "AX" #14-28:   WELL
 FLD .  TEAPOT DOME NPR-3:   FIELD
 LOC .      S28 T39N R78W:   LOCATION
 CNTY.            NATRONA:   COUNTY
 STAT.            WYOMING:   STATE
 CTRY. UNITED STATES OF AMERICA:   COUNTRY
 SRVC.           BIRDWELL:   SERVICE COMPANY
 DATE.        24-MAY-1978:   LOGDATE
 API .     49025106450000:   API NUMBER
~CURVE INFORMATION
#MNEM.UNIT       API CODE    CURVE DESCRIPTION
#----------   ------------   ------------------------------
 DEPT.F                  :   
 SPR .MV     05 010 01 00:   SPONTANEOUS POTENTIAL
 CORR.G/C3   45 356 01 00:   DENSITY CORRECTION
 DEN .G/C3   45 350 01 00:   DENSITY
 CALD.IN     45 280 60 00:   CALIPER FROM DENSITY LOG
 GRD .GAPI   45 310 01 00:   GAMMA RAY FROM DENSITY LOG
 SN  .OHMM   05 040 16 00:   SHORT NORMAL 16"
 ILD .OHMM   05 120 46 00:   DEEP INDUCTION RESISTIVITY
~PARAMETER INFORMATION
#MNEM.UNIT          VALUE    DESCRIPTION
#----------   ------------   ------------------------------
 EKB .F         5042.0000:   Kelly bushing
 EGL .F         5032.0000:   Ground level
 EDF .F            0.0000:   Drilling floor
 TD  .F         2957.0000:   Total depth
 DATE.        24-MAY-1978:   Date logged
 CLNT.            A2DTECH:   Client Code
 SL  . 2410' FNL & 280' FWL:   Surface Location
 PD  .                 GL:   Permanent Datum
 EPD .F              5032:   Elevation Permanent Datum
 LMF .                 KB:   Log Measured From
 DMF .                 KB:   Drilling Measured From
 DAPD.F                10:   Feet Above Permanent Datum
 DD  .F              2950:   Depth driller
 DL  .F              2957:   Depth logger
 BLI .F              2951:   Bottom log interval
 TLI .F               225:   Top log interval
 CS1 .IN            8.625:   Casing size
 CBL1.F               225:   Casing logger 1
 BS1 .IN            7.875:   Bit size
 BSD1.F              2950:   Depth drilled with bit1
 DFT .       CHEMICAL GEL:   Type fluid in hole
 DFD .                  9:   Density
 DFV .                 34:   Viscosity
 DFPH.               10.5:   pH
 DFL .                  6:   Fluid loss
 MSS .           FLOWLINE:   Source of sample
 RMS .OHMM            1.5:   Rm
 MST .F                70:   Rm Meas. temp.
 RMF .OHMM            1.1:   Rmf
 MFST.F                78:   Rmf Meas. temp.
 RMC .OHMM            2.8:   Rmc
 MCST.F                72:   Rmc Meas. temp.
 MFSS.               MEAS:   Source Rmf.
 RMB .OHMM           0.95:   Rm. at BHT
 BHT .F               110:   BHT.
 TCS .HRS               2:   Time Circ. stopped
 MRT .F               110:   Maximum recorded temp.
 LUN .               2958:   Logging unit number
 LUL .               CASP:   Logging unit location
 ENGI.             MILLER:   Recorded By
 WITN.            RHOADES:   Witnessed by
 ORIG.           5" PRINT:   Origin of data
 UWI .     49025106450000:   Unique Well ID
 DICO. A2D TECHNOLOGIES, INC.:   Digitizing Company
~OTHER INFORMATION
~A   DEPT      SPR       CORR        DEN       CALD         GRD        SN        ILD   
# ...
 1478.5000    -4.1450     0.0980     2.5520     8.6900   113.3760     7.6870     7.1820
 1479.0000    -4.1340     0.1040     2.5580     8.6900   113.6920     7.7120     7.1950
 1479.5000    -4.1240     0.1130     2.5650     8.6900   113.5200     7.7380     7.2090
 1480.0000    -4.1140     0.1040     2.5730     8.6900   112.6140     7.7630     7.2220
 1480.5000    -4.1040     0.0920     2.5700     8.6900   111.7470     7.7890     7.2370
 1481.0000    -4.0930     0.0800     2.5670     8.6900   111.3900     7.8140     7.2500
 1481.5000    -4.0830     0.0680     2.5650     8.6900   111.7810     7.8720     7.2740
 1482.0000    -4.0730     0.0810     2.5600     8.6900   111.2900     8.0050     7.2710
 1482.5000    -4.0620     0.1000     2.5650     8.6900   110.1500     8.1380     7.3420
 1483.0000    -4.0520     0.1010     2.5680     8.6900   109.9750     8.2710     7.4480
 1483.5000    -4.0420     0.1010     2.5710     8.6900   110.3880     8.4050     7.5510
 1484.0000    -4.0320     0.0990     2.5730     8.6900   110.8600     8.5380     7.6530
 1484.5000    -4.0210     0.0920     2.5780     8.6900   110.9290     8.6710     7.7470
 1485.0000    -4.0110     0.0720     2.5600     8.6900   110.3790     8.8050     7.8360
 1485.5000    -4.0010     0.0940     2.5490     8.6900   107.5030     8.8980     7.9770
 1486.0000    -3.9910     0.1130     2.5600     8.6900   103.7290     8.8620     7.7560
 1486.5000    -3.9800     0.1370     2.5720     8.6900   105.4090     8.8250     7.1440
 1487.0000    -3.9700     0.1420     2.5780     8.6900   108.1770     8.7890     7.2610
 1487.5000    -3.9600     0.1290     2.5840     8.6900   108.2520     8.7450     7.4040
 1488.0000    -3.9500     0.1170     2.5790     8.6900   108.5890     8.4990     7.5490
 1488.5000    -3.9390     0.1140     2.5720     8.6900   111.4710     8.1920     7.3000
 1489.0000    -3.9290     0.1140     2.5710     8.6900   115.5410     8.1250     7.1080
 1489.5000    -3.9190     0.1150     2.5690     8.6900   116.7290     8.1250     7.0130
 1490.0000    -3.9080     0.1150     2.5620     8.6890   114.1170     7.8940     6.9180
 1490.5000    -3.8980     0.1160     2.5540     8.6910   112.4550     7.5940     6.8220
 1491.0000    -3.8880     0.1160     2.5510     8.6940   113.5360     7.2760     6.7600
 1491.5000    -3.8780     0.1170     2.5570     8.6970   115.1400     7.2760     6.7600
 1492.0000    -3.8670     0.1170     2.5560     8.7000   116.0750     7.2760     6.7600
 1492.5000    -3.8570     0.1180     2.5490     8.7030   116.3090     7.2760     6.7600
 1493.0000    -3.8470     0.1180     2.5470     8.7060   116.6070     7.2760     6.7600
 1493.5000    -3.8370     0.1230     2.5480     8.7090   116.4850     7.2760     6.7600
 1494.0000    -3.8260     0.1300     2.5500     8.7120   114.5370     7.2760     6.7600
 1494.5000    -3.8160     0.1380     2.5520     8.7150   113.1860     7.2760     6.7600
 1495.0000    -3.8050     0.1410     2.5530     8.7180   112.2700     7.2760     6.7600
 1495.5000    -3.8000     0.1440     2.5520     8.7210   112.6820     7.2760     6.7600
 1496.0000    -3.8000     0.1450     2.5510     8.7250   113.7970     7.2930     6.7730
 1496.5000    -3.8000     0.1400     2.5540     8.7270   114.8650     7.3090     6.8180
 1497.0000    -3.8000     0.1350     2.5580     8.7240   116.0180     7.3250     6.8630
 1497.5000    -3.8000     0.1300     2.5550     8.6700   113.6940     7.3420     6.9080
 1498.0000    -3.8000     0.1190     2.5500     8.6150   110.5920     7.3570     6.9530
 1498.5000    -3.8000     0.1090     2.5520     8.6320   108.2800     7.3720     6.9990
 1499.0000    -3.8000     0.0980     2.5560     8.6600   109.2820     7.3920     7.0440
 1499.5000    -3.8000     0.0870     2.5510     8.6890   110.0380     7.4180     7.0890
 1500.0000    -3.8000     0.0750     2.5450     8.6890   109.8640     7.3980     7.1440
 1500.5000    -3.8000     0.0700     2.5510     8.6900   109.4190     7.4270     7.0840
 1501.0000    -3.8000     0.0620     2.5480     8.6890   109.0230     7.3670     7.0090
 1501.5000    -3.8000     0.0690     2.5360     8.6900   108.3640     7.8310     6.9350
 1502.0000    -3.8000     0.0880     2.5370     8.6900   109.8870     7.6800     6.8600
 1502.5000    -3.8000     0.1070     2.5480     8.6900   111.6020     7.5730     6.7850
 1503.0000    -3.8000     0.1160     2.5560     8.6900   112.0950     7.4660     6.7110
 1503.5000    -3.8000     0.1170     2.5650     8.6900   111.6210     7.3590     6.6360
 1504.0000    -3.8000     0.1060     2.5720     8.6900   111.8130     7.2640     6.5610
 1504.5000    -3.8000     0.0960     2.5670     8.6900   113.4210     7.2130     6.4870
 1505.0000    -3.8000     0.0830     2.5590     8.6900   115.0080     7.1610     6.4120
 1505.5000    -3.8000     0.0790     2.5560     8.6900   116.7010     7.1100     6.3370
 1506.0000    -3.8000     0.0740     2.5490     8.6890   117.6630     7.0580     6.2810
 1506.5000    -3.8000     0.0700     2.5420     8.6900   117.3300     7.0060     6.2810
 1507.0000    -3.8000     0.0710     2.5400     8.6890   116.1570     6.9550     6.2810
 1507.5000    -3.8000     0.0720     2.5420     8.6880   117.3270     6.9030     6.2810
 1508.0000    -3.8000     0.0740     2.5490     8.6720   118.9270     6.8790     6.2810
 1508.5000    -3.8000     0.0780     2.5540     8.6540   118.3700     6.8680     6.2810
 1509.0000    -3.8000     0.0840     2.5500     8.6550   117.4610     6.8570     6.2810
 1509.5000    -3.8000     0.0900     2.5470     8.6660   117.1200     6.8460     6.2810
 1510.0000    -3.8000     0.0950     2.5430     8.6760   117.4460     6.8350     6.2810
 1510.5000    -3.8000     0.1010     2.5470     8.6870   117.6910     6.8240     6.2810
 1511.0000    -3.8000     0.1070     2.5510     8.6780   117.7540     6.8130     6.2800
 1511.5000    -3.8000     0.1060     2.5570     8.6360   117.3120     6.8020     6.2800
 1512.0000    -3.8000     0.0960     2.5610     8.6170   117.2220     6.7910     6.3010
 1512.5000    -3.8000     0.0860     2.5590     8.6470   117.9460     6.7810     6.3700
 1513.0000    -3.8000     0.0770     2.5580     8.6760   117.7410     6.7700     6.4400
 1513.5000    -3.8000     0.0760     2.5570     8.6910   115.8680     6.7600     6.5090
 1514.0000    -3.8000     0.0830     2.5590     8.6890   114.1000     6.8710     6.5780
 1514.5000    -3.8000     0.0890     2.5680     8.6890   112.1220     6.9700     6.6460
 1515.0000    -3.8070     0.0940     2.5770     8.6900   110.8290     7.0700     6.7150
 1515.5000    -3.8180     0.0900     2.5710     8.6890   110.8360     7.1700     6.7840
 1516.0000    -3.8280     0.0860     2.5640     8.6900   110.6520     7.2760     6.8860
 1516.5000    -3.8380     0.0820     2.5560     8.6900   111.2690     7.2000     6.8060
 1517.0000    -3.8490     0.0790     2.5530     8.6900   112.8820     7.1170     6.6560
 1517.5000    -3.8590     0.0840     2.5530     8.6900   115.8490     7.0140     6.5050
 1518.0000    -3.8700     0.0890     2.5630     8.6900   118.9000     7.0180     6.3550
 1518.5000    -3.8800     0.0750     2.5630     8.6900   120.3410     7.0300     6.2040
 1519.0000    -3.8900     0.0660     2.5500     8.6900   121.0790     7.0430     6.3900
 1519.5000    -3.9010     0.0620     2.5400     8.6900   120.6130     7.0560     6.7220
 1520.0000    -3.9110     0.0680     2.5420     8.6900   120.2430     7.0680     6.6480
 1520.5000    -3.9210     0.0810     2.5480     8.6900   119.0810     7.0810     6.4990
 1521.0000    -3.9320     0.0900     2.5530     8.6900   116.9940     7.0930     6.3500
 1521.5000    -3.9420     0.0850     2.5580     8.6900   113.5680     7.1060     6.1670
 1522.0000    -3.9520     0.0790     2.5500     8.6900   110.1690     7.1180     6.2780
 1522.5000    -3.9630     0.0780     2.5410     8.6900   106.7310     7.1310     6.7600
 1523.0000    -3.9730     0.0790     2.5360     8.6900   103.2950     7.1440     6.6970
 1523.5000    -3.9830     0.0800     2.5380     8.6900   100.4460     7.0080     6.5310
