~VERSION INFORMATION
 VERS.                2.0:   CWLS LOG ASCII STANDARD - VERSION 2.0
 WRAP.                 NO:   ONE LINE PER DEPTH STEP
~WELL INFORMATION
#MNEM.UNIT      DATA TYPE    INFORMATION
#----------   ------------   ------------------------------
 STRT.F           72.5000:   START DEPTH
 STOP.F         2820.0000:   STOP DEPTH
 STEP.F            0.5000:   STEP LENGTH
 NULL.          -999.2500:   NO VALUE
 COMP.          INTEX OIL:   COMPANY
 WELL. INTEX OIL AX N. P. R. #51-29:   WELL
 FLD .             TEAPOT:   FIELD
 LOC .      S29 T39N R78W:   LOCATION
 CNTY.            NATRONA:   COUNTY
 STAT.            WYOMING:   STATE
 CTRY. UNITED STATES OF AMERICA:   COUNTRY
 SRVC.       SCHLUMBERGER:   SERVICE COMPANY
 DATE.        01-MAY-1966:   LOGDATE
 API .     49025094920000:   API NUMBER
~CURVE INFORMATION
#MNEM.UNIT       API CODE    CURVE DESCRIPTION
#----------   ------------   ------------------------------
 DEPT.F                  :   
 GRD .GAPI   45 310 01 00:   GAMMA RAY FROM DENSITY LOG
 CALD.IN     45 280 60 00:   CALIPER FROM DENSITY LOG
 RHOB.G/C3   45 350 01 00:   BULK DENSITY
 CORR.G/C3   45 356 01 00:   DENSITY CORRECTION
 SPR .MV     07 010 01 00:   SPONTANEOUS POTENTIAL
 ASN .OHMM   05 041 16 00:   AMPLIFIED SHORT NORMAL 16"
 ILD .OHMM   05 120 46 00:   DEEP INDUCTION RESISTIVITY
 DT  .US/F   60 520 00 00:   DELTA TIME
~PARAMETER INFORMATION
#MNEM.UNIT          VALUE    DESCRIPTION
#----------   ------------   ------------------------------
 EKB .F         5007.3000:   Kelly bushing
 EGL .F         4997.0000:   Ground level
 EDF .F            0.0000:   Drilling floor
 TD  .F         2799.0000:   Total depth
 DATE.        01-MAY-1966:   Date logged
 CLNT.            A2DTECH:   Client Code
 PD  .                 GL:   Permanent Datum
 EPD .F              4997:   Elevation Permanent Datum
 LMF .                 KB:   Log Measured From
 DMF .                 KB:   Drilling Measured From
 DAPD.F              10.3:   Feet Above Permanent Datum
 DD  .F              2798:   Depth driller
 DL  .F              2799:   Depth logger
 BLI .F              2798:   Bottom log interval
 TLI .F                88:   Top log interval
 CS1 .IN            10.75:   Casing size
 CBD1.       10.75" @ 30':   Casing driller 1
 BS1 .IN            7.875:   Bit size
 BSD1.F              2798:   Depth drilled with bit1
 DFT .           CHEM/OIL:   Type fluid in hole
 DFD .                9.5:   Density
 DFV .                 46:   Viscosity
 DFPH.                7.2:   pH
 DFL .                7.0:   Fluid loss
 MSS .         CIRCULATED:   Source of sample
 RMS .OHMM           2.28:   Rm
 MST .F                68:   Rm Meas. temp.
 RMF .OHMM           1.32:   Rmf
 MFST.F                72:   Rmf Meas. temp.
 MFSS.                 FP:   Source Rmf.
 RMB .OHMM           1.52:   Rm. at BHT
 BHT .F               102:   BHT.
 TCS .HRS             1.5:   Time Circ. stopped
 MRT .F               102:   Maximum recorded temp.
 LUN .               4507:   Logging unit number
 LUL .               CSPR:   Logging unit location
 ENGI.               HAUG:   Recorded By
 WITN.      TUTTLE/HUDSON:   Witnessed by
 ORIG.           5" PRINT:   Origin of data
 UWI .     49025094920000:   Unique Well ID
 DICO. A2D TECHNOLOGIES, INC.:   Digitizing Company
~OTHER INFORMATION
~A   DEPT      GRD       CALD       RHOB       CORR        SPR        ASN        ILD         DT   
# ...
 2462.0000   100.5670     8.2340     2.4720     0.0150   -33.2180    13.8820     8.9700    77.2270
 2462.5000   101.9540     8.2370     2.4910     0.0130   -32.9310    13.3860     8.7160    77.4840
 2463.0000   102.0980     8.2380     2.4920     0.0120   -32.4670    12.8940     8.4290    77.7200
 2463.5000   101.7260     8.2410     2.4750    -0.0040   -32.1820    12.5000     8.2180    77.9550
 2464.0000   100.9650     8.2430     2.4630    -0.0090   -32.2430    12.1060     8.1720    78.0220
 2464.5000   101.1790     8.2450     2.4690    -0.0120   -32.4460    12.1580     8.2580    77.9490
 2465.0000   101.7820     8.2470     2.4610    -0.0140   -32.4940    12.2410     8.3700    77.8070
 2465.5000   102.5590     8.2490     2.4840    -0.0140   -32.3430    12.3230     8.4470    77.5550
 2466.0000   103.8210     8.2510     2.4940    -0.0060   -32.1590    12.4060     8.5060    77.0860
 2466.5000   100.8310     8.2530     2.4780    -0.0080   -32.0390    12.5000     8.5790    76.6160
 2467.0000    98.7850     8.2550     2.4570    -0.0140   -31.9340    12.4390     8.6640    76.1330
 2467.5000   100.3520     8.2570     2.4510    -0.0220   -31.8070    12.3680     8.7410    76.4430
 2468.0000   101.6860     8.2590     2.4580    -0.0210   -31.7170    12.2970     8.8110    76.8440
 2468.5000   103.2280     8.2610     2.4890    -0.0100   -31.7210    12.2260     8.8870    77.2450
 2469.0000   102.7890     8.2630     2.4820    -0.0020   -31.7880    12.1550     8.9670    77.4260
 2469.5000   102.2200     8.2650     2.4780    -0.0070   -31.8520    12.1060     9.0400    77.5930
 2470.0000   101.5030     8.2670     2.4680    -0.0100   -31.8880    12.2800     9.1110    77.4250
 2470.5000   101.6990     8.2690     2.4780    -0.0030   -31.9230    12.4120     9.1940    77.0370
 2471.0000   102.0190     8.2660     2.4930    -0.0030   -31.9800    12.5440     9.2810    76.6560
 2471.5000   101.3450     8.2640     2.4940    -0.0060   -32.0420    12.6760     9.3340    76.2760
 2472.0000   100.5210     8.2610     2.4810    -0.0090   -32.0690    12.8090     9.3300    75.8950
 2472.5000    99.5860     8.2580     2.4710    -0.0120   -32.0380    12.8940     9.2890    75.5370
 2473.0000    98.6520     8.2560     2.4770    -0.0100   -31.9670    12.8040     9.2470    75.5260
 2473.5000    98.1200     8.2530     2.4640    -0.0070   -31.8890    12.6960     9.2060    75.8480
 2474.0000    99.0500     8.2500     2.4800    -0.0040   -31.8190    12.5960     9.1350    76.1650
 2474.5000   100.6730     8.2480     2.4730    -0.0050   -31.7500    12.5190     9.0010    76.4810
 2475.0000   102.5190     8.2450     2.4730    -0.0110   -31.6780    12.4390     8.8010    76.8290
 2475.5000   102.7090     8.2420     2.4870    -0.0010   -31.6080    12.3500     8.5640    76.8290
 2476.0000   102.7820     8.2390     2.4820     0.0000   -31.5400    12.2650     8.3470    76.7100
 2476.5000   103.2750     8.2370     2.4670    -0.0030   -31.4650    12.1830     8.2180    76.5430
 2477.0000   103.9540     8.2340     2.4750    -0.0010   -31.3840    12.0900     8.2050    76.3760
 2477.5000   103.7890     8.2320     2.4840     0.0030   -31.3180    11.9960     8.2700    76.4590
 2478.0000   103.6090     8.2300     2.4770     0.0050   -31.2910    11.9310     8.3480    76.8340
 2478.5000   103.3800     8.2450     2.4880    -0.0110   -31.2950    11.9050     8.4000    76.8180
 2479.0000   103.7450     8.2610     2.4820    -0.0050   -31.3050    11.9000     8.4380    76.6170
 2479.5000   104.1180     8.2770     2.4740    -0.0120   -31.2990    11.9040     8.4920    76.4170
 2480.0000   104.5860     8.2920     2.4620    -0.0180   -31.2770    11.9360     8.5780    76.4050
 2480.5000   103.9170     8.3080     2.4790    -0.0150   -31.2460    12.0160     8.6900    76.5970
 2481.0000   103.0400     8.3230     2.4630    -0.0070   -31.2120    12.1310     8.8190    76.7900
 2481.5000   102.0930     8.3400     2.4850    -0.0030   -31.1800    12.2450     8.9650    76.6690
 2482.0000   101.2630     8.3550     2.4800    -0.0070   -31.1520    12.3360     9.1250    76.4690
 2482.5000   100.2840     8.3690     2.4660    -0.0070   -31.1220    12.4200     9.2620    76.2680
 2483.0000   101.2130     8.3850     2.4980     0.0070   -31.0820    12.5260     9.3190    76.0680
 2483.5000   102.5950     8.3810     2.4930    -0.0030   -31.0430    12.6440     9.2750    76.0340
 2484.0000   103.0310     8.3650     2.4730    -0.0090   -31.0240    12.7080     9.1830    76.0340
 2484.5000   103.4240     8.3500     2.5180     0.0320   -31.0090    12.6610     9.1070    76.0760
 2485.0000   104.9560     8.3350     2.5080     0.0240   -30.9580    12.5300     9.0480    76.2430
 2485.5000   106.6460     8.3200     2.5020     0.0080   -30.8900    12.3900     8.9470    76.5340
 2486.0000   107.8300     8.3050     2.5300     0.0270   -30.8970    12.2510     8.7660    76.9680
 2486.5000   107.8310     8.2910     2.5330     0.0390   -30.9700    12.0440     8.5230    77.4020
 2487.0000   107.2140     8.2770     2.5210     0.0280   -30.9040    11.7400     8.2650    77.6700
 2487.5000   106.4610     8.2630     2.5060     0.0210   -30.5410    11.4180     8.0160    77.7640
 2488.0000   105.5270     8.2480     2.4820    -0.0040   -30.0780    11.1440     7.7730    77.8580
 2488.5000   105.6400     8.2340     2.4680    -0.0120   -29.9030    10.8650     7.5290    77.9840
 2489.0000   109.8250     8.2200     2.4770    -0.0050   -30.1170    10.5140     7.2800    78.5180
 2489.5000   114.5100     8.2060     2.4980     0.0080   -30.4050    10.1640     7.0240    79.0530
 2490.0000   115.7510     8.1900     2.5200     0.0220   -30.4350     9.9600     6.7750    79.6460
 2490.5000   117.0330     8.2040     2.5290     0.0300   -30.2080     9.9120     6.5550    80.6020
 2491.0000   115.1160     8.2220     2.5250     0.0170   -29.9530     9.8830     6.3800    81.6000
 2491.5000   112.3180     8.2410     2.5000    -0.0060   -29.8220     9.7800     6.2440    81.5240
 2492.0000   112.8470     8.2590     2.4930    -0.0020   -29.8240     9.6570     6.1300    81.4240
 2492.5000   114.3420     8.2770     2.4920     0.0070   -29.9390     9.5720     6.0190    81.6000
 2493.0000   115.7210     8.2960     2.4870     0.0040   -30.1600     9.4730     5.9070    82.0910
 2493.5000   117.4290     8.3110     2.4720    -0.0010   -30.4480     9.2950     5.7960    82.5940
 2494.0000   116.2350     8.3160     2.4770    -0.0070   -30.7060     9.0920     5.6890    82.7760
 2494.5000   113.3630     8.3220     2.5000     0.0000   -30.8360     8.9690     5.5820    82.6930
 2495.0000   112.2210     8.3280     2.4910    -0.0030   -30.8100     8.9170     5.4660    82.6090
 2495.5000   112.3600     8.3340     2.4830    -0.0130   -30.6860     8.8170     5.3450    83.1930
 2496.0000   112.2800     8.3400     2.4580    -0.0160   -30.5450     8.6010     5.2390    83.9220
 2496.5000   112.7110     8.3460     2.4620    -0.0090   -30.4100     8.3270     5.1660    84.6500
 2497.0000   113.5730     8.3480     2.4790    -0.0020   -30.2730     8.0940     5.1190    85.3790
 2497.5000   114.6070     8.3420     2.4900    -0.0030   -30.1630     7.9310     5.0750    85.9500
 2498.0000   115.6050     8.3370     2.4710    -0.0050   -30.1330     7.8070     5.0280    86.3330
 2498.5000   118.5660     8.3310     2.4820    -0.0070   -30.1870     7.7130     5.0030    86.7160
 2499.0000   119.6190     8.3250     2.4860    -0.0100   -30.2690     7.7060     5.0390    87.0680
 2499.5000   120.5420     8.3200     2.4710    -0.0110   -30.3270     7.8480     5.1500    85.9830
 2500.0000   119.9310     8.3140     2.4660    -0.0090   -30.3630     8.1140     5.3110    84.9820
 2500.5000   118.5600     8.3090     2.4790     0.0080   -30.4090     8.3860     5.4780    84.2580
 2501.0000   117.4420     8.3030     2.4890    -0.0040   -30.4810     8.5700     5.6260    84.0090
 2501.5000   115.9180     8.2980     2.4990     0.0020   -30.5190     8.7080     5.7700    83.7020
 2502.0000   114.3650     8.2920     2.5010     0.0010   -30.4120     8.9090     5.9450    82.9390
