~VERSION INFORMATION
 VERS.                2.0:   CWLS LOG ASCII STANDARD - VERSION 2.0
 WRAP.                 NO:   ONE LINE PER DEPTH STEP
~WELL INFORMATION
#MNEM.UNIT      DATA TYPE    INFORMATION
#----------   ------------   ------------------------------
 STRT.F            0.0000:   START DEPTH
 STOP.F         4134.5000:   STOP DEPTH
 STEP.F            0.5000:   STEP LENGTH
 NULL.          -999.2500:   NO VALUE
 COMP. LAWRENCE ALLISON & ASSOCIATES:   COMPANY
 WELL. LAWRENCE NPR 3 "X" #72-10:   WELL
 FLD .            WILDCAT:   FIELD
 LOC .      S10 T38N R78W:   LOCATION
 CNTY.            NATRONA:   COUNTY
 STAT.            WYOMING:   STATE
 CTRY. UNITED STATES OF AMERICA:   COUNTRY
 SRVC.      DRESSER ATLAS:   SERVICE COMPANY
 DATE.        29-JUL-1983:   LOGDATE
 API .     49025109390000:   API NUMBER
~CURVE INFORMATION
#MNEM.UNIT       API CODE    CURVE DESCRIPTION
#----------   ------------   ------------------------------
 DEPT.F                  :   
 CALD.IN     45 280 60 00:   CALIPER FROM DENSITY LOG
 DEN .G/C3   45 350 01 00:   BULK DENSITY
 CORR.G/C3   45 356 01 00:   DENSITY CORRECTION
 TEND.LBS    45 635 01 00:   TENSION FROM DENSITY LOG
 NPHI.DEC    42 890 03 00:   NEUTRON POROSITY SANDSTONE
 GRD .GAPI   45 310 01 00:   GAMMA RAY FROM DENSITY LOG
 SPR .MV     07 010 01 00:   SPONTANEOUS POTENTIAL
 RILD.OHMM   07 120 46 00:   DEEP INDUCTION RESISTIVITY
 RILM.OHMM   07 120 44 00:   INDUCTION LOG MEDIUM RESISTIVITY
 RFOC.OHMM   07 220 04 00:   RESISTIVITY FOCUSED LOG RES.
 TENR.LBS    07 635 01 00:   TENSION FROM RESISTIVITY
 AC  .US/F   60 250 00 00:   ACCOUSTIC
 TENS.LBS    60 635 01 00:   TENSION FROM SONIC
 GRR .GAPI   07 310 01 00:   GAMMA RAY FROM RESISTIVITY
~PARAMETER INFORMATION
#MNEM.UNIT          VALUE    DESCRIPTION
#----------   ------------   ------------------------------
 EKB .F         5182.0000:   Kelly bushing
 EGL .F         5172.0000:   Ground level
 EDF .F            0.0000:   Drilling floor
 TD  .F         4139.0000:   Total depth
 DATE.        29-JUL-1983:   Date logged
 CLNT.            A2DTECH:   Client Code
 SL  . 900' FNL & 900' FEL:   Surface Location
 PD  .                 GL:   Permanent Datum
 EPD .F              5172:   Elevation Permanent Datum
 LMF .                 KB:   Log Measured From
 DMF .                 KB:   Drilling Measured From
 DAPD.F                10:   Feet Above Permanent Datum
 DD  .F              4139:   Depth driller
 DL  .F              4134:   Depth logger
 BLI .F              4132:   Bottom log interval
 CS1 .IN            9.625:   Casing size
 CBD1.      9.625" @ 476':   Casing driller 1
 BS1 .IN            7.875:   Bit size
 BSD1.F              4139:   Depth drilled with bit1
 DFT .               LSND:   Type fluid in hole
 DFD .                6.6:   Density
 DFV .                 41:   Viscosity
 DFPH.                8.5:   pH
 DFL .                 10:   Fluid loss
 MSS .           FLOWLINE:   Source of sample
 RMS .OHMM            .27:   Rm
 MST .F                91:   Rm Meas. temp.
 RMF .OHMM            .19:   Rmf
 MFST.F                87:   Rmf Meas. temp.
 RMC .OHMM            .34:   Rmc
 MCST.F                87:   Rmc Meas. temp.
 MFSS.               MEAS:   Source Rmf.
 MCSS.               CALC:   Source Rmc.
 RMB .OHMM            .19:   Rm. at BHT
 BHT .F               130:   BHT.
 TCS .HRS               3:   Time Circ. stopped
 MRT .F               130:   Maximum recorded temp.
 LUN .               6274:   Logging unit number
 LUL .               GLTF:   Logging unit location
 ENGI.             RAUTIC:   Recorded By
 WITN.             STRONG:   Witnessed by
 ORIG.           5" PRINT:   Origin of data
 UWI .     49025109390000:   Unique Well ID
 DICO. A2D TECHNOLOGIES, INC.:   Digitizing Company
~OTHER INFORMATION
~A    DEPT    CALD        DEN       CORR       TEND       NPHI        GRD        SPR       RILD       RILM       RFOC       TENR         AC       TENS         GRR  
# ...
 4116.0000     7.9280     2.5470     0.0160   330.7220     0.2170   108.7840   -22.8270     3.8390     4.0230     5.1710   544.3160  -999.2500   547.1030  -999.2500
 4116.5000     7.9270     2.5490     0.0200   335.8930     0.2190   110.0480   -22.8050     3.7600     3.9070     5.2500   549.6770  -999.2500   553.8790  -999.2500
 4117.0000     7.9260     2.5490     0.0250   341.0640     0.2210   109.3460   -22.7840     3.6520     3.7900     5.0830   555.0390  -999.2500   560.6560  -999.2500
 4117.5000     7.9260     2.5450     0.0330   346.2360     0.2220   107.4280   -22.7630     3.5430     3.6880     4.4870   560.4000  -999.2500   566.6830  -999.2500
 4118.0000     7.9250     2.5310     0.0480   351.4070     0.2170   103.7390   -22.7990     3.4350     3.5890     3.8050   565.7620  -999.2500   564.4590  -999.2500
 4118.5000     7.9250     2.5190     0.0620   356.5780     0.2090   100.0300   -22.9440     3.3460     3.5360     3.4090   571.1240  -999.2500   569.7780  -999.2500
 4119.0000     7.9240     2.5130     0.0710   361.7490     0.2030   100.2150   -23.0880     3.3640     3.5790     3.4780   576.4850  -999.2500   575.0960  -999.2500
 4119.5000     7.9230     2.5180     0.0560   366.8830  -999.2500   101.1740   -23.2430     3.4020     3.6700     3.9300   581.8470  -999.2500   580.4150  -999.2500
 4120.0000     7.9230     2.5250     0.0480   369.3140  -999.2500   102.0400   -23.4040     3.4390     3.7600     4.3690   587.2090  -999.2500   585.7340  -999.2500
 4120.5000     7.9220     2.5300     0.0650   375.3070  -999.2500   101.9150   -23.5660     3.4760     3.8510     4.5410   592.5700  -999.2500   591.0530  -999.2500
 4121.0000     7.9220     2.5310     0.0790   381.2990  -999.2500   101.6040   -23.7280     3.5140     3.9490     4.7300   597.9320  -999.2500   596.3720  -999.2500
 4121.5000     7.9210     2.5320     0.0770   387.2910  -999.2500   102.6530   -23.8900     3.5510     3.9530     4.8960   603.2930  -999.2500   601.6900  -999.2500
 4122.0000     7.9200     2.5310     0.0580   393.2840  -999.2500   105.9450   -24.0530     3.5880     3.9630     4.6840   606.8250  -999.2500   606.6430  -999.2500
 4122.5000     7.9200     2.5300     0.0600   399.2760  -999.2500   106.2830   -24.2150     3.6350     3.9720     4.4730   608.7630  -999.2500   611.6380  -999.2500
 4123.0000     7.9190     2.5320     0.0610   405.2680  -999.2500   104.2670   -24.3420     3.6000     3.9810     4.2610   610.7780  -999.2500   615.1180  -999.2500
 4123.5000     7.9190     2.5370     0.0590   411.2610  -999.2500   101.8690   -24.3350     3.5980     4.1160     4.1720   620.7580  -999.2500   622.1280  -999.2500
 4124.0000     7.9180     2.5410     0.0480   417.2530  -999.2500   101.3950   -24.2650     3.5960     4.5760     4.5320   626.2710  -999.2500   629.1380  -999.2500
 4124.5000     7.9180     2.5460     0.0370   423.2460  -999.2500  -999.2500   -24.1950     3.5930     4.5840     4.9720   635.8710  -999.2500   636.1480  -999.2500
 4125.0000     7.9170     2.5510     0.0260   429.2380  -999.2500  -999.2500   -24.1250     3.5910     4.5910     5.5580   645.4710  -999.2500   643.1590  -999.2500
 4125.5000     7.9160     2.5560     0.0460   435.2300  -999.2500  -999.2500   -24.0550     3.5890     4.5990     6.1440   655.0710  -999.2500   650.1690  -999.2500
 4126.0000     7.9160     2.5620     0.0680   441.2230  -999.2500  -999.2500   -23.9850     3.5860     4.6070     6.8540   659.1820  -999.2500   656.5930  -999.2500
 4126.5000     7.9150     2.5650     0.0750   447.2150  -999.2500  -999.2500   -23.9150     3.5840     4.6150     7.7270   655.6890  -999.2500   663.1560  -999.2500
 4127.0000     7.9130     2.5660     0.0630   453.2070  -999.2500  -999.2500   -23.8450     3.5820     4.6230     8.2380   666.0680  -999.2500   665.6970  -999.2500
 4127.5000     7.9030     2.5650     0.0460   459.2000  -999.2500  -999.2500   -23.7760     3.5790     4.6310     8.1020   676.1480  -999.2500   668.2380  -999.2500
 4128.0000     7.8930     2.5640     0.0280   441.5700  -999.2500  -999.2500   -23.7680     3.5770     4.6390     7.4550   685.6290  -999.2500   670.7790  -999.2500
 4128.5000     7.8830     2.5620     0.0110   391.6270  -999.2500  -999.2500   -23.8620     3.5750     4.6470     6.6850   665.6690  -999.2500   675.9330  -999.2500
 4129.0000     7.8730  -999.2500    -0.0070   268.8950  -999.2500  -999.2500   -23.9410     3.5720     4.6550     5.9140   675.1790  -999.2500   682.2860  -999.2500
 4129.5000     7.8640  -999.2500    -0.0250   146.1620  -999.2500  -999.2500   -24.0770     3.5700  -999.2500     5.1440   684.0730  -999.2500   688.6390  -999.2500
 4130.0000  -999.2500  -999.2500    -0.0290    23.4300  -999.2500  -999.2500   -24.3260     3.5680  -999.2500     4.4290   692.9670  -999.2500   691.5580  -999.2500
 4130.5000  -999.2500  -999.2500    -0.0300   -99.3020  -999.2500  -999.2500   -24.5750     3.6010  -999.2500     4.3690   616.7740  -999.2500   607.2180  -999.2500
 4131.0000  -999.2500  -999.2500    -0.0300  -222.0340  -999.2500  -999.2500   -24.8260     3.6020  -999.2500     4.3690   488.5520  -999.2500   465.6700  -999.2500
 4131.5000  -999.2500  -999.2500    -0.0030  -248.7510  -999.2500  -999.2500   -24.9330  -999.2500  -999.2500     4.3690   360.3310  -999.2500   315.3150  -999.2500
 4132.0000  -999.2500  -999.2500  -999.2500  -247.9320  -999.2500  -999.2500   -24.9340  -999.2500  -999.2500  -999.2500   232.1090  -999.2500   164.0860  -999.2500
 4132.5000  -999.2500  -999.2500  -999.2500  -248.5050  -999.2500  -999.2500   -24.9340  -999.2500  -999.2500  -999.2500   103.8880  -999.2500    11.6130  -999.2500
 4133.0000  -999.2500  -999.2500  -999.2500  -249.0770  -999.2500  -999.2500   -24.9340  -999.2500  -999.2500  -999.2500   -24.3340  -999.2500  -133.2830  -999.2500
 4133.5000  -999.2500  -999.2500  -999.2500  -249.6500  -999.2500  -999.2500   -24.9340  -999.2500  -999.2500  -999.2500  -152.5550  -999.2500  -232.5170  -999.2500
 4134.0000  -999.2500  -999.2500  -999.2500  -999.2500  -999.2500  -999.2500   -24.9340  -999.2500  -999.2500  -999.2500  -999.2500  -999.2500  -999.2500  -999.2500
 4134.5000  -999.2500  -999.2500  -999.2500  -999.2500  -999.2500  -999.2500   -24.9340  -999.2500  -999.2500  -999.2500  -999.2500  -999.2500  -999.2500  -999.2500
