~VERSION INFORMATION
 VERS.                2.0:   CWLS LOG ASCII STANDARD - VERSION 2.0
 WRAP.                 NO:   ONE LINE PER DEPTH STEP
~WELL INFORMATION
#MNEM.UNIT      DATA TYPE    INFORMATION
#----------   ------------   ------------------------------
 STRT.F            0.5000:   START DEPTH
 STOP.F         4149.0000:   STOP DEPTH
 STEP.F            0.5000:   STEP LENGTH
 NULL.          -999.2500:   NO VALUE
 COMP. LAWRENCE ALLISON & ASSOSCIATES:   COMPANY
 WELL. LAWRENCE "X" #34-3:   WELL
 FLD .             NPR #3:   FIELD
 LOC .       S3 T38N R78W:   LOCATION
 CNTY.            NATRONA:   COUNTY
 STAT.            WYOMING:   STATE
 CTRY. UNITED STATES OF AMERICA:   COUNTRY
 SRVC.      DRESSER ATLAS:   SERVICE COMPANY
 DATE.        19-NOV-1983:   LOGDATE
 API .     49025109500000:   API NUMBER
~CURVE INFORMATION
#MNEM.UNIT       API CODE    CURVE DESCRIPTION
#----------   ------------   ------------------------------
 DEPT.F                  :   
 CALD.IN     45 280 60 00:   CALIPER FROM DENSITY LOG
 TEND.LBS    45 635 01 00:   TENSION FORM DENSITY LOG
 DEN .G/C3   45 350 01 00:   BULK DENSITY
 CNC .DEC    42 890 01 00:   NEUTRON POROSITY LIMESTONE
 CORR.G/C3   45 356 01 00:   DENSITY CORRECTION
 TENR.LBS    06 635 01 00:   TENSION FROM RESISTIVITY
 GRR .GAPI   07 310 01 00:   GAMMA RAY FROM RESISTIVITY
 RFOC.OHMM   07 220 04 00:   RESISTIVITY FOCUSED LOG RES.
 RILD.OHMM   07 120 46 00:   DEEP INDUCTION RESISTIVITY
 RILM.OHMM   07 120 44 00:   INDUCTION LOG MEDIUM RESISTIVITY
 SPR .MV     07 010 01 00:   SPONTANEOUS POTENTIAL
 TENS.LBS    60 635 01 00:   TENSION FROM SONIC
 DT  .US/F   60 520 00 00:   DELTA TIME
~PARAMETER INFORMATION
#MNEM.UNIT          VALUE    DESCRIPTION
#----------   ------------   ------------------------------
 EKB .F         5187.0000:   Kelly bushing
 EGL .F         5174.0000:   Ground level
 TD  .F         4140.0000:   Total depth
 CLNT.            A2DTECH:   Client Code
 SL  . 1621' FWL & 1958' FNL:   Surface Location
 PD  .                 GL:   Permanent Datum
 EPD .F              5174:   Elevation Permanent Datum
 LMF .                 KB:   Log Measured From
 DMF .                 KB:   Drilling Measured From
 DAPD.F                13:   Feet Above Permanent Datum
 DATE.        19-NOV-1983:   Date Logged [DD-MMM-YYYY]
 DD  .F              4136:   Depth driller
 DL  .F              4140:   Depth logger
 BLI .F              4138:   Bottom log interval
 TLI .F                 0:   Top log interval
 CS1 .IN            8.625:   Casing size
 CBD1.      8.625" @ 615':   Casing driller 1
 CBL1.F               615:   Casing logger 1
 BS1 .IN            7.875:   Bit size
 BSD1.F              4136:   Depth drilled with bit1
 DFT .            GEL-KCL:   Type fluid in hole
 DFD .                  9:   Density
 DFV .                 45:   Viscosity
 DFPH.                8.5:   pH
 DFL .                 12:   Fluid loss
 MSS .           FLOWLINE:   Source of sample
 RMS .OHMM          0.768:   Rm
 MST .F                74:   Rm Meas. temp.
 RMF .OHMM          0.576:   Rmf
 MFST.F                74:   Rmf Meas. temp.
 MFSS.               CALC:   Source Rmf.
 RMC .OHMM           0.96:   Rmc
 MCST.F                74:   Rmc Meas. temp.
 MCSS.               CALC:   Source Rmc.
 RMB .OHMM          0.418:   Rm. at BHT
 BHT .F               136:   BHT.
 TCS .HRS               4:   Time Circ. stopped
 MRT .F               136:   Maximum recorded temp.
 LUN .               6307:   Logging unit number
 LUL .               GLTE:   Logging unit location
 ENGI.           FAHLSING:   Recorded By
 WITN.           JENNINGS:   Witnessed by
 ORIG.      2.5" 5" PRINT:   Origin of data
 UWI .     49025109500000:   Unique Well ID
 DICO. A2D TECHNOLOGIES, INC.:   Digitizing Company
~OTHER INFORMATION
~A    DEPT    CALD       TEND        DEN        CNC       CORR       TENR         GRR      RFOC       RILD       RILM        SPR       TENS         DT   
# ...
 2028.5000     9.2341     0.0000     2.4991     0.2570     0.0569    -3.9787   122.6263    11.9342     9.7266     9.6439   -85.8242  -999.2500  -999.2500
 2029.0000     9.2341     0.0000     2.4956     0.2576     0.0432    -4.8270   119.0079    11.4469     9.5968     9.5153   -85.7760  -999.2500  -999.2500
 2029.5000     9.2341     0.0000     2.4924     0.2535     0.0414    -5.4784   115.3894    11.4613     9.4712     9.4554   -85.7523  -999.2500  -999.2500
 2030.0000     9.2341     0.0000     2.4933     0.2421     0.0461    -6.1728   114.2862    11.8161     9.2174     9.5331   -85.7285  -999.2500  -999.2500
 2030.5000     9.2341     0.0000     2.4948     0.2409     0.0554    -6.8672   113.1830    11.9873     9.2273     9.8878   -86.0097  -999.2500  -999.2500
 2031.0000     9.2341     0.0000     2.4963     0.2421     0.0676    -7.5618   109.5646    11.0191     9.3792    10.1102   -86.1384  -999.2500  -999.2500
 2031.5000     9.2341     0.0000     2.4964     0.2434     0.0717    -8.3896   107.2943    11.0313     9.6620    10.1186   -86.4196  -999.2500  -999.2500
 2032.0000     9.2340     0.0000     2.4964     0.2440     0.0646    -8.9505   107.4327    11.4446     9.9405     9.9835   -86.5488  -999.2500  -999.2500
 2032.5000     9.2342     0.0000     2.4965     0.2440     0.0617    -9.7468   109.6948    12.0440     9.8078     9.9918   -86.5246  -999.2500  -999.2500
 2033.0000     9.2343     0.0000     2.4950     0.2434     0.0558   -10.3395   112.9362    12.4064     9.8206    10.0001   -86.8496  -999.2500  -999.2500
 2033.5000     9.2428     0.0000     2.4920     0.2434     0.0529   -11.1040   115.9488    12.5987     9.8308     9.8456   -87.0869  -999.2500  -999.2500
 2034.0000     9.2538     0.0000     2.4916     0.2491     0.0591   -11.7826   118.5041    12.7941     9.6334     9.5987   -87.2832  -999.2500  -999.2500
 2034.5000     9.2647     0.0000     2.4966     0.2620     0.0747   -12.4228   121.2881    12.7038     9.3044     9.4685   -87.3444  -999.2500  -999.2500
 2035.0000     9.2737     0.0000     2.5026     0.2650     0.0892   -13.1173   124.0721    12.2885     9.0551     9.3420   -87.3147  -999.2500  -999.2500
 2035.5000     9.2736     0.0000     2.5101     0.2668     0.0953   -13.8185   127.7708    11.7867     9.0648     9.4862   -87.2910  -999.2500  -999.2500
 2036.0000     9.2730     0.0000     2.5132     0.2674     0.0955   -14.5061   130.1035    10.9873     9.0744     9.4941   -87.2673  -999.2500  -999.2500
 2036.5000     9.2611     0.0000     2.5132     0.2545     0.0986   -15.2006   131.9680    10.3864     9.1508     9.5020   -86.9387  -999.2500  -999.2500
 2037.0000     9.2508     0.0000     2.5133     0.2506     0.1077   -13.5029   126.0718    11.0117     9.2914     9.5099   -86.9146  -999.2500  -999.2500
 2037.5000     9.2391     0.0000     2.5118     0.2501     0.0988    -8.8735   122.9106    11.6714     9.3674     9.4501   -86.7124  -999.2500  -999.2500
 2038.0000     9.2337     0.0000     2.5118     0.2500     0.0690    -9.6652   121.1215    12.1954     9.5114     9.5960   -86.2518  -999.2500  -999.2500
 2038.5000     9.2342     0.0000     2.5119     0.2441     0.0721    -8.9253   120.2369    12.2089     9.3869     9.6728   -86.2281  -999.2500  -999.2500
 2039.0000     9.2342     0.0000     2.5119     0.2350     0.0752    -3.2408   120.7443    12.0204     9.2617     9.5436   -86.5093  -999.2500  -999.2500
 2039.5000     9.2343     0.0000     2.5119     0.2376     0.0783    -3.9352   119.8698    11.4783     8.7612     9.1510   -86.6875  -999.2500  -999.2500
 2040.0000     9.2423     0.0000     2.5120     0.2446     0.0814    -4.6636   118.9939    10.6237     7.7172     8.5886   -86.7726  -999.2500  -999.2500
 2040.5000     9.2524     0.0000     2.5090     0.2460     0.0785    -5.3422   119.9500    10.0427     7.7253     8.1767   -86.4381  -999.2500  -999.2500
 2041.0000     9.2618     0.0000     2.5076     0.2430     0.0725    -6.0209   120.9238    10.2012     7.8599     7.8403   -86.4144  -999.2500  -999.2500
 2041.5000     9.2729     0.0000     2.5076     0.2390     0.0567    -6.7130   120.0402    10.7355     8.3136     8.0800   -86.3902  -999.2500  -999.2500
 2042.0000     9.2737     0.0000     2.5076     0.2372     0.0220     3.3262   114.5925    11.2174     8.7467     8.6808   -86.0601  -999.2500  -999.2500
 2042.5000     9.2740     0.0000     2.5077     0.2350     0.0289     7.3756   105.4862    11.7210     9.2680     9.3310   -86.6463  -999.2500  -999.2500
 2043.0000     9.2737     0.0000     2.5096     0.2347     0.0407     6.5273    98.4379    11.9882     9.6818     9.6781   -86.6224  -999.2500  -999.2500
 2043.5000     9.2739     0.0000     2.5107     0.2364     0.0550    21.4504    94.5908    12.1227     9.9713     9.9668   -87.0501  -999.2500  -999.2500
 2044.0000     9.2738     0.0000     2.5039     0.2384     0.0830    20.6790    90.9723    12.0145    10.1968    10.1186   -87.3313  -999.2500  -999.2500
 2044.5000     9.2738     0.0000     2.4963     0.2409     0.0818    19.9846    98.7868    12.0312    10.0630    10.0546   -87.7708  -999.2500  -999.2500
 2045.0000     9.2738     0.0000     2.4903     0.2460     0.0752    19.2449   105.4580    11.7895     9.7915     9.8500   -88.0519  -999.2500  -999.2500
 2045.5000     9.2738     0.0000     2.4869     0.2511     0.0623    18.5957   110.3737    11.2277     9.5270     9.6493   -88.3331  -999.2500  -999.2500
 2046.0000     9.2737     0.0000     2.4861     0.2613     0.0379    17.9012   116.8444    10.6166     9.5373     9.5204   -88.6143  -999.2500  -999.2500
 2046.5000     9.2741     0.0000     2.4899     0.2568     0.0381    17.2068   119.9938    10.6304     9.6860     9.5303   -88.8902  -999.2500  -999.2500
 2047.0000     9.2675     0.0000     2.4960     0.2508     0.0382    16.5123   121.6345    11.0286     9.5567     9.6754   -88.8658  -999.2500  -999.2500
 2047.5000     9.2414     0.0000     2.4998     0.2447     0.0383    15.6821   122.1218    11.1996     9.4316     9.9640   -88.8415  -999.2500  -999.2500
 2048.0000     9.2399     0.0000     2.5029     0.2403     0.0384    15.0035   120.3427    11.2923     9.7162    10.2612   -88.8008  -999.2500  -999.2500
 2048.5000     9.2525     0.0000     2.5060     0.2408     0.0428    14.3251   117.8675    11.4673    10.0068    10.3412   -88.3314  -999.2500  -999.2500
 2049.0000     9.2630     0.0000     2.5127     0.2450     0.0617    13.6463   115.1637    11.0824    10.3060     9.9889   -87.8503  -999.2500  -999.2500
 2049.5000     9.2731     0.0000     2.5157     0.2504     0.0941     5.2518   105.6002    11.0939    10.1708     9.8523   -87.2169  -999.2500  -999.2500
 2050.0000     9.2738     0.0000     2.5217     0.2522     0.1003     4.5730   105.1829    11.0219     9.8263     9.5859   -86.8883  -999.2500  -999.2500
 2050.5000     9.2739     0.0000     2.5262     0.2522     0.1019    -3.8215   106.2117    11.0333     9.4865     9.3257   -86.5597  -999.2500  -999.2500
 2051.0000     9.2737     0.0000     2.5203     0.2492     0.0944    -5.0217   109.1603    10.8086     9.1086     9.0062   -86.2311  -999.2500  -999.2500
 2051.5000     9.2738     0.0000     2.5173     0.2450     0.0902    -5.9146   113.0876    10.5756     8.6756     8.8208   -86.2229  -999.2500  -999.2500
 2052.0000     9.2738     0.0000     2.5170     0.2564     0.0843    -6.8081   117.6225     9.9402     8.6875     8.9570   -86.2052  -999.2500  -999.2500
 2052.5000     9.2738     0.0000     2.5189     0.2642     0.0845    -7.7159   124.0769     9.7358     8.8216     9.0934   -86.1875  -999.2500  -999.2500
 2053.0000     9.2738     0.0000     2.5219     0.2612     0.0846   -16.5336   127.2704    10.0280     8.8313     9.3646   -86.1698  -999.2500  -999.2500
 2053.5000     9.2738     0.0000     2.5250     0.2481     0.0847   -17.4270   119.0663    10.3268     8.9675     9.5097   -86.1520  -999.2500  -999.2500
 2054.0000     9.2738     0.0000     2.5280     0.2415     0.0938   -18.2098   117.7109    10.7874     9.1059     9.7312   -86.4392  -999.2500  -999.2500
