~VERSION INFORMATION
 VERS.                2.0:   CWLS LOG ASCII STANDARD - VERSION 2.0
 WRAP.                 NO:   ONE LINE PER DEPTH STEP
~WELL INFORMATION
#MNEM.UNIT      DATA TYPE    INFORMATION
#----------   ------------   ------------------------------
 STRT.F          502.0000:   START DEPTH
 STOP.F         3068.0000:   STOP DEPTH
 STEP.F            0.5000:   STEP LENGTH
 NULL.          -999.2500:   NO VALUE
 COMP. LAWRENCE ALLISON AND ASSOCIATES:   COMPANY
 WELL. LAWRENCE NPR TX #85-33:   WELL
 FLD .              N P R:   FIELD
 LOC .      S33 T39N R78W:   LOCATION
 CNTY.            NATRONA:   COUNTY
 STAT.            WYOMING:   STATE
 CTRY. UNITED STATES OF AMERICA:   COUNTRY
 SRVC.       SCHLUMBERGER:   SERVICE COMPANY
 DATE.        20-JUN-1982:   LOGDATE
 API .     49025107990001:   API NUMBER
~CURVE INFORMATION
#MNEM.UNIT       API CODE    CURVE DESCRIPTION
#----------   ------------   ------------------------------
 DEPT.F                  :   
 RHOB.G/C3   45 350 01 00:   BULK DENSITY
 GRD .GAPI   45 310 01 00:   GAMMA RAY FROM DENSITY LOG
 CALD.IN     45 280 60 00:   CALIPER FROM DENSITY LOG
 CORR.G/C3   45 356 01 00:   DENSITY CORRECTION
 TEND.LBS    45 635 01 00:   TENSION FROM DENSITY LOG
 NPHI.DEC    42 890 03 00:   NEUTRON POROSITY SANDSTONE
 TENR.LBS    07 635 01 00:   TENSION FROM RESISTIVITY
 SPR .MV     07 010 01 00:   SPONTANEOUS POTENTIAL
 ILD .OHMM   07 120 46 00:   DEEP INDUCTION RESISTIVITY
 ILM .OHMM   07 120 44 00:   INDUCTION LOG MEDIUM RESISTIVITY
 SFL .OHMM   07 220 01 00:   SHALLOW FOCUSED LOG RESISTIVITY
~PARAMETER INFORMATION
#MNEM.UNIT          VALUE    DESCRIPTION
#----------   ------------   ------------------------------
 EKB .F         5123.0000:   Kelly bushing
 EGL .F         5113.0000:   Ground level
 EDF .F         5122.0000:   Drilling floor
 EPD .F         5113.0000:   Permanent datum
 TD  .F         3100.0000:   Total depth
 DATE.        20-JUN-1982:   Date logged
 CLNT.            A2DTECH:   Client Code
 SL  . 2263' FSL & 293' FEL:   Surface Location
 PD  .                 GL:   Permanent Datum
 DD  .F              3100:   Depth driller
 DL  .F              3056:   Depth logger
 BLI .F              3050:   Bottom log interval
 CS1 .IN            9.625:   Casing size
 CBD1.      9.625" @ 524':   Casing driller 1
 CBL1.F               520:   Casing logger 1
 BS1 .IN            7.875:   Bit size
 DFT .           POLY/KCL:   Type fluid in hole
 DFD .                8.4:   Density
 DFV .                 40:   Viscosity
 DFPH.                7.6:   pH
 DFL .                 10:   Fluid loss
 MSS .               TANK:   Source of sample
 RMS .OHMM            .92:   Rm
 MST .F                66:   Rm Meas. temp.
 RMF .OHMM           .603:   Rmf
 MFST.F                68:   Rmf Meas. temp.
 MFSS.               MEAS:   Source Rmf.
 RMB .OHMM           .515:   Rm. at BHT
 BHT .F               118:   BHT.
 TCS .HRS             815:   Time Circ. stopped
 MRT .F               118:   Maximum recorded temp.
 LUN .               8035:   Logging unit number
 LUL .               CSPR:   Logging unit location
 ENGI.              PENNY:   Recorded By
 WITN.           JENNINGS:   Witnessed by
 ORIG.           5" PRINT:   Origin of data
 UWI .     49025107990001:   Unique Well ID
 DICO. A2D TECHNOLOGIES, INC.:   Digitizing Company
 DAPD.                 10:   Feet Above Permanent Datum
 BSD1.               3100:   Depth drilled with bit1
 TLI .                520:   Top log interval
 TLAB.               1100:   Time logger at bottom
~OTHER INFORMATION
~A   DEPT     RHOB         GRD      CALD       CORR       TEND       NPHI       TENR        SPR        ILD        ILM        SFL   
# ...
 2698.0000     2.5030   142.4520     7.7290     0.0040  1589.2990     0.3210  1951.1670    -4.8680     4.1010     4.0920     5.0160
 2698.5000     2.5000   142.9430     7.7300     0.0020  1589.7159     0.3100  1944.5940    -4.9320     4.1930     4.2410     5.0450
 2699.0000     2.5090   144.9230     7.7300     0.0070  1590.1331     0.2910  1938.0210    -4.9870     4.2860     4.3900     5.3990
 2699.5000     2.5190   145.4320     7.7310     0.0140  1590.5500     0.2810  1931.4470    -4.9160     4.3780     4.5390     5.7410
 2700.0000     2.5290   143.0310     7.7320     0.0210  1590.9670     0.2760  1924.2271    -4.8440     4.4710     4.6700     6.1170
 2700.5000     2.5200   139.9240     7.7320     0.0190  1591.3840     0.2780  1926.1300    -4.7730     4.5630     4.7590     6.1740
 2701.0000     2.5040   136.7340     7.7320     0.0150  1591.8010     0.2790  1928.2400    -4.7020     4.6550     4.8480     6.0470
 2701.5000     2.4990   134.6150     7.7320     0.0100  1592.2180     0.2810  1930.3510    -4.6310     4.7480     4.9370     5.8970
 2702.0000     2.5040   132.8930     7.7320     0.0080  1592.6350     0.2790  1932.4611    -4.6820     4.8400     5.0250     6.0540
 2702.5000     2.5140   132.4970     7.7320     0.0160  1593.0520     0.2740  1934.5710    -4.8280     4.9330     5.1140     6.2190
 2703.0000     2.5320   133.8860     7.7320     0.0270  1593.4690     0.2680  1936.6820    -4.9750     4.9530     5.1850     6.3840
 2703.5000     2.5500   135.5870     7.7320     0.0370  1593.8860     0.2620  1938.7920    -5.1220     4.9530     5.1850     6.5490
 2704.0000     2.5530   137.1230     7.7320     0.0470  1594.3030     0.2620  1940.9020    -5.2680     4.7810     5.0400     6.6450
 2704.5000     2.5360   137.8420     7.7320     0.0400  1594.7200     0.2630  1943.0129    -5.3910     4.5700     4.8620     6.4600
 2705.0000     2.5150   140.1710     7.7320     0.0220  1595.1370     0.2690  1945.1230    -5.5630     4.3590     4.6830     6.0360
 2705.5000     2.5000   147.4940     7.7320     0.0140  1595.5540     0.2750  1947.2330    -5.7400     4.1480     4.5180     5.6130
 2706.0000     2.4940   150.8790     7.7310     0.0170  1595.9709     0.2880  1949.3440    -5.9180     3.6730     4.1670     5.1890
 2706.5000     2.4880   163.8280     7.7550     0.0230  1596.3879     0.3000  1951.4540    -6.1130     3.1870     3.8150     4.7660
 2707.0000     2.4770   182.4330     7.7880     0.0350  1596.8051     0.3190  1953.5640    -6.3200     2.9100     3.4620     4.1750
 2707.5000     2.4620   196.6620     7.8210     0.0530  1597.2220     0.3480  1955.6750    -6.5270     2.6320     3.1100     3.5160
 2708.0000     2.4440   196.1230     7.8540     0.0750  1598.0730     0.3910  1957.7850    -6.7360     2.3980     2.7570     2.8580
 2708.5000     2.4110   174.4850     7.8880     0.0550  1598.9230     0.4330  1959.8950    -6.9410     2.3980     2.5340     2.0320
 2709.0000     2.4070   158.8630     7.9240     0.0270  1599.7729     0.3990  1962.0060    -6.9520     2.5150     2.5570     2.2000
 2709.5000     2.4400   143.2830     7.8410     0.0050  1600.6240     0.3470  1964.1080    -6.9350     2.6360     2.8480     2.8470
 2710.0000     2.4850   136.1970     7.7330     0.0110  1601.4740     0.2980  1961.0570    -6.4710     2.7580     3.1420     4.0330
 2710.5000     2.5340   135.4330     7.6930     0.0200  1602.3240     0.2680  1958.0179    -5.9910     3.0640     3.4370     5.0830
 2711.0000     2.5460   136.4130     7.6960     0.0280  1603.1750     0.2580  1954.9790    -5.5130     3.4810     3.7310     5.4700
 2711.5000     2.5470   133.9680     7.6980     0.0270  1604.0250     0.2550  1951.9399    -5.0350     3.8980     4.0260     5.5350
 2712.0000     2.5470   130.4850     7.7010     0.0220  1604.8750     0.2520  1948.9010    -4.6000     4.2690     4.3290     5.6320
 2712.5000     2.5460   126.4030     7.7040     0.0180  1605.7260     0.2490  1945.8621    -4.7520     4.5200     4.6360     5.8130
 2713.0000     2.5460   127.7650     7.7070     0.0130  1606.5760     0.2470  1942.8240    -4.9770     4.8630     4.9530     5.9950
 2713.5000     2.5460   131.5670     7.7090     0.0130  1607.4260     0.2510  1939.7850    -5.2020     4.8120     4.9530     6.1170
 2714.0000     2.5450   135.3970     7.7120     0.0200  1608.2770     0.2550  1936.7460    -5.4270     4.7150     4.8540     6.1170
 2714.5000     2.5390   137.7970     7.7150     0.0270  1609.1270     0.2640  1933.7070    -5.6550     4.6170     4.7530     5.8430
 2715.0000     2.5310   140.8220     7.7180     0.0350  1609.9771     0.2720  1930.6680    -5.8790     4.5180     4.6530     5.5530
 2715.5000     2.5260   144.4430     7.7200     0.0380  1610.8280     0.2800  1927.6290    -6.1790     4.4690     4.5530     5.2630
 2716.0000     2.5240   145.5280     7.7230     0.0340  1611.6780     0.2890  1924.5900    -5.9770     4.4190     4.4530     4.9530
 2716.5000     2.5240   142.5440     7.7260     0.0290  1612.5280     0.2890  1921.5510    -5.7820     4.3680     4.3950     4.9530
 2717.0000     2.5290   139.5820     7.7290     0.0230  1613.3790     0.2750  1918.5120    -5.5920     4.3180     4.4680     5.2270
 2717.5000     2.5380   140.2670     7.7320     0.0230  1614.2290     0.2610  1915.4740    -5.4000     4.2670     4.5830     5.4940
 2718.0000     2.5460   143.3190     7.7270     0.0280  1615.0790     0.2530  1912.4351    -5.2060     4.2170     4.6440     5.7610
 2718.5000     2.5460   146.3050     7.7190     0.0290  1615.9301     0.2550  1909.3960    -5.3670     4.1670     4.6440     6.0060
 2719.0000     2.5450   150.0620     7.7110     0.0270  1616.7800     0.2650  1906.3571    -5.6310     4.0990     4.4700     6.0060
 2719.5000     2.5360   153.9100     7.7030     0.0240  1617.9170     0.2730  1904.2870    -5.8960     3.8860     4.2190     5.7140
 2720.0000     2.5200   157.0860     7.6960     0.0210  1619.1980     0.2800  1904.4480    -6.1620     3.6730     3.9690     5.2530
 2720.5000     2.5060   176.2720     7.6880     0.0210  1620.4790     0.2890  1905.6121    -6.4270     3.4600     3.7180     4.7540
 2721.0000     2.5010   184.3510     7.6800     0.0280  1621.7600     0.3090  1906.7760    -6.6930     3.2470     3.4670     4.0440
 2721.5000     2.4920   187.3060     7.6720     0.0290  1623.0410     0.3340  1907.9410    -6.8480     3.0330     3.2170     3.3350
 2722.0000     2.4820   183.2430     7.6640     0.0220  1624.3220     0.3660  1909.1050    -6.9720     2.9340     2.9890     2.9080
 2722.5000     2.4800   179.7870     7.6560     0.0170  1625.6030     0.3530  1910.2690    -7.0980     2.9340     2.9890     3.5000
 2723.0000     2.4900   176.3480     7.6550     0.0160  1626.8840     0.3300  1911.4340    -7.1580     2.9340     3.1070     4.4360
 2723.5000     2.5010   171.2770     7.6560     0.0140  1628.1650     0.2920  1912.5980    -6.7230     3.0750     3.3150     4.6020
 2724.0000     2.5060   162.2060     7.6580     0.0130  1629.4449     0.2790  1913.7620    -6.2300     3.3900     3.6030     4.5600
 2724.5000     2.5090   153.3600     7.6600     0.0120  1630.7260     0.2690  1914.9260    -5.7780     3.7050     3.8900     4.9100
 2725.0000     2.5090   144.1260     7.6610     0.0100  1632.0070     0.2650  1916.0909    -5.7710     3.9910     4.1780     5.2390
 2725.5000     2.5130   138.9590     7.6630     0.0110  1633.2880     0.2650  1917.2550    -5.7730     4.2450     4.4650     5.5330
 2726.0000     2.5230   139.3950     7.6650     0.0180  1634.5690     0.2630  1918.4189    -5.7730     4.5000     4.6780     5.5660
 2726.5000     2.5340   140.7150     7.6660     0.0240  1635.8500     0.2620  1919.5840    -5.7730     4.7550     4.8240     5.6920
 2727.0000     2.5310   140.1410     7.6680     0.0230  1636.3800     0.2620  1920.7480    -5.7730     4.8640     4.9700     5.8990
 2727.5000     2.5240   139.7290     7.6700     0.0170  1633.4030     0.2640  1921.9120    -5.7730     4.9250     5.1160     6.1050
 2728.0000     2.5220   139.2700     7.6710     0.0120  1630.4270     0.2650  1923.0770    -5.7730     4.9860     5.2510     6.2310
