~VERSION INFORMATION
 VERS.                2.0:   CWLS LOG ASCII STANDARD - VERSION 2.0
 WRAP.                 NO:   ONE LINE PER DEPTH STEP
~WELL INFORMATION
#MNEM.UNIT      DATA TYPE    INFORMATION
#----------   ------------   ------------------------------
 STRT.F          250.5000:   START DEPTH
 STOP.F         2849.5000:   STOP DEPTH
 STEP.F            0.5000:   STEP LENGTH
 NULL.          -999.2500:   NO VALUE
 COMP. FENIX & SCISSON U.S. NAVY:   COMPANY
 WELL.   FENIX "A" #25-21:   WELL
 FLD .           N P R #3:   FIELD
 LOC .      S21 T39N R78W:   LOCATION
 CNTY.            NATRONA:   COUNTY
 STAT.            WYOMING:   STATE
 CTRY. UNITED STATES OF AMERICA:   COUNTRY
 SRVC.       SCHLUMBERGER:   SERVICE COMPANY
 DATE.        14-MAR-1977:   LOGDATE
 API .     49025103140000:   API NUMBER
~CURVE INFORMATION
#MNEM.UNIT       API CODE    CURVE DESCRIPTION
#----------   ------------   ------------------------------
 DEPT.F                  :   
 CALD.IN     45 280 60 00:   CALIPER FROM DENSITY LOG
 GRD .GAPI   45 310 01 00:   GAMMA RAY FROM DENSITY LOG
 RHOB.G/C3   45 350 01 00:   BULK DENSITY
 CORR.G/C3   45 356 01 00:   DENSITY CORRECTION
 SPR .MV     07 010 01 00:   SPONTANEOUS POTENTIAL
 LL8 .OHMM   07 220 08 00:   LATEROLOG-8 RES.
 ILM .OHMM   07 120 44 00:   INDUCTION LOG MEDIUM RESISTIVITY
 ILD .OHMM   07 120 46 00:   DEEP INDUCTION RESISTIVITY
~PARAMETER INFORMATION
#MNEM.UNIT          VALUE    DESCRIPTION
#----------   ------------   ------------------------------
 EKB .F         4963.0000:   Kelly bushing
 EGL .F         4953.0000:   Ground level
 EDF .F            0.0000:   Drilling floor
 TD  .F         2848.0000:   Total depth
 DATE.        14-MAR-1977:   Date logged
 CLNT.            A2DTECH:   Client Code
 SL  . 990' FWL & 2310' FSL:   Surface Location
 PD  .                 GL:   Permanent Datum
 DD  .F              2847:   Depth driller
 DL  .F              2848:   Depth logger
 BLI .F              2842:   Bottom log interval
 CS1 .IN            8.625:   Casing size
 CBD1.      8.625" @ 259':   Casing driller 1
 CBL1.F               261:   Casing logger 1
 BS1 .IN            7.875:   Bit size
 DFT .                KCL:   Type fluid in hole
 DFD .                9.2:   Density
 DFV .                 37:   Viscosity
 DFPH.                8.5:   pH
 DFL .                8.6:   Fluid loss
 MSS .           FLOWLINE:   Source of sample
 RMS .OHMM          0.226:   Rm
 MST .F                72:   Rm Meas. temp.
 RMF .OHMM          0.190:   Rmf
 MFST.F                72:   Rmf Meas. temp.
 MFSS.               MEAS:   Source Rmf.
 RMB .OHMM           .139:   Rm. at BHT
 BHT .F               117:   BHT.
 TCS .HRS            1800:   Time Circ. stopped
 MRT .F               117:   Maximum recorded temp.
 LUN .               5642:   Logging unit number
 LUL .               CSPR:   Logging unit location
 ENGI.         JIM MARTIN:   Recorded By
 WITN.               JAPP:   Witnessed by
 ORIG.           5" PRINT:   Origin of data
 UWI .     49025103140000:   Unique Well ID
 DICO. A2D TECHNOLOGIES, INC.:   Digitizing Company
 DAPD.                 10:   Feet Above Permanent Datum
 BSD1.               2847:   Depth drilled with bit1
 EPD .               4953:   Elevation Permanent Datum
 LMF .                 KB:   Log Measured From
 DMF .                 KB:   Drilling Measured From
 TLI .                261:   Top log interval
 TLAB.               2400:   Time logger at bottom
~OTHER INFORMATION
~A   DEPT     CALD         GRD      RHOB       CORR        SPR        LL8        ILM        ILD   
# ...
 2275.5000     8.9970   115.2600     2.5630     0.0140   -57.4910     8.2800     8.8180     9.3320
 2276.0000     8.9900   113.6050     2.5810     0.0250   -57.1610     8.3480     8.7380     9.2660
 2276.5000     8.9840   107.0170     2.6010     0.0340   -56.8310     8.4220     8.6580     9.1490
 2277.0000     8.9780   100.3990     2.5870     0.0210   -56.4980     8.3450     9.5190     9.4050
 2277.5000     8.9720    93.9820     2.5670     0.0020   -56.1550     9.2670    10.3020    10.6760
 2278.0000     8.9660    95.7170     2.5720     0.0010   -56.2170    10.6000    11.0850    11.9470
 2278.5000     8.9630   110.0960     2.5770     0.0140   -56.3150    10.3310    12.1690    13.0980
 2279.0000     8.9790   125.2860     2.5580     0.0160   -56.1960     9.8030    11.1460    12.7110
 2279.5000     8.9960   135.7580     2.5500     0.0150   -55.9960     9.6680    10.0310    12.2820
 2280.0000     9.0120   135.8760     2.5540     0.0210   -55.9920     9.1790     9.6880     9.9390
 2280.5000     9.0290   132.8500     2.5380     0.0140   -56.1790     8.7330     9.3300     9.6810
 2281.0000     9.0450   129.1790     2.5450     0.0100   -56.3620     8.3830     8.9720     9.3130
 2281.5000     9.0620   125.4850     2.5560     0.0190   -56.5460     8.2790     8.5780     8.9410
 2282.0000     9.0780   121.8410     2.5680     0.0390   -56.7310     8.2050     8.4780     8.8560
 2282.5000     9.0930   119.7310     2.5790     0.0280   -56.9190     8.1320     8.3350     8.7940
 2283.0000     9.1410   122.5170     2.5860     0.0390   -57.0540     8.0590     8.1920     8.7380
 2283.5000     9.1440   125.9950     2.5590     0.0180   -57.2240     7.9850     8.0480     8.5910
 2284.0000     9.1500   129.5770     2.5370     0.0080   -57.3960     7.9120     7.9050     8.4570
 2284.5000     9.1550   130.5140     2.5480     0.0160   -57.5690     7.8390     7.7620     8.3240
 2285.0000     9.1610   130.5870     2.5680     0.0290   -57.7130     7.7650     7.6190     8.1900
 2285.5000     9.1660   130.7600     2.5590     0.0200   -57.5230     7.6920     7.4760     8.0430
 2286.0000     9.1710   131.1460     2.5500     0.0090   -57.3380     7.6110     7.4040     8.0430
 2286.5000     9.1770   131.8070     2.5550     0.0150   -57.1550     7.6690     7.5450     8.1690
 2287.0000     9.1820   132.9860     2.5590     0.0280   -56.9710     7.7520     7.7470     8.2830
 2287.5000     9.1870   134.4330     2.5500     0.0310   -56.7820     7.6470     7.9690     8.3970
 2288.0000     9.1930   134.8800     2.5440     0.0220   -56.7010     7.5410     7.8250     8.4830
 2288.5000     9.1980   131.7330     2.5350     0.0080   -56.6340     7.6210     7.6810     8.1170
 2289.0000     9.2030   128.6400     2.5360     0.0120   -56.5690     7.7090     7.7070     8.1930
 2289.5000     9.2090   125.5360     2.5330     0.0070   -56.6120     7.7980     7.7450     8.3200
 2290.0000     9.2140   122.6370     2.5370     0.0040   -56.7640     7.8240     7.7820     8.4370
 2290.5000     9.2190   123.6490     2.5510     0.0210   -56.9150     7.9080     7.8190     8.5530
 2291.0000     9.2250   124.8000     2.5540     0.0250   -57.0680     7.9300     7.8560     8.6580
 2291.5000     9.2300   125.5860     2.5730     0.0320   -57.2200     7.9530     7.8960     8.5660
 2292.0000     9.2350   122.0750     2.5760     0.0340   -57.3720     7.9750     7.8960     8.4360
 2292.5000     9.2380   118.6570     2.5540     0.0090   -57.5250     7.9970     7.9480     8.3450
 2293.0000     9.2160   121.8590     2.5480     0.0150   -57.6840     8.0200     8.0060     8.4480
 2293.5000     9.2170   125.0140     2.5400     0.0140   -57.6220     8.0420     8.0630     8.5270
 2294.0000     9.2170   132.8380     2.5320     0.0090   -57.4830     8.0650     8.1210     8.6060
 2294.5000     9.2160   135.2500     2.5250     0.0030   -57.3410     8.0870     8.1780     8.6860
 2295.0000     9.2150   134.1400     2.5330     0.0030   -57.1990     8.1100     8.2360     8.7650
 2295.5000     9.2150   132.8450     2.5500     0.0110   -57.0570     8.1320     8.2930     8.8440
 2296.0000     9.2140   134.7360     2.5670     0.0200   -56.9370     8.1540     8.3450     8.9000
 2296.5000     9.2140   137.4820     2.5740     0.0220   -57.0400     8.1770     8.1280     8.8270
 2297.0000     9.2130   140.2520     2.5540     0.0180   -57.1430     8.1930     7.9310     8.5830
 2297.5000     9.2130   143.0350     2.5390     0.0150   -57.2440     7.6850     7.7340     8.3390
 2298.0000     9.2120   145.8640     2.5410     0.0110   -57.3450     7.2940     7.5370     8.0960
 2298.5000     9.2120   143.8390     2.5450     0.0080   -57.4460     6.9030     7.3400     7.8520
 2299.0000     9.2110   140.1190     2.5480     0.0130   -57.5470     6.6300     7.2690     7.6810
 2299.5000     9.2100   138.3310     2.5470     0.0180   -57.6480     7.5970     7.0790     8.3450
 2300.0000     9.2100   142.0460     2.5420     0.0170   -57.7490     8.1170     6.9070     7.9910
 2300.5000     9.2090   146.0770     2.5360     0.0130   -57.8500     7.3750     6.7340     7.5980
 2301.0000     9.2090   143.4860     2.5310     0.0100   -57.9160     6.6300     6.5090     7.0060
 2301.5000     9.2080   140.0340     2.5250     0.0090   -57.7800     6.7280     6.7460     7.1080
 2302.0000     9.2080   134.7070     2.5300     0.0120   -57.6500     6.9420     7.0710     7.3360
 2302.5000     9.2070   127.3910     2.5480     0.0170   -57.5200     6.7500     6.7520     7.1580
 2303.0000     9.2070   120.0520     2.5660     0.0220   -57.3910     6.1590     6.5690     6.7530
 2303.5000     9.2060   112.5020     2.5830     0.0260   -57.2620     6.6560     6.9670     6.8840
 2304.0000     9.2050   116.2070     2.5970     0.0170   -57.1330     7.6770     7.2750     7.0750
 2304.5000     9.2050   116.5660     2.5670     0.0090   -57.0040     8.7420     7.5830     7.2660
 2305.0000     9.2040   116.2580     2.5420     0.0010   -56.8740     8.3100     7.7180     7.4040
 2305.5000     9.2040   116.2850     2.5480     0.0030   -56.7380     7.7340     7.7930     7.4740
 2306.0000     9.2030   117.5970     2.5360     0.0000   -56.6720     7.2020     7.8680     7.5530
 2306.5000     9.2030   118.8770     2.5440     0.0060   -56.6070     7.6000     7.9430     7.6320
 2307.0000     9.2020   120.1440     2.5550     0.0140   -56.5410     8.1900     8.0180     7.7120
 2307.5000     9.2020   121.3800     2.5360     0.0180   -56.4750     8.7380     8.1170     7.7910
 2308.0000     9.2010   122.5520     2.5460     0.0130   -56.4080     8.4120     8.0240     7.8700
 2308.5000     9.2010   124.0470     2.5410     0.0040   -56.3410     8.0370     7.8840     7.8960
 2309.0000     9.2000   125.5400     2.5380    -0.0050   -56.5030     7.6110     7.7520     8.0650
 2309.5000     9.1990   127.0270     2.5590    -0.0060   -56.6890     7.6810     7.8600     8.2240
 2310.0000     9.1990   128.4710     2.5700     0.0100   -56.8790     7.7860     7.9610     8.3820
 2310.5000     9.1980   130.5590     2.5590     0.0210   -56.9930     7.8910     8.1170     8.5000
 2311.0000     9.1960   131.6110     2.5480     0.0170   -57.0820     7.9690     8.0880     8.5000
 2311.5000     9.1910   127.7710     2.5420     0.0080   -57.0850     7.9690     8.0250     8.4060
 2312.0000     9.1860   123.8830     2.5360     0.0010   -56.9190     7.8320     7.9610     8.3460
 2312.5000     9.1810   120.4330     2.5370     0.0050   -56.7580     7.7010     7.8970     8.2860
 2313.0000     9.1760   120.0390     2.5270     0.0100   -56.5970     7.5710     7.8340     8.1930
 2313.5000     9.1710   119.8010     2.5240     0.0160   -56.4360     7.4720     7.8240     8.2850
 2314.0000     9.1660   119.5390     2.5570     0.0260   -56.2740     7.8660     8.0500     8.4930
 2314.5000     9.1610   119.2820     2.5530     0.0350   -56.1140     8.1820     8.2300     8.7000
 2315.0000     9.1570   119.0260     2.5440     0.0240   -55.9520     8.4220     8.4110     8.9080
 2315.5000     9.1520   118.7620     2.5350     0.0150   -55.7850     8.4220     8.5920     9.1150
