~VERSION INFORMATION
 VERS.                2.0:   CWLS LOG ASCII STANDARD - VERSION 2.0
 WRAP.                 NO:   ONE LINE PER DEPTH STEP
~WELL INFORMATION
#MNEM.UNIT      DATA TYPE    INFORMATION
#----------   ------------   ------------------------------
 STRT.F          514.0000:   START DEPTH
 STOP.F         4154.0000:   STOP DEPTH
 STEP.F            0.5000:   STEP LENGTH
 NULL.          -999.2500:   NO VALUE
 COMP.    FENIX & SCISSON:   COMPANY
 WELL.  FENIX "MX" #86-10:   WELL
 FLD .        TEAPOT DOME:   FIELD
 LOC .      S10 T38N R78W:   LOCATION
 CNTY.            NATRONA:   COUNTY
 STAT.            WYOMING:   STATE
 CTRY. UNITED STATES OF AMERICA:   COUNTRY
 SRVC.       SCHLUMBERGER:   SERVICE COMPANY
 DATE.        30-SEP-1978:   LOGDATE
 API .     49025107290000:   API NUMBER
~CURVE INFORMATION
#MNEM.UNIT       API CODE    CURVE DESCRIPTION
#----------   ------------   ------------------------------
 DEPT.F                  :   
 SPR .MV     07 010 01 00:   SPONTANEOUS POTENTIAL
 TENR.LBS    07 635 01 00:   TENSION FROM RESISTIVITY
 SFL .OHMM   07 220 01 00:   SHALLOW FOCUSED LOG RESISTIVITY
 ILM .OHMM   07 120 44 00:   INDUCTION LOG MEDIUM RESISTIVITY
 ILD .OHMM   07 120 46 00:   INDUCTION LOG DEEP RESISTIVITY
 CALD.IN     45 280 60 00:   CALIPER FROM DENSITY LOG
 GRD .GAPI   45 310 01 00:   GAMMA RAY FROM DENSITY LOG
 TEND.LBS    45 635 01 00:   TENSION FROM DENSITY LOG
 CORR.G/C3   45 356 01 00:   DENSITY CORRECTION
 RHOB.G/C3   45 350 01 00:   BULK DENSITY
 NPHI.DEC    42 890 03 00:   NEUTRON POROSITY SANDSTONE
~PARAMETER INFORMATION
#MNEM.UNIT          VALUE    DESCRIPTION
#----------   ------------   ------------------------------
 EKB .F         5233.0000:   Kelly bushing
 EGL .F         5222.0000:   Ground level
 EDF .F            0.0000:   Drilling floor
 TD  .F         4150.0000:   Total depth
 DATE.        30-SEP-1978:   Date logged
 CLNT.            A2DTECH:   Client Code
 SL  . 1450' FSL & 600' FEL:   Surface Location
 PD  .                 GL:   Permanent Datum
 LMF .                 KB:   Log Measured From
 DMF .                 KB:   Drilling Measured From
 DAPD.F                11:   Feet Above Permanent Datum
 DD  .F              4150:   Depth driller
 DL  .F              4141:   Depth logger
 BLI .F              4135:   Bottom log interval
 TLI .F               520:   Top log interval
 CS1 .IN            9.625:   Casing size
 CBD1.      9.625" @ 529':   Casing driller 1
 CBL1.F               529:   Casing logger 1
 BS1 .IN             8.75:   Bit size
 BSD1.F              4150:   Depth drilled with bit1
 DFT .                FGM:   Type fluid in hole
 DFD .                9.5:   Density
 DFV .                 36:   Viscosity
 DFPH.                 11:   pH
 DFL .                 60:   Fluid loss
 MSS .           MUD TANK:   Source of sample
 RMS .OHMM            .57:   Rm
 MST .F                68:   Rm Meas. temp.
 RMF .OHMM           .449:   Rmf
 MFST.F                68:   Rmf Meas. temp.
 MFSS.               MEAS:   Source Rmf.
 RMB .OHMM            .27:   Rm. at BHT
 BHT .F               142:   BHT.
 TCS .HRS            1500:   Time Circ. stopped
 TLAB.HRS            0700:   Time logger at bottom
 MRT .F               142:   Maximum recorded temp.
 LUN .               8043:   Logging unit number
 LUL .               CSPR:   Logging unit location
 ENGI.             LARSON:   Recorded By
 WITN.           DINSMORE:   Witnessed by
 ORIG.           5" PRINT:   Origin of data
 UWI .     49025107290000:   Unique Well ID
 DICO. A2D TECHNOLOGIES, INC.:   Digitizing Company
 EPD .               5222:   Elevation Permanent Datum
~OTHER INFORMATION
~A   DEPT      SPR       TENR        SFL        ILM        ILD       CALD         GRD      TEND       CORR       RHOB         NPHI 
# ...
 2679.5000   -24.1040   859.1470    12.4030    11.4250    15.1800    12.2080    73.0860  1063.9080     0.0360     2.4290     0.2410
 2680.0000   -24.0980   859.5530    12.0480    11.4080    15.1800    12.2390    72.5670  1063.6930     0.0380     2.4180     0.2400
 2680.5000   -24.1000   859.9590    11.9180    11.3910    15.1350    12.2680    69.2980  1063.4780     0.0360     2.3990     0.2380
 2681.0000   -24.1040   860.3650    11.8700    11.3740    15.0740    12.2980    66.3190  1063.2640     0.0300     2.3840     0.2330
 2681.5000   -24.1060   860.7710    11.8230    11.3560    15.0120    12.3280    63.2900  1063.0490     0.0270     2.3850     0.2270
 2682.0000   -24.0780   861.1780    11.7750    11.3380    14.9500    12.3580    63.3340  1062.8340     0.0270     2.3910     0.2230
 2682.5000   -24.3670   861.5840    11.7350    11.3150    14.8990    12.3870    67.1670  1062.6200     0.0280     2.3990     0.2240
 2683.0000   -24.9200   861.9900    11.7350    11.3870    14.7780    12.4200    70.5090  1062.4050     0.0290     2.4000     0.2250
 2683.5000   -25.4390   862.3960    11.7350    11.5730    14.6370    12.4200    73.4430  1062.1899     0.0300     2.4010     0.2260
 2684.0000   -25.9600   862.8020    11.7350    11.7350    14.8540    12.3900    73.9440  1061.9760     0.0270     2.4020     0.2270
 2684.5000   -26.1050   863.2080    11.3820    12.1250    15.2890    12.3650    74.7690  1061.7610     0.0250     2.4120     0.2300
 2685.0000   -26.0990   863.6140    11.0700    12.6460    15.7250    12.3380    76.5010  1061.5460     0.0230     2.4100     0.2330
 2685.5000   -26.0950   864.0200    10.9030    13.1670    16.1600    12.3040    78.3070  1061.3320     0.0220     2.4140     0.2270
 2686.0000   -26.0990   864.4270    12.0030    13.6880    16.5960    12.2740    77.4460  1061.1169     0.0240     2.4200     0.2100
 2686.5000   -26.0980   864.8330    13.0150    14.2080    16.9500    12.3100    76.8490  1060.9020     0.0350     2.4600     0.1840
 2687.0000   -26.0960   865.2390    14.3650    14.9030    16.8820    12.3410    77.2060  1060.6880     0.0470     2.5050     0.1770
 2687.5000   -26.0960   865.6450    14.1820    14.7050    16.7210    12.3740    77.3400  1060.4730     0.0640     2.5190     0.1850
 2688.0000   -26.0990   866.0510    13.5410    14.0070    16.5600    12.3930    74.8370  1060.2581     0.0560     2.5080     0.1990
 2688.5000   -26.0890   866.4570    12.8990    13.3100    16.3990    12.3910    73.9100  1060.0439     0.0420     2.4600     0.2140
 2689.0000   -26.0880   866.8630    12.2570    12.6120    15.9330    12.3910    75.1530  1059.8290     0.0320     2.4230     0.2190
 2689.5000   -25.7980   867.2700    11.6150    11.9150    15.2830    12.3950    76.3750  1059.6140     0.0260     2.3990     0.2230
 2690.0000   -25.4300   867.6760    10.9730    11.2170    14.6330    12.3990    77.7950  1059.4000     0.0360     2.4060     0.2270
 2690.5000   -25.3770   868.0820    10.6620    10.5200    13.9830    12.4030    77.8810  1059.1851     0.0510     2.4280     0.2300
 2691.0000   -25.5750   868.4880    10.5890    10.1300    13.3330    12.4070    77.7460  1058.9700     0.0600     2.4510     0.2330
 2691.5000   -25.7570   868.8940    10.5100    10.1300    12.6310    12.4110    78.1150  1058.7560     0.0590     2.4460     0.2360
 2692.0000   -25.9110   869.3000    10.5100    10.1300    12.7260    12.4160    78.5060  1058.5410     0.0510     2.4310     0.2430
 2692.5000   -26.0830   869.7060    10.5100    10.1300    12.8300    12.4200    78.8490  1058.3260     0.0390     2.4160     0.2480
 2693.0000   -25.9500   870.1120    10.5100    10.1300    12.9340    12.4240    78.8090  1058.1110     0.0260     2.4020     0.2500
 2693.5000   -25.7470   870.5190    10.5100    10.1300    13.0370    12.4280    77.3710  1057.8970     0.0210     2.3910     0.2530
 2694.0000   -26.0300   870.9250    10.5980    10.2310    13.1500    12.4400    76.0300  1057.6820     0.0220     2.3880     0.2510
 2694.5000   -26.3200   871.3310    10.8460    10.5120    13.2810    12.4690    74.6340  1057.4670     0.0240     2.3930     0.2470
 2695.0000   -26.5660   871.7370    11.0940    10.7940    13.4110    12.4970    74.7250  1057.2531     0.0250     2.4020     0.2410
 2695.5000   -26.8030   872.1430    11.3420    11.0750    13.5410    12.5260    76.3360  1057.0380     0.0250     2.4100     0.2350
 2696.0000   -26.7710   872.5490    11.7350    11.3570    13.6710    12.5540    78.6280  1056.8230     0.0210     2.4080     0.2260
 2696.5000   -26.4870   872.9550    11.7140    11.5220    13.8020    12.5820    79.7830  1056.6090     0.0180     2.4060     0.2150
 2697.0000   -26.2230   873.3610    11.6630    11.3840    13.9570    12.6070    82.8300  1056.3940     0.0220     2.4070     0.2060
 2697.5000   -25.9670   873.7680    11.6120    11.2510    14.1040    12.6320    81.6430  1056.1790     0.0300     2.4120     0.2100
 2698.0000   -25.7020   874.1740    11.5610    11.1180    13.9100    12.6550    79.9990  1055.9650     0.0340     2.4170     0.2170
 2698.5000   -25.4400   874.5800    11.4500    10.9850    13.7380    12.6750    78.3030  1055.7770     0.0360     2.4140     0.2230
 2699.0000   -25.1780   874.9860    11.1430    10.8520    13.5670    12.6580    78.6000  1055.7770     0.0360     2.4130     0.2250
 2699.5000   -24.9160   875.3920    10.8370    10.7190    13.3960    12.6220    79.1970  1055.7770     0.0360     2.4180     0.2330
 2700.0000   -24.6540   875.7980    10.7050    10.5860    13.2250    12.5860    76.4200  1055.7770     0.0360     2.4260     0.2410
 2700.5000   -24.3930   876.2040    10.7050    10.4920    13.0530    12.5530    71.1290  1055.7770     0.0410     2.4270     0.2480
 2701.0000   -24.1320   876.6110    10.7050    10.4500    12.8650    12.5160    69.4730  1055.7770     0.0340     2.4060     0.2350
 2701.5000   -23.8620   877.0170    10.5900    10.4080    12.8650    12.4740    69.4060  1055.7770     0.0210     2.3850     0.2230
 2702.0000   -23.6120   877.4230    10.5100    10.3660    12.8650    12.4280    71.1570  1055.7770     0.0160     2.3720     0.2110
 2702.5000   -23.3330   877.8290    10.5100    10.3180    12.8650    12.4660    75.5950  1055.7770     0.0140     2.3870     0.2060
 2703.0000   -23.2120   878.2350    10.5100    10.2670    12.8650    12.4990    76.5520  1055.7770     0.0260     2.4000     0.2080
 2703.5000   -22.9900   878.6410    10.5100    10.2070    12.8650    12.5330    75.5670  1055.7770     0.0360     2.4020     0.2100
 2704.0000   -22.9250   879.0470    10.5100    10.1460    12.8650    12.5780    74.8530  1055.7770     0.0350     2.4040     0.2130
 2704.5000   -23.3250   879.4530    10.5100    10.0860    12.7270    12.6310    74.4150  1055.7770     0.0340     2.4050     0.2130
 2705.0000   -23.6900   879.8600    10.5100    10.0250    12.5530    12.6840    76.5740  1055.7770     0.0330     2.4150     0.2140
 2705.5000   -24.2920   880.2660    10.5090     9.9650    12.3790    12.7360    78.8380  1055.7770     0.0320     2.4330     0.2160
 2706.0000   -24.9690   880.6720    10.5080     9.9040    12.2040    12.7890    81.2400  1055.7770     0.0360     2.4410     0.2220
 2706.5000   -25.6390   881.0780    10.5100     9.8440    12.0300    12.8430    83.5350  1055.7770     0.0410     2.4490     0.2280
 2707.0000   -26.3110   881.4840    10.5100     9.7840    11.8560    12.8910    85.8600  1055.7770     0.0480     2.4490     0.2330
 2707.5000   -26.9830   881.8900    10.4880     9.7650    11.7350    12.9500    88.3950  1055.7770     0.0500     2.4440     0.2360
 2708.0000   -27.5610   882.2960    10.4160     9.7650    11.7350    12.8810    89.2150  1055.7770     0.0330     2.4340     0.2360
 2708.5000   -28.0570   882.7020    10.3180     9.8580    11.7350    12.7920    87.6950  1055.7770     0.0190     2.4230     0.2290
 2709.0000   -28.5560   883.1090    10.6610     9.9390    11.7350    12.6980    87.2860  1055.7770     0.0140     2.4250     0.2220
 2709.5000   -29.0530   883.5150    11.2010    10.0190    11.8500    12.6800    87.9320  1055.7770     0.0180     2.4310     0.2160
