~VERSION INFORMATION
 VERS.                2.0:   CWLS LOG ASCII STANDARD - VERSION 2.0
 WRAP.                 NO:   ONE LINE PER DEPTH STEP
~WELL INFORMATION
#MNEM.UNIT      DATA TYPE    INFORMATION
#----------   ------------   ------------------------------
 STRT.F           10.0000:   START DEPTH
 STOP.F         3234.0000:   STOP DEPTH
 STEP.F            0.5000:   STEP LENGTH
 NULL.          -999.2500:   NO VALUE
 COMP. LAWRENCE ALLISON & ASSOSCIATES:   COMPANY
 WELL. 		  38-X-10:   WELL
 FLD .             NPR #3:   FIELD
 LOC .      S10 T38N R78W:   LOCATION
 CNTY.            NATRONA:   COUNTY
 STAT.            WYOMING:   STATE
 CTRY. UNITED STATES OF AMERICA:   COUNTRY
 SRVC.      DRESSER ATLAS:   SERVICE COMPANY
 DATE.        02-AUG-1986:   LOGDATE
 API .       490251120600:   API NUMBER
~CURVE INFORMATION
#MNEM.UNIT       API CODE    CURVE DESCRIPTION
#----------   ------------   ------------------------------
 DEPT.F                  :   
 GRR .GAPI   07 310 01 00:   GAMMA RAY FROM RESISTIVITY
 SPR .MV     07 010 01 00:   SPONTANEOUS POTENTIAL
 TENR.LBS    07 635 01 00:   TENSION FROM RESISTIVITY
 RILM.OHMM   07 120 44 00:   RESISTIVITY INDUCTION LOG MEDIUM
 CNC .DEC    42 890 03 00:   NEUTRON POROSITY SANDSTONE
 CALD.IN     45 280 60 00:   CALIPER FROM DENSITY LOG
 GRD .GAPI   45 310 01 00:   GAMMA RAY FROM DENSITY LOG
 RHOB.G/C3   45 350 01 00:   BULK DENSITY
 TEND.LBS    45 635 01 00:   TENSION FORM DENSITY LOG
 CORR.G/C3   45 356 01 00:   DENSITY CORRECTION
 RILD.OHMM   07 120 46 00:   RESISTIVITY INDUCTION LOG DEEP
 RFOC.OHMM   07 220 04 00:   RESISTIVITY FOCUSED
~PARAMETER INFORMATION
#MNEM.UNIT          VALUE    DESCRIPTION
#----------   ------------   ------------------------------
 EKB .F         5224.0000:   Kelly bushing
 EGL .F         5212.0000:   Ground level
 EDF .F            0.0000:   Drilling floor
 TD  .F         3231.0000:   Total depth
 CLNT.            A2DTECH:   Client Code
 SL  . 296' FSL & 1435' FWL:   Surface Location
 PD  .                 GL:   Permanent Datum
 EPD .F              5212:   Elevation Permanent Datum
 LMF .                 KB:   Log Measured From
 DMF .                 KB:   Drilling Measured From
 DAPD.F                12:   Feet Above Permanent Datum
 DATE.        02-AUG-1986:   Date Logged [DD-MMM-YYYY]
 DD  .F              3230:   Depth driller
 DL  .F              3231:   Depth logger
 BLI .F              3229:   Bottom log interval
 TLI .F                11:   Top log interval
 CS1 .IN            8.625:   Casing size
 CBD1.      8.625" @ 626':   Casing driller 1
 CBL1.F               626:   Casing logger 1
 BS1 .IN            7.875:   Bit size
 BSD1.F              3230:   Depth drilled with bit1
 DFT .            KCL-GEL:   Type fluid in hole
 DFD .                  9:   Density
 DFV .                 36:   Viscosity
 DFPH.               10.5:   pH
 DFL .                 12:   Fluid loss
 MSS .           FLOWLINE:   Source of sample
 RMS .OHMM          0.263:   Rm
 MST .F               100:   Rm Meas. temp.
 RMF .OHMM          0.197:   Rmf
 MFST.F               100:   Rmf Meas. temp.
 MFSS.               MEAS:   Source Rmf.
 RMC .OHMM          0.329:   Rmc
 MCST.F               100:   Rmc Meas. temp.
 MCSS.               CALC:   Source Rmc.
 RMB .OHMM          0.193:   Rm. at BHT
 BHT .F               136:   BHT.
 TCS .HRS               5:   Time Circ. stopped
 MRT .F               136:   Maximum recorded temp.
 LUN .            HL-6274:   Logging unit number
 LUL .           GILLETTE:   Logging unit location
 ENGI.            PANASUK:   Recorded By
 WITN.             STRONG:   Witnessed by
 ORIG.        2" 5" PRINT:   Origin of data
 UWI .       490251120600:   Unique Well ID
 DICO. A2D TECHNOLOGIES, INC.:   Digitizing Company
~OTHER INFORMATION
~A   DEPT       GRR       SPR       TENR       RILM        CNC       CALD        GRD       RHOB       TEND       CORR       RILD       RFOC   
# ...
 3062.0000   121.6726   -31.5881   -32.7869     5.5842     0.2349    10.0309   120.8215     2.5108     4.2106    -0.0155     5.5055     5.9144
 3062.5000   122.2729   -32.3485   -25.2885     5.7422     0.2380    10.0166   120.5126     2.5047    11.6867    -0.0185     5.7015     5.9554
 3063.0000   122.5686   -32.8061   -17.8263     5.8638     0.2401    10.0156   121.7134     2.5123    11.5964    -0.0185     5.7824     6.0810
 3063.5000   125.2900   -32.9612    -9.7641     5.9534     0.2382    10.0148   125.0679     2.5229    19.0367    -0.0140     5.9054     6.2962
 3064.0000   128.3145   -32.8126     4.6690     6.0724     0.2385    10.0139   128.9402     2.5297    18.9646    -0.0018     5.9893     6.6144
 3064.5000   131.6420   -32.6640     4.5964     6.1153     0.2388    10.0130   133.4592     2.5320    33.9528    -0.0003     6.0320     6.9408
 3065.0000   134.9696   -32.5146    12.0949     6.1584     0.2391    10.0121   135.8667     2.5138    41.4289     0.0337     6.1176     7.0870
 3065.5000   136.1948   -32.3667    19.5752     6.2018     0.2382    10.0112   134.6542     2.5025    41.3388     0.0617     6.1612     7.0865
 3066.0000   135.5625   -32.2182    19.4845     6.2456     0.2340    10.0102   134.0451     2.5116    33.7349     0.0270     6.1620     7.4404
 3066.5000   135.5567   -32.2218    19.4109     6.2460     0.2326    10.0093   134.7135     2.5275    25.0999    -0.0214     6.1628     7.8667
 3067.0000   137.0660   -32.2247    19.3212     6.2465     0.2421    10.0085   137.0501     2.5328    18.5142    -0.0229     6.1208     7.6434
 3067.5000   137.6677   -32.3792     4.1429     6.2469     0.2545    10.0076   135.2329     2.5290    10.9121    -0.0017     6.1219     7.1839
 3068.0000   134.3271   -32.3821   -11.0354     6.1610     0.2557    10.0067   133.4171     2.5298    10.8400     0.0080     6.0799     6.7937
 3068.5000   134.3212   -32.5365   -26.2137     6.1614     0.2548    10.0056   133.4113     2.5313    10.7680     0.0134     6.0385     6.5150
 3069.0000   134.9201   -32.5394   -11.1806     6.1618     0.2545    10.0048   134.6121     2.5333    40.7983    -0.0002     6.1243     6.6060
 3069.5000   134.9142   -32.5424    27.3412     6.2487     0.2519    10.0039   134.6063     2.5358    78.3769    -0.0032     6.2127     6.8419
 3070.0000   133.0902   -32.5460    94.4145     6.3810     0.2399    10.0030   132.0659     2.5381    55.7145    -0.0077     6.3879     7.1814
 3070.5000   129.1450   -32.5489    18.7951     6.5616     0.2369    10.0020   126.1468     2.5381    17.9918    -0.0138     6.6154     7.5928
 3071.0000   123.9877   -32.5518   -26.5947     6.7474     0.2378    10.0012   120.4094     2.5377    -4.6706    -0.0183     6.7561     8.0279
 3071.5000   120.3307   -32.5547   -34.2020     6.9384     0.2402    10.0002   119.1970     2.5382   -12.2741    -0.0213     6.8519     8.6070
 3072.0000   121.2473   -32.4061   -26.7372     7.0361     0.2414    10.0145   118.8910     2.5404    -4.8327    -0.0092     6.8528     8.9117
 3072.5000   123.9688   -32.2575   -19.2595     7.0366     0.2393    10.0064   120.6937     2.5427     2.6433     0.0014     6.8537     8.4218
 3073.0000   125.1750   -32.2612   -18.8799     7.0372     0.2369     9.9976   123.1329     2.5427     2.5533    -0.0001     6.9511     8.1383
 3073.5000   125.7753   -32.4149    -4.3171     7.0868     0.2365    10.0116   125.2055     2.5382     2.4812    -0.0097     7.0007     8.0250
 3074.0000   126.3758   -31.9640    -4.3896     7.0873     0.2390    10.0108   125.1997     2.5359     2.4092    -0.0288     7.1000     8.0245
 3074.5000   126.3691   -31.6639    -4.4622     7.1373     0.2399    10.0099   124.8922     2.5282     2.3343    -0.0303     7.2006     8.0240
 3075.0000   125.7071   -31.6668    -4.5347     7.2378     0.2386    10.0090   125.1895     2.5261     2.2470    -0.0136     7.3538     7.9677
 3075.5000   125.1445   -31.6697    -4.6073     7.3997     0.2392     9.9929   124.5789     2.5269    -5.3464     0.0061     7.4581     7.9670
 3076.0000   126.3508   -31.8241   -12.2357     7.3404     0.2429     9.9314   124.8748     2.5261    -5.4217     0.0366     7.3558     7.9665
 3076.5000   125.1328   -31.6755   -27.4292     7.0898     0.2413     9.8852   124.2275     2.5193   -13.0294     0.0636     7.1547     7.9660
 3077.0000   124.2179   -31.3294   -42.6075     6.9921     0.2380     9.8087   123.9582     2.5087   -13.1024     0.0560     6.9588     8.0212
 3077.5000   125.7272   -30.7730   -57.7858     6.9442     0.2374     9.7624   125.1575     2.5110   -13.1915     0.0243     6.8634     8.0768
 3078.0000   127.5837   -30.4722   -35.1816     6.9932     0.2362     9.7464   126.9612     2.5171   -13.2636    -0.0090     6.9607     8.0762
 3078.5000   128.1398   -30.3242   -27.7190     7.1413     0.2328     9.7455   125.4471     2.5216   -13.3356    -0.0226     7.0103     8.0194
 3079.0000   125.4053   -30.4788   -20.2391     7.1917     0.2280     9.7445   123.9330     2.5254    -5.8596    -0.0207     7.0604     8.0750
 3079.5000   123.5813   -30.4824    -5.2241     7.1922     0.2243     9.7436   122.4189     2.5269    -5.9488    -0.0105     7.0615     8.1880
 3080.0000   121.7573   -30.6361     2.2743     7.1927     0.2228     9.7427   119.9998     2.5261    -6.0241     0.0017     7.0625     8.3023
 3080.5000   122.3575   -30.4875     2.1836     7.1432     0.2291     9.7419   123.6384     2.5216    -6.1118     0.0077     7.0634     8.3598
 3081.0000   125.1934   -30.4369     2.1110     7.1437     0.2361     9.7410   127.2265     2.5186    -6.1747     0.0093     7.0644     8.4177
 3081.5000   129.3141   -30.0395    -5.5144     7.1442     0.2376     9.7704   130.5390     2.5171    -6.2500    -0.0089     7.0653     8.3585
 3082.0000   133.5507   -29.8869   -20.6949     7.1947     0.2379     9.7693   134.4547     2.5149    -6.3280    -0.0210     7.0663     8.0716
 3082.5000   135.9706   -29.7423   -28.3363     7.1452     0.2379     9.7533   135.0537     2.5141   -14.0127    -0.0225     7.0181     7.7946
 3083.0000   131.4179   -29.8975   -28.4088     7.0961     0.2361     9.7373   129.9182     2.5172   -21.5503    -0.0119     6.9703     7.9588
 3083.5000   129.2908   -29.9004   -28.4814     6.9984     0.2315     9.7213   125.9909     2.5209   -21.6114    -0.0058     6.8271     7.9583
 3084.0000   128.3759   -29.9033   -28.5540     6.9022     0.2254     9.7053   127.2196     2.5247   -21.6944    -0.0043     6.8280     7.9576
 3084.5000   128.6731   -29.6032   -28.6265     6.9510     0.2215     9.6848   128.3925     2.5217   -21.7665    -0.0090     6.8290     7.9571
 3085.0000   127.7568   -29.3031   -28.7009     7.0982     0.2221     9.6731   125.3687     2.5202   -14.3072    -0.0254     7.0329     7.9565
 3085.5000   126.5388   -28.9843   -28.7898     7.2485     0.2280     9.6571   125.0612     2.5247   -14.3825    -0.0330     7.4271     7.9560
 3086.0000   126.2299   -28.8543   -28.8624     7.4020     0.2354     9.6562   125.9618     2.5293    -6.9224    -0.0329     7.7455     8.0111
 3086.5000   126.2241   -29.0095   -21.3639     7.5587     0.2342     9.6553   125.3512     2.5248    -7.0030    -0.0329     8.1340     8.3112
 3087.0000   122.0145   -29.0124   -21.4546     7.7726     0.2324     9.6545   122.3074     2.5195    -7.0845    -0.0329     8.7225     8.9552
 3087.5000   106.8171   -28.7123   -13.9743     8.0020     0.2278     9.6534   110.4088     2.5036    -7.1566    -0.0147     9.2886    10.0114
 3088.0000    96.2052   -28.1092    -6.4940     8.2191     0.2238     9.6071    91.8482     2.4885     0.3014    -0.0041     9.6921    11.2705
 3088.5000    89.5327   -27.7993    -6.5847     8.5108     0.2305     9.5306    87.6191     2.4703     0.2114     0.0034     9.8244    10.9598
 3089.0000    92.8602   -27.0551     0.9137     8.7517     0.2426     9.4239    91.2332     2.4454     7.6874     0.0201     9.4231     9.6562
 3089.5000    97.0968   -26.6028     0.8230     9.1256     0.2472     9.2263    96.9590     2.4272    15.1455     0.0458     8.6680     8.7059
