~VERSION INFORMATION
 VERS.                2.0:   CWLS LOG ASCII STANDARD - VERSION 2.0
 WRAP.                 NO:   ONE LINE PER DEPTH STEP
~WELL INFORMATION
#MNEM.UNIT      DATA TYPE    INFORMATION
#----------   ------------   ------------------------------
 STRT.F          404.0000:   START DEPTH
 STOP.F         2919.0000:   STOP DEPTH
 STEP.F            0.5000:   STEP LENGTH
 NULL.          -999.2500:   NO VALUE
 COMP.    FENIX & SCISSON:   COMPANY
 WELL. FENIX & SCISSON "AX" #27-21:   WELL
 FLD .             NPR #3:   FIELD
 LOC .      S21 T39N R78W:   LOCATION
 CNTY.            NATRONA:   COUNTY
 STAT.            WYOMING:   STATE
 CTRY. UNITED STATES OF AMERICA:   COUNTRY
 SRVC.       SCHLUMBERGER:   SERVICE COMPANY
 DATE.        21-APR-1977:   LOGDATE
 API .     49025103730000:   API NUMBER
~CURVE INFORMATION
#MNEM.UNIT       API CODE    CURVE DESCRIPTION
#----------   ------------   ------------------------------
 DEPT.F                  :   
 SPR .MV     07 010 01 00:   SPONTANEOUS POTENTIAL
 ILM .OHMM   07 120 44 00:   INDUCTION LOG MEDIUM RESISTIVITY
 ILD .OHMM   07 120 46 00:   DEEP INDUCTION RESISTIVITY
 LL8 .OHMM   07 220 08 00:   LATEROLOG-8 RES.
 GRN .GAPI   35 310 01 00:   GAMMA RAY
 CALD.IN     45 280 60 00:   CALIPER FROM DENSITY LOG
 GRD .GAPI   45 310 01 00:   GAMMA RAY FROM DENSITY LOG
 CORR.G/C3   45 356 01 00:   DENSITY CORRECTION
 RHOB.G/C3   45 350 01 00:   BULK DENSITY
~PARAMETER INFORMATION
#MNEM.UNIT          VALUE    DESCRIPTION
#----------   ------------   ------------------------------
 EKB .F         5004.0000:   Kelly bushing
 EGL .F         4994.0000:   Ground level
 TD  .F         2920.0000:   Total depth
 CLNT.            A2DTECH:   Client Code
 SL  . 991' FWL & 1090' FSL:   Surface Location
 DATE.        21-APR-1977:   Date Logged [DD-MMM-YYYY]
 DD  .F              2920:   Depth driller
 DL  .F              2920:   Depth logger
 BLI .F              2914:   Bottom log interval
 TLI .F               419:   Top log interval
 CS1 .              8.625:   Casing size
 CBD1.      8.625" @ 425':   Casing driller 1
 CBL1.IN              419:   Casing logger 1
 BS1 .IN            7.875:   Bit size
 BSD1.F              2920:   Depth drilled with bit1
 DFT .                FGM:   Type fluid in hole
 DFD .                9.0:   Density
 DFV .                 34:   Viscosity
 DFPH.                8.0:   pH
 DFL .                8.0:   Fluid loss
 MSS .                PIT:   Source of sample
 RMS .OHMM          0.158:   Rm
 MST .F                72:   Rm Meas. temp.
 RMF .OHMM          0.158:   Rmf
 MFST.F                72:   Rmf Meas. temp.
 MFSS.               MEAS:   Source Rmf.
 RMB .OHMM          0.102:   Rm. at BHT
 BHT .F               112:   BHT.
 TCS .HRS            0500:   Time Circ. stopped
 TLAB.HRS            0700:   Time logger at bottom
 MRT .F               112:   Maximum recorded temp.
 LUN .               5642:   Logging unit number
 LUL .               CSPR:   Logging unit location
 ENGI.             TAYLOR:   Recorded By
 WITN.          PETTINGIL:   Witnessed by
 ORIG.      2.5" 5" PRINT:   Origin of data
 UWI .     49025103730000:   Unique Well ID
 DICO. A2D TECHNOLOGIES, INC.:   Digitizing Company
 PD  .                 GL:   Permanent Datum
 EPD .F              4994:   Elevation Permanent Datum
 LMF .                 KB:   Log Measured From
 DMF .                 KB:   Drilling Measured From
 DAPD.F                10:   Feet Above Permanent Datum
~OTHER INFORMATION
~A   DEPT      SPR        ILM        ILD        LL8        GRN       CALD         GRD      CORR       RHOB   
# ...
 2229.0000   -65.6008     7.7187     6.4930     8.2278   156.7805     8.9214    83.9852     0.0446     2.5772
 2229.5000   -65.5979     7.6388     6.7683     8.6955   150.9799     8.9221    83.6069     0.0385     2.5847
 2230.0000   -65.2973     7.6156     6.8638     9.0639   148.0990     8.9525    77.7648     0.0216     2.5772
 2230.5000   -64.4014     7.5364     7.0571     9.0652   144.9890     8.9533    69.5545     0.0382     2.5788
 2231.0000   -64.3985     7.5139     7.1567     8.5800   138.5158     8.9540    66.2847     0.0352     2.5863
 2231.5000   -64.0979     7.4123     6.8695     8.3477   137.6407     8.9547    65.0445     0.0157     2.5713
 2232.0000   -64.0949     7.1135     6.5037     8.1218   142.1613     8.9851    71.8965     0.0097     2.5534
 2232.5000   -64.3895     6.8060     6.2427     7.9020   143.5356     8.9859    76.6873     0.0157     2.5459
 2233.0000   -64.3866     6.4622     6.0751     7.6881   141.0983     8.9866    79.6172     0.0128     2.5399
 2233.5000   -64.3836     6.2687     5.9119     7.5839   136.8672     8.9873    79.5272     0.0023     2.5369
 2234.0000   -64.3806     6.0523     5.8326     7.2776   140.7079     8.9881    79.3394     0.0173     2.5505
 2234.5000   -64.3777     6.0532     5.8344     7.1789   141.1781     8.9889    80.3820     0.0489     2.5564
 2235.0000   -64.3747     6.1380     5.8360     7.0816   137.8512     8.9946    81.8497     0.0489     2.5443
 2235.5000   -64.6696     6.1388     5.8376     6.9856   137.8802     9.0201    82.0410     0.0459     2.5430
 2236.0000   -65.5592     6.2248     5.9201     7.1819   139.0303     9.0208    81.0406     0.0309     2.5429
 2236.5000   -66.1515     6.2256     5.9217     7.8024   137.2680     9.0215    80.0290     0.0204     2.5364
 2237.0000   -66.4464     6.2265     5.9233     8.1330   132.8127     9.0223    78.1529     0.0129     2.5264
 2237.5000   -66.7411     6.2274     5.8441     7.6977   128.3575     9.0230    75.0373     0.0100     2.5285
 2238.0000   -66.7378     6.2282     5.8457     7.2856   121.6600     9.0237    71.0225     0.0070     2.5328
 2238.5000   -66.7348     6.2116     5.7674     6.9914   118.3258     9.0245    69.3457     0.0160     2.5356
 2239.0000   -66.1366     6.0438     5.6126     6.7090   116.5611     9.0252    69.9496     0.0235     2.5291
 2239.5000   -65.8360     5.8002     5.4619     6.3499   120.1776     9.0556    70.2675     0.0239     2.5221
 2240.0000   -65.8330     5.7219     5.2426     6.1780   125.5878     9.0564    75.8659     0.0221     2.5243
 2240.5000   -65.8301     5.5524     5.1019     6.0943   122.2536     9.0868    78.5861     0.0221     2.5295
 2241.0000   -66.1247     5.4171     4.8971     6.0951   119.8163     9.0875    78.1325     0.0296     2.5394
 2241.5000   -66.4196     5.1987     4.7005     6.0960   122.0874     9.1180    77.2481     0.0372     2.5469
 2242.0000   -66.4164     5.0452     4.5743     6.0968   127.0492     9.1187    75.5396     0.0387     2.5507
 2242.5000   -66.7113     4.7756     4.3907     6.0976   130.8899     9.1195    72.6949     0.0297     2.5420
 2243.0000   -66.4104     4.5951     4.2145     6.0985   134.0579     9.1202    72.4065     0.0177     2.5312
 2243.5000   -66.4075     4.4099     4.0453     6.0993   136.1049     9.1209    73.0123     0.0102     2.5136
 2244.0000   -66.4045     4.2321     3.9367     6.0166   136.3581     9.1217    74.2095     0.0072     2.5018
 2244.5000   -66.9967     4.1076     3.7787     5.3890   138.8273     9.1224    75.4067     0.0148     2.4998
 2245.0000   -67.8866     3.9518     3.6772     4.6313   144.1480     9.1231    79.5713     0.0298     2.5124
 2245.5000   -68.1813     3.9081     3.5785     4.3234   145.9001     9.1239    86.4066     0.0463     2.5095
 2246.0000   -68.7735     3.8552     3.5795     4.2647   148.1358     9.1246    85.8235     0.0495     2.4923
 2246.5000   -69.0682     3.9093     3.5804     4.6332   153.7703     9.1254    81.3827     0.0104     2.4789
 2247.0000   -69.0652     3.9193     3.6310     4.9646   152.9024     9.1261    79.9093     0.0149     2.5124
 2247.5000   -69.0622     4.0292     3.6823     5.1749   147.3261     9.1268    79.0295     0.0284     2.5327
 2248.0000   -69.0593     4.1323     3.7859     5.1048   147.8035     9.1277    78.4463     0.0299     2.5266
 2248.5000   -68.1634     4.2001     3.8394     4.7654   150.5231     9.1285    79.0501     0.0210     2.5090
 2249.0000   -67.8628     4.3178     3.9475     4.5729   150.3279     9.1292    81.4343     0.0135     2.5117
 2249.5000   -67.8599     4.3781     4.0587     4.4491   149.0117     9.1300    84.1152     0.0150     2.5157
 2250.0000   -67.2617     4.5009     4.1729     4.8335   147.8657     9.1307    87.0929     0.0195     2.5090
 2250.5000   -67.2587     4.6165     4.2319     5.8635   147.3028     9.1314    89.1803     0.0286     2.5166
 2251.0000   -67.2557     4.6276     4.3510     6.1119   145.9791     9.1322    88.3004     0.0301     2.5256
 2251.5000   -66.9551     4.6924     4.4125     6.0291   143.3265     9.1329    85.6401     0.0239     2.5285
 2252.0000   -66.6545     4.8132     4.4748     5.9473   139.7770     9.1336    83.5733     0.0106     2.5161
 2252.5000   -66.3539     4.8806     4.4760     5.9482   136.4517     9.1640    80.3195     0.0228     2.5227
 2253.0000   -66.3510     4.8918     4.5392     5.9490   134.2475     9.1648    79.4395     0.0289     2.5285
 2253.5000   -66.6458     5.0290     4.5405     5.8683   132.2675     9.1655    84.1977     0.0317     2.5166
 2254.0000   -66.9404     5.1590     4.6683     5.8691   129.3907     9.1662    87.7688     0.0266     2.5226
 2254.5000   -67.5325     5.2313     4.7342     5.9515   127.8592     9.1670    88.6693     0.0134     2.5211
 2255.0000   -67.8272     5.3893     4.8011     5.8708   130.8119     9.1677    86.6025     0.0107     2.5091
 2255.5000   -67.8242     5.4646     4.9362     6.2045   135.5584     9.1387    84.2389     0.0126     2.5151
 2256.0000   -67.8212     5.6957     5.0752     6.5572   138.0627     9.1098    85.7481     0.0168     2.5107
 2256.5000   -67.8182     5.8671     5.2181     6.9300   140.5670     9.1106    87.2269     0.0168     2.5032
 2257.0000   -67.8153     6.1030     5.4393     7.3239   142.8472     9.0816    85.7408     0.0151     2.5077
 2257.5000   -67.8123     6.2740     5.5925     7.6343   144.6788     9.0824    85.1534     0.0138     2.5212
 2258.0000   -67.5117     6.4375     5.7500     7.9578   145.6042     9.0831    84.8839     0.0204     2.5317
 2258.5000   -67.2111     6.5401     5.9119     8.1814   142.7273     9.0838    87.2685     0.0284     2.5407
 2259.0000   -66.9105     6.7235     5.9953     8.0705   144.3443     9.0846    86.6242     0.0364     2.5377
 2259.5000   -66.6099     6.8047     6.0800     7.7445   144.6065     9.0853    85.8050     0.0318     2.5272
 2260.0000   -66.6069     6.8057     6.1659     7.6395   135.4516     9.0861    86.1522     0.0191     2.5183
 2260.5000   -66.6040     6.9010     6.1675     7.7466   134.1348     9.0868    87.4423     0.0155     2.5138
 2261.0000   -66.3034     7.0102     6.1692     7.9643   137.0970     9.0875    91.0694     0.0237     2.5303
 2261.5000   -66.3004     7.1082     6.2564     8.1881   140.9466     9.0883    95.4484     0.0301     2.5355
 2262.0000   -66.2974     7.1949     6.2581     8.3030   143.4510     9.0890    95.6489     0.0336     2.5363
 2262.5000   -66.2945     7.3084     6.2598     8.4194   146.1795     9.0897    93.6324     0.0317     2.5348
 2263.0000   -66.5891     7.5004     6.2615     8.3053   149.8049     9.0905    91.9109     0.0272     2.5273
 2263.5000   -66.8837     7.6054     6.1777     7.9698   152.3092     9.0912    90.8625     0.0242     2.5423
 2264.0000   -66.8808     7.7247     6.2650     7.8618   150.3293     9.0920    90.0521     0.0212     2.5363
 2264.5000   -66.8778     7.9412     6.6209     8.6596   148.7547     9.0927    92.0832     0.0183     2.5274
 2265.0000   -66.5772     8.0393     6.9971     9.4077   151.5262     9.0935    94.0556     0.0222     2.5291
