~VERSION INFORMATION
 VERS.                2.0:   CWLS LOG ASCII STANDARD - VERSION 2.0
 WRAP.                 NO:   ONE LINE PER DEPTH STEP
~WELL INFORMATION
#MNEM.UNIT      DATA TYPE    INFORMATION
#----------   ------------   ------------------------------
 STRT.F          200.0000:   START DEPTH
 STOP.F         3000.0000:   STOP DEPTH
 STEP.F            0.5000:   STEP LENGTH
 NULL.          -999.2500:   NO VALUE
 COMP.    FENIX & SCISSON:   COMPANY
 WELL.   FENIX "A" #65-28:   WELL
 FLD .              NPR 3:   FIELD
 LOC .      S28 T39N R78W:   LOCATION
 CNTY.            NATRONA:   COUNTY
 STAT.            WYOMING:   STATE
 CTRY. UNITED STATES OF AMERICA:   COUNTRY
 SRVC.              WELEX:   SERVICE COMPANY
 DATE.        25-JUL-1977:   LOGDATE
 API .     49025104010000:   API NUMBER
~CURVE INFORMATION
#MNEM.UNIT       API CODE    CURVE DESCRIPTION
#----------   ------------   ------------------------------
 DEPT.F                  :   
 GRD .GAPI   45 310 01 00:   GAMMA RAY FROM DENSITY LOG
 CALD.IN     45 280 60 00:   CALIPER FROM DENSITY LOG
 RHOB.G/C3   45 350 01 00:   BULK DENSITY
 DCOR.G/C3   45 356 01 00:   DENSITY CORRECTION
 SPR .MV     07 010 01 00:   SPONTANEOUS POTENTIAL
 RILM.OHMM   07 120 44 00:   INDUCTION LOG MEDIUM RESISTIVITY
 RILD.OHMM   07 120 46 00:   DEEP INDUCTION RESISTIVITY
 SGRD.OHMM   07 220 05 00:   SHALLOW GUARD
~PARAMETER INFORMATION
#MNEM.UNIT          VALUE    DESCRIPTION
#----------   ------------   ------------------------------
 EKB .F         5069.0000:   Kelly bushing
 EGL .F         5059.0000:   Ground level
 EDF .F            0.0000:   Drilling floor
 TD  .F         3006.0000:   Total depth
 DATE.        25-JUL-1977:   Date logged
 CLNT.            A2DTECH:   Client Code
 SL  . 2310' FSL & 1650' FEL:   Surface Location
 PD  .                 GL:   Permanent Datum
 EPD .F              5059:   Elevation Permanent Datum
 LMF .                 KB:   Log Measured From
 DMF .                 KB:   Drilling Measured From
 DAPD.F                10:   Feet Above Permanent Datum
 DD  .F              3006:   Depth driller
 DL  .F              3006:   Depth logger
 BLI .F              3004:   Bottom log interval
 TLI .F               200:   Top log interval
 CS1 .IN            8.625:   Casing size
 CBD1.      8.625" @ 205':   Casing driller 1
 CBL1.F               220:   Casing logger 1
 BS1 .IN            7.875:   Bit size
 BSD1.F              3006:   Depth drilled with bit1
 DFT .            KCL MUD:   Type fluid in hole
 DFD .                8.9:   Density
 DFV .                 39:   Viscosity
 DFPH.                7.5:   pH
 DFL .                7.2:   Fluid loss
 MSS .           FLOWLINE:   Source of sample
 RMS .OHMM           0.29:   Rm
 MST .F                78:   Rm Meas. temp.
 RMF .OHMM           0.19:   Rmf
 MFST.F                78:   Rmf Meas. temp.
 RMC .OHMM           0.80:   Rmc
 MCST.F                78:   Rmc Meas. temp.
 MFSS.               FANN:   Source Rmf.
 MCSS.                KIT:   Source Rmc.
 RMB .OHMM           0.20:   Rm. at BHT
 BHT .F               113:   BHT.
 TCS .HRS               3:   Time Circ. stopped
 MRT .F               113:   Maximum recorded temp.
 LUN .               8766:   Logging unit number
 LUL .             CASPER:   Logging unit location
 ENGI.         G. BENTSEN:   Recorded By
 WITN.      B. HARRINGTON:   Witnessed by
 ORIG.           5" PRINT:   Origin of data
 UWI .     49025104010000:   Unique Well ID
 DICO. A2D TECHNOLOGIES, INC.:   Digitizing Company
~OTHER INFORMATION
~A   DEPT       GRD        CALD       RHOB      DCOR       SPR       RILM         RILD       SGRD 
# ...
 1658.0000   139.9720     9.9370     2.5570     0.0440   -41.4720     8.4970     6.9790     9.8100
 1658.5000   137.7030     9.9150     2.5520     0.0420   -41.3980     8.2590     7.0130     9.6590
 1659.0000   136.2040     9.8940     2.5490     0.0430   -41.3250     7.9740     7.0470     9.6790
 1659.5000   139.6950     9.8720     2.5540     0.0450   -41.2530     7.6130     7.0800     9.7120
 1660.0000   142.6960     9.8620     2.5600     0.0460   -41.1800     7.4660     7.1140     9.7450
 1660.5000   139.5450     9.9140     2.5650     0.0480   -41.1080     7.4510     7.1400     9.7790
 1661.0000   138.9250     9.8640     2.5660     0.0490   -41.0320     7.4360     7.0390     9.8120
 1661.5000   141.8750     9.8860     2.5650     0.0510   -41.1360     7.4210     6.9560     9.8370
 1662.0000   138.8570     9.9190     2.5630     0.0520   -41.3330     7.4070     6.8720     9.7890
 1662.5000   143.1510     9.9230     2.5610     0.0540   -41.5310     7.3050     6.7890     9.7490
 1663.0000   139.9530     9.8940     2.5570     0.0520   -41.7340     7.2070     6.7060     9.7100
 1663.5000   138.6760     9.8820     2.5530     0.0490   -41.7240     7.1100     6.6230     9.6700
 1664.0000   143.4460     9.8700     2.5490     0.0440   -41.6160     7.0130     6.5400     9.6310
 1664.5000   140.6520     9.8580     2.5440     0.0380   -41.5050     6.8840     6.4570     9.5910
 1665.0000   143.1490     9.8660     2.5400     0.0330   -41.3940     7.0230     6.3970     9.5710
 1665.5000   144.2380     9.8750     2.5350     0.0320   -41.2840     7.2290     6.4540     9.5910
 1666.0000   142.7060     9.8830     2.5300     0.0270   -41.2240     7.4340     6.4980     9.6040
 1666.5000   141.4440     9.8910     2.5240     0.0240   -41.3120     7.6400     6.5430     9.6180
 1667.0000   143.8150     9.8950     2.5200     0.0250   -41.4000     7.8250     6.5870     9.6310
 1667.5000   142.2640     9.8800     2.5220     0.0250   -41.5260     7.7460     6.6310     9.6450
 1668.0000   143.9390     9.8650     2.5240     0.0200   -41.6610     7.6570     6.6760     9.6590
 1668.5000   146.9980     9.8500     2.5220     0.0240   -41.7960     7.4360     6.7200     9.3700
 1669.0000   144.2510     9.8350     2.5210     0.0280   -41.9330     7.2150     6.7590     9.0550
 1669.5000   142.7080     9.8200     2.5230     0.0310   -41.8890     6.9930     6.5860     8.7390
 1670.0000   148.5730     9.8290     2.5270     0.0330   -41.6920     6.7590     6.4000     8.4240
 1670.5000   144.9490     9.8430     2.5310     0.0340   -41.4930     6.6460     6.2130     8.2670
 1671.0000   143.1510     9.8590     2.5320     0.0350   -41.2940     6.4950     6.0480     8.7340
 1671.5000   146.5990     9.8990     2.5360     0.0360   -41.0950     6.3970     6.0020     8.4480
 1672.0000   140.2270     9.9350     2.5410     0.0370   -40.8970     6.3970     5.9460     8.2000
 1672.5000   138.7560     9.8720     2.5460     0.0390   -40.6960     6.3970     5.9720     7.9690
 1673.0000   141.4380     9.8580     2.5510     0.0410   -40.7180     6.5600     6.0070     8.3810
 1673.5000   142.5140     9.8570     2.5510     0.0430   -40.8970     6.7390     6.0410     8.8050
 1674.0000   140.2590     9.8560     2.5480     0.0430   -41.0770     6.9710     6.0760     9.2290
 1674.5000   138.0350     9.8750     2.5440     0.0410   -41.2580     7.2030     6.1110     9.5830
 1675.0000   139.4780     9.8730     2.5400     0.0400   -41.4310     7.4350     6.2100     9.6460
 1675.5000   135.7460     9.8700     2.5400     0.0400   -41.5660     7.6670     6.3090     9.6810
 1676.0000   137.7930     9.8670     2.5400     0.0400   -41.7010     7.8970     6.4080     9.7190
 1676.5000   140.5240     9.8650     2.5360     0.0350   -41.8380     7.9340     6.5070     9.7480
 1677.0000   138.5710     9.8620     2.5290     0.0300   -41.9800     7.9690     6.6060     9.5210
 1677.5000   136.1880     9.8590     2.5240     0.0260   -41.7620     7.6480     6.7050     9.3340
 1678.0000   135.2260     9.8660     2.5200     0.0260   -41.4780     7.3860     6.8210     9.1480
 1678.5000   138.0620     9.8760     2.5170     0.0260   -41.2070     7.1230     6.7090     8.9610
 1679.0000   140.2200     9.8620     2.5130     0.0260   -41.0900     6.8600     6.5760     8.5880
 1679.5000   142.4520     9.8490     2.5090     0.0230   -40.9800     6.7140     6.4430     8.1120
 1680.0000   142.8570     9.8440     2.5060     0.0100   -40.8690     6.5890     6.3100     7.4750
 1680.5000   140.1740     9.8850     2.5040     0.0090   -40.7590     6.4640     6.1770     7.7530
 1681.0000   140.4670     9.9120     2.5050     0.0100   -40.6480     6.3970     6.0000     8.1720
 1681.5000   140.5870     9.8650     2.5080     0.0120   -40.6520     6.5750     6.0250     8.5920
 1682.0000   140.6680     9.9230     2.5120     0.0130   -40.7350     6.7770     6.0620     9.0110
 1682.5000   140.4220     9.9080     2.5170     0.0140   -40.8180     7.0060     6.1000     9.2270
 1683.0000   140.1580     9.8700     2.5220     0.0160   -40.9010     7.2350     6.1920     9.1750
 1683.5000   139.8920     9.8510     2.5250     0.0160   -40.9830     7.4640     6.3560     9.1390
 1684.0000   139.6310     9.9060     2.5250     0.0170   -41.0660     7.6940     6.5190     9.1040
 1684.5000   141.5740     9.8720     2.5260     0.0200   -41.1480     7.9150     6.6970     9.0690
 1685.0000   144.0210     9.8400     2.5260     0.0250   -41.2210     8.0750     6.7650     9.0590
 1685.5000   145.6660     9.8430     2.5320     0.0290   -41.2680     8.2350     6.8390     9.4840
 1686.0000   142.3380     9.8340     2.5380     0.0340   -41.3160     8.3430     6.9140     9.3880
 1686.5000   140.6100     9.8040     2.5440     0.0390   -41.3630     8.1350     6.9880     9.2560
 1687.0000   141.4640     9.7790     2.5510     0.0430   -41.3830     7.9790     7.0620     9.1430
 1687.5000   140.5290     9.7950     2.5560     0.0470   -41.2290     7.8230     7.1400     9.1540
 1688.0000   137.7570     9.8110     2.5600     0.0460   -41.0750     7.6680     7.0890     9.1670
 1688.5000   140.9830     9.8270     2.5600     0.0440   -40.9290     7.5120     7.0350     9.1790
 1689.0000   137.7240     9.8420     2.5590     0.0430   -40.7860     7.4070     6.9800     9.1920
 1689.5000   135.1100     9.8580     2.5580     0.0420   -40.6390     7.3190     6.9260     9.2040
 1690.0000   133.1700     9.8740     2.5540     0.0400   -40.6770     7.2300     6.8720     9.2170
 1690.5000   137.5010     9.8690     2.5500     0.0370   -40.7590     7.1400     6.8180     9.2640
 1691.0000   137.4700     9.8580     2.5470     0.0330   -40.8430     7.3400     6.7640     9.4660
 1691.5000   142.1040     9.8470     2.5430     0.0300   -40.9260     7.5430     6.7100     9.7480
 1692.0000   139.5040     9.8380     2.5390     0.0270   -41.0030     7.7450     6.6550     9.6890
 1692.5000   135.7060     9.8460     2.5410     0.0270   -40.9320     7.8550     6.6010     9.5910
 1693.0000   136.7060     9.8530     2.5420     0.0280   -40.8550     7.9050     6.5470     9.4930
 1693.5000   138.3740     9.8510     2.5430     0.0300   -40.7780     7.9550     6.5160     9.3970
 1694.0000   137.3660     9.8280     2.5430     0.0320   -40.7010     8.0050     6.6510     9.5880
 1694.5000   136.1470     9.8210     2.5420     0.0320   -40.6220     8.0540     6.7460     9.7750
 1695.0000   137.6930     9.8280     2.5400     0.0330   -40.7000     8.1040     6.8410     9.9610
 1695.5000   140.0250     9.8340     2.5390     0.0340   -40.8040     8.1540     6.9360    10.1480
 1696.0000   141.3970     9.8460     2.5410     0.0350   -40.9090     8.1910     7.0310    10.3350
 1696.5000   137.8370     9.8630     2.5430     0.0370   -41.0130     7.9990     7.1260    10.5210
 1697.0000   135.5020     9.8730     2.5410     0.0390   -41.1580     7.8460     7.2220    10.5850
 1697.5000   138.3080     9.8290     2.5420     0.0410   -41.3000     7.7800     7.2720    10.3830
 1698.0000   139.4910     9.8010     2.5440     0.0430   -41.4420     7.7140     7.1950    10.2460
