~VERSION INFORMATION
 VERS.                2.0:   CWLS LOG ASCII STANDARD - VERSION 2.0
 WRAP.                 NO:   ONE LINE PER DEPTH STEP
~WELL INFORMATION
#MNEM.UNIT      DATA TYPE    INFORMATION
#----------   ------------   ------------------------------
 STRT.F          204.0000:   START DEPTH
 STOP.F         3024.0000:   STOP DEPTH
 STEP.F            0.5000:   STEP LENGTH
 NULL.          -999.2500:   NO VALUE
 COMP.    FENIX & SCISSON:   COMPANY
 WELL. FENIX NPR 3 "AX" #87-33:   WELL
 FLD .      NPR - WILDCAT:   FIELD
 LOC .      S33 T39N R78W:   LOCATION
 CNTY.            NATRONA:   COUNTY
 STAT.            WYOMING:   STATE
 CTRY. UNITED STATES OF AMERICA:   COUNTRY
 SRVC.              WELEX:   SERVICE COMPANY
 DATE.        20-JUN-1977:   LOGDATE
 API .     49025103840000:   API NUMBER
~CURVE INFORMATION
#MNEM.UNIT       API CODE    CURVE DESCRIPTION
#----------   ------------   ------------------------------
 DEPT.F                  :   
 SPR .MV     07 010 01 00:   SPONTANEOUS POTENTIAL
 ILD .OHMM   07 120 46 00:   DEEP INDUCTION RESISTIVITY
 ILM .OHMM   07 120 44 00:   INDUCTION LOG MEDIUM RESISTIVITY
 SGRD.OHMM   07 220 05 00:   SHALLOW SHORT GUARD RESISTIVITY
 CALD.IN     45 280 60 00:   CALIPER FROM DENSITY LOG
 GRD .GAPI   45 310 01 00:   GAMMA RAY FROM DENSITY LOG
 RHOB.G/C3   45 350 01 00:   BULK DENSITY
 CORR.G/C3   45 356 01 00:   DENSITY CORRECTION
~PARAMETER INFORMATION
#MNEM.UNIT          VALUE    DESCRIPTION
#----------   ------------   ------------------------------
 EKB .F         5170.0000:   Kelly bushing
 EGL .F         5160.0000:   Ground level
 TD  .F         3040.0000:   Total depth
 DATE.        20-JUN-1977:   Date logged
 CLNT.            A2DTECH:   Client Code
 SL  . 800' FSL & 100' FEL:   Surface Location
 PD  .                 GL:   Permanent Datum
 EPD .F              5160:   Elevation Permanent Datum
 LMF .                 KB:   Log Measured From
 DMF .                 KB:   Drilling Measured From
 DD  .F              3040:   Depth driller
 DL  .F              3027:   Depth logger
 BLI .F              3025:   Bottom log interval
 TLI .F               200:   Top log interval
 CS1 .IN            8.625:   Casing size
 CBD1.      8.625" @ 230':   Casing driller 1
 CBL1.F               210:   Casing logger 1
 BS1 .IN            7.875:   Bit size
 BSD1.F              3040:   Depth drilled with bit1
 DFT .                KCL:   Type fluid in hole
 DFD .                9.2:   Density
 DFV .                 38:   Viscosity
 DFPH.                7.5:   pH
 DFL .                5.4:   Fluid loss
 MSS .           FLOWLINE:   Source of sample
 RMS .OHMM            .60:   Rm
 MST .F                92:   Rm Meas. temp.
 RMF .OHMM            .29:   Rmf
 MFST.F                92:   Rmf Meas. temp.
 RMC .OHMM            .76:   Rmc
 MCST.F                92:   Rmc Meas. temp.
 MFSS.               MEAS:   Source Rmf.
 MCSS.               MEAS:   Source Rmc.
 RMB .OHMM            .49:   Rm. at BHT
 BHT .F               112:   BHT.
 TCS .HRS               2:   Time Circ. stopped
 MRT .F               112:   Maximum recorded temp.
 LUN .               8611:   Logging unit number
 LUL .           GILLETTE:   Logging unit location
 ENGI.            C. DOAK:   Recorded By
 WITN.      B. HARRINGTON:   Witnessed by
 ORIG.     2.5", 5" PRINT:   Origin of data
 UWI .     49025103840000:   Unique Well ID
 DICO. A2D TECHNOLOGIES, INC.:   Digitizing Company
~OTHER INFORMATION
~A   DEPT      SPR        ILD        ILM       SGRD         CALD       GRD        RHOB      CORR  
# ...
 2998.5000   -60.4540     3.7170     4.1490     5.1230     7.9470   118.5600     2.5000     0.0120
 2999.0000   -60.5080     3.6830     4.1040     5.6350     7.9460   119.2720     2.4910     0.0140
 2999.5000   -60.5630     3.6480     4.0590     3.9240     7.9430   119.9520     2.4910     0.0140
 3000.0000   -60.6170     3.6130     4.0150     4.1550     7.9410   120.6010     2.5020     0.0130
 3000.5000   -60.6710     3.5780     3.9700     4.7030     7.9390   121.7670     2.4950     0.0130
 3001.0000   -60.7260     3.5440     3.9250     4.2960     7.9370   122.9990     2.4840     0.0120
 3001.5000   -60.7800     3.5090     3.8800     4.5360     7.9340   124.3600     2.4730     0.0120
 3002.0000   -60.8350     3.4740     3.8360     4.4780     7.9320   125.8930     2.4590     0.0110
 3002.5000   -60.8890     3.4390     3.7910     4.3740     7.9300   126.6800     2.4480     0.0110
 3003.0000   -60.9440     3.4040     3.7460     3.7170     7.9280    78.8540     2.4470     0.0100
 3003.5000   -60.9980     3.3660     3.7010     3.9600     7.9250     1.5120     2.4420     0.0100
 3004.0000   -61.0510     3.3280     3.6530     4.1430     7.9230     0.6390     2.4410     0.0100
 3004.5000   -61.1130     3.2890     3.6050     3.9960     7.9210  -999.2500     2.4390     0.0100
 3005.0000   -61.0900     3.2500     3.5580     3.7780     7.9190  -999.2500     2.4490     0.0100
 3005.5000   -60.9890     3.2120     3.5100     3.5210     7.9160  -999.2500     2.4640     0.0090
 3006.0000   -60.8970     3.1730     3.4620     3.7340     7.9140  -999.2500     2.4580     0.0080
 3006.5000   -60.8030     3.1340     3.4150     3.9960     7.9120  -999.2500     2.4690     0.0070
 3007.0000   -60.7090     3.0960     3.3670     3.9960     7.9100  -999.2500     2.4530     0.0070
 3007.5000   -60.6160     3.0570     3.3190     3.9370     7.9090  -999.2500     2.4610     0.0120
 3008.0000   -60.5210     3.0180     3.2720     3.7220     7.8710  -999.2500     2.4840     0.0180
 3008.5000   -60.4290     2.9790     3.2240     3.5210     7.8260  -999.2500     2.5000     0.0290
 3009.0000   -60.3360     2.9410     3.1760     3.5940     7.8740  -999.2500     2.4980     0.0360
 3009.5000   -60.2360     2.9020     3.1290     3.6500     7.8600  -999.2500     2.4860     0.0380
 3010.0000   -60.1590     2.8630     3.0950     3.6500     7.8620  -999.2500     2.4730     0.0380
 3010.5000   -60.0440     2.8160     3.0810     3.6220     7.9270  -999.2500     2.4610     0.0440
 3011.0000   -59.9200     2.7400     3.0670     3.5950     7.9640  -999.2500     2.4550     0.0380
 3011.5000   -59.1040     2.6640     3.0520     3.5850     7.9450  -999.2500     2.4800     0.0260
 3012.0000   -58.2400     2.5880     3.0380     3.5850     7.8370  -999.2500     2.5080     0.0310
 3012.5000   -57.4600     2.5020     3.0230     3.4550     7.7950  -999.2500     2.5330     0.0370
 3013.0000   -56.6150     2.5110     3.0090     3.2390     7.8050  -999.2500     2.5570     0.0480
 3013.5000   -55.7370     2.5300     2.9950     2.8850     7.8160  -999.2500     2.5510     0.0630
 3014.0000   -51.3180     2.5950     3.0050     3.0130     7.8260  -999.2500     2.5390     0.0750
 3014.5000   -47.7740     2.7400     3.0210     3.5850  -999.2500  -999.2500  -999.2500  -999.2500
 3015.0000   -40.6060     2.8570     3.0380     3.4770  -999.2500  -999.2500  -999.2500  -999.2500
 3015.5000   -27.4440     2.9230     3.1490     3.2160  -999.2500  -999.2500  -999.2500  -999.2500
 3016.0000   -14.1950     2.9880     3.5450     3.3650  -999.2500  -999.2500  -999.2500  -999.2500
 3016.5000    -1.6400     3.1580     5.6230     3.5850  -999.2500  -999.2500  -999.2500  -999.2500
 3017.0000    -1.2960     3.1210    11.7460     3.4670  -999.2500  -999.2500  -999.2500  -999.2500
 3017.5000    -0.9190     3.0040    18.9860     2.9910  -999.2500  -999.2500  -999.2500  -999.2500
 3018.0000    -1.1990     2.8860    57.1250     3.2980  -999.2500  -999.2500  -999.2500  -999.2500
 3018.5000    -1.1660     2.7330  1946.4449     4.2190  -999.2500  -999.2500  -999.2500  -999.2500
 3019.0000    -1.2330     2.8380  1953.3840    14.6610  -999.2500  -999.2500  -999.2500  -999.2500
 3019.5000    -1.3060     2.9900  1959.7350    58.4820  -999.2500  -999.2500  -999.2500  -999.2500
 3020.0000    -1.3540     3.1750  1966.0861  1946.4449  -999.2500  -999.2500  -999.2500  -999.2500
 3020.5000    -1.4160     3.4470  1972.4370  1941.4910  -999.2500  -999.2500  -999.2500  -999.2500
 3021.0000    -1.4740     3.6500  1978.7889  1930.7710  -999.2500  -999.2500  -999.2500  -999.2500
 3021.5000    -1.5310     3.6500  1985.1400  1920.0510  -999.2500  -999.2500  -999.2500  -999.2500
 3022.0000    -1.5870     3.6690  1991.4910  1909.3320  -999.2500  -999.2500  -999.2500  -999.2500
 3022.5000    -1.6450     4.5690  1997.8420  1898.6121  -999.2500  -999.2500  -999.2500  -999.2500
 3023.0000    -1.7010     5.6350  -999.2500  1887.8920  -999.2500  -999.2500  -999.2500  -999.2500
 3023.5000    -1.7550     6.8040  -999.2500  1877.2629  -999.2500  -999.2500  -999.2500  -999.2500
 3024.0000    -1.7570     7.9480  -999.2500  1877.2629  -999.2500  -999.2500  -999.2500  -999.2500
