~VERSION INFORMATION
 VERS.                2.0:   CWLS LOG ASCII STANDARD - VERSION 2.0
 WRAP.                 NO:   ONE LINE PER DEPTH STEP
~WELL INFORMATION
#MNEM.UNIT      DATA TYPE    INFORMATION
#----------   ------------   ------------------------------
 STRT.F          720.0000:   START DEPTH
 STOP.F         3416.0000:   STOP DEPTH
 STEP.F            0.5000:   STEP LENGTH
 NULL.          -999.2500:   NO VALUE
 COMP.    FENIX & SCISSON:   COMPANY
 WELL.  FENIX "AX" #31-14:   WELL
 FLD .                NPR:   FIELD
 LOC .      S14 T38N R78W:   LOCATION
 CNTY.            NATRONA:   COUNTY
 STAT.            WYOMING:   STATE
 CTRY. UNITED STATES OF AMERICA:   COUNTRY
 SRVC.       SCHLUMBERGER:   SERVICE COMPANY
 DATE.        04-JUN-1981:   LOGDATE
 API .     49025108730000:   API NUMBER
~CURVE INFORMATION
#MNEM.UNIT       API CODE    CURVE DESCRIPTION
#----------   ------------   ------------------------------
 DEPT.F                  :   
 TEND.LBS    45 635 01 00:   TENSION FROM DENSITY LOG
 CORR.G/C3   45 356 01 00:   DENSITY CORRECTION
 RHOB.G/C3   45 350 01 00:   BULK DENSITY
 CALD.IN     45 280 60 00:   CALIPER FROM DENSITY LOG
 GRD .GAPI   45 310 01 00:   GAMMA RAY FROM DENSITY LOG
 SPR .MV     07 010 01 00:   SPONTANEOUS POTENTIAL
 SFL .OHMM   07 220 01 00:   SHALLOW FOCUSED LOG RESISTIVITY
 ILD .OHMM   07 120 46 00:   INDUCTION LOG DEEP RESISTIVITY
 ILM .OHMM   07 120 44 00:   INDUCTION LOG MEDIUM RESISTIVITY
 TENR.LBS    07 635 01 00:   TENSION FROM RESISTIVITY
~PARAMETER INFORMATION
#MNEM.UNIT          VALUE    DESCRIPTION
#----------   ------------   ------------------------------
 EKB .F         5196.0000:   Kelly bushing
 EGL .F         5186.0000:   Ground level
 EDF .F            0.0000:   Drilling floor
 TD  .F         3402.0000:   Total depth
 DATE.        04-JUN-1981:   Date logged
 CLNT.            A2DTECH:   Client Code
 SL  . 377' FWL & 1733' FWL:   Surface Location
 PD  .                 GL:   Permanent Datum
 DD  .F              3400:   Depth driller
 DL  .F              3402:   Depth logger
 BLI .F              3395:   Bottom log interval
 TLI .F               720:   Top log interval
 CS1 .IN            8.625:   Casing size
 CBD1.      8.625" @ 707':   Casing driller 1
 CBL1.F               751:   Casing logger 1
 BS1 .IN            7.875:   Bit size
 BSD1.F              3400:   Depth drilled with bit1
 DFT .                FGM:   Type fluid in hole
 DFD .                8.8:   Density
 DFV .                 55:   Viscosity
 DFPH.                9.5:   pH
 DFL .                  9:   Fluid loss
 MSS .           MUD TANK:   Source of sample
 RMS .OHMM            1.7:   Rm
 MST .F                78:   Rm Meas. temp.
 RMF .OHMM           1.45:   Rmf
 MFST.F                78:   Rmf Meas. temp.
 MFSS.               MEAS:   Source Rmf.
 RMB .OHMM           1.12:   Rm. at BHT
 BHT .F               118:   BHT.
 TCS .HRS            1200:   Time Circ. stopped
 TLAB.HRS            1600:   Time logger at bottom
 MRT .F               118:   Maximum recorded temp.
 LUN .               8043:   Logging unit number
 LUL .             CASPER:   Logging unit location
 ENGI.             LARSON:   Recorded By
 WITN.              FIVAS:   Witnessed by
 ORIG.      2.5" 5" PRINT:   Origin of data
 UWI .     49025108730000:   Unique Well ID
 DICO. A2D TECHNOLOGIES, INC.:   Digitizing Company
 EPD .               5186:   Elevation Permanent Datum
 LMF .                 KB:   Log Measured From
 DMF .                 KB:   Drilling Measured From
 DAPD.                 10:   Feet Above Permanent Datum
~OTHER INFORMATION
~A   DEPT     TEND       CORR       RHOB       CALD         GRD       SPR        SFL        ILD        ILM       TENR   
# ...
 3199.0000  1728.8571     0.0140     2.5420     8.0240   122.8350    39.3880     6.6100     5.5140     5.7010  1733.0341
 3199.5000  1729.1600     0.0150     2.5400     8.0250   123.4680    39.3880     6.8360     5.4900     5.7010  1733.2340
 3200.0000  1729.4630     0.0150     2.5380     8.0260   128.4890    39.3880     7.0160     5.5350     5.7010  1733.4340
 3200.5000  1729.7660     0.0110     2.5390     8.0270   133.4520    39.3880     7.0540     5.6110     5.7010  1733.6340
 3201.0000  1730.0690     0.0060     2.5350     8.0280   137.4170    39.3880     7.1010     5.6880     5.8730  1733.8340
 3201.5000  1730.3719     0.0000     2.5220     8.0290   135.0560    39.3880     7.1500     5.7640     6.0470  1734.0341
 3202.0000  1730.6760    -0.0040     2.5090     8.0310   133.4950    39.3880     7.2860     5.8400     6.2210  1734.2340
 3202.5000  1730.9790    -0.0040     2.5070     8.0320   134.9820    39.3880     7.7090     5.9200     6.2650  1734.4340
 3203.0000  1731.2820    -0.0010     2.5200     8.0330   136.3830    39.3870     8.0760     5.9200     6.2650  1734.6340
 3203.5000  1731.5850     0.0020     2.5340     8.0340   135.4120    39.3900     8.4740     5.9200     6.2650  1734.8350
 3204.0000  1731.8879     0.0040     2.5370     8.0350   133.4100    39.3890     8.1960     5.9200     6.2650  1735.0350
 3204.5000  1732.1910     0.0040     2.5280     8.0350   134.2640    39.4910     7.6500     5.8420     6.1680  1735.2350
 3205.0000  1732.4940     0.0010     2.5200     8.0350   135.0290    39.6390     7.1040     5.7710     6.0280  1735.4351
 3205.5000  1732.7970     0.0000     2.5140     8.0360   132.8810    39.7820     6.5590     5.7000     5.8890  1735.6350
 3206.0000  1733.1010    -0.0020     2.5090     8.0360   129.1290    39.9290     6.2650     5.6290     5.7490  1735.8350
 3206.5000  1733.4041    -0.0030     2.5030     8.0360   128.2050    40.0720     6.6300     5.5580     5.7010  1736.0350
 3207.0000  1733.7070    -0.0030     2.5030     8.0370   131.4760    40.1920     6.6030     5.4900     5.7010  1736.2350
 3207.5000  1734.0100    -0.0010     2.5060     8.0370   134.5340    40.1160     6.5420     5.5940     5.7520  1736.4351
 3208.0000  1734.3130     0.0000     2.5140     8.0370   134.2620    40.0440     6.5060     5.8100     5.9830  1736.6350
 3208.5000  1734.6160    -0.0010     2.5230     8.0370   133.1950    39.9620     6.8980     6.0460     6.2130  1736.8350
 3209.0000  1734.9189    -0.0090     2.5260     8.0380   130.3940    39.8860     7.5480     6.2810     6.4430  1737.0350
 3209.5000  1735.2220    -0.0110     2.5290     8.0380   127.6770    39.8080     8.1990     6.5160     6.6740  1737.2350
 3210.0000  1735.5260    -0.0080     2.5400     8.0380   124.9420    39.7310     9.1380     6.7500     6.9040  1737.4351
 3210.5000  1735.8290    -0.0010     2.5550     8.0390   124.5100    39.6520     9.0800     6.9850     7.1340  1737.6350
 3211.0000  1736.1320     0.0050     2.5560     8.0390   124.5160    39.5740     8.9760     7.2200     7.3040  1737.8350
 3211.5000  1736.4351     0.0050     2.5410     8.0390   124.5180    39.5000     8.8710     7.4250     7.3560  1738.0350
 3212.0000  1736.7380     0.0010     2.5300     8.0400   123.9680    39.4070     8.8000     7.4250     7.4090  1738.2350
 3212.5000  1737.0410    -0.0030     2.5220     8.0400   120.8110    39.4870     8.8000     7.4630     7.4610  1738.4351
 3213.0000  1737.3440    -0.0040     2.5200     8.0400   117.7600    39.6830     8.8000     7.5390     7.5130  1738.6350
 3213.5000  1737.6470    -0.0010     2.5170     8.0410   117.4690    39.8710     8.9670     7.6150     7.5650  1738.8350
 3214.0000  1737.9510     0.0000     2.5160     8.0410   122.1270    40.0510     9.3610     7.6900     7.6180  1739.0350
 3214.5000  1738.2540    -0.0010     2.5190     8.0410   125.5690    40.1790     9.8550     7.7660     7.6700  1739.2350
 3215.0000  1738.5570     0.0000     2.5240     8.0420   123.0080    39.9320     9.7810     7.8420     7.7220  1739.4351
 3215.5000  1738.8600     0.0030     2.5200     8.0420   119.7440    39.7280     9.6710     7.9180     7.7740  1739.6350
 3216.0000  1739.1630     0.0070     2.5190     8.0420   116.6500    39.4690     9.7390     8.0070     7.8270  1739.8350
 3216.5000  1739.4659     0.0130     2.5320     8.0430   119.0230    39.5160    10.0510     7.9350     7.8580  1740.0360
 3217.0000  1739.7690     0.0140     2.5420     8.0430   123.1330    39.8180    10.3630     7.7590     7.7370  1740.2360
 3217.5000  1740.0730     0.0100     2.5360     8.0430   127.3560    40.0900    10.4290     7.5820     7.6170  1740.4360
 3218.0000  1740.3760     0.0060     2.5280     8.0440   129.2210    40.3640     9.5630     7.4050     7.4970  1740.6360
 3218.5000  1740.6790     0.0030     2.5190     8.0440   131.4990    40.6030     8.6790     7.2290     7.3770  1740.8361
 3219.0000  1740.9821    -0.0010     2.5180     8.0440   132.8870    40.6090     7.7960     7.0520     7.2570  1741.0360
 3219.5000  1741.2850    -0.0030     2.5210     8.0450   133.1480    40.6150     7.5230     6.8760     7.1370  1741.2360
 3220.0000  1741.5880    -0.0020     2.5300     8.0450   130.4090    40.6080     7.4250     6.6990     7.0160  1741.4360
 3220.5000  1741.8910     0.0000     2.5360     8.0450   127.7180    40.6150     7.5670     6.5060     6.8850  1741.6360
 3221.0000  1742.1940     0.0030     2.5310     8.0450   125.7840    40.6090     7.9150     6.5410     6.8970  1741.8361
 3221.5000  1742.4980     0.0040     2.5290     8.0460   125.6750    40.5920     8.3000     6.6110     6.9200  1742.0360
 3222.0000  1742.8010     0.0030     2.5330     8.0460   127.5100    40.3110     8.6840     6.6810     6.9430  1742.2360
 3222.5000  1743.1040     0.0030     2.5370     8.0460   129.5090    40.0370     8.9670     6.7510     6.9660  1742.4360
 3223.0000  1743.4070     0.0030     2.5270     8.0470   129.7230    39.7490     9.1380     6.8210     6.9890  1742.6360
 3223.5000  1743.7100     0.0020     2.5170     8.0470   129.2010    39.4740     8.8810     6.8910     7.0160  1742.8361
 3224.0000  1742.8459     0.0020     2.5190     8.0470   126.0510    39.1820     8.4820     6.9610     7.1500  1743.0360
 3224.5000  1737.4030     0.0000     2.5260     8.0480   124.7500    38.9180     8.0070     7.0160     7.4250  1743.2360
 3225.0000  1731.9590     0.0000     2.5300     8.0480   123.4610    38.5800     8.0070     7.6380     7.7110  1743.4360
 3225.5000  1726.5160     0.0000     2.5350     8.0480   122.2690    38.1310     8.3150     8.4060     8.5950  1743.6360
 3226.0000  1721.0720     0.0020     2.5430     8.0490   109.1950    36.8820     8.9040     9.1740     9.8330  1743.8361
 3226.5000  1715.6281     0.0040     2.5670     8.0490    91.1830    35.2250     9.1380     9.9420    11.0710  1744.0360
 3227.0000  1710.1851     0.0130     2.5710     8.0490    78.2260    32.9310    17.4700    10.7100    12.3090  1744.2360
 3227.5000  1704.7410     0.0230     2.5710     8.0500    66.7300    30.6200    31.8150    11.4770    13.5470  1744.4360
 3228.0000  1699.2980     0.0310     2.5480     8.0500    55.1030    28.9050    48.1040    11.9020    14.3740  1744.6360
 3228.5000  1693.8540     0.0330     2.4920     8.0500    54.1530    27.7650    46.3220    11.9020    13.5020  1744.8361
 3229.0000  1688.4110     0.0330     2.4360     8.0510    59.4620    26.8100    36.6710    11.4610    12.5610  1745.0360
 3229.5000  1683.4680     0.0330     2.4050     8.0510    66.7910    27.8080    28.0340    10.5900    11.6200  1745.2371
 3230.0000  1697.8330     0.0310     2.3990     8.0510    74.0580    29.6600    19.3970     9.6260    10.6800  1745.0930
 3230.5000  1710.9880     0.0150     2.3960     8.0520    87.2060    31.5860    10.7600     8.6610     9.7390  1744.0800
 3231.0000  1724.1429     0.0050     2.4050     8.0520    99.9720    33.2620     7.4140     7.6970     8.7980  1743.0680
 3231.5000  1737.2980     0.0110     2.4350     8.0520   112.6870    34.4050     6.7470     6.7320     7.8570  1742.0551
 3232.0000  1750.4540     0.0160     2.4500     8.0520   118.0130    34.8350     6.5060     6.3450     6.7560  1741.0430
