~VERSION INFORMATION
 VERS.                2.0:   CWLS LOG ASCII STANDARD - VERSION 2.0
 WRAP.                 NO:   ONE LINE PER DEPTH STEP
~WELL INFORMATION
#MNEM.UNIT      DATA TYPE    INFORMATION
#----------   ------------   ------------------------------
 STRT.F            0.0000:   START DEPTH
 STOP.F         4134.5000:   STOP DEPTH
 STEP.F            0.5000:   STEP LENGTH
 NULL.          -999.2500:   NO VALUE
 COMP. LAWRENCE ALLISON & ASSOCIATES:   COMPANY
 WELL. LAWRENCE NPR 3 "X" #72-10:   WELL
 FLD .            WILDCAT:   FIELD
 LOC .      S10 T38N R78W:   LOCATION
 CNTY.            NATRONA:   COUNTY
 STAT.            WYOMING:   STATE
 CTRY. UNITED STATES OF AMERICA:   COUNTRY
 SRVC.      DRESSER ATLAS:   SERVICE COMPANY
 DATE.        29-JUL-1983:   LOGDATE
 API .     49025109390000:   API NUMBER
~CURVE INFORMATION
#MNEM.UNIT       API CODE    CURVE DESCRIPTION
#----------   ------------   ------------------------------
 DEPT.F                  :   
 CALD.IN     45 280 60 00:   CALIPER FROM DENSITY LOG
 DEN .G/C3   45 350 01 00:   BULK DENSITY
 CORR.G/C3   45 356 01 00:   DENSITY CORRECTION
 TEND.LBS    45 635 01 00:   TENSION FROM DENSITY LOG
 NPHI.DEC    42 890 03 00:   NEUTRON POROSITY SANDSTONE
 GRD .GAPI   45 310 01 00:   GAMMA RAY FROM DENSITY LOG
 SPR .MV     07 010 01 00:   SPONTANEOUS POTENTIAL
 RILD.OHMM   07 120 46 00:   DEEP INDUCTION RESISTIVITY
 RILM.OHMM   07 120 44 00:   INDUCTION LOG MEDIUM RESISTIVITY
 RFOC.OHMM   07 220 04 00:   RESISTIVITY FOCUSED LOG RES.
 TENR.LBS    07 635 01 00:   TENSION FROM RESISTIVITY
 AC  .US/F   60 250 00 00:   ACCOUSTIC
 TENS.LBS    60 635 01 00:   TENSION FROM SONIC
 GRR .GAPI   07 310 01 00:   GAMMA RAY FROM RESISTIVITY
~PARAMETER INFORMATION
#MNEM.UNIT          VALUE    DESCRIPTION
#----------   ------------   ------------------------------
 EKB .F         5182.0000:   Kelly bushing
 EGL .F         5172.0000:   Ground level
 EDF .F            0.0000:   Drilling floor
 TD  .F         4139.0000:   Total depth
 DATE.        29-JUL-1983:   Date logged
 CLNT.            A2DTECH:   Client Code
 SL  . 900' FNL & 900' FEL:   Surface Location
 PD  .                 GL:   Permanent Datum
 EPD .F              5172:   Elevation Permanent Datum
 LMF .                 KB:   Log Measured From
 DMF .                 KB:   Drilling Measured From
 DAPD.F                10:   Feet Above Permanent Datum
 DD  .F              4139:   Depth driller
 DL  .F              4134:   Depth logger
 BLI .F              4132:   Bottom log interval
 CS1 .IN            9.625:   Casing size
 CBD1.      9.625" @ 476':   Casing driller 1
 BS1 .IN            7.875:   Bit size
 BSD1.F              4139:   Depth drilled with bit1
 DFT .               LSND:   Type fluid in hole
 DFD .                6.6:   Density
 DFV .                 41:   Viscosity
 DFPH.                8.5:   pH
 DFL .                 10:   Fluid loss
 MSS .           FLOWLINE:   Source of sample
 RMS .OHMM            .27:   Rm
 MST .F                91:   Rm Meas. temp.
 RMF .OHMM            .19:   Rmf
 MFST.F                87:   Rmf Meas. temp.
 RMC .OHMM            .34:   Rmc
 MCST.F                87:   Rmc Meas. temp.
 MFSS.               MEAS:   Source Rmf.
 MCSS.               CALC:   Source Rmc.
 RMB .OHMM            .19:   Rm. at BHT
 BHT .F               130:   BHT.
 TCS .HRS               3:   Time Circ. stopped
 MRT .F               130:   Maximum recorded temp.
 LUN .               6274:   Logging unit number
 LUL .               GLTF:   Logging unit location
 ENGI.             RAUTIC:   Recorded By
 WITN.             STRONG:   Witnessed by
 ORIG.           5" PRINT:   Origin of data
 UWI .     49025109390000:   Unique Well ID
 DICO. A2D TECHNOLOGIES, INC.:   Digitizing Company
~OTHER INFORMATION
~A    DEPT    CALD        DEN       CORR       TEND       NPHI        GRD        SPR       RILD       RILM       RFOC       TENR         AC       TENS         GRR  
# ...
 2401.0000     8.8470     2.5680     0.0590    -5.6340     0.2210   117.8680   -47.7860     7.3390     7.4160     8.2380   -47.9040    82.5020   -63.5350   105.5470
 2401.5000     8.8470     2.5690     0.0540    -8.5610     0.2210   120.3520   -47.7840     7.5090     7.6130     8.3140   -47.9040    81.6420   -63.3640   104.8270
 2402.0000     8.8630     2.5670     0.0530   -11.4870     0.2240   122.7770   -48.0020     7.6540     7.8110     8.3140   -47.9040    81.3090   -63.1930   103.0780
 2402.5000     8.8840     2.5620     0.0610   -14.4140     0.2360   124.5420   -48.2010     7.6540     8.0140     8.2380   -47.9040    81.3090   -63.0210   101.2460
 2403.0000     8.9050     2.5570     0.0650   -17.3410     0.2480   122.6590   -48.2100     7.7240     7.9560     8.0980   -47.9040    81.7100   -62.8500   100.4480
 2403.5000     8.9260     2.5520     0.0490   -20.2670     0.2570   122.0280   -48.2590     7.7040     7.8830     7.9530   -47.9040    82.0400   -62.6870   103.4820
 2404.0000     8.9460     2.5540     0.0380   -23.1940     0.2530   124.7480   -48.3120     7.6790     7.8090     7.8680   -47.9040    82.1080   -62.3290   107.7930
 2404.5000     8.9360     2.5570     0.0410   -26.1210     0.2410   128.0650   -48.3640     7.6540     7.7350     7.8680   -47.9040    82.3070   -61.9890   111.9010
 2405.0000     8.9270     2.5610     0.0440   -27.7220     0.2300   130.2340   -48.4150     7.5840     7.6610     7.8680   -47.9040    82.8970   -61.6480   112.2270
 2405.5000     8.9270     2.5620     0.0690   -22.1520     0.2260   127.4900   -48.4670     7.5140     7.5870     7.7960   -47.9040    83.5200   -61.3080   112.3740
 2406.0000     8.9270     2.5560     0.0780   -21.4840     0.2330   123.9520   -48.5180     7.4820     7.5140     7.9400   -47.9040    83.4250   -60.9680   110.3470
 2406.5000     8.9270     2.5480     0.0710   -20.8160     0.2380   121.0480   -48.5710     7.4320     7.4400     8.2070   -47.9040    82.9140   -60.6270   104.4710
 2407.0000     8.9270     2.5440     0.0650   -20.1480     0.2340   122.3290   -48.7810     7.3830     7.3660     8.5170   -47.9040    82.0810   -60.2870   105.0870
 2407.5000     8.9270     2.5370     0.0580   -19.4810     0.2310   122.8520   -49.0140     7.3340     7.2920     8.3700   -47.9040    81.6590   -59.9470   110.0110
 2408.0000     8.9260     2.5350     0.0450   -18.8130     0.2310   120.9590   -49.2460     7.2640     7.2180     8.0070   -47.9040    81.8550   -59.6060   113.0440
 2408.5000     8.9120     2.5360     0.0320   -18.1450     0.2270   119.2980   -49.4790     7.1750     7.1450     7.3770   -47.9040    82.4080   -59.2660   113.6590
 2409.0000     8.8970     2.5360     0.0230   -18.9070     0.2210   120.3040   -49.7120     7.0860     7.0620     7.2430   -47.9040    82.6070   -58.9260   109.5540
 2409.5000     8.8820     2.5330     0.0220   -21.9830     0.2230   124.1250   -49.9450     6.9960     6.9730     7.5050   -47.9040    82.2490   -58.5850   104.7150
 2410.0000     8.8680     2.5310     0.0230   -25.0580     0.2380   126.9270   -50.1760     6.9070     6.8830     8.0470   -47.2550    81.7380   -58.2450   101.2500
 2410.5000     8.8520     2.5300     0.0290   -28.1340     0.2440   129.1180   -50.3850     6.8180     6.7940     7.9400   -46.4120    81.2280   -57.9050   100.7540
 2411.0000     8.8560     2.5310     0.0350   -31.2100     0.2410   130.5250   -50.4590     6.7290     6.7040     7.5050   -45.5690    81.2790   -57.5640   102.5830
 2411.5000     8.8690     2.5330     0.0360   -34.2850     0.2380   130.9240   -50.5380     6.6400     6.6150     7.0510   -44.7260    81.7330   -57.2240   104.3880
 2412.0000     8.8820     2.5320     0.0350   -37.3610     0.2320   130.5780   -50.6180     6.6070     6.5460     6.6680   -43.8820    82.6920   -56.8840   107.1640
 2412.5000     8.8950     2.5340     0.0210   -41.3830     0.2260   129.3750   -50.6980     6.6370     6.5700     6.6680   -43.0390    83.9060   -56.5430   108.0890
 2413.0000     8.9080     2.5380     0.0090   -39.4610     0.2260   129.7730   -50.7770     6.6670     6.6230     6.7290   -42.1960    84.2500   -56.2030   107.5980
 2413.5000     8.9210     2.5450     0.0550   -37.5380     0.2360   131.7060   -50.8570     6.6970     6.6750     6.8980   -41.3520    84.5780   -55.8630   105.8440
 2414.0000     8.9270     2.5480     0.0690   -35.6160     0.2430   133.6410   -50.9390     6.7260     6.7280     7.2850   -40.5090    84.7790   -55.5220   105.8170
 2414.5000     8.9270     2.5420     0.0700   -33.6940     0.2460   135.5930   -50.9590     6.7920     6.7810     7.6720   -39.6660    84.6940   -55.1820   106.0320
 2415.0000     8.9270     2.5400     0.0610   -31.7710     0.2460   137.5550   -50.8690     6.9810     6.8340     8.0880   -38.8220    84.6090   -54.8420   106.2510
 2415.5000     8.9270     2.5440     0.0590   -29.8490     0.2480   139.4300   -50.7680     7.0220     6.8860     8.0880   -37.9240    84.5240   -54.5010   106.4690
 2416.0000     8.9270     2.5500     0.0590   -27.9270     0.2470   138.9280   -50.6670     7.0660     6.9390     7.7460   -37.4100    84.6910   -54.1610   106.6730
 2416.5000     8.9270     2.5520     0.0620   -26.0040     0.2450   135.9490   -50.5670     7.1110     6.9920     7.4880   -36.8600    84.9260   -53.8210   106.0970
 2417.0000     8.9270     2.5520     0.0650   -24.0820     0.2440   133.0070   -50.4650     7.1110     7.0460     7.3770   -36.3100    85.0430   -53.4810   105.3760
 2417.5000     8.9270     2.5510     0.0580   -22.1600     0.2420   130.0760   -50.3670     7.1110     6.9550     7.3770   -35.7600    84.7060   -53.1400   105.0240
 2418.0000     8.9270     2.5500     0.0460   -20.2370     0.2380   127.1200   -50.3630     7.1110     6.9210     7.4530   -35.2100    84.2740   -52.8000   104.0450
 2418.5000     8.9270     2.5480     0.0350   -18.3150     0.2360   122.4660   -50.3640     7.1110     6.8870     7.5710   -34.6600    83.8060   -52.9520   102.0380
 2419.0000     8.9270     2.5470     0.0290    -6.3650     0.2380   122.2960   -50.3640     7.0460     6.8540     7.5030   -34.1100    83.6730   -53.3170   100.4380
 2419.5000     8.9270     2.5480     0.0260     9.9470     0.2440   122.2180   -50.3640     6.9810     6.8200     7.3740   -33.5600    83.6990   -53.6810    99.3420
 2420.0000     8.9270     2.5500     0.0290    27.2230     0.2510   122.1270   -50.3640     6.8560     6.7860     7.2450   -33.0100    83.8690   -54.0460   101.5170
 2420.5000     8.9270     2.5530     0.0340    -5.3360     0.2500   122.0060   -50.3640     6.7920     6.7520     7.1770   -35.9420    84.0640   -54.4110   104.1400
 2421.0000     8.9290     2.5530     0.0390   -39.9370     0.2480   121.0400   -50.3640     6.6680     6.7180     7.2430   -39.4310    84.3600   -54.7750   106.8660
 2421.5000     8.9330     2.5500     0.0430   -46.5780     0.2460   120.1220   -50.3640     6.6680     6.6840     7.2430   -42.9210    84.6560   -55.1400   108.4610
 2422.0000     8.9360     2.5470     0.0460   -36.0060     0.2490   122.3250   -50.3640     6.5860     6.6070     7.3100   -46.4110    84.9510   -55.5040   109.7180
 2422.5000     8.9400     2.5490     0.0480   -22.7270     0.2520   124.6820   -50.3640     6.5180     6.4890     7.3100   -49.9000    85.2390   -55.8690   111.1050
 2423.0000     8.9430     2.5520     0.0480   -33.8160     0.2520   127.0080   -50.3650     6.4060     6.3700     7.1680   -52.8940    85.5190   -56.2340   113.4950
 2423.5000     8.9460     2.5540     0.0400   -44.6910     0.2520   129.0320   -50.3640     6.2320     6.2520     7.1100   -49.9850    85.7990   -56.5980   115.8900
 2424.0000     8.9490     2.5520     0.0480   -55.5660     0.2510   129.1660   -50.3610     6.0510     6.1330     7.0520   -46.0920    86.0790   -56.9630   116.3940
 2424.5000     8.9520     2.5500     0.0560   -66.4410     0.2530   128.4130   -50.3640     5.8690     6.0150     6.9940   -42.9140    86.3590   -57.3280   116.8070
 2425.0000     8.9550     2.5450     0.0610   -64.6850     0.2550   128.9210   -50.1440     5.6870     5.8960     6.7570   -42.9140    86.6390   -57.6920   117.0490
