~VERSION INFORMATION
 VERS.                2.0:   CWLS LOG ASCII STANDARD - VERSION 2.0
 WRAP.                 NO:   ONE LINE PER DEPTH STEP
~WELL INFORMATION
#MNEM.UNIT      DATA TYPE    INFORMATION
#----------   ------------   ------------------------------
 STRT.F            7.5000:   START DEPTH
 STOP.F         3140.0000:   STOP DEPTH
 STEP.F            0.5000:   STEP LENGTH
 NULL.          -999.2500:   NO VALUE
 COMP. LAWRENCE ALLISON WEST:   COMPANY
 WELL. LAWRENCE NPR 3 "AX" #51-3:   WELL
 FLD .                NPR:   FIELD
 LOC .       S3 T38N R78W:   LOCATION
 CNTY.            NATRONA:   COUNTY
 STAT.            WYOMING:   STATE
 CTRY. UNITED STATES OF AMERICA:   COUNTRY
 SRVC.      DRESSER ATLAS:   SERVICE COMPANY
 DATE.        09-NOV-1986:   LOGDATE
 API .     49025111180000:   API NUMBER
~CURVE INFORMATION
#MNEM.UNIT       API CODE    CURVE DESCRIPTION
#----------   ------------   ------------------------------
 DEPT.F                  :   
 CALD.IN     45 280 60 00:   CALIPER FROM DENSITY LOG
 DEN .LBS    45 350 01 00:   BULK DENSITY
 CORR.G/C3   45 356 01 00:   DENSITY CORRECTION
 NPOR.DEC    42 890 03 00:   ALPHA PROCESSED NEUTRON POROSITY
 SPR .MV     07 010 01 00:   SPONTANEOUS POTENTIAL
 GRR .GAPI   07 310 01 00:   GAMMA RAY FROM RESISTIVITY
 SFL .OHMM   07 220 01 00:   SHALLOW FOCUSED LOG RESISTIVITY
 ILD .OHMM   07 120 46 00:   DEEP INDUCTION RESISTIVITY
 ILM .OHMM   07 120 44 00:   INDUCTION LOG MEDIUM RESISTIVITY
 TENR.LBS    07 635 01 00:   TENSION FROM RESISTIVITY
~PARAMETER INFORMATION
#MNEM.UNIT          VALUE    DESCRIPTION
#----------   ------------   ------------------------------
 EKB .F         5132.0000:   Kelly bushing
 EGL .F         5120.0000:   Ground level
 TD  .F         3141.0000:   Total depth
 DATE.        09-NOV-1986:   Date logged
 CLNT.            A2DTECH:   Client Code
 SL  . 249' FNL & 2195' FEL:   Surface Location
 PD  .                 GL:   Permanent Datum
 EPD .F              5120:   Elevation Permanent Datum
 LMF .                 KB:   Log Measured From
 DMF .                 KB:   Drilling Measured From
 DAPD.F                12:   Feet Above Permanent Datum
 DD  .F              3141:   Depth driller
 DL  .F              3132:   Depth logger
 BLI .F              3126:   Bottom log interval
 CS1 .IN            8.625:   Casing size
 CBD1.      8.625" @ 690':   Casing driller 1
 CBL1.F               690:   Casing logger 1
 BS1 .IN            7.875:   Bit size
 BSD1.F              3141:   Depth drilled with bit1
 DFT .        KCL/POLYMER:   Type fluid in hole
 DFD .                8.9:   Density
 DFV .                 34:   Viscosity
 DFPH.                9.5:   pH
 DFL .                9.5:   Fluid loss
 MSS .           FLOWLINE:   Source of sample
 RMS .OHMM           .368:   Rm
 MST .F                66:   Rm Meas. temp.
 RMF .OHMM           .296:   Rmf
 MFST.F                66:   Rmf Meas. temp.
 RMC .OHMM           .468:   Rmc
 MCST.F                66:   Rmc Meas. temp.
 MFSS.               MEAS:   Source Rmf.
 MCSS.               CALC:   Source Rmc.
 RMB .OHMM           .282:   Rm. at BHT
 BHT .F               120:   BHT.
 TCS .HRS             3.5:   Time Circ. stopped
 MRT .F               120:   Maximum recorded temp.
 LUN .            HL-6274:   Logging unit number
 LUL .           GILLETTE:   Logging unit location
 ENGI.             RAUTIO:   Recorded By
 WITN.             STRONG:   Witnessed by
 ORIG.        2" 5" PRINT:   Origin of data
 UWI .     49025111180000:   Unique Well ID
 DICO. A2D TECHNOLOGIES, INC.:   Digitizing Company
~OTHER INFORMATION
~A    DEPT    CALD        DEN       CORR       NPOR        SPR         GRR       SFL        ILD        ILM       TENR   
# ...
 1850.0000  -999.2500  -999.2500  -999.2500  -999.2500   -73.7956   133.5325    10.0859     8.4878     8.1043   -43.7626
 1850.5000  -999.2500  -999.2500  -999.2500  -999.2500   -73.7986   131.9202    10.1774     8.4076     8.1017   -43.5145
 1851.0000  -999.2500  -999.2500  -999.2500  -999.2500   -74.0024   132.7174     9.9884     8.2514     7.9511   -43.2665
 1851.5000  -999.2500  -999.2500  -999.2500  -999.2500   -74.0036   130.3019     9.8030     8.1734     7.8760   -43.0185
 1852.0000  -999.2500  -999.2500  -999.2500  -999.2500   -74.8115   123.0675     9.6214     8.0962     7.8016   -72.9515
 1852.5000  -999.2500  -999.2500  -999.2500  -999.2500   -74.2121   124.2675     9.6197     8.0943     7.7279   -42.5224
 1853.0000  -999.2500  -999.2500  -999.2500  -999.2500   -73.8135   127.4728     9.5289     8.0178     7.7268   -42.2744
 1853.5000  -999.2500  -999.2500  -999.2500  -999.2500   -73.4154   128.2701     9.5267     8.0160     7.7243   -42.0263
 1854.0000  -999.2500  -999.2500  -999.2500  -999.2500   -73.0168   128.2641     9.4368     7.9402     7.7226   -41.7783
 1854.5000  -999.2500  -999.2500  -999.2500  -999.2500   -73.6222   126.6517     9.4351     7.9384     7.7208   -41.5302
 1855.0000  -999.2500  -999.2500  -999.2500  -999.2500   -73.8260   127.8506     9.4325     7.8634     7.5773   -41.2822
 1855.5000  -999.2500  -999.2500  -999.2500  -999.2500   -73.8278   128.2463     9.4308     7.5756     7.2999   -41.0342
 1856.0000  -999.2500  -999.2500  -999.2500  -999.2500   -73.8320   128.2403     9.4277     7.1643     6.9036   -40.7861
 1856.5000  -999.2500  -999.2500  -999.2500  -999.2500   -73.6341   132.2504     9.4252     6.5288     6.3498   -50.5985
 1857.0000  -999.2500  -999.2500  -999.2500  -999.2500   -73.0347   130.2364     9.4230     5.9496     5.8948   -50.3504
 1857.5000  -999.2500  -999.2500  -999.2500  -999.2500   -72.4352   123.8036     9.1624     5.5230     4.9414   -50.0528
 1858.0000  -999.2500  -999.2500  -999.2500  -999.2500   -71.8358   122.9945     8.5073     5.3209     4.6304   -49.8047
 1858.5000  -999.2500  -999.2500  -999.2500  -999.2500   -71.4372   115.7597     6.0930     5.1738     4.6294   -39.4963
 1859.0000  -999.2500  -999.2500  -999.2500  -999.2500   -71.2394   114.5489     4.7585     5.0777     4.7149   -39.2483
 1859.5000  -999.2500  -999.2500  -999.2500  -999.2500   -71.2423   115.7478     5.0765     4.8918     4.7577   -39.0003
 1860.0000  -999.2500  -999.2500  -999.2500  -999.2500   -71.4461   118.1515     6.2229     4.8009     4.7127   -58.9226
 1860.5000  -999.2500  -999.2500  -999.2500  -999.2500   -71.4491   120.9567     8.0644     4.7116     4.6251   -58.4761
 1861.0000  -999.2500  -999.2500  -999.2500  -999.2500   -72.0545   120.5492     6.7611     4.7544     4.6241   -58.4265
 1861.5000  -999.2500  -999.2500  -999.2500  -999.2500   -72.0574   120.1416     5.7744     4.8873     4.7095   -58.1785
 1862.0000  -999.2500  -999.2500  -999.2500  -999.2500   -72.0610   120.5373     5.3606     5.0707     4.9774   -57.9180
 1862.5000  -999.2500  -999.2500  -999.2500  -999.2500   -72.0640   123.3425     6.2158     5.1644     5.0695   -57.6576
 1863.0000  -999.2500  -999.2500  -999.2500  -999.2500   -72.4690   126.5494     7.7621     5.2598     5.2112   -57.3972
 1863.5000  -999.2500  -999.2500  -999.2500  -999.2500   -73.0731   126.5435     8.3563     5.3569     5.3569   -57.1367
 1864.0000  -999.2500  -999.2500  -999.2500  -999.2500   -73.4777   126.5375     8.0996     5.6616     5.4559   -56.8763
 1864.5000  -999.2500  -999.2500  -999.2500  -999.2500   -74.0831   129.7444     7.1133     5.7130     5.5564   -56.6159
 1865.0000  -999.2500  -999.2500  -999.2500  -999.2500   -74.4877   139.7785     7.0461     5.7649     5.6068   -56.3554
 1865.5000  -999.2500  -999.2500  -999.2500  -999.2500   -74.6915   144.5910     7.0445     5.8172     5.6056   -56.0950
 1866.0000  -999.2500  -999.2500  -999.2500  -999.2500   -74.6932   145.3907     7.3086     5.8159     5.6043   -55.8469
 1866.5000  -999.2500  -999.2500  -999.2500  -999.2500   -74.6962   142.5723     7.5126     5.8146     5.6030   -45.5385
 1867.0000  -999.2500  -999.2500  -999.2500  -999.2500   -74.7012   138.9519     7.5808     5.8132     5.6017   -45.2905
 1867.5000  -999.2500  -999.2500  -999.2500  -999.2500   -74.7042   137.7412     7.5790     5.7583     5.6004   -45.0424
 1868.0000  -999.2500  -999.2500  -999.2500  -999.2500   -74.7071   137.3336     7.3019     5.7570     5.4964   -44.7944
 1868.5000  -999.2500  -999.2500  -999.2500  -999.2500   -74.7089   136.5245     7.3002     5.6500     5.3942   -44.5464
 1869.0000  -999.2500  -999.2500  -999.2500  -999.2500   -73.9099   134.5105     6.9685     5.5450     5.2939   -44.2983
 1869.5000  -999.2500  -999.2500  -999.2500  -999.2500   -73.5113   132.4965     6.7761     5.3917     5.0531   -44.0503
 1870.0000  -999.2500  -999.2500  -999.2500  -999.2500   -73.3140   130.8826     6.7121     5.1465     4.8232   -43.8023
 1870.5000  -999.2500  -999.2500  -999.2500  -999.2500   -72.9154   127.6638     6.8989     4.7777     4.5193   -43.5542
 1871.0000  -999.2500  -999.2500  -999.2500  -999.2500   -72.9184   122.8386     6.8344     4.4766     4.0730   -43.3062
 1871.5000  -999.2500  -999.2500  -999.2500  -999.2500   -72.5197   122.8327     6.7711     4.1556     3.7879   -43.0085
 1872.0000  -999.2500  -999.2500  -999.2500  -999.2500   -71.9203   126.4376     5.5434     4.0035     3.7870   -42.7605
 1872.5000  -999.2500  -999.2500  -999.2500  -999.2500   -71.9215   127.6400     4.7162     4.0775     3.8570   -52.5728
 1873.0000  -999.2500  -999.2500  -999.2500  -999.2500   -71.1231   128.0357     4.4311     4.2304     3.9282   -52.3248
 1873.5000  -999.2500  -999.2500  -999.2500  -999.2500   -71.5276   130.4393     4.8153     4.3892     4.0380   -52.0768
 1874.0000  -999.2500  -999.2500  -999.2500  -999.2500   -72.1330   130.8338     5.7944     4.5119     4.1895   -71.9494
 1874.5000  -999.2500  -999.2500  -999.2500  -999.2500   -72.3368   128.8198     7.3712     4.6380     4.3066   -51.5807
 1875.0000  -999.2500  -999.2500  -999.2500  -999.2500   -72.5406   126.0027     7.2112     4.7237     4.4682   -51.3327
 1875.5000  -999.2500  -999.2500  -999.2500  -999.2500   -72.5435   124.3879     6.6950     4.6359     4.5088   -41.0243
 1876.0000  -999.2500  -999.2500  -999.2500  -999.2500   -72.3457   123.5811     6.4502     4.5078     4.3037   -30.7159
 1876.5000  -999.2500  -999.2500  -999.2500  -999.2500   -72.1467   122.3704     6.1571     4.3832     3.9953   -40.5282
 1877.0000  -999.2500  -999.2500  -999.2500  -999.2500   -71.1692   119.9548     5.9871     4.1838     3.6409   -40.2801
 1877.5000  -999.2500  -999.2500  -999.2500  -999.2500   -70.7474   116.7360     5.3071     4.1060     3.6065   -40.0321
 1878.0000  -999.2500  -999.2500  -999.2500  -999.2500   -70.7510   113.5173     4.2885     4.0297     3.7073   -39.7841
 1878.5000  -999.2500  -999.2500  -999.2500  -999.2500   -70.7540   115.1177     4.0936     3.9916     3.8109   -39.5360
 1879.0000  -999.2500  -999.2500  -999.2500  -999.2500   -70.7570   119.9310     4.9992     3.9905     3.8453   -39.2384
 1879.5000  -999.2500  -999.2500  -999.2500  -999.2500   -70.7599   123.1379     6.1050     3.9896     3.8445   -38.9904
 1880.0000  -999.2500  -999.2500  -999.2500  -999.2500   -70.7629   119.9191     7.3289     3.9893     3.8436   -48.8027
 1880.5000  -999.2500  -999.2500  -999.2500  -999.2500   -70.7659   113.8891     5.4355     3.9878     3.8427   -38.4943
 1881.0000  -999.2500  -999.2500  -999.2500  -999.2500   -70.7689   114.6852     4.3624     4.0240     3.8776   -38.2462
 1881.5000  -999.2500  -999.2500  -999.2500  -999.2500   -70.7718   121.5041     5.1257     4.0605     3.9128   -48.0586
 1882.0000  -999.2500  -999.2500  -999.2500  -999.2500   -70.7748   125.9182     6.0224     4.0974     3.9774   -47.8105
 1882.5000  -999.2500  -999.2500  -999.2500  -999.2500   -70.9786   127.5187     6.5105     4.1731     4.0512   -37.5021
 1883.0000  -999.2500  -999.2500  -999.2500  -999.2500   -70.9816   126.3079     5.1631     4.2897     4.1650   -37.2541
