~VERSION INFORMATION
 VERS.                2.0:   CWLS LOG ASCII STANDARD - VERSION 2.0
 WRAP.                 NO:   ONE LINE PER DEPTH STEP
~WELL INFORMATION
#MNEM.UNIT      DATA TYPE    INFORMATION
#----------   ------------   ------------------------------
 STRT.F           27.5000:   START DEPTH
 STOP.F         5889.0000:   STOP DEPTH
 STEP.F            0.5000:   STEP LENGTH
 NULL.          -999.2500:   NO VALUE
 COMP.   LAWRENCE ALLISON:   COMPANY
 WELL. LAWRENCE "X" #25-11:   WELL
 FLD .        N.P.R NO. 3:   FIELD
 LOC .      S11 T38N R78W:   LOCATION
 CNTY.            NATRONA:   COUNTY
 STAT.            WYOMING:   STATE
 CTRY. UNITED STATES OF AMERICA:   COUNTRY
 SRVC.      DRESSER ATLAS:   SERVICE COMPANY
 DATE.        09-FEB-1983:   LOGDATE
 API .     49025109170000:   API NUMBER
~CURVE INFORMATION
#MNEM.UNIT       API CODE    CURVE DESCRIPTION
#----------   ------------   ------------------------------
 DEPT.F                  :   
 CN  .DEC    42 890 03 00:   NEUTRON POROSITY
 GRD .GAPI   45 310 01 00:   GAMMA RAY FROM DENSITY LOG
 CORR.G/C3   45 356 01 00:   DENSITY CORRECTION
 DEN .G/C3   45 350 01 00:   BULK DENSITY
 CALD.IN     45 280 60 00:   CALIPER FROM DENSITY LOG
 TEND.LBS    45 635 01 00:   TENSION FORM DENSITY LOG
 GRS .GAPI   60 310 01 00:   GAMMA RAY FROM SONIC LOG
 TENS.LBS    60 635 01 00:   TENSION FROM SONIC
 DT  .US/F   60 520 00 00:   DELTA TIME
 SPR .MV     11 010 01 00:   SPONTANEOUS POTENTIAL FROM RES.
 RD  .OHMM   11 220 10 00:   RESISTIVITY DEEP
 RS  .OHMM   11 220 09 00:   RESISTIVITY SHALLOW
 RMLL.OHMM   11 270 04 00:   MICRO LATEROLOG
 TENR.LBS    11 635 01 00:   TENSION FROM RES.
~PARAMETER INFORMATION
#MNEM.UNIT          VALUE    DESCRIPTION
#----------   ------------   ------------------------------
 EKB .F         5196.0000:   Kelly bushing
 EGL .F         5186.0000:   Ground level
 TD  .F         5883.0000:   Total depth
 CLNT.            A2DTECH:   Client Code
 SL  . 1989' FSL & 1148' FWL:   Surface Location
 PD  .                 GL:   Permanent Datum
 EPD .F              5186:   Elevation Permanent Datum
 LMF .                 KB:   Log Measured From
 DMF .                 KB:   Drilling Measured From
 DAPD.F                10:   Feet Above Permanent Datum
 DATE.        09-FEB-1983:   Date Logged [DD-MMM-YYYY]
 DD  .F              5883:   Depth driller
 DL  .F              5882:   Depth logger
 BLI .F              5871:   Bottom log interval
 TLI .F               700:   Top log interval
 CS1 .IN            9.625:   Casing size
 CBD1.      9.625" @ 701':   Casing driller 1
 CBL1.F               700:   Casing logger 1
 BS1 .IN             8.75:   Bit size
 BSD1.F              5883:   Depth drilled with bit1
 DFT .    HEC/DRISPAC/KCL:   Type fluid in hole
 DFD .                  9:   Density
 DFV .                 35:   Viscosity
 DFPH.                  8:   pH
 DFL .                6.4:   Fluid loss
 MSS .           FLOWLINE:   Source of sample
 RMS .OHMM           0.23:   Rm
 MST .F                50:   Rm Meas. temp.
 RMF .OHMM           0.17:   Rmf
 MFST.F                54:   Rmf Meas. temp.
 MFSS.               MEAS:   Source Rmf.
 BHT .F               176:   BHT.
 TCS .HRS              10:   Time Circ. stopped
 MRT .F               176:   Maximum recorded temp.
 LUN .               6274:   Logging unit number
 LUL .               GLTE:   Logging unit location
 ENGI.          TOLLEFSON:   Recorded By
 WITN.           JENNINGS:   Witnessed by
 ORIG.           5" PRINT:   Origin of data
 UWI .     49025109170000:   Unique Well ID
 DICO. A2D TECHNOLOGIES, INC.:   Digitizing Company
 RMC .OHMM           0.41:   Rmc
 MCST.F                54:   Rmc Meas. temp.
 MCSS.               MEAS:   Source Rmc.
~OTHER INFORMATION
~A  DEPTH       CN        GRD       CORR        DEN       CALD       TEND        GRS       TENS         DT        SPR         RD         RS       RMLL       TENR
# ...
 3800.5000     0.2441   192.1709     0.0472     2.4171     9.7206   -35.4582   154.6832   -59.3604    88.3838   -87.3874     7.3236     6.8870     6.4029   -52.7970
 3801.0000     0.2670   195.1411     0.0636     2.3645     9.7259   -35.4582   157.0297   -59.4734    91.7175   -87.3874     5.5153     4.6663     3.7045   -45.7779
 3801.5000     0.2820   197.5268     0.1221     2.3078     9.7350   -35.4582   161.4215   -59.5865   101.2812   -87.0871     3.3684     3.2506     1.0081   -46.4024
 3802.0000     0.2805   197.7832     0.2197     2.2332     9.7615   -33.9991   163.7651   -67.2640   110.3804   -87.0871     3.0558     2.9421     0.5519   -39.2583
 3802.5000     0.2752   195.3490     0.1549     2.2294     9.7875   -32.5913   158.8016   -67.3770   108.3541   -86.7868     2.9301     3.1574     0.5111   -32.2393
 3803.0000     0.2719   195.0209     0.0688     2.2911     9.8133   -31.1833   155.0063   -67.4901   104.4538   -86.4865     3.8103     4.1652     1.1551   -32.8637
 3803.5000     0.2650   197.3987     0.0388     2.3536     9.8322   -29.7756   153.2578   -67.6032    98.9386   -86.1862     5.2373     5.3444     4.3017   -33.4885
 3804.0000     0.2627   200.6544     0.0702     2.4167     9.8376   -28.3651   154.4332   -75.2806    92.9516   -86.3363     6.9049     6.1365     8.8300   -41.5070
 3804.5000     0.2609   206.0210     0.0806     2.4415     9.8433   -26.9465   159.4098   -75.3937    91.5541   -86.7868     7.2956     6.9510     9.3281   -42.0064
 3805.0000     0.2591   208.3916     0.0729     2.4580     9.8489   -25.4980   164.3864   -75.5067    92.9412   -87.3874     7.2411     6.7537     8.5199   -50.0250
 3805.5000     0.2567   211.3618     0.0667     2.4685     9.8545   -27.1680   166.7314   -75.6199    94.0490   -87.9880     7.0889     6.3851     7.8913   -50.5262
 3806.0000     0.2543   216.1311     0.0636     2.4753     9.8602   -28.9044   168.7841   -83.2972    94.5527   -88.4384     6.8921     6.0787     7.5142   -51.1492
 3806.5000     0.2523   219.7722     0.0755     2.4796     9.8658   -30.6408   171.4215   -90.9746    94.7684   -88.7387     6.7408     5.9499     7.4070   -51.6489
 3807.0000     0.2499   222.0644     0.0889     2.4784     9.8701   -32.3772   173.7665   -91.0877    94.9200   -89.0390     6.7441     5.9460     7.5062   -59.6674
 3807.5000     0.2490   223.8353     0.1022     2.4757     9.8700   -34.1135   178.4507   -68.5079    95.1387   -89.1892     6.8342     6.1945     7.7734   -60.1671
 3808.0000     0.2584   228.0049     0.1081     2.4719     9.8700   -34.8396   189.5677   -68.6210    95.3613   -89.1892     6.9745     6.4095     8.3173   -60.6766
 3808.5000     0.2677   232.5447     0.1019     2.4636     9.8700   -32.0979   194.8212   -68.7341    95.5090   -89.1892     6.9712     6.5404     8.7861   -61.2913
 3809.0000     0.2677   236.3370     0.1093     2.4537     9.8700   -29.3563   198.1034   -68.8472    96.0315   -89.1892     6.7229     6.5365     9.0906   -61.7911
 3809.5000     0.2708   237.2154     0.1122     2.4507     9.8699   -26.6146   199.5261   -68.9603    97.5285   -89.1892     6.4087     6.0946     8.3618   -62.2557
 3810.0000     0.2750   233.2820     0.1105     2.4529     9.8771   -22.2479   195.0687   -69.0733    97.4512   -89.1892     6.3176     5.9241     7.2109   -62.7903
 3810.5000     0.2762   225.9980     0.0983     2.4573     9.8880   -16.7645   191.1354   -69.1864    94.8253   -89.1892     6.3586     6.0864     6.5554   -63.3082
 3811.0000     0.2654   219.4252     0.0847     2.4550     9.8743   -11.2812   185.3745   -69.2995    91.6746   -88.8889     6.4443     6.2976     6.7358   -63.9144
 3811.5000     0.2582   218.1975     0.0693     2.4090     9.8524    -5.5777   181.9152   -68.0879    89.9482   -88.6822     6.5327     6.3828     6.8264   -64.4142
 3812.0000     0.2583   217.5695     0.0888     2.3389     9.8860   -10.3396   178.4209   -66.7927    90.1708   -88.4384     6.4823     6.2034     5.8386   -57.2701
 3812.5000     0.2622   213.6432     0.1173     2.2549     9.9289   -15.3007   174.9022   -66.7927    91.9677   -87.9880     6.3461     5.9812     2.0033   -60.1484
 3813.0000     0.2785   200.7143     0.1337     2.1422     9.9712   -20.2618   170.6529   -66.7927    95.1865   -87.3874     6.0850     5.5439     0.9288   -67.5940
 3813.5000     0.2983   186.7556     0.1286     2.0413    10.0349   -25.4980   157.2854   -66.7927    99.2126   -86.7868     5.4821     4.6904     0.6045   -60.3537
 3814.0000     0.3211   175.1681     0.0702     1.9042    10.6163   -25.4980   142.9920   -66.7927   108.3025   -86.1862     4.0684     3.3828     0.5153   -38.1557
 3814.5000     0.3191   172.1413     0.0009     1.7505    11.5467   -25.4980   135.2448   -66.7927   123.6807   -85.2853     2.3365     2.2604     0.3151   -15.8859
 3815.0000     0.2849   178.7097    -0.0053     1.8152    11.9032   -25.4980   135.8673   -74.3570   136.3344   -84.3844     1.7101     1.7099     0.2523   -23.6914
 3815.5000     0.2837   189.7602    -0.0235     1.9562    11.9125   -45.4183   141.1785   -66.7927   128.6944   -83.7838     1.6400     1.6636     0.2227   -47.2655
 3816.0000     0.2876   200.2622     0.0591     2.3624    10.9110   -45.4183   150.5274   -66.7927   114.2283   -83.3333     2.3988     2.3520     0.3663   -69.4491
 3816.5000     0.2784   208.0031     0.1131     2.4769    10.0616   -45.4183   162.7752   -66.7927    96.9980   -83.1832     3.7349     3.1028     1.0096   -69.7358
 3817.0000     0.2622   215.7709     0.1310     2.4987    10.1010   -45.4183   175.6374   -66.7927    90.2983   -83.3333     6.1173     4.6058     3.0826   -70.0225
 3817.5000     0.2598   219.9996     0.1263     2.4632    10.0924   -45.4183   183.2456   -66.7927    90.8958   -82.8829     7.4066     5.8688     7.6273   -70.3092
 3818.0000     0.2595   222.9036     0.1202     2.3593    10.0817   -45.4183   186.1834   -66.7927    94.7916   -73.4234     6.7183     6.3297     6.7305   -78.1202
 3818.5000     0.2589   218.6775     0.1636     2.3344    10.0704   -45.4183   182.0878   -66.7927    97.1132   -70.7207     6.5318     6.4590     6.1482   -78.4729
 3819.0000     0.2572   210.8531     0.2191     2.3275    10.0699   -45.4183   176.2457   -66.0755    96.5862   -70.8709     6.7587     6.5011     5.7268   -78.7596
 3819.5000     0.2473   204.8052     0.2520     2.3764    10.0702   -45.4183   165.4328   -61.4874    95.2346   -78.0387     7.0012     6.3624     5.4980   -79.0461
 3820.0000     0.2404   197.5960     0.2204     2.4313    10.0755   -45.4183   159.8831   -66.7927    94.0329   -85.7357     7.4908     6.4925     6.2232   -71.8045
 3820.5000     0.2470   200.5662     0.1675     2.4676    10.0807   -45.4183   160.7662   -66.7927    92.2315   -87.9880     7.5926     6.3935     6.0084   -72.1053
 3821.0000     0.2524   204.7358     0.1478     2.5080    10.0859   -45.4183   161.0645   -59.2284    90.8050   -89.0390     6.9831     6.3501     5.8818   -64.8872
 3821.5000     0.2588   205.9108     0.1281     2.5298    10.0891   -45.4183   161.6551   -59.2284    89.0786   -89.4895     6.7900     6.3914     6.0031   -57.6365
 3822.0000     0.2639   204.0725     0.1158     2.5425    10.0837   -41.1728   164.0002   -59.2284    90.2008   -89.7898     6.5982     6.1688     6.0824   -50.4043
 3822.5000     0.2576   204.6510     0.1098     2.5485    10.0785    -5.3598   166.6376   -59.2284    92.5224   -89.9399     6.1130     5.6725     5.7910   -50.7627
 3823.0000     0.2478   204.3158     0.1126     2.5447    10.0733    30.4532   168.1055   -59.2284    94.0943   -89.9399     5.7013     5.1721     4.7684   -58.5714
 3823.5000     0.2463   202.4884     0.1305     2.5326    10.0700    64.1434   169.2809   -51.6641    95.5913   -89.9399     5.1722     4.6321     3.6387   -51.3359
 3824.0000     0.2576   197.6578     0.1470     2.5204    10.0700    20.7883   169.8716   -44.0998    97.2382   -89.8709     4.7906     4.4405     2.7384   -51.6943
 3824.5000     0.2602   189.5335     0.1543     2.5264    10.0700   -20.1409   165.7838   -36.5356    97.9106   -89.7898     4.6575     4.4078     2.3134   -51.9809
