~VERSION INFORMATION
 VERS.                2.0:   CWLS LOG ASCII STANDARD - VERSION 2.0
 WRAP.                 NO:   ONE LINE PER DEPTH STEP
~WELL INFORMATION
#MNEM.UNIT      DATA TYPE    INFORMATION
#----------   ------------   ------------------------------
 STRT.F          466.5000:   START DEPTH
 STOP.F         3184.0000:   STOP DEPTH
 STEP.F            0.5000:   STEP LENGTH
 NULL.          -999.2500:   NO VALUE
 COMP. LAWRENCE ALLISON AND ASSOCIATES:   COMPANY
 WELL. LAWRENCE 66 "X" #3-28:   WELL
 FLD .              N P R:   FIELD
 LOC .      S28 T39N R78W:   LOCATION
 CNTY.            NATRONA:   COUNTY
 STAT.            WYOMING:   STATE
 CTRY. UNITED STATES OF AMERICA:   COUNTRY
 SRVC.      DRESSER ATLAS:   SERVICE COMPANY
 DATE.        16-APR-1986:   LOGDATE
 API .     49025111340000:   API NUMBER
~CURVE INFORMATION
#MNEM.UNIT       API CODE    CURVE DESCRIPTION
#----------   ------------   ------------------------------
 DEPT.F                  :   
 RHOB.G/C3   45 350 01 00:   BULK DENSITY
 CORR.G/C3   45 356 01 00:   DENSITY CORRECTION
 TEND.LBS    45 635 01 00:   TENSION FROM DENSITY LOG
 NPHI.DEC    42 890 03 00:   NEUTRON POROSITY SANDSTONE
 DT  .US/F   60 520 00 00:   DELTA TIME
 TENS.LBS    51 635 01 00:   TENSION
 CALR.IN     07 280 01 00:   CALIPER FROM RESISTIVITY
 SPR .MV     07 010 01 00:   SPONTANEOUS POTENTIAL
 TENR.LBS    07 635 01 00:   TENSION FROM RESISTIVITY
 RFOC.OHMM   07 220 04 00:   RESISTIVITY FOCUSED LOG RES.
 GRR .GAPI   07 310 01 00:   GAMMA RAY FROM RESISTIVITY
 RILD.OHMM   07 120 46 00:   DEEP INDUCTION RESISTIVITY
 RILM.OHMM   07 120 44 00:   INDUCTION LOG MEDIUM RESISTIVITY
~PARAMETER INFORMATION
#MNEM.UNIT          VALUE    DESCRIPTION
#----------   ------------   ------------------------------
 EKB .F         5071.0000:   Kelly bushing
 EGL .F         5059.0000:   Ground level
 TD  .F         3176.0000:   Total depth
 DATE.        16-APR-1986:   Date logged
 CLNT.            A2DTECH:   Client Code
 SL  . 1685' FEL & 1915'FSL:   Surface Location
 PD  .                 GL:   Permanent Datum
 EPD .F              5059:   Elevation Permanent Datum
 LMF .                 KB:   Log Measured From
 DD  .F              3176:   Depth driller
 DL  .F              3176:   Depth logger
 BLI .F              3174:   Bottom log interval
 TLI .F               480:   Top log interval
 CS1 .IN            8.625:   Casing size
 BS1 .IN            7.875:   Bit size
 DFT .        POLYMER KCL:   Type fluid in hole
 DFD .                  9:   Density
 DFV .                 40:   Viscosity
 DFPH.                8.5:   pH
 DFL .               10.2:   Fluid loss
 MSS .           FLOWLINE:   Source of sample
 RMS .OHMM           .226:   Rm
 MST .F                65:   Rm Meas. temp.
 RMF .OHMM           .169:   Rmf
 MFST.F                65:   Rmf Meas. temp.
 RMC .OHMM           .283:   Rmc
 MCST.F                65:   Rmc Meas. temp.
 MFSS.               CALC:   Source Rmf.
 MCSS.               CALC:   Source Rmc.
 RMB .OHMM           .118:   Rm. at BHT
 BHT .F               125:   BHT.
 TCS .HRS               5:   Time Circ. stopped
 MRT .F               125:   Maximum recorded temp.
 LUN .               6264:   Logging unit number
 LUL .           GILLETTE:   Logging unit location
 ENGI.             MILLER:   Recorded By
 WITN.             STRONG:   Witnessed by
 ORIG.           5" PRINT:   Origin of data
 UWI .     49025111340000:   Unique Well ID
 DICO. A2D TECHNOLOGIES, INC.:   Digitizing Company
 DMF .                 KB:   Drilling Measured From
 DAPD.F                12:   Feet Above Permanent Datum
 CBD1.      8.625" @ 475':   Casing driller 1
 CBL1.F               480:   Casing logger 1
 BSD1.F              3176:   Depth drilled with bit1
~OTHER INFORMATION
~A   DEPT     RHOB       CORR       TEND       NPHI         DT       TENS       CALR        SPR       TENR       RFOC         GRR      RILD       RILM   
# ...
 2442.5000     2.5100    -0.0340   -66.1320     0.2470    85.6200  -102.5120    10.6100   -90.9110  -100.3390     5.9570   108.9910     5.6790     6.0170
 2443.0000     2.5130    -0.0140   -73.6190     0.2300    85.1520  -100.9160    10.6070   -91.8840   -98.6390     6.3540   103.3310     5.9780     6.2830
 2443.5000     2.5180     0.0080   -81.1050     0.2210    84.3580   -99.3210    10.6030   -92.5680   -96.9390     6.6660   101.0720     6.2780     6.5490
 2444.0000     2.5230     0.0300   -88.5910     0.2210    83.1290   -97.7250    10.6000   -92.7480   -95.2390     6.9300    99.0710     6.5770     6.8150
 2444.5000     2.5270     0.0390   -96.0780     0.2330    82.0080   -96.1290    10.5960   -92.9960   -98.4850     7.0960    99.9850     6.9030     7.0140
 2445.0000     2.5280     0.0240  -103.5640     0.2370    81.5290   -94.5340    10.5920   -93.1190  -102.5380     7.0960   100.9930     6.9340     7.1790
 2445.5000     2.5310     0.0160   -93.6120     0.2370    81.0730  -107.6980    10.5700   -93.2380  -111.9000     7.3760   100.6700     6.9670     7.3440
 2446.0000     2.5370     0.0230   -80.5110     0.2390    80.2210  -120.8630    10.5160   -93.4660  -119.6400     7.7390    99.4700     7.4020     7.5090
 2446.5000     2.5430     0.0290   -73.6150     0.2410    79.3680  -105.8170    10.4730   -93.8450   -96.9500     7.9260    98.5790     7.7820     7.6750
 2447.0000     2.5490     0.0330   -71.7430     0.2440    79.7580   -79.4880    10.4390   -94.2290   -73.5330     7.5880    98.6090     7.7940     7.7810
 2447.5000     2.5550     0.0460   -69.8720     0.2430    80.1680   -72.6500    10.4060   -94.3010   -65.0000     7.2240    98.6720     7.8050     7.4990
 2448.0000     2.5510     0.0580   -68.0000     0.2350    80.5770   -91.7980    10.3720   -94.3040   -76.6140     7.0960   101.3680     7.8170     7.5440
 2448.5000     2.5450     0.0660   -66.1290     0.2250    80.7720  -100.5820    10.3370   -94.1590   -87.9070     7.3850   104.6150     7.8280     7.5960
 2449.0000     2.5400     0.0660   -68.5350     0.2190    80.7720   -88.6380    10.3360   -93.9580   -90.9090     7.5830   107.7850     7.8400     7.6490
 2449.5000     2.5350     0.0530   -88.1760     0.2250    80.7720   -76.6940    10.3430   -93.7560   -79.9100     7.7820   110.9440     7.8510     7.7100
 2450.0000     2.5330     0.0380  -107.8170     0.2290    80.7720   -64.7500    10.3510   -93.5550   -68.9100     7.9990   112.9120     7.8610     7.6690
 2450.5000     2.5300     0.0330  -123.5470     0.2320    80.7720   -54.4130    10.3780   -93.3520   -57.9100     7.9990   111.6320     7.8700     7.6220
 2451.0000     2.5270     0.0300  -114.7290     0.2240    81.0980   -59.8290    10.4050   -93.0160   -55.0000     7.7340   110.0800     7.8790     7.5750
 2451.5000     2.5250     0.0250   -75.9520     0.2160    81.5330   -91.1230    10.4060   -92.6310   -76.7780     7.5630   107.6080     7.8880     7.5280
 2452.0000     2.5220     0.0130   -51.6280     0.2080    81.9680  -109.3780    10.4010   -92.2440  -105.0000     7.3930   104.4550     7.8970     7.4990
 2452.5000     2.5190     0.0000   -44.5890     0.2080    82.1260   -81.9960    10.3950   -92.0090  -148.3330     7.2220   101.2940     7.9060     7.5730
 2453.0000     2.5170    -0.0120   -57.4680     0.2090    81.5750   -38.5320    10.3900   -91.8590   -65.0000     7.0960    98.7480     7.9160     7.6630
 2453.5000     2.5170    -0.0100   -71.4160     0.2110    80.6970     5.7670    10.3810   -91.7160   -10.2000     7.6200    96.5370     7.9250     7.7530
 2454.0000     2.5200     0.0030   -84.6690     0.2120    79.7660   -16.9680    10.3730   -92.0930    12.8500     8.1480    94.5020     8.1410     7.8430
 2454.5000     2.5230     0.0150  -101.7170     0.2190    78.9370   -33.4840    10.3650   -92.5330   -25.7000     8.0730    94.2210     8.3810     7.9330
 2455.0000     2.5250     0.0240   -98.2300     0.2280    78.6630   -30.0070    10.3570   -92.9770   -35.0000     8.1780    95.6480     8.5420     8.0230
 2455.5000     2.5270     0.0120   -94.6890     0.2380    78.5100   -26.5300    10.3480   -93.4180   -35.0000     8.2460    97.5490     8.5690     8.1480
 2456.0000     2.5280     0.0000   -82.8040     0.2360    78.3560   -29.0870    10.3410   -93.8580   -33.0180     8.2990    99.4410     8.5960     7.9750
 2456.5000     2.5300     0.0090   -70.7340     0.2360    78.3220   -42.1260    10.3340   -94.2960   -28.3450     8.1010   101.7840     8.6110     7.8710
 2457.0000     2.5320     0.0340   -51.7030     0.2440    78.4640   -64.2890    10.3410   -94.7420   -36.2310     7.9100   105.4070     8.2970     7.7660
 2457.5000     2.5340     0.0590   -25.5510     0.2530    78.8470   -88.3610    10.3650   -95.0380   -75.7690     7.7880   109.6150     8.0800     7.6620
 2458.0000     2.5360     0.0600    -6.5530     0.2610    79.8220  -124.6240    10.3890   -95.1990  -115.3080     7.6590   113.1940     7.8530     7.5580
 2458.5000     2.5350     0.0520   -17.0140     0.2640    80.7970   -90.2710    10.4130   -95.2170  -100.0570     7.3090   110.8470     7.7200     7.4530
 2459.0000     2.5350     0.0450   -36.4350     0.2590    81.7720   -51.1530    10.4360   -94.9760   -67.0140     7.0800   106.8230     7.5800     7.3490
 2459.5000     2.5360     0.0540   -78.9330     0.2520    82.7470   -65.9480    10.4600   -94.7390   -35.0000     7.0380   106.1950     7.4460     7.2450
 2460.0000     2.5360     0.0700  -121.4300     0.2490    82.9910   -92.0260    10.4830   -94.5020   -72.1000     6.8950   106.2010     7.3200     7.1400
 2460.5000     2.5340     0.0740  -141.7170     0.2540    83.1220  -111.0830    10.4800   -94.2680  -105.0000     6.7150   106.2970     7.1930     7.0360
 2461.0000     2.5290     0.0700   -80.6950     0.2540    83.2380   -85.0050    10.4650   -94.0650   -91.8710     6.7490   102.8180     7.0660     6.9320
 2461.5000     2.5220     0.0660   -14.5290     0.2500    83.3420   -74.4730    10.4510   -93.7840   -79.7760     6.7770    99.9810     6.9720     6.8810
 2462.0000     2.5150     0.0620   -30.1200     0.2370    83.2860   -74.4730    10.4270   -93.4970   -67.6820     6.7150    99.4200     6.8900     6.8400
 2462.5000     2.5080     0.0510   -40.5810     0.2230    83.1190   -74.4730    10.3860   -93.2080   -65.0000     6.7840    98.8240     6.8400     6.8780
 2463.0000     2.5070     0.0260   -51.0420     0.2240    82.9110   -56.8490    10.3450   -93.0590   -65.0000     6.8720    98.8250     6.8590     6.9450
 2463.5000     2.5090     0.0080   -61.5030     0.2260    82.6410   -64.3000    10.3030   -92.9530   -65.0000     6.9600   101.9130     6.8730     7.0110
 2464.0000     2.5120     0.0200   -71.9640     0.2280    82.2640   -71.7510    10.2970   -92.8520   -66.8520     7.0490   106.4920     6.8880     7.0770
 2464.5000     2.5150     0.0310   -82.4250     0.2310    81.8870   -79.2020    10.3070   -92.7480   -73.5570     7.1620   105.8530     6.9030     7.1620
 2465.0000     2.5180     0.0230   -80.5610     0.2430    81.4740   -86.6530    10.3170   -92.8980   -80.2610     7.0740   103.1270     6.7590     7.0300
 2465.5000     2.5210     0.0140   -75.3310     0.2490    81.6510   -94.5340    10.3280   -93.2700   -86.9650     6.9520   101.8930     6.6010     6.8470
 2466.0000     2.5240     0.0260   -70.1000     0.2470    81.9550   -79.4110    10.3200   -93.6450   -93.6700     6.8290   104.8550     6.4130     6.6640
 2466.5000     2.5180     0.0350   -64.6290     0.2480    82.4460   -63.3630    10.3070   -94.0180   -81.2670     6.7070   108.0840     6.4830     6.5920
 2467.0000     2.5080     0.0110   -45.9170     0.2540    82.9360   -59.8410    10.2940   -94.3070   -65.0000     6.5850   109.3420     6.5320     6.5920
 2467.5000     2.5010    -0.0130   -37.7180     0.2490    83.3800   -72.1130    10.2810   -94.3010   -72.7140     6.4720   108.5720     6.1740     6.4910
 2468.0000     2.4980    -0.0300   -44.5890     0.2420    83.4800   -84.3860    10.2690   -94.3000   -80.0570     6.4130   104.9570     6.1490     6.3390
