~VERSION INFORMATION
 VERS.                2.0:   CWLS LOG ASCII STANDARD - VERSION 2.0
 WRAP.                 NO:   ONE LINE PER DEPTH STEP
~WELL INFORMATION
#MNEM.UNIT      DATA TYPE    INFORMATION
#----------   ------------   ------------------------------
 STRT.F           16.0000:   START DEPTH
 STOP.F         4208.0000:   STOP DEPTH
 STEP.F            0.5000:   STEP LENGTH
 NULL.          -999.2500:   NO VALUE
 COMP.    FENIX & SCISSON:   COMPANY
 WELL. FENIX NPR 3 "MX" #41-10:   WELL
 FLD .                NPR:   FIELD
 LOC .      S10 T38N R78W:   LOCATION
 CNTY.            NATRONA:   COUNTY
 STAT.            WYOMING:   STATE
 CTRY. UNITED STATES OF AMERICA:   COUNTRY
 SRVC.       SCHLUMBERGER:   SERVICE COMPANY
 DATE.        04-NOV-1978:   LOGDATE
 API .     49025107260000:   API NUMBER
~CURVE INFORMATION
#MNEM.UNIT       API CODE    CURVE DESCRIPTION
#----------   ------------   ------------------------------
 DEPT.F                  :   
 TENR.LBS    07 635 01 00:   TENSION FROM RESISTIVITY
 SPR .MV     07 010 01 00:   SPONTANEOUS POTENTIAL
 SFL .OHMM   07 220 01 00:   SHALLOW FOCUSED LOG RESISTIVITY
 ILD .OHMM   07 120 46 00:   DEEP INDUCTION RESISTIVITY
 ILM .OHMM   07 120 44 00:   INDUCTION LOG MEDIUM RESISTIVITY
 CALD.IN     45 280 60 00:   CALIPER FROM DENSITY LOG
 GRD .GAPI   45 310 01 00:   GAMMA RAY FROM DENSITY LOG
 TEND.LBS    45 635 01 00:   TENSION FROM DENSITY LOG
 RHOB.G/C3   45 350 01 00:   BULK DENSITY
 CORR.G/C3   45 356 01 00:   DENSITY CORRECTION
 NPHI.DEC    42 890 03 00:   NEUTRON POROSITY SANDSTONE
~PARAMETER INFORMATION
#MNEM.UNIT          VALUE    DESCRIPTION
#----------   ------------   ------------------------------
 EKB .F         5237.0000:   Kelly bushing
 EGL .F         5227.0000:   Ground level
 EDF .F            0.0000:   Drilling floor
 TD  .F         4200.0000:   Total depth
 DATE.        04-NOV-1978:   Date logged
 CLNT.            A2DTECH:   Client Code
 SL  . 70' FNL & 2370' FWL:   Surface Location
 PD  .                 GL:   Permanent Datum
 EPD .F              5227:   Elevation Permanent Datum
 LMF .                 KB:   Log Measured From
 DMF .                 KB:   Drilling Measured From
 DAPD.F                10:   Feet Above Permanent Datum
 DD  .F              4200:   Depth driller
 DL  .F              4191:   Depth logger
 BLI .F              4185:   Bottom log interval
 TLI .F               506:   Top log interval
 CS1 .IN            9.625:   Casing size
 CBD1.      9.625" @ 500':   Casing driller 1
 CBL1.F               506:   Casing logger 1
 BS1 .IN             8.75:   Bit size
 BSD1.F              4200:   Depth drilled with bit1
 DFT .                FGM:   Type fluid in hole
 DFD .                9.3:   Density
 DFV .                 42:   Viscosity
 DFPH.               11.5:   pH
 DFL .                6.4:   Fluid loss
 MSS .               TANK:   Source of sample
 RMS .OHMM           1.08:   Rm
 MST .F                67:   Rm Meas. temp.
 RMF .OHMM           0.83:   Rmf
 MFST.F                67:   Rmf Meas. temp.
 MFSS.               MEAS:   Source Rmf.
 RMB .OHMM           0.58:   Rm. at BHT
 BHT .F               125:   BHT.
 TCS .HRS            0430:   Time Circ. stopped
 TLAB.HRS            0830:   Time logger at bottom
 MRT .F               125:   Maximum recorded temp.
 LUN .               8039:   Logging unit number
 LUL .               CSPR:   Logging unit location
 ENGI.          STADULLIS:   Recorded By
 WITN.              AMEND:   Witnessed by
 ORIG.           5" PRINT:   Origin of data
 UWI .     49025107260000:   Unique Well ID
 DICO. A2D TECHNOLOGIES, INC.:   Digitizing Company
~OTHER INFORMATION
~A   DEPT     TENR        SPR        SFL        ILD        ILM       CALD         GRD      TEND       RHOB       CORR       NPHI   
# ...
 1968.0000   871.5090   -16.1710     8.6240     7.6000     7.4800    10.7820   132.3970  1144.5780     2.4420     0.0040     0.3820
 1968.5000   872.2830   -16.1710     8.5010     7.6140     7.4690    10.7770   132.4080  1144.5780     2.4550     0.0070     0.3760
 1969.0000   873.0560   -16.1700     8.4630     7.6280     7.4570    10.7720   132.3850  1144.5780     2.4690     0.0090     0.3700
 1969.5000   873.8300   -16.1690     8.4630     7.6420     7.4460    10.7660   132.3740  1144.5780     2.4670     0.0120     0.3640
 1970.0000   874.6040   -16.1250     8.7770     7.6560     7.4350    10.7610   132.4080  1144.5780     2.4580     0.0150     0.3580
 1970.5000   875.3770   -16.0750     9.0550     7.6700     7.4240    10.7570   132.3750  1144.5780     2.4530     0.0180     0.3520
 1971.0000   876.1510   -16.0230     9.2830     7.6840     7.4130    10.7570   132.2380  1144.5780     2.4640     0.0220     0.3560
 1971.5000   876.9240   -15.9720     9.2530     7.6980     7.4020    10.7570   130.2930  1144.5780     2.4780     0.0250     0.3640
 1972.0000   877.6980   -15.9210     9.2050     7.7120     7.3900    10.7570   128.5210  1144.5780     2.4890     0.0300     0.3720
 1972.5000   878.4710   -15.8690     9.1570     7.7260     7.3790    10.7570   129.6730  1144.5780     2.4770     0.0280     0.3730
 1973.0000   879.2450   -15.8190     9.1130     7.7400     7.3680    10.7570   130.8460  1145.0909     2.4650     0.0180     0.3710
 1973.5000   880.0180   -15.7750     8.9040     7.7540     7.3570    10.7570   132.1600  1146.2111     2.4680     0.0200     0.3680
 1974.0000   880.7920   -15.7740     8.6090     7.7680     7.3460    10.7570   133.3310  1147.3311     2.4770     0.0260     0.3580
 1974.5000   881.5650   -15.7730     8.3080     7.7820     7.3350    10.7570   134.6530  1148.4510     2.4850     0.0320     0.3390
 1975.0000   882.3390   -15.7740     8.1560     7.7970     7.3240    10.7570   135.8120  1149.5710     2.4860     0.0300     0.3170
 1975.5000   883.1120   -15.7740     8.6530     7.8100     7.3130    10.7570   138.6080  1150.6910     2.4800     0.0260     0.3150
 1976.0000   883.8860   -15.7740     9.0700     7.8250     7.2990    10.7570   140.9670  1151.8120     2.4730     0.0220     0.3210
 1976.5000   884.6590   -15.7740     9.4560     7.8390     7.3290    10.7570   143.4610  1152.9320     2.4680     0.0180     0.3300
 1977.0000   885.4330   -15.7740     9.4420     7.8530     7.3930    10.7570   146.1020  1154.0520     2.4620     0.0140     0.3400
 1977.5000   886.2070   -15.7740     9.3930     7.8870     7.4580    10.7570   149.5460  1155.1720     2.4660     0.0120     0.3480
 1978.0000   886.9800   -15.7740     9.3440     7.9410     7.5220    10.7570   153.3380  1156.2920     2.4730     0.0130     0.3490
 1978.5000   887.7540   -15.7740     9.2940     7.9960     7.5870    10.7570   157.0270  1157.4120     2.4730     0.0160     0.3530
 1979.0000   888.5270   -15.7740     9.1130     8.0500     7.6520    10.7570   161.0900  1158.5330     2.4610     0.0180     0.3650
 1979.5000   889.3010   -15.7730     9.2210     8.1040     7.7160    10.7570   161.5640  1159.6530     2.4500     0.0200     0.3780
 1980.0000   890.0740   -15.7730     9.2830     8.1560     7.7810    10.7570   159.7350  1160.7729     2.4460     0.0220     0.3880
 1980.5000   890.8480   -15.7750     9.4560     8.2540     7.8460    10.7570   154.9730  1161.8929     2.4510     0.0250     0.3860
 1981.0000   891.6210   -15.7710     9.4560     8.3480     7.9100    10.7570   150.0000  1163.0129     2.4500     0.0230     0.3810
 1981.5000   892.3950   -15.7740     9.4560     8.4420     7.9750    10.7570   146.0760  1164.1331     2.4430     0.0190     0.3760
 1982.0000   893.1680   -15.7870     9.4560     8.5370     8.0390    10.7620   144.3230  1165.2531     2.4360     0.0160     0.3700
 1982.5000   893.9420   -15.8870     9.8110     8.6310     8.1040    10.7730   144.1930  1166.3740     2.4320     0.0120     0.3620
 1983.0000   894.7150   -16.1360    10.1240     8.7250     8.1680    10.7830   145.0170  1167.4940     2.4340     0.0090     0.3530
 1983.5000   895.4890   -16.1080    10.4380     8.8190     8.2330    10.7940   144.2880  1168.6140     2.4320     0.0090     0.3510
 1984.0000   896.2620   -16.0620    10.7510     8.9140     8.3080    10.7930   141.1590  1169.7340     2.4280     0.0080     0.3460
 1984.5000   897.0360   -15.9930    11.0640     9.0080     8.3590    10.7820   138.3090  1170.8540     2.4290     0.0070     0.3410
 1985.0000   897.8090   -15.9710    11.1690     9.1130     8.4740    10.7730   135.3410  1171.9740     2.4350     0.0060     0.3390
 1985.5000   898.5830   -15.9740    11.1690     8.9800     8.5880    10.7630   132.3060  1173.0950     2.4410     0.0070     0.3340
 1986.0000   899.3570   -15.9660    10.7560     8.8280     8.4940    10.7500   130.7750  1174.2150     2.4430     0.0130     0.3270
 1986.5000   900.1300   -15.9380    10.3800     8.6770     8.3160    10.7280   134.8620  1175.3350     2.4560     0.0200     0.3270
 1987.0000   900.9040   -15.9100     9.9960     8.5260     8.1370    10.7180   139.0990  1176.4550     2.4690     0.0260     0.3290
 1987.5000   901.6770   -15.8800     9.6140     8.3080     7.9580    10.7270   143.3880  1177.5750     2.4830     0.0330     0.3320
 1988.0000   902.4510   -15.8550     9.2230     8.2160     7.7800    10.7340   148.0140  1178.6949     2.4820     0.0350     0.3400
 1988.5000   903.2240   -15.8220     8.8320     8.1390     7.5740    10.7420   148.3120  1179.8149     2.4730     0.0330     0.3480
 1989.0000   903.9980   -15.7920     8.6210     8.0610     7.4360    10.7500   145.9670  1180.9360     2.4620     0.0310     0.3570
 1989.5000   904.7710   -15.8440     8.9200     8.0060     7.4900    10.7570   142.5650  1182.0560     2.4590     0.0290     0.3580
 1990.0000   905.5450   -15.9870     9.3600     8.0060     7.5420    10.7650   139.8540  1183.1760     2.4650     0.0280     0.3530
 1990.5000   906.3180   -15.9680     9.8000     8.0060     7.5930    10.7720   140.9280  1184.2960     2.4770     0.0320     0.3480
 1991.0000   907.0920   -15.9720     9.9960     8.0060     7.6440    10.7800   142.7190  1185.4160     2.4880     0.0350     0.3470
 1991.5000   907.8650   -15.9740     9.7820     8.0060     7.7160    10.7870   144.4820  1186.5360     2.4800     0.0350     0.3480
 1992.0000   908.6390   -15.9720     9.4560     8.0060     7.7130    10.7950   146.1210  1187.6570     2.4670     0.0280     0.3490
 1992.5000   909.4120   -15.9720     9.2830     8.0060     7.6980    10.8020   148.2930  1188.7770     2.4550     0.0210     0.3500
 1993.0000   910.1860   -15.9720     9.3160     8.0060     7.6830    10.8100   145.7260  1189.8970     2.4600     0.0200     0.3520
 1993.5000   910.9600   -15.9510     9.4440     8.0060     7.6680    10.8170   139.7370  1191.0170     2.4650     0.0220     0.3600
 1994.0000   911.7330   -15.9240     9.5720     8.0060     7.6530    10.8250   132.7430  1192.1370     2.4680     0.0230     0.3630
 1994.5000   912.5070   -15.8970     9.6330     8.0070     7.6380    10.8320   131.2550  1193.2570     2.4670     0.0250     0.3620
 1995.0000   913.2800   -15.8700     9.3480     8.0070     7.6230    10.8400   130.6270  1194.3781     2.4660     0.0270     0.3510
 1995.5000   914.0540   -15.8430     9.2010     8.0070     7.6080    10.8480   130.8260  1195.4980     2.4700     0.0270     0.3410
 1996.0000   914.8270   -15.8160     8.9460     8.0060     7.5930    10.8550   130.9100  1196.6180     2.4740     0.0270     0.3290
 1996.5000   915.6010   -15.7880     8.9460     8.0060     7.5780    10.8630   132.8340  1197.7380     2.4790     0.0280     0.3320
 1997.0000   916.3740   -15.7720     8.9700     8.0060     7.5630    10.8700   134.9660  1198.8580     2.4840     0.0260     0.3380
 1997.5000   917.1480   -15.7740     9.0230     8.0060     7.5480    10.8780   137.1090  1199.9780     2.4840     0.0240     0.3430
 1998.0000   917.9210   -15.7730     9.0770     8.0060     7.5330    10.8840   137.0080  1201.0980     2.4800     0.0220     0.3490
