~VERSION INFORMATION
 VERS.                2.0:   CWLS LOG ASCII STANDARD - VERSION 2.0
 WRAP.                 NO:   ONE LINE PER DEPTH STEP
~WELL INFORMATION
#MNEM.UNIT      DATA TYPE    INFORMATION
#----------   ------------   ------------------------------
 STRT.F          444.0000:   START DEPTH
 STOP.F         3018.0000:   STOP DEPTH
 STEP.F            0.5000:   STEP LENGTH
 NULL.          -999.2500:   NO VALUE
 COMP.    FENIX & SCISSON:   COMPANY
 WELL.  FENIX "AX" #25-28:   WELL
 FLD .             TEAPOT:   FIELD
 LOC .      S28 T39N R78W:   LOCATION
 CNTY.            NATRONA:   COUNTY
 STAT.            WYOMING:   STATE
 CTRY. UNITED STATES OF AMERICA:   COUNTRY
 SRVC.              WELEX:   SERVICE COMPANY
 DATE.        01-DEC-1979:   LOGDATE
 API .     49025107940000:   API NUMBER
~CURVE INFORMATION
#MNEM.UNIT       API CODE    CURVE DESCRIPTION
#----------   ------------   ------------------------------
 DEPT.F                  :   
 SPR .MV     07 010 01 00:   SPONTANEOUS POTENTIAL
 RILM.OHMM   07 120 44 00:   INDUCTION LOG MEDIUM RESISTIVITY
 RILD.OHMM   07 120 46 00:   DEEP INDUCTION RESISTIVITY
 SGRD.OHMM   07 220 05 00:   SHALLOW GUARD LOG RESISTIVITY
 TENR.LBS    07 635 01 00:   TENSION FROM RESISTIVITY
 NPHI.DEC    42 890 03 00:   NEUTRON POROSITY SANDSTONE
 GRD .GAPI   45 310 01 00:   GAMMA RAY FROM DENSITY LOG
 CALD.IN     45 280 60 00:   CALIPER FROM DENSITY LOG
 RHOB.G/C3   45 350 01 00:   BULK DENSITY
 DCOR.G/C3   45 356 01 00:   DENSITY CORRECTION
 TEND.LBS    45 635 01 00:   TENSION FROM DENSITY LOG
~PARAMETER INFORMATION
#MNEM.UNIT          VALUE    DESCRIPTION
#----------   ------------   ------------------------------
 EKB .F         5092.0000:   Kelly bushing
 EGL .F         5082.0000:   Ground level
 EDF .F            0.0000:   Drilling floor
 TD  .F         3013.5000:   Total depth
 DATE.        01-DEC-1979:   Date logged
 CLNT.            A2DTECH:   Client Code
 SL  . 2267' FSL & 1070' FWL:   Surface Location
 PD  .                 GL:   Permanent Datum
 EPD .F              5082:   Elevation Permanent Datum
 LMF .                 KB:   Log Measured From
 DMF .                 KB:   Drilling Measured From
 DAPD.F                10:   Feet Above Permanent Datum
 DD  .F              3000:   Depth driller
 DL  .F            3013.5:   Depth logger
 BLI .F              3013:   Bottom log interval
 TLI .F               350:   Top log interval
 CS1 .IN            8.625:   Casing size
 CBD1.      8.625" @ 465':   Casing driller 1
 CBL1.F               462:   Casing logger 1
 BS1 .IN            7.875:   Bit size
 BSD1.F              3000:   Depth drilled with bit1
 DFT .           CHEM GEL:   Type fluid in hole
 DFD .                8.8:   Density
 DFV .                 55:   Viscosity
 DFPH.                  9:   pH
 DFL .                6.4:   Fluid loss
 MSS .           FLOWLINE:   Source of sample
 RMS .OHMM           1.53:   Rm
 MST .F                75:   Rm Meas. temp.
 RMF .OHMM           1.24:   Rmf
 MFST.F                75:   Rmf Meas. temp.
 RMC .OHMM           1.83:   Rmc
 MCST.F                75:   Rmc Meas. temp.
 MFSS.               MEAS:   Source Rmf.
 MCSS.               MEAS:   Source Rmc.
 RMB .OHMM           1.09:   Rm. at BHT
 BHT .F               105:   BHT.
 TCS .HRS             2.5:   Time Circ. stopped
 MRT .F               105:   Maximum recorded temp.
 LUN .                965:   Logging unit number
 LUL .             CASPER:   Logging unit location
 ENGI.            BENTSEN:   Recorded By
 WITN.           P. AMEND:   Witnessed by
 ORIG.           5" PRINT:   Origin of data
 UWI .     49025107940000:   Unique Well ID
 DICO. A2D TECHNOLOGIES, INC.:   Digitizing Company
~OTHER INFORMATION
~A   DEPT      SPR       RILM       RILD       SGRD       TENR       NPHI         GRD      CALD       RHOB       DCOR       TEND   
# ...
 1969.0000   -37.3170     9.4960     8.4290     9.3890   979.3830     0.2680    90.5180     8.1190     2.4400     0.0200  1393.2810
 1969.5000   -37.5110     9.6090     8.4290     8.3820   979.6820     0.2670    92.4380     8.1120     2.4770     0.0420  1393.2810
 1970.0000   -37.7050     9.7720     8.5080    10.6200   979.9810     0.2660    94.2610     8.1060     2.4970     0.0570  1393.2810
 1970.5000   -37.9010    10.1170     8.5880    13.6980   980.2800     0.2630    91.0410     8.1080     2.4790     0.0310  1393.2810
 1971.0000   -38.0950    10.4490     8.9150    14.2490   980.5790     0.2620    93.9120     8.1130     2.4630     0.0080  1393.2810
 1971.5000   -38.2990    10.8810     9.3300    14.8000   980.8780     0.2630    94.8850     8.1170     2.4650     0.0110  1393.2810
 1972.0000   -38.5130    11.2970     9.8500    15.3520   981.1770     0.2650    96.8150     8.1220     2.4700     0.0140  1393.2810
 1972.5000   -38.7270    11.6890    10.3690    15.8090   981.4770     0.2650    99.5390     8.1200     2.4870     0.0300  1393.2810
 1973.0000   -38.9490    12.0920    10.8890    15.9980   981.7760     0.2650   104.0900     8.1120     2.4790     0.0290  1393.2810
 1973.5000   -39.0100    12.4730    11.4080    16.1860   982.0750     0.2670   110.5890     8.1030     2.4650     0.0080  1393.2810
 1974.0000   -39.0130    12.6530    11.9810    16.0250   982.3740     0.2690   114.7750     8.0940     2.4510    -0.0120  1397.7750
 1974.5000   -39.0120    12.7430    12.2350    15.8150   982.6730     0.2700   118.6870     8.0860     2.4470    -0.0180  1403.4330
 1975.0000   -39.0120    12.8450    12.3620    15.6040   982.9720     0.2720   124.0730     8.0830     2.4460    -0.0250  1409.0909
 1975.5000   -39.0120    12.9470    12.4660    15.3940   983.2710     0.2730   120.8930     8.0800     2.4390    -0.0270  1414.7490
 1976.0000   -39.0120    13.0480    12.6040    15.1840   983.5700     0.2730   108.4340     8.0770     2.4340    -0.0230  1420.4070
 1976.5000   -39.0120    13.1500    12.6790    15.0420   983.6750     0.2750    98.7510     8.0750     2.4180    -0.0370  1426.0640
 1977.0000   -39.0120    13.1980    12.7540    15.8760   983.3700     0.2750    92.4050     8.0720     2.4100    -0.0390  1431.7220
 1977.5000   -39.0120    13.1300    12.8330    16.5070   983.0660     0.2740    90.4980     8.0690     2.4040    -0.0370  1431.4500
 1978.0000   -39.0120    13.0780    12.7380    16.6690   982.7610     0.2720    87.1170     8.0660     2.4000    -0.0470  1429.7720
 1978.5000   -39.0120    13.0270    12.6100    16.0580   982.4560     0.2720    85.1520     8.0640     2.3910    -0.0560  1428.0930
 1979.0000   -39.0120    12.9760    12.4810    15.6860   982.1520     0.2700    87.9900     8.0610     2.3860    -0.0660  1426.4150
 1979.5000   -39.0120    12.8200    12.3530    15.0700   981.8470     0.2710    90.3900     8.0580     2.3920    -0.0660  1424.7371
 1980.0000   -39.0170    12.5830    12.2010    14.4530   981.5420     0.2720    89.8660     8.0560     2.3890    -0.0590  1423.0590
 1980.5000   -38.8460    12.3470    11.9430    13.8290   981.2380     0.2730    90.5240     8.0530     2.3940    -0.0580  1421.3810
 1981.0000   -38.6360    12.1110    11.6840    14.4900   980.9330     0.2750    86.3530     8.0500     2.3950    -0.0550  1419.7030
 1981.5000   -38.4230    11.8750    11.3800    13.5730   980.6280     0.2780    85.2250     8.0480     2.3940    -0.0560  1418.0240
 1982.0000   -38.2090    11.6890    11.0520    13.9230   980.3240     0.2790    86.1810     8.0460     2.3990    -0.0330  1416.3459
 1982.5000   -38.0140    11.8030    11.1800    14.7630   980.0190     0.2790    87.7470     8.0520     2.4170    -0.0290  1414.6680
 1983.0000   -38.1690    11.8970    11.3070    13.7000   979.7150     0.2800    90.2210     8.0570     2.4130    -0.0230  1413.0430
 1983.5000   -38.3350    11.9910    11.4340    14.2710   979.4100     0.2820    92.2380     8.0630     2.4070    -0.0290  1412.1490
 1984.0000   -38.4990    12.0860    11.5620    15.5920   979.1050     0.2880    90.1030     8.0650     2.4030    -0.0240  1410.7340
 1984.5000   -38.6630    12.1800    11.6890    16.3610   978.8010     0.2910    89.2840     8.0650     2.4060    -0.0210  1409.3199
 1985.0000   -38.8270    12.2740    11.8160    16.0580   978.4960     0.2930    89.1290     8.0650     2.4140    -0.0140  1407.9050
 1985.5000   -38.9900    12.3620    11.9090    15.1710   978.1910     0.2940    89.3490     8.0650     2.4310    -0.0040  1406.4910
 1986.0000   -39.0710    12.0360    11.5450    14.0500   977.8870     0.2940    88.6690     8.0640     2.4220    -0.0150  1405.0760
 1986.5000   -39.1400    11.7310    11.2040    12.9280   977.5820     0.2940    86.7610     8.0620     2.4170    -0.0130  1403.6620
 1987.0000   -39.2050    11.4250    10.8620    11.8070   977.2770     0.2970    89.1490     8.0600     2.4160    -0.0230  1402.2469
 1987.5000   -39.0410    11.1200    10.5210    10.3520   976.9730     0.2970    92.0690     8.0580     2.4170    -0.0240  1400.8330
 1988.0000   -38.8480    10.8370    10.3170    11.6190   976.6680     0.2940    93.7310     8.0560     2.4120    -0.0160  1399.4180
 1988.5000   -38.6540    10.7450    10.2620    13.5730   976.3630     0.2950    91.5500     8.0540     2.4080    -0.0080  1398.0040
 1989.0000   -38.4510    10.6460    10.3190    14.2220   976.0590     0.2960    89.6000     8.0520     2.4120    -0.0040  1396.5890
 1989.5000   -38.5740    10.7570    10.3750    14.2220   975.7540     0.2970    85.9780     8.0490     2.4060    -0.0010  1395.1750
 1990.0000   -38.7970    10.8780    10.4320    13.3220   975.4500     0.2970    82.3340     8.0470     2.4080     0.0020  1393.7610
 1990.5000   -39.0210    10.9980    10.4880    13.4560   975.1450     0.2940    79.6030     8.0470     2.4290     0.0250  1395.6591
 1991.0000   -39.2220    11.1380    10.5470    13.7030   974.8400     0.2900    80.5280     8.1050     2.4390     0.0380  1399.2600
 1991.5000   -39.2270    11.2940    10.6750    13.9590   974.5360     0.2830    79.9780     8.1620     2.4470     0.0510  1402.8600
 1992.0000   -39.2380    11.4500    10.8440    13.8210   974.2310     0.2810    79.4400     8.2820     2.4630     0.0620  1406.4611
 1992.5000   -39.2500    11.6070    11.0130    13.5730   973.9260     0.2790    79.1120     8.3800     2.4700     0.0570  1410.0610
 1993.0000   -39.2620    11.7630    11.1820    13.7540   973.6220     0.2820    80.1940     8.2670     2.4800     0.0510  1413.6620
 1993.5000   -39.2730    11.9200    11.3500    14.0950   973.3170     0.2870    82.2170     8.1760     2.4870     0.0330  1417.2620
 1994.0000   -39.2850    12.0760    11.5190    14.5460   973.0120     0.2890    83.2320     8.1830     2.4810     0.0130  1420.8621
 1994.5000   -39.2960    12.2320    11.6880    14.9020   972.7080     0.2900    83.6960     8.1810     2.4910     0.0070  1424.4630
 1995.0000   -39.3080    12.3890    11.8570    14.9430   972.4030     0.2900    84.7650     8.1770     2.4930     0.0180  1428.0630
 1995.5000   -39.3190    12.4930    12.0210    14.9930   972.0980     0.2910    86.0310     8.1740     2.5010     0.0280  1431.6639
 1996.0000   -39.3310    12.5280    11.8110    15.0420   971.7940     0.2890    87.6460     8.1710     2.5070     0.0360  1430.3070
 1996.5000   -39.3420    12.5630    11.6920    14.7560   971.4890     0.2910    87.8160     8.1680     2.4950     0.0250  1426.6460
 1997.0000   -39.3540    12.5960    11.5800    14.4150   971.1850     0.2930    86.0570     8.1640     2.4840     0.0130  1422.9840
 1997.5000   -39.3650    12.5960    11.8990    13.9590   970.8800     0.2920    85.7460     8.1690     2.4720     0.0020  1419.3230
 1998.0000   -39.3770    12.5960    12.3620    14.7730   970.5750     0.2870    86.7660     8.1760     2.4670     0.0060  1415.6610
 1998.5000   -39.3880    12.5960    12.2850    15.9090   970.2710     0.2790    87.4290     8.1820     2.4650    -0.0010  1412.0000
 1999.0000   -39.4000    12.5960    12.1220    15.0420   969.9660     0.2790    86.7410     8.1880     2.4540    -0.0020  1408.3390
