~VERSION INFORMATION
 VERS.                2.0:   CWLS LOG ASCII STANDARD - VERSION 2.0
 WRAP.                 NO:   ONE LINE PER DEPTH STEP
~WELL INFORMATION
#MNEM.UNIT      DATA TYPE    INFORMATION
#----------   ------------   ------------------------------
 STRT.F          200.0000:   START DEPTH
 STOP.F         3060.0000:   STOP DEPTH
 STEP.F            0.5000:   STEP LENGTH
 NULL.          -999.2500:   NO VALUE
 COMP.    FENIX & SCISSON:   COMPANY
 WELL. FENIX & SCISSON NPR "AX" #81-10:   WELL
 FLD .                NPR:   FIELD
 LOC .      S10 T38N R78W:   LOCATION
 CNTY.            NATRONA:   COUNTY
 STAT.            WYOMING:   STATE
 CTRY. UNITED STATES OF AMERICA:   COUNTRY
 SRVC.              WELEX:   SERVICE COMPANY
 DATE.        28-NOV-1977:   LOGDATE
 API .     49025104400000:   API NUMBER
~CURVE INFORMATION
#MNEM.UNIT       API CODE    CURVE DESCRIPTION
#----------   ------------   ------------------------------
 DEPT.F                  :   
 CALD.IN     45 280 60 00:   CALIPER FROM DENSITY LOG
 GRD .GAPI   45 310 01 00:   GAMMA RAY FROM DENSITY LOG
 RHOB.G/C3   45 350 01 00:   BULK DENSITY
 CORR.G/C3   45 356 01 00:   DENSITY CORRECTION
 TEND.LBS    45 635 01 00:   TENSION FROM DENSITY LOG
 NPHI.DEC    42 890 03 00:   NEUTRON POROSITY SANDSTONE
 SPR .MV     07 010 01 00:   SPONTANEOUS POTENTIAL
 IL  .OHMM   07 120 00 00:   INDUCTION LOG RES.
 ASGR.OHMM   07 221 05 00:   AMPLIFIED SHALLOW GUARD
 SNP .DEC    41 890 00 00:   SIDEWALL NEUTRON POROSITY
~PARAMETER INFORMATION
#MNEM.UNIT          VALUE    DESCRIPTION
#----------   ------------   ------------------------------
 EKB .F         5147.0000:   Kelly bushing
 EGL .F         5137.0000:   Ground level
 EDF .F            0.0000:   Drilling floor
 TD  .F         3058.0000:   Total depth
 DATE.        28-NOV-1977:   Date logged
 CLNT.            A2DTECH:   Client Code
 PD  .                 GL:   Permanent Datum
 EPD .F              5137:   Elevation Permanent Datum
 LMF .                 KB:   Log Measured From
 DMF .                 KB:   Drilling Measured From
 DD  .F              3055:   Depth driller
 DL  .F              3058:   Depth logger
 BLI .F              3055:   Bottom log interval
 TLI .F               200:   Top log interval
 CS1 .IN            8.625:   Casing size
 CBD1.      8.625" @ 205':   Casing driller 1
 CBL1.F               215:   Casing logger 1
 BSD1.F              3055:   Depth drilled with bit1
 DFT .            KCL/MUD:   Type fluid in hole
 ENGI.            BENTSEN:   Recorded By
 WITN.         HARRINGTON:   Witnessed by
 ORIG.           5" PRINT:   Origin of data
 UWI .     49025104400000:   Unique Well ID
 DICO. A2D TECHNOLOGIES, INC.:   Digitizing Company
 DAPD.                 10:   Feet Above Permanent Datum
 BS1 .IN            7.875:   Bit size
 DFD .                8.9:   Density
 DFV .                 35:   Viscosity
 MSS .           FLOWLINE:   Source of sample
 RMS .OHMM            .17:   Rm
 MST .F                75:   Rm Meas. temp.
 RMF .OHMM            .12:   Rmf
 MFST.F                75:   Rmf Meas. temp.
 MFSS.               FANN:   Source Rmf.
 RMC .OHMM            .50:   Rmc
 MCST.F                75:   Rmc Meas. temp.
 MCSS.                KIT:   Source Rmc.
 RMB .OHMM           .113:   Rm. at BHT
 BHT .F               113:   BHT.
 TCS .HRS             2.5:   Time Circ. stopped
 MRT .F               113:   Maximum recorded temp.
 LUN .               9685:   Logging unit number
 LUL .             CASPER:   Logging unit location
 SL  . 601' FNL & 200' FEL:   Surface Location
~OTHER INFORMATION
~A   DEPT       CALD      GRD       RHOB       CORR        TEND        NPHI       SPR        IL       ASGR        SNP   
# ...
  401.0000    10.5240    77.0220     2.3270     0.0510   941.3750     0.1590   -64.5550     5.8700     7.9530     0.2990
  401.5000    10.5210    77.3000     2.3250     0.0500   941.4120     0.1590   -64.5630     5.7460     8.1440     0.2990
  402.0000    10.5190    77.8830     2.3270     0.0480   941.4490     0.1580   -64.5710     5.6210     8.0590     0.3000
  402.5000    10.5170    78.4560     2.3330     0.0460   941.4850     0.1570   -64.5790     5.4960     8.2220     0.3000
  403.0000    10.5140    79.0270     2.3390     0.0440   941.5220     0.1570   -64.5870     5.3900     8.1920     0.3000
  403.5000    10.5120    79.5980     2.3450     0.0420   941.5580     0.1580   -64.5950     5.6660     8.0870     0.3000
  404.0000    10.5090    80.1670     2.3510     0.0400   941.5950     0.1590   -64.6030     5.9520     7.8530     0.2930
  404.5000    10.5070    80.7400     2.3570     0.0410   941.6310     0.1560   -64.6110     6.2360     8.0120     0.2850
  405.0000    10.4890    81.3270     2.3630     0.0420   941.6680     0.1530   -64.6190     6.5200     8.2490     0.2780
  405.5000    10.4590    81.5810     2.3690     0.0430   941.7040     0.1490   -64.6270     6.8030     8.7120     0.2700
  406.0000    10.4290    81.7630     2.3750     0.0440   941.7410     0.1450   -64.6350     7.0870     9.2140     0.2610
  406.5000    10.3990    81.4510     2.3680     0.0440   941.7780     0.1410   -64.6430     7.3710     9.5500     0.2520
  407.0000    10.3680    81.1590     2.3590     0.0400   941.8140     0.1400   -64.6510     7.6550     9.9630     0.2430
  407.5000    10.3380    80.8660     2.3510     0.0340   941.8510     0.1410   -64.6590     7.9380    10.1790     0.2490
  408.0000    10.3080    80.5550     2.3420     0.0290   941.8870     0.1450   -64.6670     8.1860     9.4130     0.2630
  408.5000    10.2780    80.4560     2.3330     0.0230   941.9240     0.1530   -64.6750     8.1630     8.9270     0.2770
  409.0000    10.2480    80.4790     2.3250     0.0170   941.9600     0.1540   -64.6830     8.1360     8.7000     0.2800
  409.5000    10.2180    81.0680     2.3280     0.0120   941.9970     0.1540   -64.6910     8.1070     8.6540     0.2820
  410.0000    10.1880    81.6580     2.3320     0.0100   942.0330     0.1550   -64.6990     8.0120     8.7300     0.2850
  410.5000    10.1580    82.2460     2.3330     0.0160   942.0700     0.1560   -64.7070     7.6830     8.9190     0.2880
  411.0000    10.1280    82.8330     2.3340     0.0210   942.1070     0.1570   -64.7490     7.3590     9.1830     0.2920
  411.5000    10.1010    83.4230     2.3350     0.0260   942.1430     0.1580   -64.8590     7.0350     9.0220     0.2960
  412.0000    10.0980    84.0090     2.3340     0.0300   942.1800     0.1590   -64.9680     6.6950     9.1870     0.3000
  412.5000    10.0940    84.1270     2.3300     0.0280   942.2160     0.1600   -65.0760     6.7210     9.0820     0.3030
  413.0000    10.0900    84.2240     2.3270     0.0260   942.2530     0.1590   -65.1850     6.7880     9.0080     0.3040
  413.5000    10.0860    84.3500     2.3230     0.0240   942.2890     0.1590   -65.2940     6.8540     9.1330     0.3050
  414.0000    10.0820    84.5770     2.3250     0.0210   942.3260     0.1590   -65.4020     6.9190     8.5630     0.3050
  414.5000    10.0780    84.8050     2.3280     0.0190   942.3620     0.1600   -65.5080     6.9840     8.3240     0.3050
  415.0000    10.0740    85.0340     2.3260     0.0180   942.3990     0.1600   -65.6170     7.0500     8.2830     0.3040
  415.5000    10.0700    85.2630     2.3230     0.0180   942.4350     0.1580   -65.7230     7.1160     8.6190     0.3040
  416.0000    10.0660    85.4920     2.3250     0.0170   942.4720     0.1580   -65.8300     7.1830     8.5420     0.3040
  416.5000    10.0620    85.7210     2.3280     0.0170   942.5090     0.1590   -65.9360     7.1740     8.7550     0.3030
  417.0000    10.0580    85.9500     2.3320     0.0160   942.5450     0.1600   -66.0420     7.1600     8.7800     0.3030
  417.5000    10.0540    86.1820     2.3350     0.0160   942.5820     0.1600   -66.1490     7.1460     8.6140     0.3020
  418.0000    10.0500    86.3860     2.3400     0.0150   942.6180     0.1600   -66.2550     7.1320     8.5000     0.3000
  418.5000    10.0460    85.8750     2.3440     0.0140   942.6550     0.1590   -66.3620     7.1180     8.3930     0.2970
  419.0000    10.0420    85.3320     2.3490     0.0180   942.6910     0.1580   -66.4680     7.1040     8.4710     0.2920
  419.5000    10.0380    84.7920     2.3530     0.0220   942.7280     0.1570   -66.6630     7.0900     8.3570     0.2880
  420.0000    10.0340    84.2520     2.3580     0.0260   942.7640     0.1550   -66.8970     7.1030     8.5140     0.2860
  420.5000    10.0300    83.7130     2.3620     0.0300   942.8010     0.1530   -67.1320     7.1320     8.7160     0.2840
  421.0000    10.0260    83.2800     2.3590     0.0340   942.8380     0.1520   -67.3670     7.1600     8.9390     0.2820
  421.5000    10.0220    83.6210     2.3550     0.0320   942.8740     0.1530   -67.6010     7.1880     8.7340     0.2800
  422.0000    10.0170    83.9730     2.3520     0.0290   942.9110     0.1550   -67.8360     7.2170     9.0550     0.2790
  422.5000    10.0130    84.3220     2.3480     0.0260   942.9470     0.1530   -68.0710     7.2440     8.8760     0.2770
  423.0000    10.0090    84.6690     2.3440     0.0220   942.9840     0.1520   -68.3060     7.2730     8.7600     0.2760
  423.5000    10.0050    85.0150     2.3440     0.0190   943.0200     0.1520   -68.5400     7.2250     8.5460     0.2750
  424.0000    10.0010    85.1090     2.3490     0.0200   943.0570     0.1540   -68.7750     7.1160     8.2560     0.2690
  424.5000     9.9970    84.8580     2.3540     0.0220   943.0930     0.1500   -69.0100     7.0060     8.3560     0.2630
  425.0000     9.9930    84.6110     2.3590     0.0240   943.1300     0.1460   -69.2450     6.8960     8.4950     0.2570
  425.5000     9.9890    84.3620     2.3640     0.0260   943.1670     0.1430   -69.4790     6.7850     8.6040     0.2510
  426.0000     9.9850    84.1130     2.3690     0.0280   943.2030     0.1400   -69.7140     6.6750     9.1700     0.2460
  426.5000     9.9800    83.8630     2.3740     0.0300   943.2400     0.1400   -69.9490     6.5660     9.0570     0.2420
  427.0000     9.9660    83.6140     2.3780     0.0320   943.2760     0.1390   -70.1840     6.4910     9.0350     0.2390
  427.5000     9.9530    83.3650     2.3840     0.0340   943.3130     0.1390   -70.4180     6.5410     9.1370     0.2360
  428.0000     9.9390    83.1150     2.3890     0.0360   943.3490     0.1390   -70.6530     6.5880     9.0940     0.2320
  428.5000     9.9260    82.8670     2.3940     0.0380   943.3860     0.1380   -70.8880     6.6340     8.8310     0.2290
  429.0000     9.9120    82.6450     2.3990     0.0400   943.4220     0.1380   -71.1230     6.6800     8.8450     0.2240
  429.5000     9.8990    82.8690     2.4050     0.0390   943.4590     0.1360   -71.3570     6.7270     8.7380     0.2200
  430.0000     9.8850    83.3470     2.4060     0.0370   943.4960     0.1330   -71.5920     6.7740     8.7580     0.2150
  430.5000     9.8720    83.8230     2.4050     0.0350   943.5320     0.1310   -71.8270     6.8070     8.7190     0.2110
  431.0000     9.8580    84.3000     2.4050     0.0330   943.5690     0.1290   -72.0620     6.8360     8.6270     0.2090
  431.5000     9.8450    84.7770     2.4040     0.0310   943.6050     0.1290   -72.2960     6.8640     8.5350     0.2080
  432.0000     9.8320    85.2540     2.4030     0.0300   943.6420     0.1290   -72.5310     6.8710     8.5960     0.2070
  432.5000     9.8180    85.7320     2.4020     0.0280   943.6780     0.1290   -72.7660     6.8210     8.4810     0.2070
  433.0000     9.8050    86.2050     2.4010     0.0260   943.7150     0.1280   -73.0010     6.7740     8.4010     0.2060
  433.5000     9.7910    86.6420     2.4000     0.0240   943.7510     0.1280   -73.2360     6.7270     8.3950     0.2080
  434.0000     9.7780    86.7580     2.3990     0.0220   943.7880     0.1300   -73.4690     6.6840     8.4410     0.2110
