~VERSION INFORMATION
 VERS.                2.0:   CWLS LOG ASCII STANDARD - VERSION 2.0
 WRAP.                 NO:   ONE LINE PER DEPTH STEP
~WELL INFORMATION
#MNEM.UNIT      DATA TYPE    INFORMATION
#----------   ------------   ------------------------------
 STRT.F           36.0000:   START DEPTH
 STOP.F         4960.0000:   STOP DEPTH
 STEP.F            0.5000:   STEP LENGTH
 NULL.          -999.2500:   NO VALUE
 COMP.   TESORO PETROLEUM:   COMPANY
 WELL. TESORO NPR 3 "DX" #55-23:   WELL
 FLD .        TEAPOT DOME:   FIELD
 LOC .      S23 T38N R78W:   LOCATION
 CNTY.            NATRONA:   COUNTY
 STAT.            WYOMING:   STATE
 CTRY. UNITED STATES OF AMERICA:   COUNTRY
 SRVC.           BIRDWELL:   SERVICE COMPANY
 DATE.        17-AUG-1975:   LOGDATE
 API .     49025102510000:   API NUMBER
~CURVE INFORMATION
#MNEM.UNIT       API CODE    CURVE DESCRIPTION
#----------   ------------   ------------------------------
 DEPT.F                  :   
 TEND.LBS    45 635 01 00:   TENSION FROM DENSITY LOG
 CALD.IN     45 280 60 00:   CALIPER FROM DENSITY LOG
 CORR.G/C3   45 356 01 00:   DENSITY CORRECTION
 GRD .GAPI   45 310 01 00:   GAMMA RAY FROM DENSITY LOG
 RHOB.G/C3   45 350 01 00:   BULK DENSITY
 SPR .MV     07 010 01 00:   SPONTANEOUS POTENTIAL
 ILM .OHMM   07 120 44 00:   INDUCTION LOG MEDIUM RESISTIVITY
 ILD .OHMM   07 120 46 00:   DEEP INDUCTION RESISTIVITY
 SFL .OHMM   07 220 01 00:   SHALLOW FOCUSED LOG RESISTIVITY
~PARAMETER INFORMATION
#MNEM.UNIT          VALUE    DESCRIPTION
#----------   ------------   ------------------------------
 EKB .F         5371.0000:   Kelly bushing
 EGL .F         5360.0000:   Ground level
 EDF .F            0.0000:   Drilling floor
 TD  .F         4955.0000:   Total depth
 DATE.        17-AUG-1975:   Date logged
 CLNT.            A2DTECH:   Client Code
 SL  . 1980' FSL & 2030' FEL:   Surface Location
 PD  .                 GL:   Permanent Datum
 DD  .F              4955:   Depth driller
 DL  .F              4945:   Depth logger
 BLI .F              4943:   Bottom log interval
 CS1 .IN            8.625:   Casing size
 CBD1.     8.625" @ 1450':   Casing driller 1
 CBL1.F              1457:   Casing logger 1
 BS1 .IN            7.875:   Bit size
 DFT .            KCL/GEL:   Type fluid in hole
 DFD .                9.5:   Density
 DFV .                 53:   Viscosity
 DFPH.                8.5:   pH
 DFL .                7.4:   Fluid loss
 MSS .           FLOWLINE:   Source of sample
 RMS .OHMM            1.2:   Rm
 MST .F                72:   Rm Meas. temp.
 RMF .OHMM            .94:   Rmf
 MFST.F                74:   Rmf Meas. temp.
 MFSS.               MEAS:   Source Rmf.
 RMB .OHMM            .71:   Rm. at BHT
 BHT .F               121:   BHT.
 TCS .HRS               4:   Time Circ. stopped
 MRT .F               121:   Maximum recorded temp.
 LUN .               6078:   Logging unit number
 LUL .              GLTTE:   Logging unit location
 ENGI.      NORDEN/SUTTON:   Recorded By
 WITN.          UNDERWOOD:   Witnessed by
 ORIG.           5" PRINT:   Origin of data
 UWI .     49025102510000:   Unique Well ID
 DICO. A2D TECHNOLOGIES, INC.:   Digitizing Company
 DAPD.F                11:   Feet Above Permanent Datum
 BSD1.F              5360:   Depth drilled with bit1
 EPD .F              5360:   Elevation Permanent Datum
 LMF .                 KB:   Log Measured From
 DMF .                 KB:   Drilling Measured From
 TLI .F              1457:   Top log interval
~OTHER INFORMATION
~A   DEPT     TEND       CALD       CORR        GRD       RHOB        SPR        ILM        ILD          SFL 
# ...
 4817.5000  1966.7000     8.4680     0.0410    40.3220     2.6020   -44.9710    24.4870    30.9780    28.8980
 4818.0000  1986.9990     8.4500     0.0400    39.7520     2.6100   -45.0130    23.0630    28.9490    42.9240
 4818.5000  2001.2300     8.4350     0.0430    39.3010     2.6190   -45.1810    21.5700    26.9200    38.3500
 4819.0000  1984.3140     8.4230     0.0460    38.9540     2.6280   -45.3490    20.7500    25.8820    28.3710
 4819.5000  1967.3979     8.4120     0.0380    38.7320     2.6220   -45.5190    20.9100    25.3630    26.3690
 4820.0000  2010.8250     8.4000     0.0210    39.2600     2.6230   -45.6960    21.0610    24.8440    25.4050
 4820.5000  2055.5029     8.3880     0.0220    40.2310     2.6250   -45.4820    21.3310    24.3240    30.3060
 4821.0000  2019.9800     8.3770     0.0210    41.1980     2.6210   -45.2020    21.1020    23.8050    35.0580
 4821.5000  1984.4570     8.3650     0.0170    42.1650     2.6170   -44.9190    20.6690    23.2860    34.4190
 4822.0000  1948.9330     8.3640     0.0130    43.0970     2.6130   -44.6350    20.2370    22.7850    30.0200
 4822.5000  1928.9821     8.3690     0.0120    43.2170     2.6130   -44.3520    19.8050    22.3140    25.4420
 4823.0000  1944.5970     8.3750     0.0120    43.2900     2.6170   -44.0690    19.3730    21.8440    22.5410
 4823.5000  1960.2120     8.3800     0.0120    43.9850     2.6200   -43.7860    18.9400    21.3740    24.2880
 4824.0000  2002.1930     8.3860     0.0130    44.7420     2.6210   -43.5050    18.5080    20.9030    25.6400
 4824.5000  2034.0980     8.3910     0.0170    45.0780     2.6170   -43.3540    18.0760    20.4330    24.0950
 4825.0000  1979.4460     8.3960     0.0200    44.0290     2.6180   -43.5260    17.6440    19.9630    22.3030
 4825.5000  1924.7950     8.3800     0.0240    42.9970     2.6210   -43.6950    17.2620    19.4550    20.3710
 4826.0000  1915.3600     8.3040     0.0280    43.2410     2.6290   -43.8650    16.7980    19.2240    22.5410
 4826.5000  1963.1219     8.2300     0.0320    44.3790     2.6390   -43.8730    16.5170    18.9720    22.3920
 4827.0000  2010.8850     8.1560     0.0330    44.8860     2.6420   -43.7610    16.2360    18.7210    21.9710
 4827.5000  2063.8091     8.0900     0.0340    44.0520     2.6420   -43.6490    15.9540    18.4690    21.5490
 4828.0000  2030.8890     8.2400     0.0350    44.9770     2.6380   -43.5360    15.6730    18.2180    21.1350
 4828.5000  1993.9821     8.3910     0.0370    46.2680     2.6270   -43.4230    15.3160    18.0750    19.6550
 4829.0000  2006.3010     8.2860     0.0410    46.8740     2.6170   -43.3200    14.9260    17.4880    18.9260
 4829.5000  2036.7500     8.1040     0.0440    47.3890     2.6130   -43.2760    14.5390    16.1850    19.2340
 4830.0000  2012.7620     7.8290     0.0490    49.4160     2.6110   -43.2320    13.5550    14.8830    19.4550
 4830.5000  1972.1639     7.7120     0.0660    51.4490     2.6170   -43.1880    12.4910    13.5810    18.0210
 4831.0000  2004.7860     7.7770     0.0830    53.5160     2.6230   -43.1440    11.4280    12.2790    16.6380
 4831.5000  2055.5330     7.8410     0.1000    54.8780     2.5960   -43.1000    10.3640    11.3540    14.7210
 4832.0000  2083.7490     7.9040     0.1000    55.6610     2.5590   -43.0560     9.3000    10.2730    12.6840
 4832.5000  2076.5400     7.9670     0.1210    54.1800     2.5380   -43.0120     8.2370     9.2200    10.6470
 4833.0000  2060.9250     8.0350     0.1520    54.8160     2.5300   -42.9680     7.3740     8.2770     9.7110
 4833.5000  2043.8680     8.0570     0.1730    55.5980     2.4700   -42.9180     6.7970     7.3330     9.4850
 4834.0000  1990.5341     7.9830     0.1700    55.9130     2.3710   -42.8270     6.2210     6.6360     8.7680
 4834.5000  1931.7729     7.9340     0.1770    56.1730     2.3870   -42.7340     5.6440     6.2370     7.5480
 4835.0000  1873.0129     8.0060     0.1860    56.4350     2.4100   -42.6420     5.1010     5.8380     7.0030
 4835.5000  1842.2729     8.0760     0.1870    56.2930     2.3980   -42.5500     4.8650     5.4390     6.6910
 4836.0000  1944.1670     8.1460     0.1800    56.0820     2.3760   -42.4580     4.6310     5.0410     6.8170
 4836.5000  1925.7860     8.2160     0.1750    55.8680     2.3790   -42.3640     4.3970     4.7550     6.8780
 4837.0000  1907.3330     8.2860     0.1830    55.6540     2.4170   -42.4020     4.1840     4.5090     6.6380
 4837.5000  1941.9520     8.3990     0.1960    55.4400     2.4700   -42.5120     3.9580     4.2620     6.4310
 4838.0000  1984.0480     8.5090     0.1940    55.2310     2.4530   -42.6210     3.7330     4.0160     6.1750
 4838.5000  1984.0480     8.6200     0.1690    55.1760     2.4040   -42.7700     3.5070     3.8140     5.7930
 4839.0000  1984.0480     8.7290     0.1720    55.5300     2.4160   -42.7230     3.2810     3.6400     5.4110
 4839.5000  1998.4449     8.8390     0.1770    55.8240     2.4400   -42.4530     3.0990     3.4650     5.0300
 4840.0000  2018.7440     8.9490     0.1810    54.5000     2.3920   -42.1770     3.0330     3.2910     4.9390
 4840.5000  2038.3230     9.0680     0.1610    53.0690     2.2470   -41.8860     2.9660     3.1310     4.9390
 4841.0000  2057.6560     9.2140     0.1350    51.6180     2.1790   -41.7810     2.9000     2.9940     4.8780
 4841.5000  2076.9880     9.3640     0.1230    51.6110     2.1650   -41.8390     2.8330     2.9150     4.6960
 4842.0000  2096.3210     9.3900     0.1360    52.4600     2.2290   -41.9060     2.7590     2.8360     4.5460
 4842.5000  2090.2290     9.1950     0.1490    52.0120     2.2250   -41.9740     2.6820     2.7560     4.6100
 4843.0000  2068.4800     9.0410     0.1590    50.9170     2.2240   -42.0420     2.6050     2.6770     4.6740
 4843.5000  2046.7310     8.8870     0.1620    49.4350     2.2120   -42.1120     2.5270     2.5980     4.4230
 4844.0000  1970.4220     8.7300     0.1540    49.2590     2.1750   -42.1010     2.4100     2.5230     4.4640
 4844.5000  1885.8420     8.7500     0.1460    50.3840     2.1020   -42.0580     2.4280     2.4960     4.2850
 4845.0000  1893.0710     8.9370     0.1380    51.0400     2.0570   -42.0140     2.4660     2.4880     4.1850
 4845.5000  1988.2230     9.0600     0.1390    51.1040     2.0920   -41.9700     2.5750     2.4770     4.1850
 4846.0000  2083.3750     8.7790     0.1480    50.8550     2.1090   -41.9260     2.7410     2.6210     4.0280
 4846.5000  2140.9060     8.4990     0.1310    48.8960     2.0880   -41.8810     3.0390     2.8190     3.9050
 4847.0000  2133.6560     8.2230     0.0870    46.6230     2.1980   -41.8380     3.3560     3.0170     4.1090
 4847.5000  2126.4060     7.9930     0.1100    44.3710     2.3760   -41.7940     3.6740     3.2440     4.8340
 4848.0000  2075.7490     7.9900     0.1420    43.6710     2.5330   -41.7480     3.9910     3.5910     7.2910
 4848.5000  1998.1350     7.9830     0.1320    45.4290     2.6030   -41.6770     4.1090     3.9240     9.3190
 4849.0000  1920.5210     8.0110     0.1560    47.1560     2.6130   -41.4180     4.1320     3.9850     8.2250
 4849.5000  1884.0880     8.0750     0.1600    48.8800     2.6150   -41.1630     4.1670     4.0440     6.1780
 4850.0000  1955.1350     8.1380     0.1640    50.6350     2.6010   -40.9130     4.1850     4.1470     5.6210
 4850.5000  2003.9880     8.2010     0.1590    51.4380     2.5900   -40.7860     3.8780     4.0190     5.2630
 4851.0000  2003.9880     8.2660     0.1670    51.5610     2.5760   -40.9790     3.6400     3.7730     4.9850
 4851.5000  1972.2830     8.2900     0.1580    51.3010     2.4070   -41.1620     3.4030     3.5260     5.2570
 4852.0000  1938.4510     8.3030     0.1640    52.6710     2.4120   -41.3440     3.0530     3.2790     5.6700
 4852.5000  1904.6190     8.3160     0.1740    54.4350     2.4240   -41.5270     2.8180     3.0320     4.9730
 4853.0000  1903.4900     8.3020     0.1790    55.9780     2.4390   -41.7090     2.7320     2.8610     4.1380
 4853.5000  1951.2520     8.2710     0.1820    56.2310     2.4500   -41.6920     2.6420     2.7270     3.8240
