~VERSION INFORMATION
 VERS.                2.0:   CWLS LOG ASCII STANDARD - VERSION 2.0
 WRAP.                 NO:   ONE LINE PER DEPTH STEP
~WELL INFORMATION
#MNEM.UNIT      DATA TYPE    INFORMATION
#----------   ------------   ------------------------------
 STRT.F            0.5000:   START DEPTH
 STOP.F         4149.0000:   STOP DEPTH
 STEP.F            0.5000:   STEP LENGTH
 NULL.          -999.2500:   NO VALUE
 COMP. LAWRENCE ALLISON & ASSOSCIATES:   COMPANY
 WELL. LAWRENCE "X" #34-3:   WELL
 FLD .             NPR #3:   FIELD
 LOC .       S3 T38N R78W:   LOCATION
 CNTY.            NATRONA:   COUNTY
 STAT.            WYOMING:   STATE
 CTRY. UNITED STATES OF AMERICA:   COUNTRY
 SRVC.      DRESSER ATLAS:   SERVICE COMPANY
 DATE.        19-NOV-1983:   LOGDATE
 API .     49025109500000:   API NUMBER
~CURVE INFORMATION
#MNEM.UNIT       API CODE    CURVE DESCRIPTION
#----------   ------------   ------------------------------
 DEPT.F                  :   
 CALD.IN     45 280 60 00:   CALIPER FROM DENSITY LOG
 TEND.LBS    45 635 01 00:   TENSION FORM DENSITY LOG
 DEN .G/C3   45 350 01 00:   BULK DENSITY
 CNC .DEC    42 890 01 00:   NEUTRON POROSITY LIMESTONE
 CORR.G/C3   45 356 01 00:   DENSITY CORRECTION
 TENR.LBS    06 635 01 00:   TENSION FROM RESISTIVITY
 GRR .GAPI   07 310 01 00:   GAMMA RAY FROM RESISTIVITY
 RFOC.OHMM   07 220 04 00:   RESISTIVITY FOCUSED LOG RES.
 RILD.OHMM   07 120 46 00:   DEEP INDUCTION RESISTIVITY
 RILM.OHMM   07 120 44 00:   INDUCTION LOG MEDIUM RESISTIVITY
 SPR .MV     07 010 01 00:   SPONTANEOUS POTENTIAL
 TENS.LBS    60 635 01 00:   TENSION FROM SONIC
 DT  .US/F   60 520 00 00:   DELTA TIME
~PARAMETER INFORMATION
#MNEM.UNIT          VALUE    DESCRIPTION
#----------   ------------   ------------------------------
 EKB .F         5187.0000:   Kelly bushing
 EGL .F         5174.0000:   Ground level
 TD  .F         4140.0000:   Total depth
 CLNT.            A2DTECH:   Client Code
 SL  . 1621' FWL & 1958' FNL:   Surface Location
 PD  .                 GL:   Permanent Datum
 EPD .F              5174:   Elevation Permanent Datum
 LMF .                 KB:   Log Measured From
 DMF .                 KB:   Drilling Measured From
 DAPD.F                13:   Feet Above Permanent Datum
 DATE.        19-NOV-1983:   Date Logged [DD-MMM-YYYY]
 DD  .F              4136:   Depth driller
 DL  .F              4140:   Depth logger
 BLI .F              4138:   Bottom log interval
 TLI .F                 0:   Top log interval
 CS1 .IN            8.625:   Casing size
 CBD1.      8.625" @ 615':   Casing driller 1
 CBL1.F               615:   Casing logger 1
 BS1 .IN            7.875:   Bit size
 BSD1.F              4136:   Depth drilled with bit1
 DFT .            GEL-KCL:   Type fluid in hole
 DFD .                  9:   Density
 DFV .                 45:   Viscosity
 DFPH.                8.5:   pH
 DFL .                 12:   Fluid loss
 MSS .           FLOWLINE:   Source of sample
 RMS .OHMM          0.768:   Rm
 MST .F                74:   Rm Meas. temp.
 RMF .OHMM          0.576:   Rmf
 MFST.F                74:   Rmf Meas. temp.
 MFSS.               CALC:   Source Rmf.
 RMC .OHMM           0.96:   Rmc
 MCST.F                74:   Rmc Meas. temp.
 MCSS.               CALC:   Source Rmc.
 RMB .OHMM          0.418:   Rm. at BHT
 BHT .F               136:   BHT.
 TCS .HRS               4:   Time Circ. stopped
 MRT .F               136:   Maximum recorded temp.
 LUN .               6307:   Logging unit number
 LUL .               GLTE:   Logging unit location
 ENGI.           FAHLSING:   Recorded By
 WITN.           JENNINGS:   Witnessed by
 ORIG.      2.5" 5" PRINT:   Origin of data
 UWI .     49025109500000:   Unique Well ID
 DICO. A2D TECHNOLOGIES, INC.:   Digitizing Company
~OTHER INFORMATION
~A    DEPT    CALD       TEND        DEN        CNC       CORR       TENR         GRR      RFOC       RILD       RILM        SPR       TENS         DT   
# ...
 2938.5000     8.1749     0.0000     2.3436     0.1408     0.0166   -44.0586    60.1566    46.0474    31.2108    28.9104   -94.4643   -12.0312    78.1061
 2939.0000     8.1741     0.0000     2.3435     0.1369     0.0164   -44.2901    57.8790    48.0847    31.9119    29.5375   -93.8501   -12.1875    78.3358
 2939.5000     8.1734     0.0000     2.3435     0.1344     0.0193   -44.5216    54.6868    49.5683    32.6007    30.1782   -93.5408   -12.3457    78.6428
 2940.0000     8.2024     0.0000     2.3464     0.1328     0.0222   -44.7904    53.3215    48.8291    32.1505    30.1834   -93.2314   -12.5000    78.9499
 2940.5000     8.2016     0.0000     2.3448     0.1322     0.0280   -41.2122    52.4181    46.8058    31.2623    29.9637   -92.7696   -12.8494    79.4890
 2941.0000     8.2009     0.0000     2.3373     0.1328     0.0369   -37.4664    51.0551    44.8664    30.8339    28.8649   -92.6127   -24.9215    79.9507
 2941.5000     8.2001     0.0000     2.3223     0.1337     0.0307   -37.7315    47.6342    43.0073    31.2914    27.3443   -92.6082   -28.5938    79.6390
 2942.0000     8.1994     0.0000     2.3192     0.1379     0.0216   -37.9704    44.6706    41.2252    31.7524    26.5826   -92.9087   -28.7809    78.5539
 2942.5000     8.1987     0.0000     2.3222     0.1418     0.0215   -45.9105    46.1434    40.0800    32.6815    25.8431   -93.2091   -28.9352    77.3141
 2943.0000     8.1979     0.0000     2.3284     0.1439     0.0275   -46.1419    49.7213    39.5354    33.4317    25.8487   -93.6608   -29.0895    75.9196
 2943.5000     8.2270     0.0000     2.3438     0.1428     0.0334   -46.3772    52.0168    39.5554    33.6551    25.8531   -94.1148   -29.2438    74.8345
 2944.0000     8.2179     0.0000     2.3580     0.1387     0.0393   -46.6386    52.4831    39.5750    32.7220    25.8576   -94.7190   -29.3982    74.8198
 2944.5000     8.1957     0.0000     2.3541     0.1369     0.0449   -39.1204    47.0043    39.0330    31.3722    25.6792   -95.3242   -29.5525    75.4486
 2945.0000     8.1949     0.0000     2.3455     0.1393     0.0324   -31.5984    48.3852    39.0568    30.5024    25.7084   -95.4722   -29.7068    76.0650
 2945.5000     8.1942     0.0000     2.3427     0.1405     0.0297   -31.8673    50.6807    39.0758    30.0843    25.8712   -95.6213   -29.8611    77.3775
 2946.0000     8.1935     0.0000     2.3446     0.1405     0.0325   -32.1026    53.8909    39.6541    29.6748    26.2464   -95.9206   -14.3518    77.2979
 2946.5000     8.1927     0.0000     2.3530     0.1404     0.0318   -32.3302    57.3298    40.2461    29.0475    26.6261   -96.5259   -14.5448    76.8315
 2947.0000     8.1920     0.0000     2.3641     0.1398     0.0286   -32.5618    60.3113    40.8443    28.8671    27.2037   -96.8263   -14.6991    76.2878
 2947.5000     8.2034     0.0000     2.3674     0.1392     0.0261   -32.7932    63.9788    42.9567    29.2955    28.5939   -96.5159   -14.8534    75.4347
 2948.0000     8.2202     0.0000     2.3798     0.1350     0.0313   -33.0546    66.5062    45.5019    30.5843    30.7019   -96.5114   -15.0077    74.1949
 2948.5000     8.2195     0.0000     2.4113     0.1003     0.0416   -33.2785    61.1691    48.5528    32.8505    34.3991   -96.2020   -15.1620    72.6457
 2949.0000     8.2188     0.0000     2.4655     0.0776     0.0437   -24.3553    58.1707    55.4634    36.3020    38.0998   -95.7403   -15.3164    68.7762
 2949.5000     8.2180     0.0000     2.5084     0.0459     0.0406   -18.2870    53.4986    89.1598    43.6875    44.7442   -95.2785   -15.4707    65.2161
 2950.0000     8.2173     0.0000     2.6295     0.0471     0.0374   -18.5185    50.7637   603.2582    65.0692    54.2021   -94.9691   -39.0625    63.6670
 2950.5000     8.2165     0.0000     2.6455     0.0519     0.0438   -18.7500    48.0288  1987.3855   100.0943    62.4776   -94.3549   -39.2970    59.0136
 2951.0000     8.2158     0.0000     2.6591     0.0566     0.0906    -1.7457    45.7511  2000.0000   107.1096    59.8838   -94.0456   -39.5317    54.9925
 2951.5000     8.2150     0.0000     2.6697     0.0602     0.1119    14.2825    46.2174  2000.0000   102.6807    53.8467   -93.4314   -39.7662    53.6828
 2952.0000     8.2314     0.0000     2.6438     0.0698     0.0998    14.8783    50.7996   831.3853    72.0024    47.3984   -93.1046   -47.8133    53.7620
 2952.5000     8.2257     0.0000     2.5759     0.0853     0.0996    15.4744    55.6104    76.1758    51.2128    39.9833   -93.2481   -48.0479    54.2994
 2953.0000     8.2127     0.0000     2.5449     0.1146     0.1008    16.0494    59.2779    48.2493    45.0819    33.4389   -93.2370   -56.0949    55.0027
 2953.5000     8.2119     0.0000     2.5212     0.1323     0.1009    16.6665    63.1259    35.7544    41.7091    29.3367   -93.2281   -56.3281    61.6761
 2954.0000     8.2112     0.0000     2.4561     0.1345     0.0784    17.2840    59.0122    30.5587    39.6829    25.9502   -93.5244   -56.5640    67.2024
 2954.5000     8.2104     0.0000     2.3987     0.1357     0.0437    17.9012    55.7691    28.0054    37.5264    24.1768   -93.9725   -56.7987    71.9781
 2955.0000     8.2097     0.0000     2.3661     0.1365     0.0407    10.8870    52.5380    26.1158    35.7200    23.5032   -94.4209   -57.0332    75.4308
 2955.5000     8.2090     0.0000     2.3407     0.1393     0.0419     3.7038    51.2445    25.0198    34.0006    22.5285   -94.8955   -57.2677    78.1382
 2956.0000     8.2082     0.0000     2.3308     0.1470     0.0354     1.5435    51.4759    24.3142    31.9071    22.0578   -95.3177   -57.5024    79.4357
 2956.5000     8.2075     0.0000     2.3307     0.1489     0.0267   -10.4735    53.5361    24.3125    29.1034    21.5968   -95.6137   -57.7369    79.9628
 2957.0000     8.2068     0.0000     2.3321     0.1486     0.0265   -13.7618    58.3401    24.3108    27.7024    21.2962   -95.3753   -57.9714    80.1158
 2957.5000     8.2060     0.0000     2.3276     0.1491     0.0294   -24.6914    70.2326    24.4832    26.7464    20.8315   -95.2887   -58.2061    80.3383
 2958.0000     8.2351     0.0000     2.3200     0.1500     0.0382   -24.0742    74.1220    24.6568    26.3798    20.7074   -95.4345   -58.4406    80.2586
 2958.5000     8.2343     0.0000     2.3110     0.1494     0.0351   -23.3730    73.2096    25.0094    26.3934    20.7119   -95.4234   -58.6752    80.0928
 2959.0000     8.2336     0.0000     2.3049     0.1476     0.0290   -22.7769    66.1226    25.3670    26.9733    21.1611   -95.5671   -58.9098    79.8580
 2959.5000     8.2031     0.0000     2.3078     0.1446     0.0348   -25.0104    57.2085    25.7293    27.5659    21.9292   -95.5579   -59.1443    79.4684
 2960.0000     8.2023     0.0000     2.3168     0.1406     0.0407   -32.6680    54.0095    26.0973    29.1906    23.2140   -95.2439   -59.3750    78.8263
 2960.5000     8.2016     0.0000     2.3257     0.1383     0.0525   -36.4198    53.7825    27.0431    31.3535    24.5741   -95.2331   -59.6094    77.7285
 2961.0000     8.2009     0.0000     2.3406     0.1357     0.0554   -35.8025    57.2152    28.8345    34.6477    26.3858   -95.2242   -59.8437    76.5414
 2961.5000     8.2299     0.0000     2.3700     0.1226     0.0553   -19.7531    58.5894    33.2545    38.9131    29.2047   -95.2152   -60.0826    74.0968
 2962.0000     8.2291     0.0000     2.4138     0.0881     0.0611   -19.1019    56.3050    40.6045    42.9211    32.8904   -95.2063   -60.3171    70.7663
 2962.5000     8.2284     0.0000     2.5170     0.0773     0.0730   -18.5184    53.1060    58.4323    45.4508    37.1135   -95.1974   -60.5518    67.8908
 2963.0000     8.1979     0.0000     2.5694     0.0743     0.0848   -17.9012    49.9070   146.6270    47.4503    41.5828   -94.5788   -60.7863    64.2623
 2963.5000     8.1972     0.0000     2.6187     0.0779     0.0937   -17.2839    51.2228   286.7021    46.8000    40.4261   -94.1125   -73.8044    57.1428
 2964.0000     8.1964     0.0000     2.6156     0.1024     0.0696   -16.6667    54.9425   241.5682    43.6074    36.8702   -93.6463   -76.8750    54.0452
