~VERSION INFORMATION
 VERS.                2.0:   CWLS LOG ASCII STANDARD - VERSION 2.0
 WRAP.                 NO:   ONE LINE PER DEPTH STEP
~WELL INFORMATION
#MNEM.UNIT      DATA TYPE    INFORMATION
#----------   ------------   ------------------------------
 STRT.F          200.5000:   START DEPTH
 STOP.F         3012.5000:   STOP DEPTH
 STEP.F            0.5000:   STEP LENGTH
 NULL.          -999.2500:   NO VALUE
 COMP.    FENIX & SCISSON:   COMPANY
 WELL.  FENIX "AX" #75-29:   WELL
 FLD .              NPR-3:   FIELD
 LOC .      S29 T39N R78W:   LOCATION
 CNTY.            NATRONA:   COUNTY
 STAT.            WYOMING:   STATE
 CTRY. UNITED STATES OF AMERICA:   COUNTRY
 SRVC.           BIRDWELL:   SERVICE COMPANY
 DATE.        15-FEB-1978:   LOGDATE
 API .     49025105830000:   API NUMBER
~CURVE INFORMATION
#MNEM.UNIT       API CODE    CURVE DESCRIPTION
#----------   ------------   ------------------------------
 DEPT.F                  :   
 GRD .GAPI   45 310 01 00:   GAMMA RAY FROM DENSITY LOG
 CALD.IN     45 280 60 00:   CALIPER FROM DENSITY LOG
 DEN .G/C3   45 350 01 00:   BULK DENSITY
 DCOR.G/C3   45 356 01 00:   DENSITY CORRECTION
 SPR .MV     05 010 01 00:   SPONTANEOUS POTENTIAL
 SN  .OHMM   05 040 16 00:   SHORT NORMAL 16"
 RILD.OHMM   05 120 46 00:   DEEP INDUCTION RESISTIVITY
~PARAMETER INFORMATION
#MNEM.UNIT          VALUE    DESCRIPTION
#----------   ------------   ------------------------------
 EKB .F         5042.0000:   Kelly bushing
 EGL .F         5032.0000:   Ground level
 EDF .F            0.0000:   Drilling floor
 TD  .F         3010.0000:   Total depth
 DATE.        15-FEB-1978:   Date logged
 CLNT.            A2DTECH:   Client Code
 SL  . 2550' FSL & 950' FEL:   Surface Location
 PD  .                 GL:   Permanent Datum
 EPD .F              5032:   Elevation Permanent Datum
 LMF .                 KB:   Log Measured From
 DMF .                 KB:   Drilling Measured From
 DAPD.F                10:   Feet Above Permanent Datum
 DD  .F              3010:   Depth driller
 DL  .F              3010:   Depth logger
 BLI .F              3002:   Bottom log interval
 TLI .F               200:   Top log interval
 CS1 .IN            8.625:   Casing size
 CBD1.      8.625" @ 222':   Casing driller 1
 CBL1.F               222:   Casing logger 1
 BS1 .IN            7.875:   Bit size
 BSD1.F              3010:   Depth drilled with bit1
 DFT .         LIGNO/SULF:   Type fluid in hole
 DFD .                9.1:   Density
 DFV .                 33:   Viscosity
 DFPH.                 10:   pH
 DFL .                4.9:   Fluid loss
 MSS .           FLOWLINE:   Source of sample
 RMS .OHMM              2:   Rm
 MST .F                66:   Rm Meas. temp.
 RMF .OHMM            2.2:   Rmf
 MFST.F                58:   Rmf Meas. temp.
 RMC .OHMM            1.8:   Rmc
 MCST.F                60:   Rmc Meas. temp.
 MFSS.               MEAS:   Source Rmf.
 RMB .OHMM            1.7:   Rm. at BHT
 BHT .F               118:   BHT.
 TCS .HRS               5:   Time Circ. stopped
 MRT .F               118:   Maximum recorded temp.
 LUN .               2958:   Logging unit number
 LUL .               CASP:   Logging unit location
 ENGI.            POINTER:   Recorded By
 WITN.           MCGINLEY:   Witnessed by
 ORIG.           5" PRINT:   Origin of data
 UWI .     49025105830000:   Unique Well ID
 DICO. A2D TECHNOLOGIES, INC.:   Digitizing Company
~OTHER INFORMATION
~A   DEPT       GRD      CALD        DEN       DCOR        SPR         SN       RILD   
# ...
 1110.5000    66.9400     9.9260     2.5480     0.1010   -59.0670    10.1020     9.8340
 1111.0000    65.3510     9.9270     2.5570     0.1000   -60.1990    10.0970     9.8340
 1111.5000    63.6560     9.9280     2.5570     0.0970   -59.5190    10.0920     9.8340
 1112.0000    63.2760     9.9300     2.5560     0.0920   -58.4500    10.0870     9.8340
 1112.5000    64.2410     9.9310     2.5480     0.0880   -58.0310    10.0820     9.8340
 1113.0000    65.9870     9.9320     2.5400     0.0880   -61.2160    10.0760     9.8200
 1113.5000    67.8040     9.9340     2.5340     0.0900   -58.6670    10.0710     9.8050
 1114.0000    68.6190     9.9350     2.5340     0.0940   -61.3450    10.0660     9.7890
 1114.5000    68.4630     9.9360     2.5290     0.0970   -60.9490    10.0610     9.7740
 1115.0000    67.9760     9.9370     2.5350     0.0950   -58.8580    10.0560     9.7580
 1115.5000    67.4970     9.9390     2.5320     0.0950   -58.6490    10.0510     9.7440
 1116.0000    69.0090     9.9400     2.5300     0.0890   -61.3750    10.0460     9.7290
 1116.5000    70.5140     9.9410     2.5330     0.0890   -59.6560    10.0410     9.7140
 1117.0000    71.8040     9.9420     2.5220     0.0930   -60.9140    10.0360     9.7000
 1117.5000    72.2320     9.9440     2.5270     0.0970   -61.0120    10.0310     9.6860
 1118.0000    72.3390     9.9450     2.5270     0.1010   -58.3490    10.0260     9.6720
 1118.5000    72.7620     9.9460     2.5310     0.1050   -59.1800    10.0210     9.6570
 1119.0000    72.9640     9.9470     2.5400     0.1040   -58.9850    10.0170     9.6430
 1119.5000    71.6700     9.9490     2.5450     0.1000   -58.7310    10.0170     9.6290
 1120.0000    70.3780     9.9500     2.5400     0.0930   -61.3630    10.0170     9.6150
 1120.5000    69.0260     9.9510     2.5250     0.0900   -59.2750    10.0170     9.6000
 1121.0000    68.8290     9.9530     2.5190     0.0910   -58.6010    10.0170     9.5860
 1121.5000    68.1170     9.9540     2.5170     0.0910   -59.2390    10.0040     9.5720
 1122.0000    67.2870     9.9550     2.5260     0.0900   -59.2640     9.9220     9.5330
 1122.5000    66.7760     9.9560     2.5370     0.0840   -59.2660     9.8340     9.4730
 1123.0000    67.0270     9.9580     2.5330     0.0790   -59.4390     9.7570     9.4140
 1123.5000    68.9500     9.9590     2.5250     0.0780   -59.8700     9.6750     9.3550
 1124.0000    71.5990     9.9600     2.5220     0.0790   -59.0480     9.5930     9.2960
 1124.5000    72.8120     9.9550     2.5280     0.0790   -59.6380     9.5110     9.2370
 1125.0000    73.0050     9.9490     2.5210     0.0870   -59.5850     9.4290     9.1700
 1125.5000    72.5610     9.9430     2.5400     0.0960   -59.4500     9.3470     9.1000
 1126.0000    72.1330     9.9370     2.5460     0.1040   -59.3160     9.3050     9.0420
 1126.5000    72.1400     9.9310     2.5470     0.1050   -59.1520     9.3050     9.0130
 1127.0000    69.4100     9.9250     2.5540     0.1050   -58.9680     9.3050     8.9680
 1127.5000    65.6240     9.9150     2.5520     0.1050   -58.7850     9.3050     9.0060
 1128.0000    65.9050     9.8950     2.5460     0.1050   -58.7180     9.4520     9.0940
 1128.5000    67.1080     9.8750     2.5400     0.1050   -58.8740    10.1100     9.2620
 1129.0000    66.9760     9.8560     2.5370     0.1080   -59.0290     9.8340     9.4480
 1129.5000    66.3300     9.8360     2.5330     0.1080   -59.0620    10.0260     9.6860
 1130.0000    65.2760     9.8220     2.5480     0.1090   -59.0620    10.2980    10.0120
 1130.5000    64.2320     9.8250     2.5610     0.1130   -59.0780    10.2690     9.9910
 1131.0000    63.8210     9.8270     2.5730     0.1190   -58.6870    10.2340     9.9490
 1131.5000    66.0410     9.8290     2.5880     0.1140   -59.8460    10.1990     9.9070
 1132.0000    68.7560     9.8310     2.5920     0.1050   -57.6220    10.1640     9.8660
 1132.5000    69.5690     9.8340     2.5610     0.0990   -59.4770    10.1300     9.8240
 1133.0000    68.8570     9.8360     2.5460     0.0990   -60.1880    10.0950     9.7820
 1133.5000    65.9730     9.8380     2.5400     0.0980   -56.7700    10.0600     9.7400
 1134.0000    65.9910     9.8410     2.5320     0.0980   -60.1750    10.0250     9.6980
 1134.5000    66.5730     9.8440     2.5240     0.0980   -59.1980     9.9900     9.6540
 1135.0000    66.1520     9.8490     2.5250     0.0990   -57.1590     9.9550     9.6810
 1135.5000    67.1620     9.8530     2.5270     0.0940   -57.6140     9.9290     9.7160
 1136.0000    67.3760     9.8580     2.5290     0.0970   -58.0640    10.0050     9.7520
 1136.5000    70.2710     9.8630     2.5330     0.1010   -60.7800    10.0750     9.7880
 1137.0000    72.2260     9.8670     2.5360     0.1000   -58.1940    10.1100     9.8340
 1137.5000    72.7530     9.8720     2.5330     0.0990   -59.2800    10.1100     9.7440
 1138.0000    72.5770     9.8770     2.5300     0.0990   -59.3920     9.7990     9.4510
 1138.5000    71.7200     9.8810     2.5340     0.0980   -59.2660     9.3910     9.1860
 1139.0000    71.6670     9.8860     2.5430     0.0940   -59.1760     9.2750     9.0720
 1139.5000    74.1260     9.8910     2.5490     0.0900   -58.0280     9.1700     8.9580
 1140.0000    74.8200     9.8950     2.5460     0.0930   -59.8000     9.0660     8.8430
 1140.5000    71.8600     9.9000     2.5430     0.0890   -60.4940     9.0370     8.8040
 1141.0000    71.3490     9.9210     2.5400     0.0830   -55.9670     9.0210     8.8040
 1141.5000    72.3130     9.9570     2.5360     0.0760   -56.5940     9.0050     8.8040
 1142.0000    71.5650     9.9930     2.5250     0.0790   -59.5420     8.9900     8.8040
 1142.5000    69.3350    10.0280     2.5130     0.0820   -56.1530     8.9740     8.8040
 1143.0000    68.4740    10.0640     2.5110     0.0890   -58.5100     8.9300     8.6930
 1143.5000    68.9570    10.1000     2.5140     0.0950   -56.0050     8.8410     8.5830
 1144.0000    68.8540    10.1220     2.5230     0.0950   -57.8460     8.7510     8.4740
 1144.5000    68.0940    10.1290     2.5300     0.0950   -57.9560     8.6610     8.3650
 1145.0000    68.8570    10.1370     2.5270     0.0970   -57.9030     8.5720     8.2540
 1145.5000    69.8200    10.1440     2.5410     0.0990   -57.9910     8.4820     8.2470
 1146.0000    70.3250    10.1510     2.5360     0.1010   -58.0560     8.4070     8.2400
 1146.5000    68.6480    10.1580     2.5350     0.1030   -57.9730     8.4070     8.2330
 1147.0000    69.2410    10.1370     2.5370     0.1050   -57.8880     8.4070     8.2260
 1147.5000    68.9540    10.1090     2.5260     0.1110   -57.8800     8.4070     8.2200
 1148.0000    68.1950    10.0780     2.5250     0.1210   -57.9000     8.4070     8.2130
 1148.5000    68.5750    10.0470     2.5330     0.1230   -57.9210     8.4070     8.2060
 1149.0000    69.3140    10.0340     2.5390     0.1180   -57.9410     8.4070     8.1990
 1149.5000    68.8510    10.0260     2.5430     0.1140   -57.9620     8.4070     8.1920
 1150.0000    68.4790    10.0350     2.5330     0.1090   -57.9820     8.4070     8.1860
 1150.5000    69.5650    10.0920     2.5210     0.1090   -58.0030     8.4820     8.1790
 1151.0000    69.3930    10.1470     2.5170     0.1130   -58.0220     8.5910     8.2890
 1151.5000    69.8700    10.1970     2.5320     0.1180   -58.0400     8.6990     8.4150
 1152.0000    72.6100    10.2160     2.5430     0.1160   -58.0740     8.8040     8.5420
 1152.5000    75.1260    10.2370     2.5540     0.1150   -57.9750     8.8260     8.5800
 1153.0000    75.5600    10.2570     2.5570     0.1110   -57.4850     8.8470     8.6060
 1153.5000    74.2700    10.2770     2.5550     0.1070   -58.5660     8.8680     8.6320
 1154.0000    68.2170    10.2770     2.5390     0.0990   -57.8790     8.8890     8.6580
 1154.5000    67.9970    10.2770     2.5220     0.0880   -57.9370     8.9100     8.6840
 1155.0000    69.0690    10.2770     2.5140     0.0910   -58.2230     8.9310     8.7230
 1155.5000    71.6360    10.2770     2.5030     0.0980   -57.0850     8.9530     8.7160
