~VERSION INFORMATION
 VERS.                2.0:   CWLS LOG ASCII STANDARD - VERSION 2.0
 WRAP.                 NO:   ONE LINE PER DEPTH STEP
~WELL INFORMATION
#MNEM.UNIT      DATA TYPE    INFORMATION
#----------   ------------   ------------------------------
 STRT.F           61.5000:   START DEPTH
 STOP.F         4220.0000:   STOP DEPTH
 STEP.F            0.5000:   STEP LENGTH
 NULL.          -999.2500:   NO VALUE
 COMP.   LAWRENCE ALLISON:   COMPANY
 WELL. ALLISON NPR 3 "LX" #28-34:   WELL
 FLD .                NPR:   FIELD
 LOC .      S34 T39N R78W:   LOCATION
 CNTY.            NATRONA:   COUNTY
 STAT.            WYOMING:   STATE
 CTRY. UNITED STATES OF AMERICA:   COUNTRY
 SRVC.       DRESER ATLAS:   SERVICE COMPANY
 DATE.        23-MAR-1983:   LOGDATE
 API .     49025109190000:   API NUMBER
~CURVE INFORMATION
#MNEM.UNIT       API CODE    CURVE DESCRIPTION
#----------   ------------   ------------------------------
 DEPT.F                  :   
 TEND.LBS    45 635 01 00:   TENSION FROM DENSITY LOG
 CORR.G/C3   45 356 01 00:   DENSITY CORRECTION
 RHOB.G/C3   45 350 01 00:   BULK DENSITY
 CN  .DEC    42 890 00 00:   Neutron Porosity
 SPR .MV     07 010 01 00:   SPONTANEOUS POTENTIAL
 GRR .GAPI   07 310 01 00:   GAMMA RAY FROM RESISTIVITY
 TENR.LBS    07 635 01 00:   TENSION FROM RESISTIVITY
 RILD.OHMM   07 120 46 00:   DEEP INDUCTION RESISTIVITY
 RILM.OHMM   07 120 44 00:   INDUCTION LOG MEDIUM RESISTIVITY
 RFOC.OHMM   07 220 01 00:   RESISTIVITY FOCUSED LOG RES.
 TENS.LBS    60 635 01 00:   TENSION FROM SONIC LOG
 DT  .US/F   60 520 00 00:   DELTA TIME
 CALS.IN     60 280 50 00:   CALIPER FROM SONIC LOG
~PARAMETER INFORMATION
#MNEM.UNIT          VALUE    DESCRIPTION
#----------   ------------   ------------------------------
 EKB .F         5184.0000:   Kelly bushing
 EGL .F         5174.0000:   Ground level
 EDF .F            0.0000:   Drilling floor
 TD  .F         4397.0000:   Total depth
 DATE.        23-MAR-1983:   Date logged
 CLNT.            A2DTECH:   Client Code
 SL  . 942' FWL & 645' FSL:   Surface Location
 PD  .                 GL:   Permanent Datum
 EPD .F              5174:   Elevation Permanent Datum
 LMF .                 KB:   Log Measured From
 DMF .                 KB:   Drilling Measured From
 DAPD.F                10:   Feet Above Permanent Datum
 DD  .F              4397:   Depth driller
 DL  .F              4203:   Depth logger
 BLI .F              4201:   Bottom log interval
 CS1 .IN            9.625:   Casing size
 CBD1.      9.625" @ 659':   Casing driller 1
 CBL1.F               658:   Casing logger 1
 BS1 .IN             8.75:   Bit size
 BSD1.F              4397:   Depth drilled with bit1
 DFT .   GEL/DRISPACK/KCL:   Type fluid in hole
 DFD .                8.6:   Density
 DFV .                 36:   Viscosity
 DFPH.                8.5:   pH
 DFL .                 18:   Fluid loss
 MSS .               TANK:   Source of sample
 RMS .OHMM           0.55:   Rm
 MST .F                74:   Rm Meas. temp.
 RMF .OHMM           0.43:   Rmf
 MFST.F                66:   Rmf Meas. temp.
 RMC .OHMM           0.69:   Rmc
 MCST.F                74:   Rmc Meas. temp.
 MFSS.               MEAS:   Source Rmf.
 MCSS.               CALC:   Source Rmc.
 RMB .OHMM           0.33:   Rm. at BHT
 BHT .F               122:   BHT.
 TCS .HRS             5.5:   Time Circ. stopped
 MRT .F               122:   Maximum recorded temp.
 LUN .               6270:   Logging unit number
 LUL .              WLSTN:   Logging unit location
 ENGI.             REEVES:   Recorded By
 WITN.             STRONG:   Witnessed by
 ORIG.           5" PRINT:   Origin of data
 UWI .     49025109190000:   Unique Well ID
 DICO. A2D TECHNOLOGIES, INC.:   Digitizing Company
~OTHER INFORMATION
~A   DEPT     TEND       CORR       RHOB         CN        SPR         GRR      TENR       RILD       RILM       RFOC       TENS         DT       CALS   
# ...
 2999.5000   -54.5870    -0.0180     2.5330     0.2070   -56.2230   121.8720   -38.7200     5.5970     5.5480     6.0910   -46.6110    79.2590    14.3320
 3000.0000   -48.3100     0.0080     2.5360     0.2070   -56.0650   122.0210   -56.7560     5.5580     5.4510     5.9720   -65.5120    78.7550    14.3120
 3000.5000   -41.6400     0.0350     2.5400     0.2080   -55.9020   122.0230   -74.6490     5.4940     5.3550     5.8530   -84.3370    78.2510    14.2920
 3001.0000   -34.3970     0.0450     2.5400     0.2110   -55.7430   122.0050   -44.5890     5.4000     5.2580     5.8070   -44.1770    77.8250    14.2710
 3001.5000   -27.1540     0.0180     2.5320     0.2150   -55.5850   123.2160   -49.9000     5.3070     5.1610     5.7530   -50.3820    77.6990    14.2590
 3002.0000   -25.5050    -0.0120     2.5260     0.2190   -55.4070   124.6150   -62.5250     5.1980     5.0100     5.6870   -65.5020    77.9600    14.2660
 3002.5000   -29.4050    -0.0030     2.5270     0.2190   -55.1790   125.8450   -75.1500     5.1980     5.0950     5.5970   -88.3530    78.4640    14.2720
 3003.0000   -33.3050     0.0110     2.5300     0.2140   -54.9110   124.1070   -87.7760     5.3250     5.2910     5.6940  -114.4580    78.9680    14.2780
 3003.5000   -37.2050     0.0260     2.5330     0.2100   -54.6480   122.7560  -100.4010     5.5210     5.4870     5.8450  -117.0560    79.4580    14.2840
 3004.0000   -41.1050     0.0360     2.5360     0.2070   -54.3840   120.1300  -101.9370     5.7180     5.6830     5.9960  -120.2060    78.7570    14.2900
 3004.5000   -45.0050     0.0440     2.5360     0.2130   -54.1200   116.5850   -97.7290     5.9140     5.8790     6.1470  -123.3560    77.4610    14.2950
 3005.0000   -48.9060     0.0330     2.5270     0.2210   -53.8560   115.0880   -94.6890     6.1110     6.0750     6.2990  -124.4980    76.1650    14.3100
 3005.5000   -52.8060     0.0230     2.5090     0.2280   -53.5920   117.1120   -94.6890     6.3080     6.2710     6.4500  -124.4980    75.4420    14.3470
 3006.0000   -56.7060     0.0170     2.4900     0.2420   -53.3270   118.3410   -94.6890     6.4870     6.4870     6.6010  -124.4980    75.6430    14.3840
 3006.5000   -60.6060     0.0200     2.4660     0.2530   -53.0640   118.6270   -94.6890     6.5780     6.2770     6.7520  -124.4980    77.0860    14.4190
 3007.0000   -64.6290     0.0190     2.4510     0.2570   -52.7300   117.8570   -90.5210     6.2520     5.8580     6.9620  -106.8270    78.7870    14.4560
 3007.5000   -60.5380     0.0130     2.3940     0.2600   -52.3740   117.6910   -77.0540     5.7490     5.4380     7.3020   -90.0270    81.0640    14.4370
 3008.0000   -56.3130     0.0080     2.3340     0.2910   -52.0160   119.6530   -63.5870     5.2460     5.0180     7.8020   -87.6510    80.5720    14.4110
 3008.5000   -64.6290     0.0010     1.9890     0.3840   -51.6510   118.5120   -50.1200     4.8340     4.5990     7.2560   -76.7570    78.7000    14.3860
 3009.0000   -40.7820    -0.0240     2.0110     0.4480   -51.3150   117.7690   -36.6530     4.4850     4.0310     6.2300   -34.1370    75.8430    14.3660
 3009.5000   -11.2060    -0.0770     1.9990     0.4550   -50.9250   113.3870   -23.1860     3.8110     3.1790     5.2030   -24.0960    76.4460    14.3270
 3010.0000    15.5310    -0.1140     2.0060     0.5470   -50.5410   107.3250   -18.1360     3.0980     2.3260     4.1770   -33.1330    97.8840    14.4900
 3010.5000     2.9060    -0.1340     2.0040     0.4100   -49.2310    99.0400   -28.2360     2.3850     1.5510     3.1490   -41.5330   129.5360    14.9730
 3011.0000   -47.7960    -0.1550     2.0040     0.3480   -47.9190    91.9630   -34.5690     1.6550     1.1030     2.1190   -43.5740   166.2150    15.2770
 3011.5000   -98.4970    -0.1780     2.0030     0.3100   -47.2390    91.1780   -34.5690     1.5100     1.1370     1.5550   -41.4740   165.7110    15.3600
 3012.0000  -124.7490    -0.1940     2.0000     0.2720   -48.1710   101.5500   -34.5690     1.3620     1.1730     1.3260   -39.3740   164.3980    15.2700
 3012.5000   -80.9120    -0.1910     2.0700     0.2270   -49.0250   114.6700   -34.5690     1.3020     1.2920     1.5220   -37.2740   135.3940    14.9610
 3013.0000   -24.5490    -0.1180     2.2890     0.2150   -49.9280   120.4540   -34.5690     1.8560     1.4680     1.7180   -35.1740   100.7430    14.6540
 3013.5000   -14.5290    -0.0310     2.4630     0.1970   -50.4220   115.9810   -33.8930     2.3180     1.6440     2.7600   -36.9700    98.7350    14.3590
 3014.0000   -14.5290     0.0310     2.5340     0.1970   -51.0680   106.8690   -30.7360     2.7800     1.8150     4.6680   -42.5700    91.9710    14.0740
 3014.5000   -14.5290     0.0380     2.5390     0.1960   -51.7140   102.0330   -27.5800     3.2420     3.0730     6.1270   -48.1700    84.6990    14.0650
 3015.0000   -14.5290     0.0080     2.5340     0.2060   -52.3780   103.7820   -24.5490     3.7040     4.3010     6.0800   -54.2170    76.8470    14.0690
 3015.5000   -14.5290    -0.0140     2.5330     0.2190   -53.0310   105.0070   -42.9260     5.1900     5.9150     6.0250   -69.6790    75.0400    14.0830
 3016.0000   -14.5290    -0.0170     2.5270     0.2310   -53.6810   106.1520   -60.6010     7.2460     5.8820     5.9940   -86.4790    76.0920    14.0910
 3016.5000   -14.5290    -0.0020     2.5210     0.2270   -54.3510   109.0980   -78.2770     8.4000     5.8090     5.9150  -103.2800    77.0280    14.1130
 3017.0000   -14.5290     0.0270     2.5160     0.2210   -54.6790   111.4400   -94.6890     7.9520     5.7360     5.6330  -114.4580    77.7890    14.1700
 3017.5000   -14.5290     0.0410     2.5060     0.2170   -54.7890   113.9090   -92.7570     7.4330     5.6630     5.3070  -114.4580    78.2010    14.2220
 3018.0000   -14.5290     0.0230     2.4880     0.2150   -54.8880   114.2730   -90.9530     6.9150     5.5970     5.0100  -114.4580    78.6130    14.2800
 3018.5000   -14.5290     0.0100     2.4610     0.2390   -54.9610   114.5830   -89.1500     6.3970     5.4200     4.7400  -114.4580    79.0260    14.3480
 3019.0000   -14.5290     0.0100     2.4220     0.2490   -54.3590   115.1670   -87.3460     6.0620     5.1650     4.7560  -114.4580    79.4580    14.5990
 3019.5000   -21.5630     0.0120     2.3840     0.2610   -53.7730   116.4910   -85.5430     5.9100     4.9110     4.7880  -114.4580    78.7600    14.8880
 3020.0000   -36.7740     0.0140     2.3140     0.2710   -53.1400   117.8910   -67.9220     5.7590     4.6560     4.8190  -114.4580    72.5020    15.2060
 3020.5000   -36.3730     0.0160     2.2250     0.3320   -52.5620   117.8180   -35.4570     5.5970     4.4850     4.6440   -57.9990    64.6390    15.3990
 3021.0000   -19.4720     0.0140     2.1150     0.3860   -51.9240   117.2770    -2.9920     5.2950     4.0040     4.3890   -30.4070    61.5860    15.3830
 3021.5000    -2.5720     0.0020     2.0010     0.4300   -51.3070   117.7020     7.5820     4.4000     2.9880     3.6030   -12.4070    67.0420    15.3940
 3022.0000    15.5310    -0.0310     1.9990     0.5760   -49.8870   118.3670    10.3870     3.6100     2.5590     4.0890     6.0240    77.5140    15.4020
 3022.5000   -26.8540    -0.0840     2.0010     0.5710   -48.5680   114.2820    13.1930     2.8210     2.1060     3.3490     6.0240    88.2500    15.4050
 3023.0000   -72.4850    -0.1020     2.0020     0.5590   -48.3510   106.1100    15.5310     2.0320     1.6520     2.7060   -36.4310    98.9860    15.4120
 3023.5000  -118.1160    -0.1170     2.0030     0.4570   -48.6430    98.8290   -23.3470     1.5200     1.1870     2.0630   -72.4330   109.7210    15.4200
 3024.0000  -164.8300    -0.1370     2.0010     0.3320   -48.8850    91.0330   -84.6690     1.4820     1.2560     1.5370   -74.6990   114.1970    15.3980
 3024.5000  -133.8930    -0.1700     2.0060     0.2080   -49.1500    95.7280   -62.5750     1.5130     1.3260     1.5090   -24.2970   106.1780    15.3520
 3025.0000  -102.2040    -0.1540     2.0000     0.1980   -49.4540   104.6890     5.5110     1.5530     1.8750     1.7320    -7.3630    92.6710    15.2950
