~VERSION INFORMATION
 VERS.                2.0:   CWLS LOG ASCII STANDARD - VERSION 2.0
 WRAP.                 NO:   ONE LINE PER DEPTH STEP
~WELL INFORMATION
#MNEM.UNIT      DATA TYPE    INFORMATION
#----------   ------------   ------------------------------
 STRT.F          514.0000:   START DEPTH
 STOP.F         4154.0000:   STOP DEPTH
 STEP.F            0.5000:   STEP LENGTH
 NULL.          -999.2500:   NO VALUE
 COMP.    FENIX & SCISSON:   COMPANY
 WELL.  FENIX "MX" #86-10:   WELL
 FLD .        TEAPOT DOME:   FIELD
 LOC .      S10 T38N R78W:   LOCATION
 CNTY.            NATRONA:   COUNTY
 STAT.            WYOMING:   STATE
 CTRY. UNITED STATES OF AMERICA:   COUNTRY
 SRVC.       SCHLUMBERGER:   SERVICE COMPANY
 DATE.        30-SEP-1978:   LOGDATE
 API .     49025107290000:   API NUMBER
~CURVE INFORMATION
#MNEM.UNIT       API CODE    CURVE DESCRIPTION
#----------   ------------   ------------------------------
 DEPT.F                  :   
 SPR .MV     07 010 01 00:   SPONTANEOUS POTENTIAL
 TENR.LBS    07 635 01 00:   TENSION FROM RESISTIVITY
 SFL .OHMM   07 220 01 00:   SHALLOW FOCUSED LOG RESISTIVITY
 ILM .OHMM   07 120 44 00:   INDUCTION LOG MEDIUM RESISTIVITY
 ILD .OHMM   07 120 46 00:   INDUCTION LOG DEEP RESISTIVITY
 CALD.IN     45 280 60 00:   CALIPER FROM DENSITY LOG
 GRD .GAPI   45 310 01 00:   GAMMA RAY FROM DENSITY LOG
 TEND.LBS    45 635 01 00:   TENSION FROM DENSITY LOG
 CORR.G/C3   45 356 01 00:   DENSITY CORRECTION
 RHOB.G/C3   45 350 01 00:   BULK DENSITY
 NPHI.DEC    42 890 03 00:   NEUTRON POROSITY SANDSTONE
~PARAMETER INFORMATION
#MNEM.UNIT          VALUE    DESCRIPTION
#----------   ------------   ------------------------------
 EKB .F         5233.0000:   Kelly bushing
 EGL .F         5222.0000:   Ground level
 EDF .F            0.0000:   Drilling floor
 TD  .F         4150.0000:   Total depth
 DATE.        30-SEP-1978:   Date logged
 CLNT.            A2DTECH:   Client Code
 SL  . 1450' FSL & 600' FEL:   Surface Location
 PD  .                 GL:   Permanent Datum
 LMF .                 KB:   Log Measured From
 DMF .                 KB:   Drilling Measured From
 DAPD.F                11:   Feet Above Permanent Datum
 DD  .F              4150:   Depth driller
 DL  .F              4141:   Depth logger
 BLI .F              4135:   Bottom log interval
 TLI .F               520:   Top log interval
 CS1 .IN            9.625:   Casing size
 CBD1.      9.625" @ 529':   Casing driller 1
 CBL1.F               529:   Casing logger 1
 BS1 .IN             8.75:   Bit size
 BSD1.F              4150:   Depth drilled with bit1
 DFT .                FGM:   Type fluid in hole
 DFD .                9.5:   Density
 DFV .                 36:   Viscosity
 DFPH.                 11:   pH
 DFL .                 60:   Fluid loss
 MSS .           MUD TANK:   Source of sample
 RMS .OHMM            .57:   Rm
 MST .F                68:   Rm Meas. temp.
 RMF .OHMM           .449:   Rmf
 MFST.F                68:   Rmf Meas. temp.
 MFSS.               MEAS:   Source Rmf.
 RMB .OHMM            .27:   Rm. at BHT
 BHT .F               142:   BHT.
 TCS .HRS            1500:   Time Circ. stopped
 TLAB.HRS            0700:   Time logger at bottom
 MRT .F               142:   Maximum recorded temp.
 LUN .               8043:   Logging unit number
 LUL .               CSPR:   Logging unit location
 ENGI.             LARSON:   Recorded By
 WITN.           DINSMORE:   Witnessed by
 ORIG.           5" PRINT:   Origin of data
 UWI .     49025107290000:   Unique Well ID
 DICO. A2D TECHNOLOGIES, INC.:   Digitizing Company
 EPD .               5222:   Elevation Permanent Datum
~OTHER INFORMATION
~A   DEPT      SPR       TENR        SFL        ILM        ILD       CALD         GRD      TEND       CORR       RHOB         NPHI 
# ...
 1703.5000   -38.0490   547.0210     7.1560     6.5780     6.7750    10.5820   111.9190   795.2850     0.0480     2.5490     0.3060
 1704.0000   -38.0470   546.3460     7.1680     6.5550     6.7860    10.5970   110.6670   795.9730     0.0310     2.5400     0.3010
 1704.5000   -38.0400   545.6700     7.1790     6.5320     6.7960    10.6090   110.8220   796.6600     0.0140     2.5350     0.3030
 1705.0000   -38.1970   544.9940     7.1900     6.5100     6.8060    10.6430   111.9190   797.3480     0.0100     2.5340     0.3080
 1705.5000   -38.6540   544.3190     7.2020     6.4870     6.8160    10.6900   112.9740   798.0360     0.0120     2.5340     0.3120
 1706.0000   -39.1140   543.6430     7.2130     6.4640     6.8260    10.7340   114.0050   798.7240     0.0150     2.5380     0.3120
 1706.5000   -39.1350   542.9670     7.2240     6.4420     6.8360    10.7770   115.0970   799.4120     0.0170     2.5460     0.3010
 1707.0000   -38.7410   542.2920     7.2350     6.4220     6.8460    10.8170   116.1430   800.0990     0.0180     2.5490     0.3060
 1707.5000   -38.3570   541.6160     7.2470     6.3980     6.8560    10.8180   117.9740   800.7870     0.0160     2.5410     0.3110
 1708.0000   -37.9800   540.9410     7.2580     6.5180     6.8660    10.8190   119.6700   801.4750     0.0180     2.5360     0.3140
 1708.5000   -37.6500   540.2650     7.2690     6.6340     6.8760    10.8190   122.0440   802.1630     0.0210     2.5340     0.3100
 1709.0000   -37.7380   539.5890     7.3600     6.7500     6.8860    10.8190   124.3030   802.8500     0.0290     2.5390     0.3080
 1709.5000   -37.9800   538.9140     7.5780     6.8670     6.9440    10.8190   126.2230   803.5380     0.0390     2.5530     0.3060
 1710.0000   -38.1920   538.2380     7.7950     6.9830     7.0010    10.8190   122.4270   804.2260     0.0500     2.5680     0.3040
 1710.5000   -38.4180   537.5620     8.0120     7.0140     7.0580    10.8150   118.8370   804.9140     0.0420     2.5720     0.3020
 1711.0000   -37.9970   536.7790     8.2300     7.0140     7.1150    10.7990   116.2940   805.6020     0.0320     2.5510     0.2970
 1711.5000   -37.5250   537.1930     8.4290     7.0140     7.1730    10.7830   115.4820   806.2890     0.0210     2.5320     0.2960
 1712.0000   -37.3130   537.6850     8.3030     6.9920     7.2300    10.7670   114.5260   806.9770     0.0060     2.5240     0.2960
 1712.5000   -37.6360   538.1780     8.1860     6.9250     7.2760    10.7510   113.5110   807.6650     0.0110     2.5290     0.2920
 1713.0000   -37.9250   538.6700     8.0690     6.8580     7.1990    10.7270   112.4990   808.3530     0.0140     2.5350     0.2870
 1713.5000   -38.1980   539.1620     7.9520     6.7910     7.1340    10.6820   112.1330   809.0400     0.0140     2.5400     0.2800
 1714.0000   -38.4310   539.6540     7.8350     6.7110     7.0690    10.6370   112.5220   809.7280     0.0120     2.5490     0.2830
 1714.5000   -38.2660   540.1470     7.7190     6.6190     7.0040    10.5910   112.8410   810.4160     0.0060     2.5410     0.2880
 1715.0000   -38.1180   540.6390     7.6020     6.5260     6.9400    10.5470   113.1520   811.1040     0.0040     2.5290     0.3000
 1715.5000   -38.0800   541.1310     7.4850     6.4340     6.8750    10.4980   113.4980   811.7920     0.0040     2.5230     0.3040
 1716.0000   -38.1740   541.6230     7.3680     6.3420     6.8100    10.5030   113.6630   812.4790     0.0090     2.5240     0.3010
 1716.5000   -38.2530   542.1160     7.2520     6.2500     6.7450    10.5160   114.1560   813.1670     0.0140     2.5330     0.2930
 1717.0000   -38.3290   542.6080     7.1350     6.1670     6.6370    10.5300   114.8210   813.8550     0.0140     2.5430     0.2940
 1717.5000   -38.4320   543.1000     7.0140     6.1790     6.6500    10.5440   116.3710   814.5430     0.0140     2.5450     0.2960
 1718.0000   -38.2760   543.5920     7.0500     6.1970     6.6860    10.5570   118.9080   815.2300     0.0200     2.5470     0.3030
 1718.5000   -37.9250   544.0840     7.0880     6.2150     6.7220    10.5710   121.5550   815.9180     0.0280     2.5490     0.3090
 1719.0000   -37.5910   544.5770     7.1270     6.2330     6.7600    10.5850   124.2190   816.6060     0.0340     2.5450     0.3080
 1719.5000   -37.2720   545.0690     7.2540     6.2510     6.7230    10.5980   126.9310   817.2940     0.0300     2.5360     0.3050
 1720.0000   -36.9410   545.5610     7.4540     6.2770     6.6820    10.6120   129.8730   817.9820     0.0260     2.5280     0.3020
 1720.5000   -36.5850   546.0530     7.6540     6.2100     6.6370    10.6250   130.5200   818.6690     0.0220     2.5310     0.3000
 1721.0000   -36.5800   546.5460     7.9770     5.9570     6.3570    10.6380   127.3080   819.3570     0.0200     2.5400     0.3000
 1721.5000   -36.8900   547.0380     7.9030     5.7040     6.0540    10.6520   123.6660   820.0450     0.0200     2.5510     0.3010
 1722.0000   -37.1780   547.5300     7.1090     5.4510     5.4610    10.6670   118.6260   820.7330     0.0200     2.5560     0.3010
 1722.5000   -37.4820   548.0220     5.9590     5.2260     4.8720    10.7030   114.1110   821.4200     0.0270     2.5430     0.3050
 1723.0000   -37.6380   548.5140     4.8100     5.0380     4.2830    10.7400   109.2060   822.1080     0.0340     2.4980     0.3200
 1723.5000   -37.5350   549.0070     3.6860     5.0010     3.8940    10.7810   104.0670   822.7960     0.0440     2.4190     0.3320
 1724.0000   -37.4600   549.4990     4.0880     4.9460     4.2240    10.9630    98.2820   823.4840     0.0560     2.2950     0.3870
 1724.5000   -37.3810   549.9910     4.9600     5.1760     4.6160    11.1670   100.1180   824.1720     0.0630     2.1380     0.4330
 1725.0000   -37.2830   550.4830     5.8310     5.5040     5.0080    11.3380   105.3950   824.8590     0.0530     2.1440     0.4250
 1725.5000   -37.3730   550.9760     6.7030     5.8310     5.4010    11.3490   110.7810   825.5470     0.0220     2.1600     0.4080
 1726.0000   -37.6750   551.4680     7.5740     6.1580     5.7930    11.2370   114.1140   826.2350    -0.0060     2.2740     0.3810
 1726.5000   -37.9790   551.9600     7.9770     6.4850     6.1850    10.8700   113.0790   826.9230     0.0020     2.4050     0.3150
 1727.0000   -37.7820   552.4520     7.9770     6.8130     6.5770    10.5160   112.2170   827.6110     0.0090     2.5160     0.3100
 1727.5000   -37.4060   552.9440     7.9770     7.1400     7.0140    10.4950   113.9560   828.2980     0.0160     2.5400     0.3050
 1728.0000   -37.3270   553.4370     7.9950     7.4940     7.6890    10.4710   115.8340   828.9860     0.0130     2.5480     0.3040
 1728.5000   -37.5410   553.9290     8.0300     7.3850     7.6890    10.4660   117.7760   829.6740     0.0110     2.5350     0.3040
 1729.0000   -37.7330   554.4210     8.0660     7.1670     7.4100    10.4560   119.1020   830.3620     0.0080     2.5250     0.3060
 1729.5000   -37.9380   554.9130     8.1010     6.9480     7.1280    10.4760   120.1160   831.0490     0.0120     2.5190     0.3080
 1730.0000   -37.9730   555.4060     8.1250     6.7300     6.8470    10.5070   122.2440   831.7370     0.0160     2.5190     0.2990
 1730.5000   -37.6890   555.8980     7.9630     6.5120     6.5160    10.5360   123.6180   832.4250     0.0200     2.5320     0.2920
 1731.0000   -37.4320   556.3900     7.1700     6.2930     6.2270    10.5620   118.8840   833.1130     0.0420     2.5500     0.2860
 1731.5000   -37.1740   556.8820     6.3770     6.0750     5.8770    10.6090   114.8370   833.8010     0.1140     2.5700     0.2940
 1732.0000   -36.8950   557.3750     5.4900     5.7290     5.5270    10.6680   110.6950   834.4880     0.1810     2.5750     0.3010
 1732.5000   -37.0290   557.8670     5.6050     5.7770     5.3230    10.7260   111.9970   835.1760     0.1510     2.5030     0.3380
 1733.0000   -37.4870   558.3590     5.8340     5.8900     5.4870    10.7880   113.2980   835.8640     0.1050     2.4210     0.3610
 1733.5000   -37.9390   558.8510     6.1810     6.0030     5.7350    10.8110   114.7410   836.5520     0.0540     2.4140     0.3730
