~VERSION INFORMATION
 VERS.                2.0:   CWLS LOG ASCII STANDARD - VERSION 2.0
 WRAP.                 NO:   ONE LINE PER DEPTH STEP
~WELL INFORMATION
#MNEM.UNIT      DATA TYPE    INFORMATION
#----------   ------------   ------------------------------
 STRT.F            6.0000:   START DEPTH
 STOP.F         3190.0000:   STOP DEPTH
 STEP.F            0.5000:   STEP LENGTH
 NULL.          -999.2500:   NO VALUE
 COMP. LAWRENCE ALLISON & ASSOCIATES:   COMPANY
 WELL. LAWRENCE N. P. R. 73AX #3-3:   WELL
 FLD .              N P R:   FIELD
 LOC .       S3 T38N R78W:   LOCATION
 CNTY.            NATRONA:   COUNTY
 STAT.            WYOMING:   STATE
 CTRY. UNITED STATES OF AMERICA:   COUNTRY
 SRVC.      DRESSER ATLAS:   SERVICE COMPANY
 DATE.        04-JUN-1986:   LOGDATE
 API .     49025110910000:   API NUMBER
~CURVE INFORMATION
#MNEM.UNIT       API CODE    CURVE DESCRIPTION
#----------   ------------   ------------------------------
 DEPT.F                  :   
 CALD.IN     45 280 60 00:   CALIPER FROM DENSITY LOG
 DEN .LBS    45 635 01 00:   BUCK DENSITY
 CORR.G/C3   45 356 01 00:   DENSITY CORRECTION
 TEND.LBS    45 635 01 00:   TENSION FROM DENSITY LOG
 SPR .MV     07 010 01 00:   SPONTANEOUS POTENTIAL
 GRR .GAPI   07 310 01 00:   GAMMA RAY FROM RESISTIVITY
 SFLU.OHMM   07 220 01 00:   SPHERICALLY FOCUSED LOG UNAVERAGED RESISTIVITY
 ILD .OHMM   07 120 46 00:   DEEP INDUCTION RESISTIVITY
 ILM .OHMM   07 120 44 00:   INDUCTION LOG MEDIUM RESISTIVITY
 TENR.LBS    07 635 01 00:   TENSION FROM RESISTIVITY
 CNC .DEC    42 890 01 00:   NEUTRON PORISITY LIMESTONE
~PARAMETER INFORMATION
#MNEM.UNIT          VALUE    DESCRIPTION
#----------   ------------   ------------------------------
 EKB .F         5173.0000:   Kelly bushing
 EGL .F         5161.0000:   Ground level
 TD  .F         3170.0000:   Total depth
 DATE.        04-JUN-1986:   Date logged
 CLNT.            A2DTECH:   Client Code
 PD  .                 GL:   Permanent Datum
 EPD .F              5161:   Elevation Permanent Datum
 LMF .                 KB:   Log Measured From
 DMF .                 KB:   Drilling Measured From
 DAPD.F                12:   Feet Above Permanent Datum
 DD  .F              3170:   Depth driller
 DL  .F              3168:   Depth logger
 BLI .F               8.9:   Bottom log interval
 TLI .F                38:   Top log interval
 CS1 .IN            8.625:   Casing size
 CBD1.      8.625" @ 603':   Casing driller 1
 CBL1.F               602:   Casing logger 1
 BS1 .IN            7.875:   Bit size
 BSD1.F              3170:   Depth drilled with bit1
 DFT .        KCL/POLYMER:   Type fluid in hole
 DFD .                8.9:   Density
 DFV .                 38:   Viscosity
 DFPH.                9.0:   pH
 DFL .               13.2:   Fluid loss
 MSS .           FLOWLINE:   Source of sample
 RMS .OHMM           .446:   Rm
 MST .F                64:   Rm Meas. temp.
 RMF .OHMM           .361:   Rmf
 MFST.F                64:   Rmf Meas. temp.
 RMC .OHMM            .56:   Rmc
 MCST.F                64:   Rmc Meas. temp.
 MFSS.               MEAS:   Source Rmf.
 MCSS.               CALC:   Source Rmc.
 RMB .OHMM           .242:   Rm. at BHT
 BHT .F               118:   BHT.
 TCS .HRS               3:   Time Circ. stopped
 MRT .F               118:   Maximum recorded temp.
 LUN .               6274:   Logging unit number
 LUL .           GILLETTE:   Logging unit location
 WITN.             STRONG:   Witnessed by
 ORIG.           5" PRINT:   Origin of data
 UWI .     49025110910000:   Unique Well ID
 DICO. A2D TECHNOLOGIES, INC.:   Digitizing Company
~OTHER INFORMATION
~A    DEPT    CALD        DEN       CORR       TEND        SPR         GRR      SFLU        ILD        ILM       TENR        CNC   
# ...
 1622.5000  -999.2500  -999.2500  -999.2500  -999.2500   -59.3933    90.8953     7.4142     7.3454     6.2729   -71.7344  -999.2500
 1623.0000  -999.2500  -999.2500  -999.2500  -999.2500   -59.1952    89.2765     7.2768     7.2773     6.2842   -81.6645  -999.2500
 1623.5000  -999.2500  -999.2500  -999.2500  -999.2500   -59.1958    87.1461     7.2089     7.0764     6.2955   -81.4866  -999.2500
 1624.0000  -999.2500  -999.2500  -999.2500  -999.2500   -58.8828    85.0157     7.2081     7.0103     6.3068   -81.3383  -999.2500
 1624.5000  -999.2500  -999.2500  -999.2500  -999.2500   -58.5699    83.6132     7.3422     6.9447     6.3181   -81.1900  -999.2500
 1625.0000  -999.2500  -999.2500  -999.2500  -999.2500   -58.2569    86.0444     7.3414     7.0093     6.3275   -81.0417  -999.2500
 1625.5000  -999.2500  -999.2500  -999.2500  -999.2500   -57.9968    88.8456     7.3406     7.0402     6.4453   -80.8934  -999.2500
 1626.0000  -999.2500  -999.2500  -999.2500  -999.2500   -57.9080    88.0356     7.3396     7.0712     6.5046   -80.7451  -999.2500
 1626.5000  -999.2500  -999.2500  -999.2500  -999.2500   -57.8013    86.4157     7.4072     7.1024     6.5037   -80.5968  -999.2500
 1627.0000  -999.2500  -999.2500  -999.2500  -999.2500   -57.8018    86.0071     7.6153     7.1337     6.5636   -70.3705  -999.2500
 1627.5000  -999.2500  -999.2500  -999.2500  -999.2500   -58.1295    86.8089     7.7570     7.1651     6.5629   -70.2223  -999.2500
 1628.0000  -999.2500  -999.2500  -999.2500  -999.2500   -58.4572    85.5934     7.7561     7.2015     6.5016   -80.1519  -999.2500
 1628.5000  -999.2500  -999.2500  -999.2500  -999.2500   -58.7849    85.1848     7.6133     7.1347     6.3226   -80.0036  -999.2500
 1629.0000  -999.2500  -999.2500  -999.2500  -999.2500   -59.2268    89.2144     7.4721     7.2007     6.3219   -79.8554  -999.2500
 1629.5000  -999.2500  -999.2500  -999.2500  -999.2500   -59.2283    92.8405     7.4023     7.2081     6.3212   -79.7071  -999.2500
 1630.0000  -999.2500  -999.2500  -999.2500  -999.2500   -58.9707    92.0285     7.3332     7.2156     6.3794   -79.5588  -999.2500
 1630.5000  -999.2500  -999.2500  -999.2500  -999.2500   -58.7131    90.4095     7.2647     7.2230     6.3787   -79.4105  -999.2500
 1631.0000  -999.2500  -999.2500  -999.2500  -999.2500   -58.4296    87.9825     7.2639     7.2305     6.3780   -79.2622  -999.2500
 1631.5000  -999.2500  -999.2500  -999.2500  -999.2500   -58.2295    88.3799     7.2631     7.2379     6.4367   -79.0843  -999.2500
 1632.0000  -999.2500  -999.2500  -999.2500  -999.2500   -58.3043    89.9908     7.3300     7.2454     6.4360   -78.9360  -999.2500
 1632.5000  -999.2500  -999.2500  -999.2500  -999.2500   -58.3791    90.7927     7.3975     7.2529     6.4953   -78.7878  -999.2500
 1633.0000  -999.2500  -999.2500  -999.2500  -999.2500   -58.4539    91.5946     7.3966     7.2606     6.4945   -68.5621  -999.2500
 1633.5000  -999.2500  -999.2500  -999.2500  -999.2500   -58.5287    91.5895     7.4647     7.2600     6.5543   -78.4912  -999.2500
 1634.0000  -999.2500  -999.2500  -999.2500  -999.2500   -58.6036    91.1809     7.4639     7.2485     6.4332   -48.1112  -999.2500
 1634.5000  -999.2500  -999.2500  -999.2500  -999.2500   -58.6784    88.7548     7.3258     7.2371     6.4923   -78.1947  -999.2500
 1635.0000  -999.2500  -999.2500  -999.2500  -999.2500   -58.7532    86.3286     7.3250     7.2257     6.4916   -78.0464  -999.2500
 1635.5000  -999.2500  -999.2500  -999.2500  -999.2500   -58.8574    82.2873     7.3242     7.2143     6.4909   -77.8981  -999.2500
 1636.0000  -999.2500  -999.2500  -999.2500  -999.2500   -58.8579    79.8609     7.4605     7.2029     6.3709   -67.6728  -999.2500
 1636.5000  -999.2500  -999.2500  -999.2500  -999.2500   -58.7271    81.8734     7.4597     7.1878     6.1955   -77.6016  -999.2500
 1637.0000  -999.2500  -999.2500  -999.2500  -999.2500   -58.5963    83.0788     7.5283     7.1873     6.2525   -77.4534  -999.2500
 1637.5000  -999.2500  -999.2500  -999.2500  -999.2500   -58.4655    85.4949     7.3892     7.1208     6.2518   -67.2282  -999.2500
 1638.0000  -999.2500  -999.2500  -999.2500  -999.2500   -58.3347    89.1216     7.2527     7.0549     6.1937   -77.1568  -999.2500
 1638.5000  -999.2500  -999.2500  -999.2500  -999.2500   -58.4683    92.7484     7.1849     6.9896     6.1781   -56.7661  -999.2500
 1639.0000  -999.2500  -999.2500  -999.2500  -999.2500   -58.5032    89.5150     7.1179     6.9249     6.1626   -56.6772  -999.2500
 1639.5000  -999.2500  -999.2500  -999.2500  -999.2500   -58.5382    87.0886     7.1171     6.8608     6.1470   -56.6179  -999.2500
 1640.0000  -999.2500  -999.2500  -999.2500  -999.2500   -58.5731    87.8905     7.1163     6.7938     6.1336   -61.8408  -999.2500
 1640.5000  -999.2500  -999.2500  -999.2500  -999.2500   -58.6080    86.6748     7.2487     6.7935     6.1335   -67.0636  -999.2500
 1641.0000  -999.2500  -999.2500  -999.2500  -999.2500   -58.6429    86.6707     7.1810     6.8382     6.1451   -72.2864  -999.2500
 1641.5000  -999.2500  -999.2500  -999.2500  -999.2500   -58.6866    85.0502     7.1140     6.8831     6.1567   -76.0301  -999.2500
 1642.0000  -999.2500  -999.2500  -999.2500  -999.2500   -58.6886    87.4665     7.1132     6.9284     6.1683   -75.9708  -999.2500
 1642.5000  -999.2500  -999.2500  -999.2500  -999.2500   -58.6892    93.9176     7.1123     6.9739     6.1800   -75.8113  -999.2500
 1643.0000  -999.2500  -999.2500  -999.2500  -999.2500   -58.7456    94.7197     7.2446     7.0198     6.1867   -75.6517  -999.2500
 1643.5000  -999.2500  -999.2500  -999.2500  -999.2500   -58.8020    87.8537     7.2438     7.0660     6.3471   -75.4922  -999.2500
 1644.0000  -999.2500  -999.2500  -999.2500  -999.2500   -58.8585    83.0056     7.3104     7.1124     6.5116   -75.2593  -999.2500
 1644.5000  -999.2500  -999.2500  -999.2500  -999.2500   -58.7016    82.1932     7.3096     7.1750     6.6804   -75.2000  -999.2500
 1645.0000  -999.2500  -999.2500  -999.2500  -999.2500   -58.6786    81.7844     7.3769     7.1749     6.8478   -75.0518  -999.2500
 1645.5000  -999.2500  -999.2500  -999.2500  -999.2500   -58.6557    82.5865     7.4448     7.3200     6.7839   -84.9796  -999.2500
 1646.0000  -999.2500  -999.2500  -999.2500  -999.2500   -58.6327    81.3705     7.5833     7.4681     6.6585   -84.8313  -999.2500
 1646.5000  -999.2500  -999.2500  -999.2500  -999.2500   -58.6097    82.5762     7.6531     7.5820     6.5964   -84.6830  -999.2500
 1647.0000  -999.2500  -999.2500  -999.2500  -999.2500   -58.5868    83.7818     7.7235     7.5816     6.4745   -84.5051  -999.2500
 1647.5000  -999.2500  -999.2500  -999.2500  -999.2500   -58.5638    86.1974     7.7227     7.4415     6.4141   -84.3568  -999.2500
 1648.0000  -999.2500  -999.2500  -999.2500  -999.2500   -58.5409    89.3408     7.5100     7.4112     6.2955   -84.2086  -999.2500
 1648.5000  -999.2500  -999.2500  -999.2500  -999.2500   -58.5204    92.2425     7.3713     7.2598     6.2949   -84.0603  -999.2500
 1649.0000  -999.2500  -999.2500  -999.2500  -999.2500   -58.5210    94.2556     7.3024     7.1114     5.9536   -73.8363  -999.2500
 1649.5000  -999.2500  -999.2500  -999.2500  -999.2500   -58.5239    94.2506     7.1675     6.9662     5.9530   -83.7637  -999.2500
 1650.0000  -999.2500  -999.2500  -999.2500  -999.2500   -58.5269    91.4201     7.0351     6.8238     5.8430   -83.6155  -999.2500
 1650.5000  -999.2500  -999.2500  -999.2500  -999.2500   -58.5299    92.6259     6.9050     6.6844     5.7350   -73.3916  -999.2500
 1651.0000  -999.2500  -999.2500  -999.2500  -999.2500   -58.5329    94.2344     6.8405     6.5479     5.7343   -83.3189  -999.2500
 1651.5000  -999.2500  -999.2500  -999.2500  -999.2500   -58.5359    95.0346     6.7143     6.4697     5.6808   -73.1248  -999.2500
 1652.0000  -999.2500  -999.2500  -999.2500  -999.2500   -58.5395    95.4353     6.6514     6.4694     5.7331   -83.0520  -999.2500
 1652.5000  -999.2500  -999.2500  -999.2500  -999.2500   -58.5416    95.0266     6.6507     6.4682     5.7858   -82.9038  -999.2500
